{"nom":"Aiglun","nomNormalise":"aiglun","typeCollectivite":"Commune","region":"Provence-Alpes-Côte d'Azur","departement":"Alpes-de-Haute-Provence","departementCode":"04","adresse":{"street":"Avenue des Docteurs-Paul-et-Marguerite-Jouve","postalCode":"04510","city":"Aiglun","country":"France"},"contacts":{"email":"mairie@commune-aiglun04.fr","telephone":"0492346237"},"horaires":"Le Lundi : de 13h30 à 17h15\nLe Mardi : de 09h00 à 12h30 de 13h30 à 17h15\nLe Mercredi : de 14h00 à 17h15\nLe Jeudi : de 09h00 à 12h30 de 13h30 à 17h15\nLe Vendredi : de 13h30 à 17h15","latitude":44.0507,"longitude":6.14497,"website":"https://commune-aiglun04.fr/","hasWebsite":true,"hasHoraires":true,"url":"https://lannuaire.service-public.gouv.fr/provence-alpes-cote-d-azur/alpes-de-haute-provence/f3e7c488-27a3-4d45-a6b3-818a2d4344ca"}
{"nom":"Allemagne-en-Provence","nomNormalise":"allemagneenprovence","typeCollectivite":"Commune","region":"Provence-Alpes-Côte d'Azur","departement":"Alpes-de-Haute-Provence","departementCode":"04","adresse":{"street":"26 place de Verdun","postalCode":"04500","city":"Allemagne-en-Provence","country":"France"},"contacts":{"email":"mairie@allemagne04.com","telephone":"0492774310"},"horaires":"Du Lundi au Vendredi : de 08h30 à 12h00","latitude":43.7811,"longitude":6.00784,"website":"https://allemagne-en-provence.dlva.fr/","hasWebsite":true,"hasHoraires":true,"url":"https://lannuaire.service-public.gouv.fr/provence-alpes-cote-d-azur/alpes-de-haute-provence/76009742-3de8-4ccd-a8ac-49bae7ac830c"}
{"nom":"Allons","nomNormalise":"allons","typeCollectivite":"Commune","region":"Provence-Alpes-Côte d'Azur","departement":"Alpes-de-Haute-Provence","departementCode":"04","adresse":{"street":"61 rue Amiral-de-Richery","postalCode":"04170","city":"Allons","country":"France"},"contacts":{"email":"contact@mairieallons.fr","telephone":"0492891073"},"horaires":"Le Mercredi : de 09h30 à 11h30\n\nLe 2eme et 4eme mercredi de chaque mois.\nLe Jeudi : de 08h00 à 12h00","latitude":43.976963,"longitude":6.594536,"website":"https://www.allons-alpes-haute-provence.fr/","hasWebsite":true,"hasHoraires":true,"url":"https://lannuaire.service-public.gouv.fr/provence-alpes-cote-d-azur/alpes-de-haute-provence/983dba4a-240f-418e-a9a7-9c8578485ed2"}
{"nom":"Allos","nomNormalise":"allos","typeCollectivite":"Commune","region":"Provence-Alpes-Côte d'Azur","departement":"Alpes-de-Haute-Provence","departementCode":"04","adresse":{"street":"20 route du Moulin","postalCode":"04260","city":"Allos","country":"France"},"contacts":{"email":"accueil@mairie-allos.fr","telephone":"0492831800"},"horaires":"Du Lundi au Vendredi : de 08h30 à 12h00 de 14h00 à 16h00","latitude":44.240826,"longitude":6.629093,"website":"https://www.mairie-allos.fr/","hasWebsite":true,"hasHoraires":true,"url":"https://lannuaire.service-public.gouv.fr/provence-alpes-cote-d-azur/alpes-de-haute-provence/480146a7-6e16-4645-a530-524d2bb997d1"}
{"nom":"Angles","nomNormalise":"angles","typeCollectivite":"Commune","region":"Provence-Alpes-Côte d'Azur","departement":"Alpes-de-Haute-Provence","departementCode":"04","adresse":{"street":"Le Village","postalCode":"04170","city":"Angles","country":"France"},"contacts":{"email":"mairie.angles0275@orange.fr","telephone":"0492890854"},"horaires":"Le Mercredi : de 09h00 à 12h00\nLe Jeudi : de 14h00 à 17h00\nLe Vendredi : de 09h00 à 12h00","latitude":43.942028,"longitude":6.558376,"website":"","hasWebsite":false,"hasHoraires":true,"url":"https://lannuaire.service-public.gouv.fr/provence-alpes-cote-d-azur/alpes-de-haute-provence/b2de7146-4f89-4294-8dfd-cc36dbed9d57"}
{"nom":"Annot","nomNormalise":"annot","typeCollectivite":"Commune","region":"Provence-Alpes-Côte d'Azur","departement":"Alpes-de-Haute-Provence","departementCode":"04","adresse":{"street":"Grand place du Marché","postalCode":"04240","city":"Annot","country":"France"},"contacts":{"email":"info@annot.com","telephone":"0492832209"},"horaires":"Du Lundi au Vendredi : de 09h00 à 12h00","latitude":43.9671,"longitude":6.66619,"website":"https://www.annot.com/","hasWebsite":true,"hasHoraires":true,"url":"https://lannuaire.service-public.gouv.fr/provence-alpes-cote-d-azur/alpes-de-haute-provence/9ceb0de1-64ed-45dc-abd2-ca09b5eb1fce"}
{"nom":"Archail","nomNormalise":"archail","typeCollectivite":"Commune","region":"Provence-Alpes-Côte d'Azur","departement":"Alpes-de-Haute-Provence","departementCode":"04","adresse":{"street":"12 place de la mairie","postalCode":"04420","city":"Archail","country":"France"},"contacts":{"email":"commune-d-archail@orange.fr","telephone":"0492354146"},"horaires":"","latitude":44.121098,"longitude":6.33447,"website":"","hasWebsite":false,"hasHoraires":false,"url":"https://lannuaire.service-public.gouv.fr/provence-alpes-cote-d-azur/alpes-de-haute-provence/8f0b96c4-4c8e-41b4-b702-22f31d97f420"}
{"nom":"Aubenas-les-Alpes","nomNormalise":"aubenaslesalpes","typeCollectivite":"Commune","region":"Provence-Alpes-Côte d'Azur","departement":"Alpes-de-Haute-Provence","departementCode":"04","adresse":{"street":"Place des Marronniers","postalCode":"04110","city":"Aubenas-les-Alpes","country":"France"},"contacts":{"email":"secretariat@aubenas-les-alpes.fr","telephone":"0492766164"},"horaires":"Le Mardi : de 09h00 à 12h00 de 13h30 à 17h30\nLe Jeudi : de 09h00 à 12h00 de 13h30 à 17h30","latitude":43.930786,"longitude":5.681216,"website":"https://aubenas-les-alpes.fr/","hasWebsite":true,"hasHoraires":true,"url":"https://lannuaire.service-public.gouv.fr/provence-alpes-cote-d-azur/alpes-de-haute-provence/509714a8-dc19-41aa-bbd1-a0e38284c1c4"}
{"nom":"Aubignosc","nomNormalise":"aubignosc","typeCollectivite":"Commune","region":"Provence-Alpes-Côte d'Azur","departement":"Alpes-de-Haute-Provence","departementCode":"04","adresse":{"street":"Place de Flore","postalCode":"04200","city":"Aubignosc","country":"France"},"contacts":{"email":"accueil-aubignosc@mairie-aubignosc.fr","telephone":"0492624194"},"horaires":"Le Lundi : de 08h30 à 12h00\nLe Mardi : de 14h00 à 18h00\nLe Mercredi : de 08h30 à 12h00\nLe Jeudi : de 14h00 à 18h00\nLe Vendredi : de 08h30 à 12h00","latitude":44.12892,"longitude":5.96999,"website":"https://www.aubignosc04.fr/","hasWebsite":true,"hasHoraires":true,"url":"https://lannuaire.service-public.gouv.fr/provence-alpes-cote-d-azur/alpes-de-haute-provence/2916aa36-ad36-47e0-a80c-772bc33d3d94"}
{"nom":"Authon","nomNormalise":"authon","typeCollectivite":"Commune","region":"Provence-Alpes-Côte d'Azur","departement":"Alpes-de-Haute-Provence","departementCode":"04","adresse":{"street":"Le Village","postalCode":"04200","city":"Authon","country":"France"},"contacts":{"email":"mairie-authon@orange.fr","telephone":"0492614247"},"horaires":"Le Mardi : de 08h30 à 17h00\nLe Jeudi : de 08h30 à 17h00","latitude":44.238247,"longitude":6.127026,"website":"","hasWebsite":false,"hasHoraires":true,"url":"https://lannuaire.service-public.gouv.fr/provence-alpes-cote-d-azur/alpes-de-haute-provence/93099524-a07a-4f5c-825b-2a24ef944ba3"}
{"nom":"Auzet","nomNormalise":"auzet","typeCollectivite":"Commune","region":"Provence-Alpes-Côte d'Azur","departement":"Alpes-de-Haute-Provence","departementCode":"04","adresse":{"street":"Le Village","postalCode":"04140","city":"Auzet","country":"France"},"contacts":{"email":"contact@auzet.fr","telephone":"0492352039"},"horaires":"Le Mardi : de 08h00 à 12h30 de 13h30 à 17h00\nLe Jeudi : de 08h00 à 12h30 de 13h30 à 17h00","latitude":44.29583,"longitude":6.317802,"website":"https://auzet.fr/","hasWebsite":true,"hasHoraires":true,"url":"https://lannuaire.service-public.gouv.fr/provence-alpes-cote-d-azur/alpes-de-haute-provence/f08fa906-ebf2-47a4-a8f6-1f7266882886"}
{"nom":"Banon","nomNormalise":"banon","typeCollectivite":"Commune","region":"Provence-Alpes-Côte d'Azur","departement":"Alpes-de-Haute-Provence","departementCode":"04","adresse":{"street":"18 place Charles-Vial","postalCode":"04150","city":"Banon","country":"France"},"contacts":{"email":"mairiebanon-ahp@orange.fr","telephone":"0492732008"},"horaires":"Le Lundi : de 09h00 à 12h00\nLe Mardi : de 09h00 à 12h00 de 14h00 à 17h00\nDu Mercredi au Jeudi : de 09h00 à 12h00\nLe Vendredi : de 09h00 à 12h00 de 14h00 à 17h00","latitude":44.03801,"longitude":5.629569,"website":"https://banon.fr/","hasWebsite":true,"hasHoraires":true,"url":"https://lannuaire.service-public.gouv.fr/provence-alpes-cote-d-azur/alpes-de-haute-provence/41e24ef8-ba77-4ab0-ba6c-93399196432c"}
{"nom":"Barcelonnette","nomNormalise":"barcelonnette","typeCollectivite":"Commune","region":"Provence-Alpes-Côte d'Azur","departement":"Alpes-de-Haute-Provence","departementCode":"04","adresse":{"street":"Place Valle-de-Bravo","postalCode":"04400","city":"Barcelonnette","country":"France"},"contacts":{"email":"mairie@ville-barcelonnette.fr","telephone":"0492807900"},"horaires":"Du Lundi au Vendredi : de 08h00 à 11h30 de 13h30 à 16h00","latitude":44.38634,"longitude":6.650612,"website":"https://www.ville-barcelonnette.fr/","hasWebsite":true,"hasHoraires":true,"url":"https://lannuaire.service-public.gouv.fr/provence-alpes-cote-d-azur/alpes-de-haute-provence/36d3a5af-3ae0-480b-96fb-2ea272f55126"}
{"nom":"Barles","nomNormalise":"barles","typeCollectivite":"Commune","region":"Provence-Alpes-Côte d'Azur","departement":"Alpes-de-Haute-Provence","departementCode":"04","adresse":{"street":"Le Village","postalCode":"04140","city":"Barles","country":"France"},"contacts":{"email":"mairie.barles@orange.fr","telephone":"0492351009"},"horaires":"Du Lundi au Vendredi : de 08h00 à 12h00","latitude":44.263462,"longitude":6.268188,"website":"https://mairiedebarles.fr/","hasWebsite":true,"hasHoraires":true,"url":"https://lannuaire.service-public.gouv.fr/provence-alpes-cote-d-azur/alpes-de-haute-provence/9d4fd0bc-fb30-46cb-a49b-8de591bb8c20"}
{"nom":"Barras","nomNormalise":"barras","typeCollectivite":"Commune","region":"Provence-Alpes-Côte d'Azur","departement":"Alpes-de-Haute-Provence","departementCode":"04","adresse":{"street":"Le Village","postalCode":"04380","city":"Barras","country":"France"},"contacts":{"email":"mairie.barras@nordnet.fr","telephone":"0492347347"},"horaires":"Le Lundi : de 09h00 à 15h00\nLe Mercredi : de 09h00 à 15h00\nLe Jeudi : de 09h00 à 13h00\n\nTéléphoner avant de se déplacer.","latitude":44.10506,"longitude":6.113667,"website":"","hasWebsite":false,"hasHoraires":true,"url":"https://lannuaire.service-public.gouv.fr/provence-alpes-cote-d-azur/alpes-de-haute-provence/f9d112a0-b534-42a5-8c00-e64095c8edf7"}
{"nom":"Barrême","nomNormalise":"barreme","typeCollectivite":"Commune","region":"Provence-Alpes-Côte d'Azur","departement":"Alpes-de-Haute-Provence","departementCode":"04","adresse":{"street":"1 place du Capitaine-Pierre-Rose","postalCode":"04330","city":"Barrême","country":"France"},"contacts":{"email":"mairie@barreme.fr","telephone":"0492342004"},"horaires":"Du Lundi au Mardi : de 08h00 à 12h00 de 14h00 à 17h00\nLe Mercredi : de 08h00 à 12h00\nDu Jeudi au Vendredi : de 08h00 à 12h00 de 14h00 à 17h00","latitude":43.953262,"longitude":6.368184,"website":"https://www.barreme.fr/","hasWebsite":true,"hasHoraires":true,"url":"https://lannuaire.service-public.gouv.fr/provence-alpes-cote-d-azur/alpes-de-haute-provence/43fc2ad1-dba5-4d0f-adee-a9a8fa80ab5c"}
{"nom":"Bayons","nomNormalise":"bayons","typeCollectivite":"Commune","region":"Provence-Alpes-Côte d'Azur","departement":"Alpes-de-Haute-Provence","departementCode":"04","adresse":{"street":"1 rue de la Mairie","postalCode":"04250","city":"Bayons","country":"France"},"contacts":{"email":"communedebayons@9business.fr","telephone":"0492683103"},"horaires":"Du Lundi au Mardi : de 09h00 à 12h00\nDu Jeudi au Vendredi : de 09h00 à 12h00","latitude":44.33769,"longitude":6.1623,"website":"","hasWebsite":false,"hasHoraires":true,"url":"https://lannuaire.service-public.gouv.fr/provence-alpes-cote-d-azur/alpes-de-haute-provence/e0601dca-6924-4e65-8bc8-2d0e0fb2518a"}
{"nom":"Beaujeu","nomNormalise":"beaujeu","typeCollectivite":"Commune","region":"Provence-Alpes-Côte d'Azur","departement":"Alpes-de-Haute-Provence","departementCode":"04","adresse":{"street":"Le Village","postalCode":"04420","city":"Beaujeu","country":"France"},"contacts":{"email":"mairiedebeaujeu@yahoo.fr","telephone":"0492349174"},"horaires":"Le Lundi : de 08h00 à 12h00 de 13h30 à 17h30\nLe Mardi : de 08h00 à 12h00\nLe Vendredi : de 08h00 à 12h00 de 13h30 à 17h30","latitude":44.203335,"longitude":6.37145,"website":"https://beaujeu04.fr/","hasWebsite":true,"hasHoraires":true,"url":"https://lannuaire.service-public.gouv.fr/provence-alpes-cote-d-azur/alpes-de-haute-provence/01fbe8f5-f977-4647-887f-27e7f3d89e45"}
{"nom":"Beauvezer","nomNormalise":"beauvezer","typeCollectivite":"Commune","region":"Provence-Alpes-Côte d'Azur","departement":"Alpes-de-Haute-Provence","departementCode":"04","adresse":{"street":"Place de la Mairie","postalCode":"04370","city":"Beauvezer","country":"France"},"contacts":{"email":"mairie@beauvezer.fr","telephone":"0492834061"},"horaires":"Le Lundi : de 13h30 à 17h00\nLe Mercredi : de 08h30 à 12h00\nLe Jeudi : de 13h30 à 17h00","latitude":44.14325,"longitude":6.591834,"website":"https://www.beauvezer.fr/","hasWebsite":true,"hasHoraires":true,"url":"https://lannuaire.service-public.gouv.fr/provence-alpes-cote-d-azur/alpes-de-haute-provence/b36ad8d1-d3da-4685-8e0b-9f720c6f5d6c"}
{"nom":"Bellaffaire","nomNormalise":"bellaffaire","typeCollectivite":"Commune","region":"Provence-Alpes-Côte d'Azur","departement":"Alpes-de-Haute-Provence","departementCode":"04","adresse":{"street":"Le Village","postalCode":"04250","city":"Bellaffaire","country":"France"},"contacts":{"email":"mairie.bellaffaire@wanadoo.fr","telephone":"0964303076"},"horaires":"Le Lundi : de 08h30 à 16h30\nLe Mercredi : de 08h30 à 16h30\nLe Vendredi : de 08h30 à 13h00","latitude":44.419167,"longitude":6.175888,"website":"http://www.bellaffaire.fr/","hasWebsite":true,"hasHoraires":true,"url":"https://lannuaire.service-public.gouv.fr/provence-alpes-cote-d-azur/alpes-de-haute-provence/1c2c6490-dc0d-414a-921a-b5a0cd51b08f"}
{"nom":"Bevons","nomNormalise":"bevons","typeCollectivite":"Commune","region":"Provence-Alpes-Côte d'Azur","departement":"Alpes-de-Haute-Provence","departementCode":"04","adresse":{"street":"72 chemin du Castel","postalCode":"04200","city":"Bevons","country":"France"},"contacts":{"email":"mairie.bevons@wanadoo.fr","telephone":"0492628016"},"horaires":"Le Mardi : de 14h00 à 17h00\nLe Jeudi : de 14h00 à 17h00","latitude":44.17222,"longitude":5.890568,"website":"","hasWebsite":false,"hasHoraires":true,"url":"https://lannuaire.service-public.gouv.fr/provence-alpes-cote-d-azur/alpes-de-haute-provence/32433221-9d01-4cd5-ab5a-3d6e202484c9"}
{"nom":"Beynes","nomNormalise":"beynes","typeCollectivite":"Commune","region":"Provence-Alpes-Côte d'Azur","departement":"Alpes-de-Haute-Provence","departementCode":"04","adresse":{"street":"Château de Fruchier","postalCode":"04270","city":"Beynes","country":"France"},"contacts":{"email":"mairie.beynes@wanadoo.fr","telephone":"0492355736"},"horaires":"Le Mardi : de 09h00 à 12h00 de 14h00 à 17h00","latitude":43.993465,"longitude":6.201941,"website":"","hasWebsite":false,"hasHoraires":true,"url":"https://lannuaire.service-public.gouv.fr/provence-alpes-cote-d-azur/alpes-de-haute-provence/9d794613-9ebb-40e1-9904-e2266d69a91d"}
{"nom":"Blieux","nomNormalise":"blieux","typeCollectivite":"Commune","region":"Provence-Alpes-Côte d'Azur","departement":"Alpes-de-Haute-Provence","departementCode":"04","adresse":{"street":"26 route de Blieux","postalCode":"04330","city":"Blieux","country":"France"},"contacts":{"email":"mairie@blieux.fr","telephone":"0492342764"},"horaires":"Le Vendredi : de 09h00 à 12h00 de 13h00 à 17h00","latitude":43.872612,"longitude":6.370982,"website":"","hasWebsite":false,"hasHoraires":true,"url":"https://lannuaire.service-public.gouv.fr/provence-alpes-cote-d-azur/alpes-de-haute-provence/468dae61-a9dd-4eea-be2e-dece3b2fd9aa"}
{"nom":"Bras-d'Asse","nomNormalise":"brasdasse","typeCollectivite":"Commune","region":"Provence-Alpes-Côte d'Azur","departement":"Alpes-de-Haute-Provence","departementCode":"04","adresse":{"street":"21 route du Pont-de-l'Asse","postalCode":"04270","city":"Bras-d'Asse","country":"France"},"contacts":{"email":"administre.brasdasse@orange.fr","telephone":"0492344024"},"horaires":"Du Lundi au Mardi : de 09h00 à 12h00\nDu Jeudi au Vendredi : de 09h00 à 12h00","latitude":43.92441,"longitude":6.1272974,"website":"http://www.mairie-brasdasse-labegude.fr/","hasWebsite":true,"hasHoraires":true,"url":"https://lannuaire.service-public.gouv.fr/provence-alpes-cote-d-azur/alpes-de-haute-provence/5c9d367b-5722-453e-bed0-7346d488d636"}
{"nom":"Braux","nomNormalise":"braux","typeCollectivite":"Commune","region":"Provence-Alpes-Côte d'Azur","departement":"Alpes-de-Haute-Provence","departementCode":"04","adresse":{"street":"22 rue de la Mairie","postalCode":"04240","city":"Braux","country":"France"},"contacts":{"email":"mairiebraux@gmail.com","telephone":"0492832169"},"horaires":"Le Lundi : de 09h00 à 12h00\nLe Jeudi : de 09h00 à 12h00\nLe Vendredi : de 09h00 à 12h00 de 14h00 à 16h00","latitude":43.98717,"longitude":6.69944,"website":"https://braux04240.wixsite.com/braux","hasWebsite":true,"hasHoraires":true,"url":"https://lannuaire.service-public.gouv.fr/provence-alpes-cote-d-azur/alpes-de-haute-provence/596aafe1-21d7-4177-a4d4-990ab387f3f2"}
{"nom":"Brunet","nomNormalise":"brunet","typeCollectivite":"Commune","region":"Provence-Alpes-Côte d'Azur","departement":"Alpes-de-Haute-Provence","departementCode":"04","adresse":{"street":"644 route des Lavandes","postalCode":"04210","city":"Brunet","country":"France"},"contacts":{"email":"mairie@brunet04.fr","telephone":"0492748813"},"horaires":"Le Lundi : de 13h30 à 17h00\nLe Jeudi : de 13h30 à 17h00","latitude":43.892605,"longitude":6.029997,"website":"","hasWebsite":false,"hasHoraires":true,"url":"https://lannuaire.service-public.gouv.fr/provence-alpes-cote-d-azur/alpes-de-haute-provence/59808bf9-bb39-4ce7-afc9-5a534960ad13"}
{"nom":"Castellane","nomNormalise":"castellane","typeCollectivite":"Commune","region":"Provence-Alpes-Côte d'Azur","departement":"Alpes-de-Haute-Provence","departementCode":"04","adresse":{"street":"Place Marcel-Sauvaire","postalCode":"04120","city":"Castellane","country":"France"},"contacts":{"email":"accueil@mairie-castellane.fr","telephone":"0492836007"},"horaires":"Du Lundi au Vendredi : de 09h00 à 12h00 de 14h30 à 17h00","latitude":43.84613,"longitude":6.513411,"website":"http://www.mairie-castellane.fr/","hasWebsite":true,"hasHoraires":true,"url":"https://lannuaire.service-public.gouv.fr/provence-alpes-cote-d-azur/alpes-de-haute-provence/5fd1abaf-06e7-4705-99c2-e70d26787463"}
{"nom":"Castellet-lès-Sausses","nomNormalise":"castelletlessausses","typeCollectivite":"Commune","region":"Provence-Alpes-Côte d'Azur","departement":"Alpes-de-Haute-Provence","departementCode":"04","adresse":{"street":"149 avenue de l'Hôtel-de-Ville","postalCode":"04320","city":"Castellet-lès-Sausses","country":"France"},"contacts":{"email":"mairie@castelletlessausses.fr","telephone":"0493054287"},"horaires":"Le Mardi : de 08h30 à 16h00\nDu Jeudi au Vendredi : de 08h30 à 16h00","latitude":43.99459,"longitude":6.762843,"website":"","hasWebsite":false,"hasHoraires":true,"url":"https://lannuaire.service-public.gouv.fr/provence-alpes-cote-d-azur/alpes-de-haute-provence/ea7e76cd-9b4b-41ee-9390-a578b7c15b8e"}
{"nom":"Céreste-en-Luberon","nomNormalise":"ceresteenluberon","typeCollectivite":"Commune","region":"Provence-Alpes-Côte d'Azur","departement":"Alpes-de-Haute-Provence","departementCode":"04","adresse":{"street":"85 cours Aristide-Briand","postalCode":"04280","city":"Céreste","country":"France"},"contacts":{"email":"mairie@cereste.fr","telephone":"0492790015"},"horaires":"Du Lundi au Mardi : de 09h00 à 12h00 de 13h30 à 16h30\nLe Jeudi : de 09h00 à 12h00\nLe Vendredi : de 09h15 à 12h00","latitude":43.85658,"longitude":5.589162,"website":"https://www.cereste.fr/","hasWebsite":true,"hasHoraires":true,"url":"https://lannuaire.service-public.gouv.fr/provence-alpes-cote-d-azur/alpes-de-haute-provence/a383053e-8ad4-4cc4-9912-65dfd75363a0"}
{"nom":"Champtercier","nomNormalise":"champtercier","typeCollectivite":"Commune","region":"Provence-Alpes-Côte d'Azur","departement":"Alpes-de-Haute-Provence","departementCode":"04","adresse":{"street":"115 rue Principale","postalCode":"04660","city":"Champtercier","country":"France"},"contacts":{"email":"mairie@champtercier.fr","telephone":"0492311037"},"horaires":"Du Lundi au Vendredi : de 08h00 à 12h00 de 13h30 à 16h00","latitude":44.09252,"longitude":6.1420946,"website":"http://www.champtercier.fr/","hasWebsite":true,"hasHoraires":true,"url":"https://lannuaire.service-public.gouv.fr/provence-alpes-cote-d-azur/alpes-de-haute-provence/ae0fe16b-6f00-46a2-aaba-f143704873e6"}
{"nom":"Château-Arnoux-Saint-Auban","nomNormalise":"chateauarnouxsaintauban","typeCollectivite":"Commune","region":"Provence-Alpes-Côte d'Azur","departement":"Alpes-de-Haute-Provence","departementCode":"04","adresse":{"street":"1 rue Victorin-Maurel","postalCode":"04160","city":"Château-Arnoux-Saint-Auban","country":"France"},"contacts":{"email":"e.martelet@mairie-casa04.fr","telephone":"0492332000"},"horaires":"Du Lundi au Vendredi : de 08h30 à 12h00 de 13h30 à 17h00","latitude":44.093197,"longitude":6.008921,"website":"https://www.chateau-arnoux-saint-auban.fr/","hasWebsite":true,"hasHoraires":true,"url":"https://lannuaire.service-public.gouv.fr/provence-alpes-cote-d-azur/alpes-de-haute-provence/822ac7e1-2469-416b-a6ea-4e70ada3fcbf"}
{"nom":"Châteaufort","nomNormalise":"chateaufort","typeCollectivite":"Commune","region":"Provence-Alpes-Côte d'Azur","departement":"Alpes-de-Haute-Provence","departementCode":"04","adresse":{"street":"1 rue de la Mairie","postalCode":"04250","city":"Châteaufort","country":"France"},"contacts":{"email":"chateaufort.mairie04@free.fr","telephone":"0492344147"},"horaires":"Le Vendredi : de 08h30 à 17h00","latitude":44.274593,"longitude":6.017734,"website":"","hasWebsite":false,"hasHoraires":true,"url":"https://lannuaire.service-public.gouv.fr/provence-alpes-cote-d-azur/alpes-de-haute-provence/5d1bda08-f0ce-4a1d-bda0-7b3f4dbb5e0a"}
{"nom":"Châteauneuf-Miravail","nomNormalise":"chateauneufmiravail","typeCollectivite":"Commune","region":"Provence-Alpes-Côte d'Azur","departement":"Alpes-de-Haute-Provence","departementCode":"04","adresse":{"street":"Les Curniers","postalCode":"04200","city":"Châteauneuf-Miravail","country":"France"},"contacts":{"email":"mairie-ch-miravail@wanadoo.fr","telephone":"0492620044"},"horaires":"Le Vendredi : de 14h00 à 17h00","latitude":44.159332,"longitude":5.716574,"website":"","hasWebsite":false,"hasHoraires":true,"url":"https://lannuaire.service-public.gouv.fr/provence-alpes-cote-d-azur/alpes-de-haute-provence/9a660aff-1148-427d-8a5a-f36ea6415d51"}
{"nom":"Châteauneuf-Val-Saint-Donat","nomNormalise":"chateauneufvalsaintdonat","typeCollectivite":"Commune","region":"Provence-Alpes-Côte d'Azur","departement":"Alpes-de-Haute-Provence","departementCode":"04","adresse":{"street":"2 place de la Mairie","postalCode":"04200","city":"Châteauneuf-Val-Saint-Donat","country":"France"},"contacts":{"email":"mairie.chateauneufvsd@orange.fr","telephone":"0492624219"},"horaires":"Le Lundi : de 13h30 à 17h00\nLe Mardi : de 08h30 à 12h00\nLe Jeudi : de 13h30 à 17h00\nLe Vendredi : de 08h30 à 12h00 de 13h30 à 17h00","latitude":44.093975,"longitude":5.949934,"website":"https://www.chateauneuf-v-s-d-04.fr/","hasWebsite":true,"hasHoraires":true,"url":"https://lannuaire.service-public.gouv.fr/provence-alpes-cote-d-azur/alpes-de-haute-provence/92abc8af-4a0b-4ba2-8f6a-6549f0bbccb9"}
{"nom":"Châteauredon","nomNormalise":"chateauredon","typeCollectivite":"Commune","region":"Provence-Alpes-Côte d'Azur","departement":"Alpes-de-Haute-Provence","departementCode":"04","adresse":{"street":"Le Village","postalCode":"04270","city":"Châteauredon","country":"France"},"contacts":{"email":"chateauredon.mairie@wanadoo.fr","telephone":"0492355306"},"horaires":"Le Vendredi : de 14h00 à 17h00","latitude":44.014717,"longitude":6.213591,"website":"","hasWebsite":false,"hasHoraires":true,"url":"https://lannuaire.service-public.gouv.fr/provence-alpes-cote-d-azur/alpes-de-haute-provence/4f1e28ee-379a-4620-9687-f063c4c28c1c"}
{"nom":"Chaudon-Norante","nomNormalise":"chaudonnorante","typeCollectivite":"Commune","region":"Provence-Alpes-Côte d'Azur","departement":"Alpes-de-Haute-Provence","departementCode":"04","adresse":{"street":"3 place de la Mairie","postalCode":"04330","city":"Chaudon-Norante","country":"France"},"contacts":{"email":"mairie-chaudon-norante@orange.fr","telephone":"0492342475"},"horaires":"Le Lundi : de 08h30 à 12h00 de 14h00 à 16h00\nDu Mardi au Vendredi : de 08h30 à 12h00","latitude":43.9798,"longitude":6.312256,"website":"","hasWebsite":false,"hasHoraires":true,"url":"https://lannuaire.service-public.gouv.fr/provence-alpes-cote-d-azur/alpes-de-haute-provence/47878bf4-d145-4da1-8713-c1402d359afd"}
{"nom":"Clamensane","nomNormalise":"clamensane","typeCollectivite":"Commune","region":"Provence-Alpes-Côte d'Azur","departement":"Alpes-de-Haute-Provence","departementCode":"04","adresse":{"street":"Place de la Mairie","postalCode":"04250","city":"Clamensane","country":"France"},"contacts":{"email":"clamensane-mairie@orange.fr","telephone":"0492683093"},"horaires":"Le Lundi : de 08h30 à 12h30 de 13h00 à 16h00\nDu Mardi au Mercredi : de 08h30 à 12h30\nLe Jeudi : de 08h30 à 12h30 de 13h00 à 16h00","latitude":44.321697,"longitude":6.0689116,"website":"https://clamensane.webnode.fr/","hasWebsite":true,"hasHoraires":true,"url":"https://lannuaire.service-public.gouv.fr/provence-alpes-cote-d-azur/alpes-de-haute-provence/c60e810b-0b5d-47d2-972a-e52864263323"}
{"nom":"Claret","nomNormalise":"claret","typeCollectivite":"Commune","region":"Provence-Alpes-Côte d'Azur","departement":"Alpes-de-Haute-Provence","departementCode":"04","adresse":{"street":"1 placette de la Mairie","postalCode":"05110","city":"Claret","country":"France"},"contacts":{"email":"mairie@claret04.fr","telephone":"0492683240"},"horaires":"Le Lundi : de 14h00 à 19h00\nLe Mardi : de 09h00 à 12h00\nDu Mercredi au Jeudi : de 14h00 à 18h00\nLe Vendredi : de 09h00 à 12h00","latitude":44.371635,"longitude":5.95667,"website":"","hasWebsite":false,"hasHoraires":true,"url":"https://lannuaire.service-public.gouv.fr/provence-alpes-cote-d-azur/alpes-de-haute-provence/1fbdb536-457c-448d-9d7e-029fd3f99eca"}
{"nom":"Clumanc","nomNormalise":"clumanc","typeCollectivite":"Commune","region":"Provence-Alpes-Côte d'Azur","departement":"Alpes-de-Haute-Provence","departementCode":"04","adresse":{"street":"École La Cine","postalCode":"04330","city":"Clumanc","country":"France"},"contacts":{"email":"mairiedeclumanc@orange.fr","telephone":"0492342216"},"horaires":"Du Lundi au Mardi : de 09h00 à 12h00 de 13h30 à 16h30\nDu Jeudi au Vendredi : de 09h00 à 12h00 de 13h30 à 16h30","latitude":44.02366,"longitude":6.383358,"website":"","hasWebsite":false,"hasHoraires":true,"url":"https://lannuaire.service-public.gouv.fr/provence-alpes-cote-d-azur/alpes-de-haute-provence/65b59081-e283-47a9-b5b8-677a0e9c877d"}
{"nom":"Colmars-les-Alpes","nomNormalise":"colmarslesalpes","typeCollectivite":"Commune","region":"Provence-Alpes-Côte d'Azur","departement":"Alpes-de-Haute-Provence","departementCode":"04","adresse":{"street":"Place Joseph-Girieud","postalCode":"04370","city":"Colmars-les-Alpes","country":"France"},"contacts":{"email":"mairie@colmars.fr","telephone":"0492834321"},"horaires":"Du Lundi au Mardi : de 09h00 à 12h00\nDu Mercredi au Jeudi : de 09h00 à 12h00","latitude":44.18201,"longitude":6.627112,"website":"","hasWebsite":false,"hasHoraires":true,"url":"https://lannuaire.service-public.gouv.fr/provence-alpes-cote-d-azur/alpes-de-haute-provence/4d6bf1cb-1921-4518-86dc-4b69228c7620"}
{"nom":"Corbières","nomNormalise":"corbieres","typeCollectivite":"Commune","region":"Provence-Alpes-Côte d'Azur","departement":"Alpes-de-Haute-Provence","departementCode":"04","adresse":{"street":"1 place Haute","postalCode":"04220","city":"Corbières-en-Provence","country":"France"},"contacts":{"email":"secretariat@mairie-corbieres.fr","telephone":"0492782212"},"horaires":"Le Lundi : de 09h00 à 12h00 de 14h00 à 17h00\nLe Mardi : de 09h00 à 12h00\nDu Mercredi au Jeudi : de 09h00 à 12h00 de 14h00 à 17h00\nLe Vendredi : de 09h00 à 12h00 de 14h00 à 16h00","latitude":43.761463,"longitude":5.749494,"website":"http://www.mairie-corbieres.fr/","hasWebsite":true,"hasHoraires":true,"url":"https://lannuaire.service-public.gouv.fr/provence-alpes-cote-d-azur/alpes-de-haute-provence/a56f3525-92c0-4e04-a33e-acdd9de6b2b5"}
{"nom":"Cruis","nomNormalise":"cruis","typeCollectivite":"Commune","region":"Provence-Alpes-Côte d'Azur","departement":"Alpes-de-Haute-Provence","departementCode":"04","adresse":{"street":"1 place de la Mairie","postalCode":"04230","city":"Cruis","country":"France"},"contacts":{"email":"mairie.cruis@wanadoo.fr","telephone":"0492770431"},"horaires":"Du Lundi au Vendredi : de 08h30 à 12h00","latitude":44.062607,"longitude":5.835519,"website":"https://www.cruis.fr/","hasWebsite":true,"hasHoraires":true,"url":"https://lannuaire.service-public.gouv.fr/provence-alpes-cote-d-azur/alpes-de-haute-provence/44aeba4d-4152-4aba-8c9f-1ddc31038b8a"}
{"nom":"Curbans","nomNormalise":"curbans","typeCollectivite":"Commune","region":"Provence-Alpes-Côte d'Azur","departement":"Alpes-de-Haute-Provence","departementCode":"04","adresse":{"street":"Complexe communal","postalCode":"05110","city":"Curbans","country":"France"},"contacts":{"email":"mairiedecurbans@wanadoo.fr","telephone":"0492542187"},"horaires":"Du Lundi au Mardi : de 07h00 à 12h00\nDu Jeudi au Vendredi : de 07h00 à 12h00","latitude":44.42857,"longitude":6.038298,"website":"http://www.curbans.fr/","hasWebsite":true,"hasHoraires":true,"url":"https://lannuaire.service-public.gouv.fr/provence-alpes-cote-d-azur/alpes-de-haute-provence/5fdb974c-8d7e-48e7-bba9-722338d299bd"}
{"nom":"Curel","nomNormalise":"curel","typeCollectivite":"Commune","region":"Provence-Alpes-Côte d'Azur","departement":"Alpes-de-Haute-Provence","departementCode":"04","adresse":{"street":"Le Village","postalCode":"04200","city":"Curel","country":"France"},"contacts":{"email":"mairie.curel@orange.fr","telephone":"0492620940"},"horaires":"Le Lundi : de 09h00 à 12h00\nLe Vendredi : de 14h00 à 16h00","latitude":44.17747,"longitude":5.662799,"website":"","hasWebsite":false,"hasHoraires":true,"url":"https://lannuaire.service-public.gouv.fr/provence-alpes-cote-d-azur/alpes-de-haute-provence/4e99e06a-09a7-4d0d-92b2-551e69460014"}
{"nom":"Dauphin","nomNormalise":"dauphin","typeCollectivite":"Commune","region":"Provence-Alpes-Côte d'Azur","departement":"Alpes-de-Haute-Provence","departementCode":"04","adresse":{"street":"2 terrasse du Château","postalCode":"04300","city":"Dauphin","country":"France"},"contacts":{"email":"mairie.dauphin@mairiededauphin.fr","telephone":"0492795818"},"horaires":"Le Lundi : de 08h00 à 12h00 de 13h00 à 17h00\nLe Mardi : de 08h00 à 12h00\nLe Mercredi : de 09h00 à 12h00\nLe Jeudi : de 08h00 à 12h00 de 13h00 à 17h00\nLe Vendredi : de 08h00 à 12h00","latitude":43.898804,"longitude":5.784112,"website":"https://www.dauphin-commune.fr/","hasWebsite":true,"hasHoraires":true,"url":"https://lannuaire.service-public.gouv.fr/provence-alpes-cote-d-azur/alpes-de-haute-provence/7f3a126f-5369-4df3-8e0e-cc4be3381dd3"}
{"nom":"Demandolx","nomNormalise":"demandolx","typeCollectivite":"Commune","region":"Provence-Alpes-Côte d'Azur","departement":"Alpes-de-Haute-Provence","departementCode":"04","adresse":{"street":"244 avenue du Teillon","postalCode":"04120","city":"Demandolx","country":"France"},"contacts":{"email":"mairie.demandolx@gmail.com","telephone":"0492836312"},"horaires":"Du Lundi au Jeudi : de 08h30 à 12h30 de 13h00 à 17h00","latitude":43.86948,"longitude":6.579249,"website":"http://www.demandolx.fr/","hasWebsite":true,"hasHoraires":true,"url":"https://lannuaire.service-public.gouv.fr/provence-alpes-cote-d-azur/alpes-de-haute-provence/fd7ab9ca-fa86-4678-afe9-ff2bdd43f26b"}
{"nom":"Digne-les-Bains","nomNormalise":"dignelesbains","typeCollectivite":"Commune","region":"Provence-Alpes-Côte d'Azur","departement":"Alpes-de-Haute-Provence","departementCode":"04","adresse":{"street":"1 boulevard Martin-Bret","postalCode":"04990","city":"Digne-les-Bains","country":"France"},"contacts":{"email":"cabinet.mairie@dignelesbains.fr","telephone":"0492305200"},"horaires":"Du Lundi au Jeudi : de 08h45 à 11h45 de 13h30 à 17h30\nLe Vendredi : de 08h45 à 11h45 de 13h30 à 16h30","latitude":44.093376,"longitude":6.235227,"website":"https://www.dignelesbains.fr/","hasWebsite":true,"hasHoraires":true,"url":"https://lannuaire.service-public.gouv.fr/provence-alpes-cote-d-azur/alpes-de-haute-provence/6d54240c-03a3-4e36-b38a-5f7226ce2b7c"}
{"nom":"Draix","nomNormalise":"draix","typeCollectivite":"Commune","region":"Provence-Alpes-Côte d'Azur","departement":"Alpes-de-Haute-Provence","departementCode":"04","adresse":{"street":"Le Village","postalCode":"04420","city":"Draix","country":"France"},"contacts":{"email":"contact@draix.fr","telephone":"0492354085"},"horaires":"Du Mercredi au Jeudi : de 10h30 à 12h00 de 12h30 à 17h00","latitude":44.134624,"longitude":6.342519,"website":"","hasWebsite":false,"hasHoraires":true,"url":"https://lannuaire.service-public.gouv.fr/provence-alpes-cote-d-azur/alpes-de-haute-provence/66c7e8b1-6532-455c-835d-5a950dd4a3a9"}
{"nom":"Enchastrayes","nomNormalise":"enchastrayes","typeCollectivite":"Commune","region":"Provence-Alpes-Côte d'Azur","departement":"Alpes-de-Haute-Provence","departementCode":"04","adresse":{"street":"797 route d'Enchastrayes","postalCode":"04400","city":"Enchastrayes","country":"France"},"contacts":{"email":"mairie.enchastrayes@orange.fr","telephone":"0492810548"},"horaires":"Du Lundi au Vendredi : de 08h30 à 12h00 de 13h30 à 17h00","latitude":44.36954,"longitude":6.69109,"website":"https://www.enchastrayes.fr/","hasWebsite":true,"hasHoraires":true,"url":"https://lannuaire.service-public.gouv.fr/provence-alpes-cote-d-azur/alpes-de-haute-provence/f023c75b-b24a-46d4-91e8-afd66ef53273"}
{"nom":"Entrages","nomNormalise":"entrages","typeCollectivite":"Commune","region":"Provence-Alpes-Côte d'Azur","departement":"Alpes-de-Haute-Provence","departementCode":"04","adresse":{"street":"Le Village","postalCode":"04000","city":"Entrages","country":"France"},"contacts":{"email":"mairie.entrages@orange.fr","telephone":"0492314904"},"horaires":"Le Lundi : de 08h30 à 17h00","latitude":44.0456,"longitude":6.26588,"website":"","hasWebsite":false,"hasHoraires":true,"url":"https://lannuaire.service-public.gouv.fr/provence-alpes-cote-d-azur/alpes-de-haute-provence/3c7b98ee-e42d-4c28-a00c-fd38470c0662"}
{"nom":"Entrepierres","nomNormalise":"entrepierres","typeCollectivite":"Commune","region":"Provence-Alpes-Côte d'Azur","departement":"Alpes-de-Haute-Provence","departementCode":"04","adresse":{"street":"1 place de la Mairie","postalCode":"04200","city":"Entrepierres","country":"France"},"contacts":{"email":"mairie@entrepierres.fr","telephone":"0492614171"},"horaires":"Le Mardi : de 08h30 à 12h00 de 14h00 à 17h00\nLe Vendredi : de 14h00 à 17h00","latitude":44.197277,"longitude":5.991089,"website":"https://www.entrepierres.fr/","hasWebsite":true,"hasHoraires":true,"url":"https://lannuaire.service-public.gouv.fr/provence-alpes-cote-d-azur/alpes-de-haute-provence/53f6315c-2c8a-4593-8508-b1e39dabcbc9"}
{"nom":"Entrevaux","nomNormalise":"entrevaux","typeCollectivite":"Commune","region":"Provence-Alpes-Côte d'Azur","departement":"Alpes-de-Haute-Provence","departementCode":"04","adresse":{"street":"2 place Charles-Panier","postalCode":"04320","city":"Entrevaux","country":"France"},"contacts":{"email":"administration@mairie-entrevaux.fr","telephone":"0493053410"},"horaires":"Le Lundi : de 09h00 à 12h00\nLe Mardi : de 09h00 à 12h00 de 14h00 à 16h00\nDu Mercredi au Vendredi : de 09h00 à 12h00","latitude":43.949978,"longitude":6.8101683,"website":"https://mairie-entrevaux.fr/","hasWebsite":true,"hasHoraires":true,"url":"https://lannuaire.service-public.gouv.fr/provence-alpes-cote-d-azur/alpes-de-haute-provence/98f01131-0e24-4ca8-8505-519ceb499a35"}
{"nom":"Entrevennes","nomNormalise":"entrevennes","typeCollectivite":"Commune","region":"Provence-Alpes-Côte d'Azur","departement":"Alpes-de-Haute-Provence","departementCode":"04","adresse":{"street":"1 Place de la Mairie","postalCode":"04700","city":"Entrevennes","country":"France"},"contacts":{"email":"mairie@entrevennes.net","telephone":"0492786553"},"horaires":"Le Mardi : de 08h00 à 12h00 de 12h30 à 16h30\nDu Jeudi au Vendredi : de 08h00 à 12h00","latitude":43.93787,"longitude":6.024414,"website":"https://www.mairieentrevennes.fr/","hasWebsite":true,"hasHoraires":true,"url":"https://lannuaire.service-public.gouv.fr/provence-alpes-cote-d-azur/alpes-de-haute-provence/4c58ab83-97bc-4689-b5c0-37351024809d"}
{"nom":"Esparron-de-Verdon","nomNormalise":"esparrondeverdon","typeCollectivite":"Commune","region":"Provence-Alpes-Côte d'Azur","departement":"Alpes-de-Haute-Provence","departementCode":"04","adresse":{"street":"8 place de la Mairie","postalCode":"04800","city":"Esparron-de-Verdon","country":"France"},"contacts":{"email":"mairie@esparrondeverdon.fr","telephone":"0492771223"},"horaires":"Le Lundi : de 09h00 à 12h00\nLe Mardi : de 14h00 à 17h00\nLe Mercredi : de 09h00 à 12h00\nLe Jeudi : de 14h00 à 17h00\nLe Vendredi : de 09h00 à 12h00","latitude":43.73891,"longitude":5.97391,"website":"https://www.esparrondeverdon.fr/","hasWebsite":true,"hasHoraires":true,"url":"https://lannuaire.service-public.gouv.fr/provence-alpes-cote-d-azur/alpes-de-haute-provence/da4cc598-c380-4901-814b-d33311edff16"}
{"nom":"Estoublon","nomNormalise":"estoublon","typeCollectivite":"Commune","region":"Provence-Alpes-Côte d'Azur","departement":"Alpes-de-Haute-Provence","departementCode":"04","adresse":{"street":"25 rue Louis-Laurens","postalCode":"04270","city":"Estoublon","country":"France"},"contacts":{"email":"mairie.estoublon@orange.fr","telephone":"0492344087"},"horaires":"Du Lundi au Vendredi : de 08h30 à 11h30","latitude":43.94283,"longitude":6.171259,"website":"https://www.estoublon.fr/","hasWebsite":true,"hasHoraires":true,"url":"https://lannuaire.service-public.gouv.fr/provence-alpes-cote-d-azur/alpes-de-haute-provence/abb52781-f819-4699-9ce2-e0872a49e77a"}
{"nom":"Faucon-de-Barcelonnette","nomNormalise":"faucondebarcelonnette","typeCollectivite":"Commune","region":"Provence-Alpes-Côte d'Azur","departement":"Alpes-de-Haute-Provence","departementCode":"04","adresse":{"street":"La Maison-Rose","postalCode":"04400","city":"Faucon-de-Barcelonnette","country":"France"},"contacts":{"email":"mairie@faucondebarcelonnette.fr","telephone":"0492811424"},"horaires":"Le Lundi : de 08h30 à 12h00\nLe Mardi : de 13h30 à 18h00\nLe Jeudi : de 08h30 à 12h00\nLe Vendredi : de 13h30 à 18h00","latitude":44.393837,"longitude":6.679128,"website":"https://www.faucondebarcelonnette.fr/","hasWebsite":true,"hasHoraires":true,"url":"https://lannuaire.service-public.gouv.fr/provence-alpes-cote-d-azur/alpes-de-haute-provence/7a315480-067b-4bfd-9c89-34947ee8c19c"}
{"nom":"Faucon-du-Caire","nomNormalise":"fauconducaire","typeCollectivite":"Commune","region":"Provence-Alpes-Côte d'Azur","departement":"Alpes-de-Haute-Provence","departementCode":"04","adresse":{"street":"Place de la Mairie","postalCode":"04250","city":"Faucon-du-Caire","country":"France"},"contacts":{"email":"mairie.fauconducaire@wanadoo.fr","telephone":"0492684022"},"horaires":"Le Mercredi : de 14h00 à 17h00","latitude":44.39886,"longitude":6.090688,"website":"https://www.faucon-du-caire.com/","hasWebsite":true,"hasHoraires":true,"url":"https://lannuaire.service-public.gouv.fr/provence-alpes-cote-d-azur/alpes-de-haute-provence/8ef0d54a-c962-40d7-8c73-64282f32e758"}
{"nom":"Fontienne","nomNormalise":"fontienne","typeCollectivite":"Commune","region":"Provence-Alpes-Côte d'Azur","departement":"Alpes-de-Haute-Provence","departementCode":"04","adresse":{"street":"29 chemin de Fayet","postalCode":"04230","city":"Fontienne","country":"France"},"contacts":{"email":"mairie-fontienne@orange.fr","telephone":"0492730010"},"horaires":"Le Lundi : de 08h00 à 12h00 de 13h00 à 17h00\nLe Mercredi : de 08h00 à 12h00 de 13h00 à 17h00\nLe Jeudi : de 14h00 à 17h00","latitude":44.009716,"longitude":5.793377,"website":"","hasWebsite":false,"hasHoraires":true,"url":"https://lannuaire.service-public.gouv.fr/provence-alpes-cote-d-azur/alpes-de-haute-provence/ace27e88-3a7d-4af9-9dc0-c37dfc9765d0"}
{"nom":"Forcalquier","nomNormalise":"forcalquier","typeCollectivite":"Commune","region":"Provence-Alpes-Côte d'Azur","departement":"Alpes-de-Haute-Provence","departementCode":"04","adresse":{"street":"Place du Bourguet","postalCode":"04300","city":"Forcalquier","country":"France"},"contacts":{"email":"etat-civil@ville-forcalquier.fr","telephone":"0492709100"},"horaires":"Du Lundi au Jeudi : de 08h00 à 12h00 de 14h00 à 18h00\nLe Vendredi : de 08h00 à 12h00 de 14h00 à 17h00\n\nPendant la crise sanitaire accueil ouvert du lundi au vendredi de 8h à 12h et de 14h à 17h.","latitude":43.9595,"longitude":5.780809,"website":"https://www.ville-forcalquier.fr/","hasWebsite":true,"hasHoraires":true,"url":"https://lannuaire.service-public.gouv.fr/provence-alpes-cote-d-azur/alpes-de-haute-provence/94fa7b89-027c-471e-8198-30efe7e8d173"}
{"nom":"Ganagobie","nomNormalise":"ganagobie","typeCollectivite":"Commune","region":"Provence-Alpes-Côte d'Azur","departement":"Alpes-de-Haute-Provence","departementCode":"04","adresse":{"street":"1 place de la Mairie","postalCode":"04310","city":"Ganagobie","country":"France"},"contacts":{"email":"secretariat@mairie-ganagobie.fr","telephone":"0492680321"},"horaires":"Du Lundi au Jeudi : de 08h00 à 12h00 de 13h00 à 17h00\nLe Vendredi : de 09h00 à 12h00","latitude":44.009453,"longitude":5.916807,"website":"","hasWebsite":false,"hasHoraires":true,"url":"https://lannuaire.service-public.gouv.fr/provence-alpes-cote-d-azur/alpes-de-haute-provence/d9e4fc6b-0a07-4b4a-b918-f41922bcaee1"}
{"nom":"Gigors","nomNormalise":"gigors","typeCollectivite":"Commune","region":"Provence-Alpes-Côte d'Azur","departement":"Alpes-de-Haute-Provence","departementCode":"04","adresse":{"street":"Le village","postalCode":"04250","city":"Gigors","country":"France"},"contacts":{"email":"mairie.gigors@free.fr","telephone":"0952345764"},"horaires":"Le Samedi : de 16h00 à 20h00\nOu sur rendez-vous.","latitude":44.418972,"longitude":6.159695,"website":"","hasWebsite":false,"hasHoraires":true,"url":"https://lannuaire.service-public.gouv.fr/provence-alpes-cote-d-azur/alpes-de-haute-provence/eda6f9ee-c427-4d85-a052-4e114fd23808"}
{"nom":"Gréoux-les-Bains","nomNormalise":"greouxlesbains","typeCollectivite":"Commune","region":"Provence-Alpes-Côte d'Azur","departement":"Alpes-de-Haute-Provence","departementCode":"04","adresse":{"street":"Place de l'Hôtel-de-Ville","postalCode":"04800","city":"Gréoux-les-Bains","country":"France"},"contacts":{"email":"accueil@mairie-greouxlesbains.fr","telephone":"0492780025"},"horaires":"Du Lundi au Jeudi : de 08h30 à 12h30 de 13h30 à 17h00\nLe Vendredi : de 08h30 à 12h30 de 13h30 à 16h30","latitude":43.75833,"longitude":5.884393,"website":"http://www.mairie-greouxlesbains.fr/","hasWebsite":true,"hasHoraires":true,"url":"https://lannuaire.service-public.gouv.fr/provence-alpes-cote-d-azur/alpes-de-haute-provence/aa1430a8-e15b-4e36-8d75-75c6dedd9ac6"}
{"nom":"Hautes-Duyes","nomNormalise":"hautesduyes","typeCollectivite":"Commune","region":"Provence-Alpes-Côte d'Azur","departement":"Alpes-de-Haute-Provence","departementCode":"04","adresse":{"street":"45 Chemin des Tourniaires","postalCode":"04380","city":"Hautes-Duyes","country":"France"},"contacts":{"email":"mairie@hautes-duyes.fr","telephone":"0960133673"},"horaires":"Le Lundi : de 09h00 à 12h30 de 13h00 à 16h30\nLe Jeudi : de 09h00 à 12h30 de 13h00 à 16h30","latitude":44.18026,"longitude":6.157723,"website":"","hasWebsite":false,"hasHoraires":true,"url":"https://lannuaire.service-public.gouv.fr/provence-alpes-cote-d-azur/alpes-de-haute-provence/8ee838e8-393d-4b08-97f3-ff1472eb3dfa"}
{"nom":"Jausiers","nomNormalise":"jausiers","typeCollectivite":"Commune","region":"Provence-Alpes-Côte d'Azur","departement":"Alpes-de-Haute-Provence","departementCode":"04","adresse":{"street":"14 avenue des Mexicains","postalCode":"04850","city":"Jausiers","country":"France"},"contacts":{"email":"contact@jausiers.fr","telephone":"0492810616"},"horaires":"Le Lundi : de 08h00 à 12h00 de 13h30 à 16h30\nLe Mardi : de 08h00 à 12h00\nLe Mercredi : de 08h00 à 12h00 de 13h30 à 16h30\nLe Jeudi : de 08h00 à 12h00\nLe Vendredi : de 08h00 à 12h00 de 13h30 à 16h30","latitude":44.419575,"longitude":6.733329,"website":"https://www.ville-jausiers.fr/","hasWebsite":true,"hasHoraires":true,"url":"https://lannuaire.service-public.gouv.fr/provence-alpes-cote-d-azur/alpes-de-haute-provence/e516a4bf-e13a-418e-b598-85e84c69c14e"}
{"nom":"L'Escale","nomNormalise":"lescale","typeCollectivite":"Commune","region":"Provence-Alpes-Côte d'Azur","departement":"Alpes-de-Haute-Provence","departementCode":"04","adresse":{"street":"Rue François-Arnaud","postalCode":"04160","city":"L'Escale","country":"France"},"contacts":{"email":"mairie@lescale.fr","telephone":"0465350030"},"horaires":"Le Lundi : de 08h30 à 12h00 de 13h30 à 18h00\nLe Mardi : de 08h30 à 12h00 de 13h30 à 17h00\nLe Mercredi : de 13h30 à 17h00\nLe Jeudi : de 08h30 à 12h00 de 13h30 à 17h00\nLe Vendredi : de 08h30 à 12h00 de 13h30 à 16h00","latitude":44.0848,"longitude":6.0243,"website":"https://www.lescale.fr/","hasWebsite":true,"hasHoraires":true,"url":"https://lannuaire.service-public.gouv.fr/provence-alpes-cote-d-azur/alpes-de-haute-provence/2f755ddf-5f81-469a-b37a-748912f5facb"}
{"nom":"L'Hospitalet","nomNormalise":"lhospitalet","typeCollectivite":"Commune","region":"Provence-Alpes-Côte d'Azur","departement":"Alpes-de-Haute-Provence","departementCode":"04","adresse":{"street":"1 le Perron","postalCode":"04150","city":"L'Hospitalet","country":"France"},"contacts":{"email":"lhospitalet-cne@wanadoo.fr","telephone":"0492733066"},"horaires":"Du Lundi au Mardi : de 14h00 à 17h00\nDu Jeudi au Vendredi : de 14h00 à 17h00","latitude":44.087326,"longitude":5.699234,"website":"","hasWebsite":false,"hasHoraires":true,"url":"https://lannuaire.service-public.gouv.fr/provence-alpes-cote-d-azur/alpes-de-haute-provence/886f9133-2d61-4ba7-940b-a5093614e381"}
{"nom":"La Brillanne","nomNormalise":"labrillanne","typeCollectivite":"Commune","region":"Provence-Alpes-Côte d'Azur","departement":"Alpes-de-Haute-Provence","departementCode":"04","adresse":{"street":"Place Sainte-Agathe","postalCode":"04700","city":"La Brillanne","country":"France"},"contacts":{"email":"mairie@labrillanne.fr","telephone":"0492786318"},"horaires":"Le Lundi : de 08h30 à 12h30 de 13h30 à 17h00\nDu Mardi au Jeudi : de 08h30 à 12h30\nLe Vendredi : de 08h30 à 12h30 de 13h30 à 17h00","latitude":43.928104,"longitude":5.891269,"website":"https://la-brillanne.dlva.fr/","hasWebsite":true,"hasHoraires":true,"url":"https://lannuaire.service-public.gouv.fr/provence-alpes-cote-d-azur/alpes-de-haute-provence/d645bf56-bf4f-472e-8f38-f37691e38d94"}
{"nom":"La Condamine-Châtelard","nomNormalise":"lacondaminechatelard","typeCollectivite":"Commune","region":"Provence-Alpes-Côte d'Azur","departement":"Alpes-de-Haute-Provence","departementCode":"04","adresse":{"street":"1 place du Bicentenaire","postalCode":"04530","city":"La Condamine-Châtelard","country":"France"},"contacts":{"email":"lacondamine394@orange.fr","telephone":"0492843042"},"horaires":"Du Lundi au Vendredi : de 09h00 à 12h00","latitude":44.458206,"longitude":6.745126,"website":"","hasWebsite":false,"hasHoraires":true,"url":"https://lannuaire.service-public.gouv.fr/provence-alpes-cote-d-azur/alpes-de-haute-provence/36edd96c-edce-4d61-ab6a-8d95f7bf7e99"}
{"nom":"La Garde","nomNormalise":"lagarde","typeCollectivite":"Commune","region":"Provence-Alpes-Côte d'Azur","departement":"Alpes-de-Haute-Provence","departementCode":"04","adresse":{"street":"11 rue de Destourbes","postalCode":"04120","city":"La Garde","country":"France"},"contacts":{"email":"mairie@lagarde04.fr","telephone":"0492836847"},"horaires":"Du Lundi au Mardi : de 09h00 à 16h30\nDu Jeudi au Vendredi : de 09h00 à 16h30","latitude":43.830032,"longitude":6.557457,"website":"https://www.intramuros.org/la-garde04","hasWebsite":true,"hasHoraires":true,"url":"https://lannuaire.service-public.gouv.fr/provence-alpes-cote-d-azur/alpes-de-haute-provence/e004a60a-6062-46b5-879a-a9a5bc13a857"}
{"nom":"La Javie","nomNormalise":"lajavie","typeCollectivite":"Commune","region":"Provence-Alpes-Côte d'Azur","departement":"Alpes-de-Haute-Provence","departementCode":"04","adresse":{"street":"1 place de la Mairie","postalCode":"04420","city":"La Javie","country":"France"},"contacts":{"email":"mairie@lajavie.fr","telephone":"0492349176"},"horaires":"Le Lundi : de 08h00 à 12h00 de 13h30 à 16h30\nDu Mardi au Vendredi : de 08h00 à 12h00","latitude":44.175304,"longitude":6.349489,"website":"https://lajavie.fr/","hasWebsite":true,"hasHoraires":true,"url":"https://lannuaire.service-public.gouv.fr/provence-alpes-cote-d-azur/alpes-de-haute-provence/098b7de6-ad83-40f3-9a12-8167ab2533ad"}
{"nom":"Lambruisse","nomNormalise":"lambruisse","typeCollectivite":"Commune","region":"Provence-Alpes-Côte d'Azur","departement":"Alpes-de-Haute-Provence","departementCode":"04","adresse":{"street":"3 rue du Cimetière","postalCode":"04170","city":"Lambruisse","country":"France"},"contacts":{"email":"mairie.lambruisse@orange.fr","telephone":"0492891000"},"horaires":"Le Mardi : de 08h30 à 15h30","latitude":44.047794,"longitude":6.443669,"website":"https://lambruisse.fr/","hasWebsite":true,"hasHoraires":true,"url":"https://lannuaire.service-public.gouv.fr/provence-alpes-cote-d-azur/alpes-de-haute-provence/8d13c32c-d9b9-4661-936b-0055afeb9a31"}
{"nom":"La Motte-du-Caire","nomNormalise":"lamotteducaire","typeCollectivite":"Commune","region":"Provence-Alpes-Côte d'Azur","departement":"Alpes-de-Haute-Provence","departementCode":"04","adresse":{"street":"Place Pied-de-Ville","postalCode":"04250","city":"La Motte-du-Caire","country":"France"},"contacts":{"email":"lamotteducaire@wanadoo.fr","telephone":"0492683281"},"horaires":"Du Lundi au Mardi : de 09h00 à 12h00 de 14h00 à 16h00\nLe Mercredi : de 09h00 à 12h00\nLe Jeudi : de 09h00 à 12h00 de 14h00 à 16h00\nLe Vendredi : de 09h00 à 12h00","latitude":44.3438,"longitude":6.02767,"website":"https://www.lamotteducaire.fr/","hasWebsite":true,"hasHoraires":true,"url":"https://lannuaire.service-public.gouv.fr/provence-alpes-cote-d-azur/alpes-de-haute-provence/34c90fb8-2e12-48ff-951e-b4f164be33f8"}
{"nom":"La Mure-Argens","nomNormalise":"lamureargens","typeCollectivite":"Commune","region":"Provence-Alpes-Côte d'Azur","departement":"Alpes-de-Haute-Provence","departementCode":"04","adresse":{"street":"4 montée de la Mairie","postalCode":"04170","city":"La Mure-Argens","country":"France"},"contacts":{"email":"mairielamureargens@gmail.com","telephone":"0492891072"},"horaires":"Le Lundi : de 14h00 à 17h00\nLe Mardi : de 08h45 à 12h00 de 14h00 à 17h00\nLe Jeudi : de 08h45 à 12h00 de 14h00 à 17h00\nUniquement accueil téléphonique lundi matin, mercredi et vendredi ( fermé au public)","latitude":44.033375,"longitude":6.524976,"website":"https://www.la-mure-argens.com/","hasWebsite":true,"hasHoraires":true,"url":"https://lannuaire.service-public.gouv.fr/provence-alpes-cote-d-azur/alpes-de-haute-provence/2f0df2e3-4ff5-49a0-a25e-4e81bc0acbaf"}
{"nom":"La Palud-sur-Verdon","nomNormalise":"lapaludsurverdon","typeCollectivite":"Commune","region":"Provence-Alpes-Côte d'Azur","departement":"Alpes-de-Haute-Provence","departementCode":"04","adresse":{"street":"1 place du Château","postalCode":"04120","city":"La Palud-sur-Verdon","country":"France"},"contacts":{"email":"mairielapaludsurverdon@wanadoo.fr","telephone":"0492773802"},"horaires":"Du Lundi au Mardi : de 10h30 à 12h30\nDu Jeudi au Vendredi : de 10h30 à 12h30","latitude":43.779636,"longitude":6.341074,"website":"https://www.lapaludsurverdon.com/","hasWebsite":true,"hasHoraires":true,"url":"https://lannuaire.service-public.gouv.fr/provence-alpes-cote-d-azur/alpes-de-haute-provence/08cc14d5-d7f3-45ae-a227-65c9cd455286"}
{"nom":"Lardiers","nomNormalise":"lardiers","typeCollectivite":"Commune","region":"Provence-Alpes-Côte d'Azur","departement":"Alpes-de-Haute-Provence","departementCode":"04","adresse":{"street":"9 rue des Fontaines","postalCode":"04230","city":"Lardiers","country":"France"},"contacts":{"email":"mairie.de.lardiers@orange.fr","telephone":"0492732981"},"horaires":"Le Lundi : de 14h00 à 18h00\nLe Mercredi : de 08h30 à 12h30\nLe Vendredi : de 09h00 à 12h00","latitude":44.057823,"longitude":5.711923,"website":"http://www.lardiers04.fr/","hasWebsite":true,"hasHoraires":true,"url":"https://lannuaire.service-public.gouv.fr/provence-alpes-cote-d-azur/alpes-de-haute-provence/0e9172fc-1f9b-44ad-a5ec-2435583dc8e0"}
{"nom":"La Robine-sur-Galabre","nomNormalise":"larobinesurgalabre","typeCollectivite":"Commune","region":"Provence-Alpes-Côte d'Azur","departement":"Alpes-de-Haute-Provence","departementCode":"04","adresse":{"street":"Le Forest","postalCode":"04000","city":"La Robine-sur-Galabre","country":"France"},"contacts":{"email":"contact@larobinesurgalabre.fr","telephone":"0492312403"},"horaires":"Du Mardi au Vendredi : de 08h00 à 12h00 de 13h30 à 17h30","latitude":44.17213,"longitude":6.217401,"website":"","hasWebsite":false,"hasHoraires":true,"url":"https://lannuaire.service-public.gouv.fr/provence-alpes-cote-d-azur/alpes-de-haute-provence/81dc4d2c-913a-408d-8902-f1942243b4fe"}
{"nom":"La Rochegiron","nomNormalise":"larochegiron","typeCollectivite":"Commune","region":"Provence-Alpes-Côte d'Azur","departement":"Alpes-de-Haute-Provence","departementCode":"04","adresse":{"street":"195 route des 4 Vents","postalCode":"04150","city":"La Rochegiron","country":"France"},"contacts":{"email":"mairie@larochegiron.fr","telephone":"0492733102"},"horaires":"Le Lundi : de 08h00 à 12h00\nLe Mercredi : de 08h00 à 12h00","latitude":44.076977,"longitude":5.655639,"website":"","hasWebsite":false,"hasHoraires":true,"url":"https://lannuaire.service-public.gouv.fr/provence-alpes-cote-d-azur/alpes-de-haute-provence/633e052a-56e1-4589-a672-280168775753"}
{"nom":"La Rochette","nomNormalise":"larochette","typeCollectivite":"Commune","region":"Provence-Alpes-Côte d'Azur","departement":"Alpes-de-Haute-Provence","departementCode":"04","adresse":{"street":"18 rue de la Mairie","postalCode":"06260","city":"La Rochette","country":"France"},"contacts":{"email":"mairie@larochette04.fr","telephone":"0493058480"},"horaires":"Le Jeudi : de 09h00 à 16h00","latitude":43.915455,"longitude":6.8914247,"website":"https://www.larochette04.fr/","hasWebsite":true,"hasHoraires":true,"url":"https://lannuaire.service-public.gouv.fr/provence-alpes-cote-d-azur/alpes-de-haute-provence/6a52c1e5-ac53-4418-b053-9ab80e7db018"}
{"nom":"Le Brusquet","nomNormalise":"lebrusquet","typeCollectivite":"Commune","region":"Provence-Alpes-Côte d'Azur","departement":"Alpes-de-Haute-Provence","departementCode":"04","adresse":{"street":"70 rue de l'Arziéras","postalCode":"04420","city":"Le Brusquet","country":"France"},"contacts":{"email":"mairie@mairiedubrusquet.fr","telephone":"0492356900"},"horaires":"Du Lundi au Jeudi : de 08h30 à 12h00 de 13h30 à 16h30\nLe Vendredi : de 08h30 à 12h00","latitude":44.162464,"longitude":6.313571,"website":"https://www.lebrusquet.fr/","hasWebsite":true,"hasHoraires":true,"url":"https://lannuaire.service-public.gouv.fr/provence-alpes-cote-d-azur/alpes-de-haute-provence/a5a1f285-29f0-49f7-bbb1-c7869b3a8b22"}
{"nom":"Le Caire","nomNormalise":"lecaire","typeCollectivite":"Commune","region":"Provence-Alpes-Côte d'Azur","departement":"Alpes-de-Haute-Provence","departementCode":"04","adresse":{"street":"Le Village","postalCode":"04250","city":"Le Caire","country":"France"},"contacts":{"email":"mairie.lecaire@wanadoo.fr","telephone":"0492683529"},"horaires":"Le Mardi : de 09h00 à 12h00\nLe Vendredi : de 09h00 à 12h00 de 14h00 à 17h00","latitude":44.369854,"longitude":6.060846,"website":"","hasWebsite":false,"hasHoraires":true,"url":"https://lannuaire.service-public.gouv.fr/provence-alpes-cote-d-azur/alpes-de-haute-provence/d4f958d1-2770-49e8-a4f8-cccb7ffacdd4"}
{"nom":"Le Castellard-Mélan","nomNormalise":"lecastellardmelan","typeCollectivite":"Commune","region":"Provence-Alpes-Côte d'Azur","departement":"Alpes-de-Haute-Provence","departementCode":"04","adresse":{"street":"85 route du Castellard","postalCode":"04380","city":"Le Castellard-Mélan","country":"France"},"contacts":{"email":"mairie@castellardmelan.fr","telephone":"0492347762"},"horaires":"Le Mardi : de 09h00 à 12h30 de 13h00 à 16h30\nLe Vendredi : de 09h00 à 12h30 de 13h00 à 16h30","latitude":44.187515,"longitude":6.124985,"website":"https://www.castellard-melan.fr/","hasWebsite":true,"hasHoraires":true,"url":"https://lannuaire.service-public.gouv.fr/provence-alpes-cote-d-azur/alpes-de-haute-provence/b93db609-a9ce-4406-8fb1-764b391f5a8c"}
{"nom":"Le Castellet","nomNormalise":"lecastellet","typeCollectivite":"Commune","region":"Provence-Alpes-Côte d'Azur","departement":"Alpes-de-Haute-Provence","departementCode":"04","adresse":{"street":"3 rue du Canal","postalCode":"04700","city":"Le Castellet","country":"France"},"contacts":{"email":"mairie@le-castellet04.fr","telephone":"0492787403"},"horaires":"Du Lundi au Vendredi : de 08h00 à 12h15","latitude":43.93848,"longitude":5.980137,"website":"https://le-castellet.dlva.fr/","hasWebsite":true,"hasHoraires":true,"url":"https://lannuaire.service-public.gouv.fr/provence-alpes-cote-d-azur/alpes-de-haute-provence/4657b863-83ab-4ccf-b81c-d3228d33d65a"}
{"nom":"Le Chaffaut-Saint-Jurson","nomNormalise":"lechaffautsaintjurson","typeCollectivite":"Commune","region":"Provence-Alpes-Côte d'Azur","departement":"Alpes-de-Haute-Provence","departementCode":"04","adresse":{"street":"Rue de la Mairie","postalCode":"04510","city":"Le Chaffaut-Saint-Jurson","country":"France"},"contacts":{"email":"contact@mairieduchaffaut.fr","telephone":"0492346365"},"horaires":"Du Lundi au Mercredi : de 09h00 à 12h00\nLe Jeudi : de 09h00 à 12h00 de 14h00 à 16h30\nLe Vendredi : de 09h00 à 12h00","latitude":44.0376,"longitude":6.14969,"website":"","hasWebsite":false,"hasHoraires":true,"url":"https://lannuaire.service-public.gouv.fr/provence-alpes-cote-d-azur/alpes-de-haute-provence/aa194d50-52de-4b8d-af0f-38f6081d6ef2"}
{"nom":"Le Fugeret","nomNormalise":"lefugeret","typeCollectivite":"Commune","region":"Provence-Alpes-Côte d'Azur","departement":"Alpes-de-Haute-Provence","departementCode":"04","adresse":{"street":"Place de la Mairie","postalCode":"04240","city":"Le Fugeret","country":"France"},"contacts":{"email":"le.fugeret.mairie@wanadoo.fr","telephone":"0492832016"},"horaires":"Le Mardi : de 10h00 à 12h00\nLe Vendredi : de 10h00 à 12h00","latitude":44.003563,"longitude":6.641248,"website":"http://www.lefugeret.com/","hasWebsite":true,"hasHoraires":true,"url":"https://lannuaire.service-public.gouv.fr/provence-alpes-cote-d-azur/alpes-de-haute-provence/f53e6a50-e4ad-471d-b76d-6ad14384b31b"}
{"nom":"Le Lauzet-Ubaye","nomNormalise":"lelauzetubaye","typeCollectivite":"Commune","region":"Provence-Alpes-Côte d'Azur","departement":"Alpes-de-Haute-Provence","departementCode":"04","adresse":{"street":"6 Place de La Marie","postalCode":"04340","city":"Le Lauzet-Ubaye","country":"France"},"contacts":{"email":"mairie.lauzetubaye@orange.fr","telephone":"0492855127"},"horaires":"Du Lundi au Vendredi : de 08h30 à 12h00 de 13h30 à 17h00","latitude":44.428288,"longitude":6.43507,"website":"http://www.lauzetubaye.fr/","hasWebsite":true,"hasHoraires":true,"url":"https://lannuaire.service-public.gouv.fr/provence-alpes-cote-d-azur/alpes-de-haute-provence/0e4e2641-ec23-4a52-85fa-82a25de0d41c"}
{"nom":"Les Mées","nomNormalise":"lesmees","typeCollectivite":"Commune","region":"Provence-Alpes-Côte d'Azur","departement":"Alpes-de-Haute-Provence","departementCode":"04","adresse":{"street":"18 boulevard de la République","postalCode":"04190","city":"Les Mées","country":"France"},"contacts":{"email":"courrier@mairie-lesmees.fr","telephone":"0492340301"},"horaires":"Le Lundi : de 08h30 à 12h00 de 13h30 à 16h00\nLe Mardi : de 08h30 à 12h00 de 13h30 à 17h30\nLe Mercredi : de 08h30 à 12h00 de 13h30 à 16h00\nLe Jeudi : de 08h30 à 12h00 de 13h30 à 17h30\nLe Vendredi : de 08h30 à 12h00 de 13h30 à 16h00","latitude":44.029495,"longitude":5.974939,"website":"https://les-mees.fr/","hasWebsite":true,"hasHoraires":true,"url":"https://lannuaire.service-public.gouv.fr/provence-alpes-cote-d-azur/alpes-de-haute-provence/81955a7a-dffd-479b-b12b-11434176f216"}
{"nom":"Les Omergues","nomNormalise":"lesomergues","typeCollectivite":"Commune","region":"Provence-Alpes-Côte d'Azur","departement":"Alpes-de-Haute-Provence","departementCode":"04","adresse":{"street":"Le Village","postalCode":"04200","city":"Les Omergues","country":"France"},"contacts":{"email":"mairielesomergues@orange.fr","telephone":"0492620277"},"horaires":"Le Lundi : de 14h00 à 17h00\nLe Vendredi : de 09h00 à 12h00","latitude":44.17201,"longitude":5.609089,"website":"https://les-omergues.fr/","hasWebsite":true,"hasHoraires":true,"url":"https://lannuaire.service-public.gouv.fr/provence-alpes-cote-d-azur/alpes-de-haute-provence/15190e02-890f-40c9-ad44-ffbd82974a0a"}
{"nom":"Les Thuiles","nomNormalise":"lesthuiles","typeCollectivite":"Commune","region":"Provence-Alpes-Côte d'Azur","departement":"Alpes-de-Haute-Provence","departementCode":"04","adresse":{"street":"1 Place Fernand-Gilly","postalCode":"04400","city":"Les Thuiles","country":"France"},"contacts":{"email":"mairie@lesthuiles.fr","telephone":"0492811003"},"horaires":"Le Lundi : de 08h00 à 12h00 de 14h00 à 18h00\nLe Mardi : de 08h00 à 12h00\nLe Jeudi : de 08h00 à 12h00\nLe Vendredi : de 08h00 à 12h00 de 14h00 à 18h00\nLe Samedi : de 08h00 à 12h00","latitude":44.393856,"longitude":6.572401,"website":"https://www.lesthuiles.fr/","hasWebsite":true,"hasHoraires":true,"url":"https://lannuaire.service-public.gouv.fr/provence-alpes-cote-d-azur/alpes-de-haute-provence/16af97cf-6d4c-46c7-a4d4-5cd9d88dc612"}
{"nom":"Le Vernet","nomNormalise":"levernet","typeCollectivite":"Commune","region":"Provence-Alpes-Côte d'Azur","departement":"Alpes-de-Haute-Provence","departementCode":"04","adresse":{"street":"Le Village","postalCode":"04140","city":"Le Vernet","country":"France"},"contacts":{"email":"le-vernet.mairie@wanadoo.fr","telephone":"0492350284"},"horaires":"Du Lundi au Mardi : de 09h00 à 12h00\nDu Jeudi au Samedi : de 09h00 à 12h00","latitude":44.275814,"longitude":6.390085,"website":"http://mairie-le-vernet.com/","hasWebsite":true,"hasHoraires":true,"url":"https://lannuaire.service-public.gouv.fr/provence-alpes-cote-d-azur/alpes-de-haute-provence/904784d2-cbe5-4dcd-ac59-dbcbd876a42c"}
{"nom":"Limans","nomNormalise":"limans","typeCollectivite":"Commune","region":"Provence-Alpes-Côte d'Azur","departement":"Alpes-de-Haute-Provence","departementCode":"04","adresse":{"street":"Place de la Tour-de-Guet","postalCode":"04300","city":"Limans","country":"France"},"contacts":{"email":"mairie.limans@wanadoo.fr","telephone":"0492730169"},"horaires":"Le Lundi : de 08h30 à 12h30 de 13h30 à 17h00\nLe Mardi : de 08h30 à 12h30\nLe Jeudi : de 08h30 à 12h30 de 13h30 à 17h00","latitude":43.98517,"longitude":5.731002,"website":"http://www.limans.fr/","hasWebsite":true,"hasHoraires":true,"url":"https://lannuaire.service-public.gouv.fr/provence-alpes-cote-d-azur/alpes-de-haute-provence/2d0d53e7-b017-4361-b9b9-7d36790027cb"}
{"nom":"Lurs","nomNormalise":"lurs","typeCollectivite":"Commune","region":"Provence-Alpes-Côte d'Azur","departement":"Alpes-de-Haute-Provence","departementCode":"04","adresse":{"street":"Hôtel de Ville","postalCode":"04700","city":"Lurs","country":"France"},"contacts":{"email":"mairie@lurs.fr","telephone":"0492799524"},"horaires":"Du Lundi au Mardi : de 13h30 à 17h30\nLe Jeudi : de 13h30 à 17h30\nLe Vendredi : de 13h30 à 16h30","latitude":43.968597,"longitude":5.889878,"website":"http://www.lurs.fr/","hasWebsite":true,"hasHoraires":true,"url":"https://lannuaire.service-public.gouv.fr/provence-alpes-cote-d-azur/alpes-de-haute-provence/579e3035-2790-4133-8096-0f2df5a15d89"}
{"nom":"Majastres","nomNormalise":"majastres","typeCollectivite":"Commune","region":"Provence-Alpes-Côte d'Azur","departement":"Alpes-de-Haute-Provence","departementCode":"04","adresse":{"street":"le Village","postalCode":"04270","city":"MAJASTRES","country":"France"},"contacts":{"email":"mairie-de-majastres@orange.fr","telephone":"0611162649"},"horaires":"Le Vendredi : de 13h00 à 17h00","latitude":43.91365,"longitude":6.288917,"website":"","hasWebsite":false,"hasHoraires":true,"url":"https://lannuaire.service-public.gouv.fr/provence-alpes-cote-d-azur/alpes-de-haute-provence/99e6ee76-7360-4e8d-864b-2feb231ad0db"}
{"nom":"Malijai","nomNormalise":"malijai","typeCollectivite":"Commune","region":"Provence-Alpes-Côte d'Azur","departement":"Alpes-de-Haute-Provence","departementCode":"04","adresse":{"street":"Le Château","postalCode":"04350","city":"Malijai","country":"France"},"contacts":{"email":"accueil@malijai.fr","telephone":"0492340112"},"horaires":"Du Lundi au Vendredi : de 08h00 à 12h00 de 13h30 à 17h00","latitude":44.05806,"longitude":6.097801,"website":"http://www.malijai.fr/","hasWebsite":true,"hasHoraires":true,"url":"https://lannuaire.service-public.gouv.fr/provence-alpes-cote-d-azur/alpes-de-haute-provence/3d90d2a3-cbca-45c9-ab9f-d558c0c3d8a1"}
{"nom":"Mallefougasse-Augès","nomNormalise":"mallefougasseauges","typeCollectivite":"Commune","region":"Provence-Alpes-Côte d'Azur","departement":"Alpes-de-Haute-Provence","departementCode":"04","adresse":{"street":"8 rue du Jas","postalCode":"04230","city":"Mallefougasse-Augès","country":"France"},"contacts":{"email":"secretariat@mairiedemallefougasse.fr","telephone":"0979313320"},"horaires":"Le Lundi : de 14h30 à 17h00\nLe Mardi : de 09h00 à 11h00\nLe Jeudi : de 14h30 à 17h00\nLe Vendredi : de 09h00 à 11h00","latitude":44.065662,"longitude":5.8991275,"website":"https://www.mallefougasse.fr/","hasWebsite":true,"hasHoraires":true,"url":"https://lannuaire.service-public.gouv.fr/provence-alpes-cote-d-azur/alpes-de-haute-provence/53439e8c-ea97-4290-a9a2-f5158576dc85"}
{"nom":"Mallemoisson","nomNormalise":"mallemoisson","typeCollectivite":"Commune","region":"Provence-Alpes-Côte d'Azur","departement":"Alpes-de-Haute-Provence","departementCode":"04","adresse":{"street":"Place de la République","postalCode":"04510","city":"Mallemoisson","country":"France"},"contacts":{"email":"accueil@mairiemallemoisson.fr","telephone":"0492346503"},"horaires":"Du Lundi au Vendredi : de 09h00 à 12h00 de 13h30 à 17h30","latitude":44.042393,"longitude":6.125601,"website":"http://www.mairie-mallemoisson.fr/","hasWebsite":true,"hasHoraires":true,"url":"https://lannuaire.service-public.gouv.fr/provence-alpes-cote-d-azur/alpes-de-haute-provence/480348f0-5c47-473b-a221-41f722b64eec"}
{"nom":"Mane","nomNormalise":"mane","typeCollectivite":"Commune","region":"Provence-Alpes-Côte d'Azur","departement":"Alpes-de-Haute-Provence","departementCode":"04","adresse":{"street":"96 Place de l'Église","postalCode":"04300","city":"Mane","country":"France"},"contacts":{"email":"mairie@mane-en-provence.com","telephone":"0492750413"},"horaires":"Le Lundi : de 08h00 à 12h00 de 14h00 à 18h00\nLe Mardi : de 08h00 à 12h00\nLe Mercredi : de 08h00 à 12h00 de 14h00 à 18h00\nLe Jeudi : de 08h00 à 12h00\nLe Vendredi : de 08h00 à 12h00 de 14h00 à 17h00","latitude":43.9372,"longitude":5.76672,"website":"http://www.mane-en-provence.com/","hasWebsite":true,"hasHoraires":true,"url":"https://lannuaire.service-public.gouv.fr/provence-alpes-cote-d-azur/alpes-de-haute-provence/e3e098ba-a3fa-4f12-b3f3-3550405b3e09"}
{"nom":"Manosque","nomNormalise":"manosque","typeCollectivite":"Commune","region":"Provence-Alpes-Côte d'Azur","departement":"Alpes-de-Haute-Provence","departementCode":"04","adresse":{"street":"Place de l'Hôtel-de-Ville","postalCode":"04100","city":"Manosque","country":"France"},"contacts":{"email":"accueil@ville-manosque.fr","telephone":"0492703400"},"horaires":"Du Lundi au Vendredi : de 08h30 à 18h00","latitude":43.83357,"longitude":5.7827277,"website":"https://www.ville-manosque.fr/","hasWebsite":true,"hasHoraires":true,"url":"https://lannuaire.service-public.gouv.fr/provence-alpes-cote-d-azur/alpes-de-haute-provence/5cfed89b-f130-4507-bdb7-502d47aa7af7"}
{"nom":"Marcoux","nomNormalise":"marcoux","typeCollectivite":"Commune","region":"Provence-Alpes-Côte d'Azur","departement":"Alpes-de-Haute-Provence","departementCode":"04","adresse":{"street":"380 route du Pigeon-Blanc","postalCode":"04420","city":"Marcoux","country":"France"},"contacts":{"email":"mairiemarcoux04@wanadoo.fr","telephone":"0492354105"},"horaires":"Le Lundi : de 09h00 à 12h00\nLe Mardi : de 09h00 à 12h00 de 14h00 à 17h00\nLe Mercredi : de 09h00 à 12h00\nLe Jeudi : de 09h00 à 12h00 de 14h00 à 17h00\nLe Vendredi : de 09h00 à 12h00","latitude":44.12868,"longitude":6.2764544,"website":"","hasWebsite":false,"hasHoraires":true,"url":"https://lannuaire.service-public.gouv.fr/provence-alpes-cote-d-azur/alpes-de-haute-provence/8b11624c-60eb-404e-89da-30416201ea97"}
{"nom":"Méailles","nomNormalise":"meailles","typeCollectivite":"Commune","region":"Provence-Alpes-Côte d'Azur","departement":"Alpes-de-Haute-Provence","departementCode":"04","adresse":{"street":"Rue de la Mairie","postalCode":"04240","city":"Méailles","country":"France"},"contacts":{"email":"secretariat@meailles.fr","telephone":"0962124337"},"horaires":"Le Lundi : de 09h00 à 11h30 de 14h00 à 16h00\nLe Mardi : de 14h00 à 16h30\nLe Jeudi : de 09h00 à 11h30","latitude":44.024063,"longitude":6.631751,"website":"http://www.meailles.fr/","hasWebsite":true,"hasHoraires":true,"url":"https://lannuaire.service-public.gouv.fr/provence-alpes-cote-d-azur/alpes-de-haute-provence/9cf82aac-588f-4eeb-97be-5454e2133c02"}
{"nom":"Melve","nomNormalise":"melve","typeCollectivite":"Commune","region":"Provence-Alpes-Côte d'Azur","departement":"Alpes-de-Haute-Provence","departementCode":"04","adresse":{"street":"Sous Ville","postalCode":"04250","city":"Melve","country":"France"},"contacts":{"email":"mairiedemelve04@wanadoo.fr","telephone":"0492683280"},"horaires":"Le Lundi : de 09h00 à 12h00\nLe Mardi : de 14h00 à 16h30\nLe Jeudi : de 09h00 à 12h00 de 14h00 à 16h30","latitude":44.35471,"longitude":5.990433,"website":"","hasWebsite":false,"hasHoraires":true,"url":"https://lannuaire.service-public.gouv.fr/provence-alpes-cote-d-azur/alpes-de-haute-provence/3c96de3e-cccf-4726-9f52-d23f3c55173e"}
{"nom":"Méolans-Revel","nomNormalise":"meolansrevel","typeCollectivite":"Commune","region":"Provence-Alpes-Côte d'Azur","departement":"Alpes-de-Haute-Provence","departementCode":"04","adresse":{"street":"La Fresquière","postalCode":"04340","city":"Méolans-Revel","country":"France"},"contacts":{"email":"mairie.meolansrevel@wanadoo.fr","telephone":"0492810869"},"horaires":"Le Lundi : de 09h00 à 11h30 de 14h00 à 17h30\nDu Mardi au Vendredi : de 09h00 à 11h30","latitude":44.401867,"longitude":6.510811,"website":"https://www.meolans-revel.fr/","hasWebsite":true,"hasHoraires":true,"url":"https://lannuaire.service-public.gouv.fr/provence-alpes-cote-d-azur/alpes-de-haute-provence/6586cd4f-eac2-4d38-ab6d-186530591fb8"}
{"nom":"Mézel","nomNormalise":"mezel","typeCollectivite":"Commune","region":"Provence-Alpes-Côte d'Azur","departement":"Alpes-de-Haute-Provence","departementCode":"04","adresse":{"street":"8 rue de l'École","postalCode":"04270","city":"Mézel","country":"France"},"contacts":{"email":"secretariat@mezel04.fr","telephone":"0492355387"},"horaires":"Du Lundi au Vendredi : de 09h00 à 12h00","latitude":43.996902,"longitude":6.195485,"website":"","hasWebsite":false,"hasHoraires":true,"url":"https://lannuaire.service-public.gouv.fr/provence-alpes-cote-d-azur/alpes-de-haute-provence/4c15f91b-818d-4b2f-8eee-ca5a2f36b8f3"}
{"nom":"Mirabeau","nomNormalise":"mirabeau","typeCollectivite":"Commune","region":"Provence-Alpes-Côte d'Azur","departement":"Alpes-de-Haute-Provence","departementCode":"04","adresse":{"street":"46 allée de Jouvenine","postalCode":"04510","city":"Mirabeau","country":"France"},"contacts":{"email":"mairie-mirabeau04@wanadoo.fr","telephone":"0492346184"},"horaires":"Du Lundi au Jeudi : de 08h30 à 12h00\nLe Vendredi : de 08h30 à 12h00 de 13h30 à 16h30","latitude":44.062542,"longitude":6.090778,"website":"https://mirabeau-04.fr/","hasWebsite":true,"hasHoraires":true,"url":"https://lannuaire.service-public.gouv.fr/provence-alpes-cote-d-azur/alpes-de-haute-provence/a7d8fc28-368a-45b0-a9e8-534540745e33"}
{"nom":"Mison","nomNormalise":"mison","typeCollectivite":"Commune","region":"Provence-Alpes-Côte d'Azur","departement":"Alpes-de-Haute-Provence","departementCode":"04","adresse":{"street":"Les Armands","postalCode":"04200","city":"Mison","country":"France"},"contacts":{"email":"contact@mison.fr","telephone":"0492622117"},"horaires":"Le Lundi : de 09h00 à 12h00\nLe Mardi : de 09h00 à 12h00 de 16h00 à 19h00\nLe Mercredi : de 08h00 à 12h00\nLe Jeudi : de 09h00 à 12h00\nLe Vendredi : de 08h00 à 12h00","latitude":44.26802,"longitude":5.858807,"website":"https://www.mairiedemison.fr/","hasWebsite":true,"hasHoraires":true,"url":"https://lannuaire.service-public.gouv.fr/provence-alpes-cote-d-azur/alpes-de-haute-provence/1f8f801a-03f8-42b6-b169-99544a095401"}
{"nom":"Montagnac-Montpezat","nomNormalise":"montagnacmontpezat","typeCollectivite":"Commune","region":"Provence-Alpes-Côte d'Azur","departement":"Alpes-de-Haute-Provence","departementCode":"04","adresse":{"street":"Place de l'Horloge","postalCode":"04500","city":"Montagnac-Montpezat","country":"France"},"contacts":{"email":"mairie@mairie-montagnac-montpezat.fr","telephone":"0492775365"},"horaires":"Du Lundi au Vendredi : de 08h30 à 12h00","latitude":43.77976,"longitude":6.094524,"website":"https://www.mairie-montagnac-montpezat.fr/","hasWebsite":true,"hasHoraires":true,"url":"https://lannuaire.service-public.gouv.fr/provence-alpes-cote-d-azur/alpes-de-haute-provence/1966ccad-998b-46a5-92d2-0f2b987503f9"}
{"nom":"Montclar","nomNormalise":"montclar","typeCollectivite":"Commune","region":"Provence-Alpes-Côte d'Azur","departement":"Alpes-de-Haute-Provence","departementCode":"04","adresse":{"street":"Bâtiment communal","postalCode":"04140","city":"Montclar","country":"France"},"contacts":{"email":"mairie@montclar.fr","telephone":"0492309200"},"horaires":"Du Lundi au Vendredi : de 09h00 à 12h00 de 14h00 à 17h00","latitude":44.39743,"longitude":6.333553,"website":"https://www.montclar.fr/","hasWebsite":true,"hasHoraires":true,"url":"https://lannuaire.service-public.gouv.fr/provence-alpes-cote-d-azur/alpes-de-haute-provence/60d72b89-eaaa-43f2-9c64-ddf465fee7d8"}
{"nom":"Montfort","nomNormalise":"montfort","typeCollectivite":"Commune","region":"Provence-Alpes-Côte d'Azur","departement":"Alpes-de-Haute-Provence","departementCode":"04","adresse":{"street":"1 allée des Tilleuls","postalCode":"04600","city":"Montfort","country":"France"},"contacts":{"email":"mairie.montfort@wanadoo.fr","telephone":"0492640290"},"horaires":"Le Lundi : de 09h00 à 12h00\nLe Mardi : de 14h00 à 17h00\nLe Mercredi : de 09h00 à 12h00\nLe Jeudi : de 14h00 à 18h00\nLe Vendredi : de 09h00 à 12h00","latitude":44.06514,"longitude":5.967399,"website":"http://www.montfort-en-provence.fr/","hasWebsite":true,"hasHoraires":true,"url":"https://lannuaire.service-public.gouv.fr/provence-alpes-cote-d-azur/alpes-de-haute-provence/ca58441a-a344-44b6-9d12-14bb6e1334b0"}
{"nom":"Montfuron","nomNormalise":"montfuron","typeCollectivite":"Commune","region":"Provence-Alpes-Côte d'Azur","departement":"Alpes-de-Haute-Provence","departementCode":"04","adresse":{"street":"Place de la Mairie","postalCode":"04110","city":"Montfuron","country":"France"},"contacts":{"email":"mairiemontfuron@wanadoo.fr","telephone":"0492764165"},"horaires":"Du Lundi au Mardi : de 13h30 à 17h00\nDu Jeudi au Vendredi : de 13h30 à 17h00","latitude":43.83575,"longitude":5.694528,"website":"https://montfuron.dlva.fr/","hasWebsite":true,"hasHoraires":true,"url":"https://lannuaire.service-public.gouv.fr/provence-alpes-cote-d-azur/alpes-de-haute-provence/68479aa8-0fc8-4856-9e74-d7b68d2edfa4"}
{"nom":"Montjustin","nomNormalise":"montjustin","typeCollectivite":"Commune","region":"Provence-Alpes-Côte d'Azur","departement":"Alpes-de-Haute-Provence","departementCode":"04","adresse":{"street":"Le Village","postalCode":"04110","city":"Montjustin","country":"France"},"contacts":{"email":"montjustin.mairie@wanadoo.fr","telephone":"0492764631"},"horaires":"Le Lundi : de 09h00 à 12h00","latitude":43.847504,"longitude":5.643371,"website":"","hasWebsite":false,"hasHoraires":true,"url":"https://lannuaire.service-public.gouv.fr/provence-alpes-cote-d-azur/alpes-de-haute-provence/6625c67b-92ce-46d0-b33c-0151ced0f39a"}
{"nom":"Montlaux","nomNormalise":"montlaux","typeCollectivite":"Commune","region":"Provence-Alpes-Côte d'Azur","departement":"Alpes-de-Haute-Provence","departementCode":"04","adresse":{"street":"3 rue des Jacons","postalCode":"04230","city":"Montlaux","country":"France"},"contacts":{"email":"mairie.montlaux@orange.fr","telephone":"0492770985"},"horaires":"Le Lundi : de 14h00 à 18h00\nLe Mercredi : de 08h00 à 12h00\nLe Vendredi : de 08h00 à 12h00\nLe Samedi : de 10h00 à 12h00\n\nPermanence des élus uniquement le 1er et 3e samedi du mois sur rendez-vous uniquement.","latitude":44.04657,"longitude":5.844372,"website":"https://montlaux.fr/","hasWebsite":true,"hasHoraires":true,"url":"https://lannuaire.service-public.gouv.fr/provence-alpes-cote-d-azur/alpes-de-haute-provence/a8177769-1cfd-4076-8782-475a61d8f0a7"}
{"nom":"Montsalier","nomNormalise":"montsalier","typeCollectivite":"Commune","region":"Provence-Alpes-Côte d'Azur","departement":"Alpes-de-Haute-Provence","departementCode":"04","adresse":{"street":"8 chemin de Notre-Dame","postalCode":"04150","city":"Montsalier","country":"France"},"contacts":{"email":"mairie@montsalier.fr","telephone":"0492733562"},"horaires":"Le Mardi : de 08h00 à 12h00\nLe Vendredi : de 08h00 à 12h00","latitude":43.970978,"longitude":6.51169,"website":"","hasWebsite":false,"hasHoraires":true,"url":"https://lannuaire.service-public.gouv.fr/provence-alpes-cote-d-azur/alpes-de-haute-provence/22719e78-15f8-488a-a3ee-2d5f9771e2e2"}
{"nom":"Moriez","nomNormalise":"moriez","typeCollectivite":"Commune","region":"Provence-Alpes-Côte d'Azur","departement":"Alpes-de-Haute-Provence","departementCode":"04","adresse":{"street":"1 Cour du Château","postalCode":"04170","city":"Moriez","country":"France"},"contacts":{"email":"commune@mairiemoriez.fr","telephone":"0492890614"},"horaires":"Le Mardi : de 08h30 à 12h00\nLe Jeudi : de 08h30 à 12h00","latitude":43.961826,"longitude":6.469849,"website":"","hasWebsite":false,"hasHoraires":true,"url":"https://lannuaire.service-public.gouv.fr/provence-alpes-cote-d-azur/alpes-de-haute-provence/3f2509a8-de41-47d1-83cf-5a6aea3558ee"}
{"nom":"Moustiers-Sainte-Marie","nomNormalise":"moustierssaintemarie","typeCollectivite":"Commune","region":"Provence-Alpes-Côte d'Azur","departement":"Alpes-de-Haute-Provence","departementCode":"04","adresse":{"street":"Rue du Seigneur-de-la-Clue","postalCode":"04360","city":"Moustiers-Sainte-Marie","country":"France"},"contacts":{"email":"secretariat@mairiemoustiers.fr","telephone":"0492746619"},"horaires":"Du Lundi au Vendredi : de 09h00 à 12h00","latitude":43.846684,"longitude":6.221848,"website":"https://www.ville-moustiers-sainte-marie.fr/","hasWebsite":true,"hasHoraires":true,"url":"https://lannuaire.service-public.gouv.fr/provence-alpes-cote-d-azur/alpes-de-haute-provence/b62c7a34-e609-4b74-8f4d-4ab994416a03"}
{"nom":"Nibles","nomNormalise":"nibles","typeCollectivite":"Commune","region":"Provence-Alpes-Côte d'Azur","departement":"Alpes-de-Haute-Provence","departementCode":"04","adresse":{"street":"Le Village","postalCode":"04250","city":"Nibles","country":"France"},"contacts":{"email":"mairienibles@wanadoo.fr","telephone":"0492621218"},"horaires":"Le Jeudi : de 09h00 à 12h00 de 14h30 à 17h30\nLe Vendredi : de 09h00 à 12h00","latitude":44.281685,"longitude":6.01888,"website":"","hasWebsite":false,"hasHoraires":true,"url":"https://lannuaire.service-public.gouv.fr/provence-alpes-cote-d-azur/alpes-de-haute-provence/a84986a8-36a7-4df1-8ebd-5c2eedc5668a"}
{"nom":"Niozelles","nomNormalise":"niozelles","typeCollectivite":"Commune","region":"Provence-Alpes-Côte d'Azur","departement":"Alpes-de-Haute-Provence","departementCode":"04","adresse":{"street":"8 place des Tilleuls","postalCode":"04300","city":"Niozelles","country":"France"},"contacts":{"email":"mairie-niozelles@wanadoo.fr","telephone":"0492750333"},"horaires":"Le Lundi : de 14h00 à 18h00\nLe Vendredi : de 14h00 à 18h00","latitude":43.937527,"longitude":5.839595,"website":"","hasWebsite":false,"hasHoraires":true,"url":"https://lannuaire.service-public.gouv.fr/provence-alpes-cote-d-azur/alpes-de-haute-provence/c285f0bf-122d-44a7-a585-80140adf6966"}
{"nom":"Noyers-sur-Jabron","nomNormalise":"noyerssurjabron","typeCollectivite":"Commune","region":"Provence-Alpes-Côte d'Azur","departement":"Alpes-de-Haute-Provence","departementCode":"04","adresse":{"street":"780 rue Principale","postalCode":"04200","city":"Noyers-sur-Jabron","country":"France"},"contacts":{"email":"mairie.noyers@orange.fr","telephone":"0492620308"},"horaires":"Du Lundi au Vendredi : de 09h00 à 12h00\nAccueil possible sur rendez-vous l'après-midi.","latitude":44.1685,"longitude":5.828606,"website":"https://noyers-sur-jabron.fr/","hasWebsite":true,"hasHoraires":true,"url":"https://lannuaire.service-public.gouv.fr/provence-alpes-cote-d-azur/alpes-de-haute-provence/419112f2-aeaa-4234-b327-e419f6ba3dbd"}
{"nom":"Ongles","nomNormalise":"ongles","typeCollectivite":"Commune","region":"Provence-Alpes-Côte d'Azur","departement":"Alpes-de-Haute-Provence","departementCode":"04","adresse":{"street":"7 place de la Fontaine","postalCode":"04230","city":"Ongles","country":"France"},"contacts":{"email":"secretariat@mairie-ongles.fr","telephone":"0492730622"},"horaires":"Du Lundi au Mardi : de 14h00 à 17h00\nLe Jeudi : de 09h00 à 12h00 de 14h00 à 17h00","latitude":44.027634,"longitude":5.733923,"website":"https://www.mairie-ongles.fr/","hasWebsite":true,"hasHoraires":true,"url":"https://lannuaire.service-public.gouv.fr/provence-alpes-cote-d-azur/alpes-de-haute-provence/b8312df5-7373-4f26-a657-2fa1bee2a595"}
{"nom":"Oppedette","nomNormalise":"oppedette","typeCollectivite":"Commune","region":"Provence-Alpes-Côte d'Azur","departement":"Alpes-de-Haute-Provence","departementCode":"04","adresse":{"street":"14 place de la Mairie","postalCode":"04110","city":"Oppedette","country":"France"},"contacts":{"email":"mairie.oppedette@orange.fr","telephone":"0492759313"},"horaires":"Le Mardi : de 14h00 à 18h00","latitude":43.933826,"longitude":5.5904636,"website":"","hasWebsite":false,"hasHoraires":true,"url":"https://lannuaire.service-public.gouv.fr/provence-alpes-cote-d-azur/alpes-de-haute-provence/7aa63cb7-a8d3-48e4-96c0-8ec0f47eddf2"}
{"nom":"Oraison","nomNormalise":"oraison","typeCollectivite":"Commune","region":"Provence-Alpes-Côte d'Azur","departement":"Alpes-de-Haute-Provence","departementCode":"04","adresse":{"street":"22 rue Paul-Jean","postalCode":"04700","city":"Oraison","country":"France"},"contacts":{"email":"contact@mairie-oraison.fr","telephone":"0492707777"},"horaires":"Le Lundi : de 08h30 à 12h00 de 13h30 à 17h00\nDu Mardi au Mercredi : de 08h00 à 12h00 de 13h30 à 17h00\nLe Jeudi : de 08h00 à 12h00 de 13h30 à 18h30\nLe Vendredi : de 08h00 à 12h00 de 13h30 à 17h00","latitude":43.917084,"longitude":5.917949,"website":"https://oraison.fr/","hasWebsite":true,"hasHoraires":true,"url":"https://lannuaire.service-public.gouv.fr/provence-alpes-cote-d-azur/alpes-de-haute-provence/160c8cc2-74af-47e9-8511-0a19e0f62ea7"}
{"nom":"Peipin","nomNormalise":"peipin","typeCollectivite":"Commune","region":"Provence-Alpes-Côte d'Azur","departement":"Alpes-de-Haute-Provence","departementCode":"04","adresse":{"street":"4 rue des Écoles","postalCode":"04200","city":"Peipin","country":"France"},"contacts":{"email":"mairie@peipin.fr","telephone":"0492624417"},"horaires":"Le Lundi : de 10h00 à 12h00 de 13h45 à 17h30\nDu Mardi au Jeudi : de 09h00 à 12h00 de 13h45 à 17h30\nLe Vendredi : de 09h00 à 12h00","latitude":44.135532,"longitude":5.9571476,"website":"http://www.peipin.fr/","hasWebsite":true,"hasHoraires":true,"url":"https://lannuaire.service-public.gouv.fr/provence-alpes-cote-d-azur/alpes-de-haute-provence/4b064f18-eb23-4882-b086-39451bf88935"}
{"nom":"Peyroules","nomNormalise":"peyroules","typeCollectivite":"Commune","region":"Provence-Alpes-Côte d'Azur","departement":"Alpes-de-Haute-Provence","departementCode":"04","adresse":{"street":"28 rue de la Mairie","postalCode":"04120","city":"Peyroules","country":"France"},"contacts":{"email":"mairie.peyroules@wanadoo.fr","telephone":"0492836552"},"horaires":"Le Lundi : de 09h00 à 12h00 de 14h00 à 17h00\nDu Mardi au Jeudi : de 09h00 à 12h00\nLe Vendredi : de 09h00 à 12h00 de 14h00 à 17h00","latitude":43.815086,"longitude":6.642352,"website":"http://www.peyroules.fr/","hasWebsite":true,"hasHoraires":true,"url":"https://lannuaire.service-public.gouv.fr/provence-alpes-cote-d-azur/alpes-de-haute-provence/187eddea-a927-4a4f-8e9f-4c15ba6ab509"}
{"nom":"Peyruis","nomNormalise":"peyruis","typeCollectivite":"Commune","region":"Provence-Alpes-Côte d'Azur","departement":"Alpes-de-Haute-Provence","departementCode":"04","adresse":{"street":"Place de l'Hôtel-de-Ville","postalCode":"04310","city":"Peyruis","country":"France"},"contacts":{"email":"mairie@peyruis.fr","telephone":"0492332100"},"horaires":"Du Lundi au Mercredi : de 08h30 à 12h00 de 13h30 à 17h00\nLe Jeudi : de 08h00 à 15h00\nLe Vendredi : de 08h30 à 12h00 de 13h30 à 17h00","latitude":44.02724,"longitude":5.9371076,"website":"https://www.peyruis.fr/","hasWebsite":true,"hasHoraires":true,"url":"https://lannuaire.service-public.gouv.fr/provence-alpes-cote-d-azur/alpes-de-haute-provence/88fbf86e-4190-4d38-a10e-d0a4f3083db6"}
{"nom":"Piégut","nomNormalise":"piegut","typeCollectivite":"Commune","region":"Provence-Alpes-Côte d'Azur","departement":"Alpes-de-Haute-Provence","departementCode":"04","adresse":{"street":"41 rue Saint-Collomban","postalCode":"05130","city":"Piégut","country":"France"},"contacts":{"email":"mairiedepiegut@orange.fr","telephone":"0492541514"},"horaires":"Le Mardi : de 09h00 à 12h00 de 14h00 à 17h00\nLe Jeudi : de 09h00 à 12h00 de 14h00 à 17h00","latitude":44.454735,"longitude":6.128439,"website":"https://www.mairie-piegut.fr/","hasWebsite":true,"hasHoraires":true,"url":"https://lannuaire.service-public.gouv.fr/provence-alpes-cote-d-azur/alpes-de-haute-provence/42a69ed3-e27d-45a4-9130-41938982cce1"}
{"nom":"Pierrerue","nomNormalise":"pierrerue","typeCollectivite":"Commune","region":"Provence-Alpes-Côte d'Azur","departement":"Alpes-de-Haute-Provence","departementCode":"04","adresse":{"street":"La Promenade","postalCode":"04300","city":"Pierrerue","country":"France"},"contacts":{"email":"mairie.pierrerue@orange.fr","telephone":"0492751661"},"horaires":"Le Lundi : de 14h00 à 17h30\nDu Mardi au Mercredi : de 09h00 à 12h00\nLe Vendredi : de 09h00 à 12h00","latitude":43.954876,"longitude":5.834085,"website":"https://www.pierrerue04.fr/","hasWebsite":true,"hasHoraires":true,"url":"https://lannuaire.service-public.gouv.fr/provence-alpes-cote-d-azur/alpes-de-haute-provence/50cd6cce-9d3e-4da2-aded-536109bc3654"}
{"nom":"Pierrevert","nomNormalise":"pierrevert","typeCollectivite":"Commune","region":"Provence-Alpes-Côte d'Azur","departement":"Alpes-de-Haute-Provence","departementCode":"04","adresse":{"street":"6 avenue Auguste-Bastide","postalCode":"04860","city":"Pierrevert","country":"France"},"contacts":{"email":"info@mairie-pierrevert.fr","telephone":"0492728687"},"horaires":"Du Lundi au Jeudi : de 08h30 à 12h00 de 13h30 à 17h30\nLe Vendredi : de 08h30 à 12h00 de 13h30 à 16h30","latitude":43.81,"longitude":5.75051,"website":"https://www.mairie-pierrevert.fr/","hasWebsite":true,"hasHoraires":true,"url":"https://lannuaire.service-public.gouv.fr/provence-alpes-cote-d-azur/alpes-de-haute-provence/ab66ee64-eb7a-4bbb-9a11-5dd1656d10e2"}
{"nom":"Pontis","nomNormalise":"pontis","typeCollectivite":"Commune","region":"Provence-Alpes-Côte d'Azur","departement":"Alpes-de-Haute-Provence","departementCode":"04","adresse":{"street":"L'Église","postalCode":"05160","city":"Pontis","country":"France"},"contacts":{"email":"mairiedepontis@wanadoo.fr","telephone":"0492442694"},"horaires":"Le Mardi : de 09h00 à 16h00\nLe Jeudi : de 09h00 à 16h00","latitude":44.5038,"longitude":6.357654,"website":"http://www.pontis.fr/","hasWebsite":true,"hasHoraires":true,"url":"https://lannuaire.service-public.gouv.fr/provence-alpes-cote-d-azur/alpes-de-haute-provence/dbc405b6-9384-4b82-96cd-9083d6e4d99a"}
{"nom":"Prads-Haute-Bléone","nomNormalise":"pradshautebleone","typeCollectivite":"Commune","region":"Provence-Alpes-Côte d'Azur","departement":"Alpes-de-Haute-Provence","departementCode":"04","adresse":{"street":"Place de Prads","postalCode":"04420","city":"Prads-Haute-Bléone","country":"France"},"contacts":{"email":"prads.mairie04@hotmail.fr","telephone":"0492349081"},"horaires":"Du Lundi au Jeudi : de 08h00 à 12h00 de 13h30 à 17h00\nLe Vendredi : de 08h00 à 12h00","latitude":44.219727,"longitude":6.441764,"website":"","hasWebsite":false,"hasHoraires":true,"url":"https://lannuaire.service-public.gouv.fr/provence-alpes-cote-d-azur/alpes-de-haute-provence/57559416-07b3-4a68-825d-f73c736b1f9d"}
{"nom":"Puimichel","nomNormalise":"puimichel","typeCollectivite":"Commune","region":"Provence-Alpes-Côte d'Azur","departement":"Alpes-de-Haute-Provence","departementCode":"04","adresse":{"street":"1 place Delphine-de-Signe","postalCode":"04700","city":"Puimichel","country":"France"},"contacts":{"email":"mairie@puimichel.fr","telephone":"0492786140"},"horaires":"Du Lundi au Mardi : de 13h00 à 17h00","latitude":43.973713,"longitude":6.019643,"website":"https://www.puimichel.fr/","hasWebsite":true,"hasHoraires":true,"url":"https://lannuaire.service-public.gouv.fr/provence-alpes-cote-d-azur/alpes-de-haute-provence/ab9d6c80-f8c2-4608-91a5-2c7643ddc42d"}
{"nom":"Puimoisson","nomNormalise":"puimoisson","typeCollectivite":"Commune","region":"Provence-Alpes-Côte d'Azur","departement":"Alpes-de-Haute-Provence","departementCode":"04","adresse":{"street":"1 place Saint-Éloi","postalCode":"04410","city":"Puimoisson","country":"France"},"contacts":{"email":"mairie.puimoisson@gmail.com","telephone":"0492745401"},"horaires":"Du Lundi au Vendredi : de 09h00 à 12h00","latitude":43.835716,"longitude":6.135509,"website":"https://puimoisson.fr/?cn-reloaded=1","hasWebsite":true,"hasHoraires":true,"url":"https://lannuaire.service-public.gouv.fr/provence-alpes-cote-d-azur/alpes-de-haute-provence/a3c666ba-7f09-45c3-99ce-1817eab99ad3"}
{"nom":"Quinson","nomNormalise":"quinson","typeCollectivite":"Commune","region":"Provence-Alpes-Côte d'Azur","departement":"Alpes-de-Haute-Provence","departementCode":"04","adresse":{"street":"Place de la Mairie","postalCode":"04500","city":"Quinson","country":"France"},"contacts":{"email":"mairie@quinson.fr","telephone":"0492744025"},"horaires":"Du Lundi au Vendredi : de 08h30 à 11h30","latitude":43.7022,"longitude":6.03911,"website":"https://quinson.fr/","hasWebsite":true,"hasHoraires":true,"url":"https://lannuaire.service-public.gouv.fr/provence-alpes-cote-d-azur/alpes-de-haute-provence/a9f85d6b-1f1e-4593-9ea4-04d685c16580"}
{"nom":"Redortiers","nomNormalise":"redortiers","typeCollectivite":"Commune","region":"Provence-Alpes-Côte d'Azur","departement":"Alpes-de-Haute-Provence","departementCode":"04","adresse":{"street":"6001 route Justin-Hugou","postalCode":"04150","city":"Redortiers","country":"France"},"contacts":{"email":"mairie.redortiers@wanadoo.fr","telephone":"0649575625"},"horaires":"Le Lundi : de 13h30 à 17h00","latitude":44.10439,"longitude":5.619336,"website":"","hasWebsite":false,"hasHoraires":true,"url":"https://lannuaire.service-public.gouv.fr/provence-alpes-cote-d-azur/alpes-de-haute-provence/0f28dece-8e68-45c7-b924-6dd67c8c3c7e"}
{"nom":"Reillanne","nomNormalise":"reillanne","typeCollectivite":"Commune","region":"Provence-Alpes-Côte d'Azur","departement":"Alpes-de-Haute-Provence","departementCode":"04","adresse":{"street":"Cours Thierry-d'Argenlieu","postalCode":"04110","city":"Reillanne","country":"France"},"contacts":{"email":"mairie@reillanne.fr","telephone":"0492764207"},"horaires":"Le Lundi : de 08h00 à 12h00\nLe Mardi : de 08h00 à 12h00 de 13h30 à 17h30\nLe Mercredi : de 08h00 à 12h00\nLe Jeudi : de 08h00 à 12h00 de 13h30 à 17h30\nLe Vendredi : de 08h00 à 12h00","latitude":43.8795,"longitude":5.66025,"website":"https://mairiereillanne.com/","hasWebsite":true,"hasHoraires":true,"url":"https://lannuaire.service-public.gouv.fr/provence-alpes-cote-d-azur/alpes-de-haute-provence/d28eb2af-55ca-4085-a031-0f6055304039"}
{"nom":"Revest-des-Brousses","nomNormalise":"revestdesbrousses","typeCollectivite":"Commune","region":"Provence-Alpes-Côte d'Azur","departement":"Alpes-de-Haute-Provence","departementCode":"04","adresse":{"street":"La Place","postalCode":"04150","city":"Revest-des-Brousses","country":"France"},"contacts":{"email":"mairie.revestdesbrousses@orange.fr","telephone":"0492732858"},"horaires":"Le Mardi : de 09h00 à 12h00 de 13h30 à 17h00\nLe Mercredi : de 09h00 à 12h00 de 13h30 à 18h00\nDu Jeudi au Vendredi : de 09h00 à 12h00","latitude":43.97088,"longitude":5.671573,"website":"https://www.revestdesbrousses.fr/","hasWebsite":true,"hasHoraires":true,"url":"https://lannuaire.service-public.gouv.fr/provence-alpes-cote-d-azur/alpes-de-haute-provence/256a0672-2386-4dc6-95c5-98bf51976f1c"}
{"nom":"Revest-du-Bion","nomNormalise":"revestdubion","typeCollectivite":"Commune","region":"Provence-Alpes-Côte d'Azur","departement":"Alpes-de-Haute-Provence","departementCode":"04","adresse":{"street":"100 Avenue Clemenceau","postalCode":"04150","city":"Revest-du-Bion","country":"France"},"contacts":{"email":"mairie.revestdubion@gmail.com","telephone":"0492772226"},"horaires":"Le Lundi : de 08h00 à 12h00\nLe Mercredi : de 08h00 à 12h00\nLe Vendredi : de 08h00 à 12h00","latitude":44.082767,"longitude":5.547984,"website":"https://www.mairie-revestdubion.fr/","hasWebsite":true,"hasHoraires":true,"url":"https://lannuaire.service-public.gouv.fr/provence-alpes-cote-d-azur/alpes-de-haute-provence/5505acc0-5b98-425b-b86f-89ccbbc7e6db"}
{"nom":"Revest-Saint-Martin","nomNormalise":"revestsaintmartin","typeCollectivite":"Commune","region":"Provence-Alpes-Côte d'Azur","departement":"Alpes-de-Haute-Provence","departementCode":"04","adresse":{"street":"Hameau Saint-Martin","postalCode":"04230","city":"Revest-Saint-Martin","country":"France"},"contacts":{"email":"mairie-revest-saint-martin@orange.fr","telephone":"0492758774"},"horaires":"Le Lundi : de 08h00 à 12h00 de 13h00 à 17h00\nLe Jeudi : de 13h00 à 17h00","latitude":44.010937,"longitude":5.826517,"website":"","hasWebsite":false,"hasHoraires":true,"url":"https://lannuaire.service-public.gouv.fr/provence-alpes-cote-d-azur/alpes-de-haute-provence/a850182a-d190-4b2d-b9cc-419e518084b6"}
{"nom":"Riez","nomNormalise":"riez","typeCollectivite":"Commune","region":"Provence-Alpes-Côte d'Azur","departement":"Alpes-de-Haute-Provence","departementCode":"04","adresse":{"street":"1 place de la Mairie","postalCode":"04500","city":"Riez","country":"France"},"contacts":{"email":"mairie@ville-riez.fr","telephone":"0492779900"},"horaires":"Le Lundi : de 09h00 à 12h00 de 14h00 à 17h30\nLe Mardi : de 09h00 à 12h00\nDu Mercredi au Jeudi : de 09h00 à 12h00 de 14h00 à 17h30\nLe Vendredi : de 09h00 à 12h00 de 14h00 à 16h30","latitude":43.818695,"longitude":6.090766,"website":"https://www.ville-riez.fr/","hasWebsite":true,"hasHoraires":true,"url":"https://lannuaire.service-public.gouv.fr/provence-alpes-cote-d-azur/alpes-de-haute-provence/02b14966-0acc-448d-b073-e7d90a8baef5"}
{"nom":"Rougon","nomNormalise":"rougon","typeCollectivite":"Commune","region":"Provence-Alpes-Côte d'Azur","departement":"Alpes-de-Haute-Provence","departementCode":"04","adresse":{"street":"1 place Isidore-Blanc","postalCode":"04120","city":"Rougon","country":"France"},"contacts":{"email":"mairie.rougon@wanadoo.fr","telephone":"0492836632"},"horaires":"Du Lundi au Mardi : de 09h30 à 12h30\nDu Jeudi au Vendredi : de 09h30 à 12h30","latitude":43.79925,"longitude":6.402351,"website":"https://rougon.fr/","hasWebsite":true,"hasHoraires":true,"url":"https://lannuaire.service-public.gouv.fr/provence-alpes-cote-d-azur/alpes-de-haute-provence/9946419f-ed16-4076-ad5f-080df765060f"}
{"nom":"Roumoules","nomNormalise":"roumoules","typeCollectivite":"Commune","region":"Provence-Alpes-Côte d'Azur","departement":"Alpes-de-Haute-Provence","departementCode":"04","adresse":{"street":"34 rue Grande","postalCode":"04500","city":"Roumoules","country":"France"},"contacts":{"email":"mairie@roumoules.fr","telephone":"0492778502"},"horaires":"Du Lundi au Vendredi : de 09h00 à 12h00","latitude":43.825775,"longitude":6.129998,"website":"https://www.roumoules.fr/","hasWebsite":true,"hasHoraires":true,"url":"https://lannuaire.service-public.gouv.fr/provence-alpes-cote-d-azur/alpes-de-haute-provence/1a63f1e1-9a7f-49af-921f-fbf0dacd48ba"}
{"nom":"Saint-André-les-Alpes","nomNormalise":"saintandrelesalpes","typeCollectivite":"Commune","region":"Provence-Alpes-Côte d'Azur","departement":"Alpes-de-Haute-Provence","departementCode":"04","adresse":{"street":"1 place Charles-Bron","postalCode":"04170","city":"Saint-André-les-Alpes","country":"France"},"contacts":{"email":"mairie@saint-andre-les-alpes.fr","telephone":"0492890204"},"horaires":"Le Lundi : de 08h00 à 12h00\nDu Mardi au Jeudi : de 08h00 à 12h00 de 13h30 à 17h00\nLe Vendredi : de 08h00 à 12h00","latitude":43.967545,"longitude":6.508676,"website":"https://www.saint-andre-les-alpes.fr/","hasWebsite":true,"hasHoraires":true,"url":"https://lannuaire.service-public.gouv.fr/provence-alpes-cote-d-azur/alpes-de-haute-provence/1122b8c7-2101-4fa2-bade-8d151e829ea9"}
{"nom":"Saint-Benoît","nomNormalise":"saintbenoit","typeCollectivite":"Commune","region":"Provence-Alpes-Côte d'Azur","departement":"Alpes-de-Haute-Provence","departementCode":"04","adresse":{"street":"Le Village","postalCode":"04240","city":"Saint-Benoît","country":"France"},"contacts":{"email":"contact@saintbenoit04.fr","telephone":"0492833290"},"horaires":"Du Lundi au Mardi : de 08h15 à 12h15 de 12h45 à 16h45\nLe Vendredi : de 08h15 à 12h15 de 12h45 à 16h45","latitude":43.96731,"longitude":6.72553,"website":"https://mairiesaintbenoit.fr/","hasWebsite":true,"hasHoraires":true,"url":"https://lannuaire.service-public.gouv.fr/provence-alpes-cote-d-azur/alpes-de-haute-provence/d1b71f58-4c7d-4352-bbe3-6a9cbc5190d6"}
{"nom":"Sainte-Croix-à-Lauze","nomNormalise":"saintecroixalauze","typeCollectivite":"Commune","region":"Provence-Alpes-Côte d'Azur","departement":"Alpes-de-Haute-Provence","departementCode":"04","adresse":{"street":"496 Grand'Rue","postalCode":"04110","city":"Sainte-Croix-à-Lauze","country":"France"},"contacts":{"email":"mairie@saintecroixalauze.fr","telephone":"0492756413"},"horaires":"Le Lundi : de 08h00 à 12h00","latitude":43.900467,"longitude":5.6136627,"website":"","hasWebsite":false,"hasHoraires":true,"url":"https://lannuaire.service-public.gouv.fr/provence-alpes-cote-d-azur/alpes-de-haute-provence/e0642722-35f5-4912-9d77-0796ec91597d"}
{"nom":"Sainte-Croix-du-Verdon","nomNormalise":"saintecroixduverdon","typeCollectivite":"Commune","region":"Provence-Alpes-Côte d'Azur","departement":"Alpes-de-Haute-Provence","departementCode":"04","adresse":{"street":"Passage Cathy-Falco","postalCode":"04500","city":"Sainte-Croix-du-Verdon","country":"France"},"contacts":{"email":"contact@saintecroixduverdon.fr","telephone":"0492778410"},"horaires":"Du Lundi au Mardi : de 09h00 à 12h00 de 13h30 à 16h00\nDu Jeudi au Vendredi : de 09h00 à 12h00 de 13h30 à 16h00","latitude":43.758877,"longitude":6.1512747,"website":"","hasWebsite":false,"hasHoraires":true,"url":"https://lannuaire.service-public.gouv.fr/provence-alpes-cote-d-azur/alpes-de-haute-provence/c784fdd8-7946-4dc8-bb11-c8ea60aabcaf"}
{"nom":"Saint-Étienne-les-Orgues","nomNormalise":"saintetiennelesorgues","typeCollectivite":"Commune","region":"Provence-Alpes-Côte d'Azur","departement":"Alpes-de-Haute-Provence","departementCode":"04","adresse":{"street":"Place Adrien-Gastinel","postalCode":"04230","city":"Saint-Étienne-les-Orgues","country":"France"},"contacts":{"email":"service@mairieselo.fr","telephone":"0492730200"},"horaires":"Le Lundi : de 08h30 à 12h00\nLe Mardi : de 08h30 à 12h00 de 13h30 à 17h30\nDu Mercredi au Jeudi : de 08h30 à 12h00\nLe Vendredi : de 08h30 à 12h00","latitude":44.0454,"longitude":5.78012,"website":"https://www.saint-etienne-les-orgues.fr/","hasWebsite":true,"hasHoraires":true,"url":"https://lannuaire.service-public.gouv.fr/provence-alpes-cote-d-azur/alpes-de-haute-provence/9029f80e-fe81-45d8-a754-2248e2f29f12"}
{"nom":"Sainte-Tulle","nomNormalise":"saintetulle","typeCollectivite":"Commune","region":"Provence-Alpes-Côte d'Azur","departement":"Alpes-de-Haute-Provence","departementCode":"04","adresse":{"street":"Avenue de la République","postalCode":"04220","city":"Sainte-Tulle","country":"France"},"contacts":{"email":"elus@saintetulle.fr","telephone":"0492782006"},"horaires":"Du Lundi au Vendredi : de 08h30 à 12h00 de 13h30 à 17h30","latitude":43.786106,"longitude":5.765343,"website":"https://www.ville-sainte-tulle.fr/","hasWebsite":true,"hasHoraires":true,"url":"https://lannuaire.service-public.gouv.fr/provence-alpes-cote-d-azur/alpes-de-haute-provence/29d7e080-310b-4f2d-bda3-1fee7b6a1090"}
{"nom":"Saint-Geniez-de-Dromon","nomNormalise":"saintgeniezdedromon","typeCollectivite":"Commune","region":"Provence-Alpes-Côte d'Azur","departement":"Alpes-de-Haute-Provence","departementCode":"04","adresse":{"street":"Le Village","postalCode":"04200","city":"Saint-Geniez","country":"France"},"contacts":{"email":"mairie-st-geniez@orange.fr","telephone":"0492626415"},"horaires":"Le Mardi : de 16h00 à 18h00\nLe Mercredi : de 10h00 à 12h00","latitude":44.24541,"longitude":6.050244,"website":"https://saintgeniezdedromon.fr/","hasWebsite":true,"hasHoraires":true,"url":"https://lannuaire.service-public.gouv.fr/provence-alpes-cote-d-azur/alpes-de-haute-provence/8f6e7aa8-f100-4acb-8ad4-112d2405d6b8"}
{"nom":"Saint-Jacques","nomNormalise":"saintjacques","typeCollectivite":"Commune","region":"Provence-Alpes-Côte d'Azur","departement":"Alpes-de-Haute-Provence","departementCode":"04","adresse":{"street":"Le Village","postalCode":"04330","city":"Saint-Jacques","country":"France"},"contacts":{"email":"mairie@saintjacques04.fr","telephone":"0423360453"},"horaires":"Le Mardi : de 14h30 à 17h30\nLe Jeudi : de 09h00 à 12h00","latitude":43.96916,"longitude":6.375294,"website":"","hasWebsite":false,"hasHoraires":true,"url":"https://lannuaire.service-public.gouv.fr/provence-alpes-cote-d-azur/alpes-de-haute-provence/82d272e7-f219-4ee0-a1a3-a6d6f19ea2a9"}
{"nom":"Saint-Jeannet","nomNormalise":"saintjeannet","typeCollectivite":"Commune","region":"Provence-Alpes-Côte d'Azur","departement":"Alpes-de-Haute-Provence","departementCode":"04","adresse":{"street":"Hôtel de ville","postalCode":"04270","city":"Saint-Jeannet","country":"France"},"contacts":{"email":"","telephone":"0492344300"},"horaires":"Du Lundi au Vendredi : de 09h00 à 12h00","latitude":43.95195,"longitude":6.12379,"website":"","hasWebsite":false,"hasHoraires":true,"url":"https://lannuaire.service-public.gouv.fr/provence-alpes-cote-d-azur/alpes-de-haute-provence/3e757d0d-997e-4a72-83f0-8a817fc18863"}
{"nom":"Saint-Julien-d'Asse","nomNormalise":"saintjuliendasse","typeCollectivite":"Commune","region":"Provence-Alpes-Côte d'Azur","departement":"Alpes-de-Haute-Provence","departementCode":"04","adresse":{"street":"Le village","postalCode":"04270","city":"Saint-Julien-d'Asse","country":"France"},"contacts":{"email":"stjuliendasse@wanadoo.fr","telephone":"0492344380"},"horaires":"Le Mardi : de 08h30 à 12h00 de 13h30 à 17h00\nLe Vendredi : de 08h30 à 12h00 de 13h30 à 17h00","latitude":43.91872,"longitude":6.094028,"website":"","hasWebsite":false,"hasHoraires":true,"url":"https://lannuaire.service-public.gouv.fr/provence-alpes-cote-d-azur/alpes-de-haute-provence/b698291d-c9d0-4bf1-b9fe-24eac07d9870"}
{"nom":"Saint-Julien-du-Verdon","nomNormalise":"saintjulienduverdon","typeCollectivite":"Commune","region":"Provence-Alpes-Côte d'Azur","departement":"Alpes-de-Haute-Provence","departementCode":"04","adresse":{"street":"1 place de la mairie","postalCode":"04170","city":"Saint-Julien-du-Verdon","country":"France"},"contacts":{"email":"mairie.stjulienduverdon@wanadoo.fr","telephone":"0492890582"},"horaires":"Du Lundi au Mardi : de 08h00 à 12h30 de 13h30 à 17h30\nLe Mercredi : de 08h00 à 13h00\nLe Jeudi : de 08h00 à 12h30 de 13h30 à 17h30\nLe Vendredi : de 08h00 à 12h30","latitude":43.913372,"longitude":6.540527,"website":"http://www.saint-julien-du-verdon.fr/","hasWebsite":true,"hasHoraires":true,"url":"https://lannuaire.service-public.gouv.fr/provence-alpes-cote-d-azur/alpes-de-haute-provence/397b1079-4898-4f58-a43b-9e57c243af3c"}
{"nom":"Saint-Jurs","nomNormalise":"saintjurs","typeCollectivite":"Commune","region":"Provence-Alpes-Côte d'Azur","departement":"Alpes-de-Haute-Provence","departementCode":"04","adresse":{"street":"2 Rue de la Forge","postalCode":"04410","city":"Saint-Jurs","country":"France"},"contacts":{"email":"mairie.saint-jurs@orange.fr","telephone":"0492744825"},"horaires":"Le Lundi : de 09h00 à 12h00\nLe Mercredi : de 09h00 à 12h00\nLe Vendredi : de 09h00 à 12h00","latitude":43.89811,"longitude":6.199847,"website":"","hasWebsite":false,"hasHoraires":true,"url":"https://lannuaire.service-public.gouv.fr/provence-alpes-cote-d-azur/alpes-de-haute-provence/150d20ce-ab88-487e-b0a3-8412e5c42af4"}
{"nom":"Saint-Laurent-du-Verdon","nomNormalise":"saintlaurentduverdon","typeCollectivite":"Commune","region":"Provence-Alpes-Côte d'Azur","departement":"Alpes-de-Haute-Provence","departementCode":"04","adresse":{"street":"37 rue de la Fontaine","postalCode":"04500","city":"Saint-Laurent-du-Verdon","country":"France"},"contacts":{"email":"mairie@saint-laurent-du-verdon.fr","telephone":"0492745747"},"horaires":"Du Lundi au Jeudi : de 09h00 à 11h30","latitude":43.724174,"longitude":6.068515,"website":"https://saint-laurent-du-verdon.dlva.fr/","hasWebsite":true,"hasHoraires":true,"url":"https://lannuaire.service-public.gouv.fr/provence-alpes-cote-d-azur/alpes-de-haute-provence/785f3939-31e5-4032-bd6a-be3f306d72ad"}
{"nom":"Saint-Lions","nomNormalise":"saintlions","typeCollectivite":"Commune","region":"Provence-Alpes-Côte d'Azur","departement":"Alpes-de-Haute-Provence","departementCode":"04","adresse":{"street":"12 avenue Demontzey","postalCode":"04330","city":"Saint-Lions","country":"France"},"contacts":{"email":"mairie.saintlions@orange.fr","telephone":"0492342425"},"horaires":"Le Mardi : de 09h30 à 11h30\nLe Jeudi : de 14h00 à 17h00","latitude":44.0667,"longitude":6.3833,"website":"","hasWebsite":false,"hasHoraires":true,"url":"https://lannuaire.service-public.gouv.fr/provence-alpes-cote-d-azur/alpes-de-haute-provence/830f4a47-187f-4699-b176-f5e898896e2a"}
{"nom":"Saint-Maime","nomNormalise":"saintmaime","typeCollectivite":"Commune","region":"Provence-Alpes-Côte d'Azur","departement":"Alpes-de-Haute-Provence","departementCode":"04","adresse":{"street":"12 rue de la Calade","postalCode":"04300","city":"Saint-Maime","country":"France"},"contacts":{"email":"contact@saint-maime.fr","telephone":"0492795815"},"horaires":"Du Lundi au Vendredi : de 08h30 à 12h00\nLe Samedi : de 09h00 à 12h00","latitude":43.903984,"longitude":5.792424,"website":"http://www.saint-maime.fr/","hasWebsite":true,"hasHoraires":true,"url":"https://lannuaire.service-public.gouv.fr/provence-alpes-cote-d-azur/alpes-de-haute-provence/c191184c-55e7-46a7-a116-a1f4f3fa6943"}
{"nom":"Saint-Martin-de-Bromes","nomNormalise":"saintmartindebromes","typeCollectivite":"Commune","region":"Provence-Alpes-Côte d'Azur","departement":"Alpes-de-Haute-Provence","departementCode":"04","adresse":{"street":"Place de la Libération","postalCode":"04800","city":"Saint-Martin-de-Bromes","country":"France"},"contacts":{"email":"mairie-smdb@wanadoo.fr","telephone":"0492780202"},"horaires":"Du Lundi au Mercredi : de 08h00 à 12h00\nDu Jeudi au Vendredi : de 13h30 à 17h30","latitude":43.770252,"longitude":5.944622,"website":"https://www.saint-martin-de-bromes.fr/","hasWebsite":true,"hasHoraires":true,"url":"https://lannuaire.service-public.gouv.fr/provence-alpes-cote-d-azur/alpes-de-haute-provence/98572afe-3235-4e3a-9ead-484f449a66dc"}
{"nom":"Saint-Martin-les-Eaux","nomNormalise":"saintmartinleseaux","typeCollectivite":"Commune","region":"Provence-Alpes-Côte d'Azur","departement":"Alpes-de-Haute-Provence","departementCode":"04","adresse":{"street":"Le Château","postalCode":"04300","city":"Saint-Martin-les-Eaux","country":"France"},"contacts":{"email":"mairie@smle.fr","telephone":"0492722457"},"horaires":"Du Lundi au Vendredi : de 09h00 à 16h30","latitude":43.8751,"longitude":5.73339,"website":"https://www.smle.fr/","hasWebsite":true,"hasHoraires":true,"url":"https://lannuaire.service-public.gouv.fr/provence-alpes-cote-d-azur/alpes-de-haute-provence/957ca49c-233a-4e9f-bb4a-b7dae5a10d23"}
{"nom":"Saint-Martin-lès-Seyne","nomNormalise":"saintmartinlesseyne","typeCollectivite":"Commune","region":"Provence-Alpes-Côte d'Azur","departement":"Alpes-de-Haute-Provence","departementCode":"04","adresse":{"street":"1542 Route du Villard","postalCode":"04140","city":"Saint-Martin-lès-Seyne","country":"France"},"contacts":{"email":"secretariat.general@selonnet.fr","telephone":"0492350638"},"horaires":"Du Lundi au Mardi : de 08h30 à 12h00 de 13h30 à 16h00\nLe Mercredi : de 08h30 à 12h00\nDu Jeudi au Vendredi : de 08h30 à 12h00 de 13h30 à 16h00","latitude":44.38628,"longitude":6.257022,"website":"","hasWebsite":false,"hasHoraires":true,"url":"https://lannuaire.service-public.gouv.fr/provence-alpes-cote-d-azur/alpes-de-haute-provence/68c6ec6d-48fd-4c6a-bd82-1c5031530bda"}
{"nom":"Saint-Michel-l'Observatoire","nomNormalise":"saintmichellobservatoire","typeCollectivite":"Commune","region":"Provence-Alpes-Côte d'Azur","departement":"Alpes-de-Haute-Provence","departementCode":"04","adresse":{"street":"134 Place du Serre","postalCode":"04870","city":"Saint-Michel-l'Observatoire","country":"France"},"contacts":{"email":"mairie.stmichelobs@orange.fr","telephone":"0492766004"},"horaires":"Du Lundi au Mardi : de 13h30 à 17h00\nLe Vendredi : de 13h30 à 17h00\nLe Samedi : de 09h00 à 12h00","latitude":43.909214,"longitude":5.7162814,"website":"https://www.saintmichellobservatoire.com/","hasWebsite":true,"hasHoraires":true,"url":"https://lannuaire.service-public.gouv.fr/provence-alpes-cote-d-azur/alpes-de-haute-provence/9e8a579b-a914-4b3f-ac23-d7923578aab0"}
{"nom":"Saint-Paul-sur-Ubaye","nomNormalise":"saintpaulsurubaye","typeCollectivite":"Commune","region":"Provence-Alpes-Côte d'Azur","departement":"Alpes-de-Haute-Provence","departementCode":"04","adresse":{"street":"Le Village","postalCode":"04530","city":"Saint-Paul-sur-Ubaye","country":"France"},"contacts":{"email":"mairie.stpaul.ubaye@orange.fr","telephone":"0492843109"},"horaires":"Du Lundi au Mardi : de 09h00 à 12h00\nDu Jeudi au Samedi : de 09h00 à 12h00","latitude":44.5148,"longitude":6.74992,"website":"https://www.mairie-saint-paul-ubaye.com/","hasWebsite":true,"hasHoraires":true,"url":"https://lannuaire.service-public.gouv.fr/provence-alpes-cote-d-azur/alpes-de-haute-provence/f73592eb-6b88-49c2-b9f8-b6e724e0c620"}
{"nom":"Saint-Pierre","nomNormalise":"saintpierre","typeCollectivite":"Commune","region":"Provence-Alpes-Côte d'Azur","departement":"Alpes-de-Haute-Provence","departementCode":"04","adresse":{"street":"Salle Polyvalente","postalCode":"06260","city":"Saint-Pierre","country":"France"},"contacts":{"email":"mairiedesaintpierre@wanadoo.fr","telephone":"0493058017"},"horaires":"Le Lundi : de 09h00 à 11h30\nLe Mardi : de 09h00 à 11h00\nLe Jeudi : de 09h00 à 11h00\nLe Vendredi : de 09h00 à 11h30","latitude":43.912594,"longitude":6.924252,"website":"","hasWebsite":false,"hasHoraires":true,"url":"https://lannuaire.service-public.gouv.fr/provence-alpes-cote-d-azur/alpes-de-haute-provence/40d16a08-5923-4a11-bd42-f1e996deaf1c"}
{"nom":"Saint-Pons","nomNormalise":"saintpons","typeCollectivite":"Commune","region":"Provence-Alpes-Côte d'Azur","departement":"Alpes-de-Haute-Provence","departementCode":"04","adresse":{"street":"Le Village","postalCode":"04400","city":"Saint-Pons","country":"France"},"contacts":{"email":"mairie@saintpons04.fr","telephone":"0492810925"},"horaires":"Le Lundi : de 13h30 à 17h00\nLe Mardi : de 13h30 à 17h00\nLe Mercredi : de 08h30 à 12h00\nLe Vendredi : de 13h30 à 17h00","latitude":44.392582,"longitude":6.628354,"website":"https://www.saintpons-ubaye.fr/","hasWebsite":true,"hasHoraires":true,"url":"https://lannuaire.service-public.gouv.fr/provence-alpes-cote-d-azur/alpes-de-haute-provence/346e7a13-e05b-4750-bc87-e716bb17c0c0"}
{"nom":"Mairie déléguée - Saint-Vincent-les-Forts","nomNormalise":"mairiedelegueesaintvincentlesforts","typeCollectivite":"Commune","region":"Provence-Alpes-Côte d'Azur","departement":"Alpes-de-Haute-Provence","departementCode":"04","adresse":{"street":"Le Village","postalCode":"04340","city":"Ubaye-Serre-Ponçon","country":"France"},"contacts":{"email":"accueil@mairie-usp.fr","telephone":"0492855208"},"horaires":"Le Lundi : de 08h30 à 12h00\nLe Vendredi : de 08h30 à 12h00 de 13h30 à 16h30\n\nPermanence du maire sur rendez-vous.","latitude":44.44505,"longitude":6.373002,"website":"https://www.ubaye-serre-poncon.fr/","hasWebsite":true,"hasHoraires":true,"url":"https://lannuaire.service-public.gouv.fr/provence-alpes-cote-d-azur/alpes-de-haute-provence/8a15d7d5-f016-49f9-b3cf-d410179d311b"}
{"nom":"Saint-Vincent-sur-Jabron","nomNormalise":"saintvincentsurjabron","typeCollectivite":"Commune","region":"Provence-Alpes-Côte d'Azur","departement":"Alpes-de-Haute-Provence","departementCode":"04","adresse":{"street":"Le Village","postalCode":"04200","city":"Saint-Vincent-sur-Jabron","country":"France"},"contacts":{"email":"mairie.stvincentsurjabron@wanadoo.fr","telephone":"0492620056"},"horaires":"Du Lundi au Mardi : de 08h30 à 12h00\nDu Jeudi au Vendredi : de 08h30 à 12h00","latitude":44.171375,"longitude":5.742199,"website":"","hasWebsite":false,"hasHoraires":true,"url":"https://lannuaire.service-public.gouv.fr/provence-alpes-cote-d-azur/alpes-de-haute-provence/9ba9951f-9ff5-49c8-b75f-4df31072834b"}
{"nom":"Salignac","nomNormalise":"salignac","typeCollectivite":"Commune","region":"Provence-Alpes-Côte d'Azur","departement":"Alpes-de-Haute-Provence","departementCode":"04","adresse":{"street":"1050 route du Village","postalCode":"04290","city":"Salignac","country":"France"},"contacts":{"email":"salignachp@orange.fr","telephone":"0492613128"},"horaires":"Le Lundi : de 08h00 à 12h00 de 13h30 à 17h00\nLe Mardi : de 13h30 à 17h00\nDu Jeudi au Vendredi : de 08h00 à 12h00 de 13h30 à 17h00","latitude":44.157467,"longitude":5.983099,"website":"https://www.salignac04.fr/","hasWebsite":true,"hasHoraires":true,"url":"https://lannuaire.service-public.gouv.fr/provence-alpes-cote-d-azur/alpes-de-haute-provence/aaabceed-5be7-41bf-84d3-b1824973b913"}
{"nom":"Saumane","nomNormalise":"saumane","typeCollectivite":"Commune","region":"Provence-Alpes-Côte d'Azur","departement":"Alpes-de-Haute-Provence","departementCode":"04","adresse":{"street":"Grand'place","postalCode":"04150","city":"Saumane","country":"France"},"contacts":{"email":"mairie-de-saumane@wanadoo.fr","telephone":"0492733822"},"horaires":"Du Lundi au Mardi : de 09h00 à 12h00\nLe Jeudi : de 09h00 à 12h00 de 14h00 à 16h00\nLe Vendredi : de 09h00 à 12h00","latitude":44.082638,"longitude":5.683385,"website":"","hasWebsite":false,"hasHoraires":true,"url":"https://lannuaire.service-public.gouv.fr/provence-alpes-cote-d-azur/alpes-de-haute-provence/bf6e5196-ec0a-4567-b886-9f784db9c4df"}
{"nom":"Sausses","nomNormalise":"sausses","typeCollectivite":"Commune","region":"Provence-Alpes-Côte d'Azur","departement":"Alpes-de-Haute-Provence","departementCode":"04","adresse":{"street":"Place Saint-Joseph","postalCode":"04320","city":"Sausses","country":"France"},"contacts":{"email":"mairie@sausses.fr","telephone":"0493054556"},"horaires":"Le Lundi : de 08h00 à 12h00 de 13h00 à 17h00\nLe Mercredi : de 08h00 à 12h00 de 13h00 à 17h00\nLe Vendredi : de 08h00 à 12h00","latitude":44.008286,"longitude":6.780888,"website":"https://www.sausses.fr/","hasWebsite":true,"hasHoraires":true,"url":"https://lannuaire.service-public.gouv.fr/provence-alpes-cote-d-azur/alpes-de-haute-provence/2281b1dd-372c-45b2-84ba-2ce71ddae2f5"}
{"nom":"Selonnet","nomNormalise":"selonnet","typeCollectivite":"Commune","region":"Provence-Alpes-Côte d'Azur","departement":"Alpes-de-Haute-Provence","departementCode":"04","adresse":{"street":"59 Place du Champ de Foire","postalCode":"04140","city":"Selonnet","country":"France"},"contacts":{"email":"accueil@selonnet.fr","telephone":"0492350638"},"horaires":"Du Lundi au Mardi : de 08h30 à 12h00 de 13h30 à 16h00\nLe Mercredi : de 08h30 à 12h00\nDu Jeudi au Vendredi : de 08h30 à 12h00 de 13h30 à 16h00\nLe Samedi : de 10h00 à 12h00","latitude":44.371094,"longitude":6.312353,"website":"http://www.selonnet.fr/","hasWebsite":true,"hasHoraires":true,"url":"https://lannuaire.service-public.gouv.fr/provence-alpes-cote-d-azur/alpes-de-haute-provence/459ddc65-87d2-4470-bd5c-94e28d4bdc53"}
{"nom":"Senez","nomNormalise":"senez","typeCollectivite":"Commune","region":"Provence-Alpes-Côte d'Azur","departement":"Alpes-de-Haute-Provence","departementCode":"04","adresse":{"street":"7 route de la Bonde","postalCode":"04330","city":"Senez-le-Poil","country":"France"},"contacts":{"email":"mairie@senez.fr","telephone":"0492342104"},"horaires":"Du Lundi au Mardi : de 09h00 à 12h00 de 13h30 à 16h00\nLe Mercredi : de 09h00 à 12h00\nDu Jeudi au Vendredi : de 09h00 à 12h00 de 13h30 à 16h00","latitude":43.914272,"longitude":6.406925,"website":"","hasWebsite":false,"hasHoraires":true,"url":"https://lannuaire.service-public.gouv.fr/provence-alpes-cote-d-azur/alpes-de-haute-provence/4b5ea1e7-6d73-4599-9fd8-49b50b119f9c"}
{"nom":"Seyne","nomNormalise":"seyne","typeCollectivite":"Commune","region":"Provence-Alpes-Côte d'Azur","departement":"Alpes-de-Haute-Provence","departementCode":"04","adresse":{"street":"79 Grand-Rue","postalCode":"04140","city":"Seyne","country":"France"},"contacts":{"email":"mairie@seyne.fr","telephone":"0492350042"},"horaires":"Le Lundi : de 14h00 à 17h00\nLe Mardi : de 09h00 à 12h00 de 14h00 à 19h00\nLe Mercredi : de 09h00 à 12h00\nLe Jeudi : de 09h00 à 12h00 de 14h00 à 17h00\nDu Vendredi au Samedi : de 09h00 à 12h00","latitude":44.35061,"longitude":6.35474,"website":"https://www.seyne.fr/","hasWebsite":true,"hasHoraires":true,"url":"https://lannuaire.service-public.gouv.fr/provence-alpes-cote-d-azur/alpes-de-haute-provence/8d4378c3-a23b-42f7-910b-92562de16f4d"}
{"nom":"Sigonce","nomNormalise":"sigonce","typeCollectivite":"Commune","region":"Provence-Alpes-Côte d'Azur","departement":"Alpes-de-Haute-Provence","departementCode":"04","adresse":{"street":"3 place de la Mairie","postalCode":"04300","city":"Sigonce","country":"France"},"contacts":{"email":"accueil-mairie@sigonce.fr","telephone":"0492750396"},"horaires":"Le Mardi : de 08h00 à 11h45 de 13h00 à 17h00\nDu Jeudi au Vendredi : de 08h00 à 11h45","latitude":43.997,"longitude":5.840755,"website":"https://www.sigonce.fr/","hasWebsite":true,"hasHoraires":true,"url":"https://lannuaire.service-public.gouv.fr/provence-alpes-cote-d-azur/alpes-de-haute-provence/d8e6fc2e-9c88-4f88-b988-3225be5eccae"}
{"nom":"Sigoyer","nomNormalise":"sigoyer","typeCollectivite":"Commune","region":"Provence-Alpes-Côte d'Azur","departement":"Alpes-de-Haute-Provence","departementCode":"04","adresse":{"street":"19 place de la Mairie","postalCode":"04200","city":"Sigoyer","country":"France"},"contacts":{"email":"mairiesigoyer04@orange.fr","telephone":"0492621533"},"horaires":"Le Mardi : de 10h00 à 16h00","latitude":44.318684,"longitude":5.958776,"website":"","hasWebsite":false,"hasHoraires":true,"url":"https://lannuaire.service-public.gouv.fr/provence-alpes-cote-d-azur/alpes-de-haute-provence/5610caad-afc8-4783-bef9-e447a68df521"}
{"nom":"Simiane-la-Rotonde","nomNormalise":"simianelarotonde","typeCollectivite":"Commune","region":"Provence-Alpes-Côte d'Azur","departement":"Alpes-de-Haute-Provence","departementCode":"04","adresse":{"street":"Place René Char","postalCode":"04150","city":"Simiane-la-Rotonde","country":"France"},"contacts":{"email":"mairie@simianelarotonde.fr","telephone":"0492759140"},"horaires":"Le Lundi : de 14h00 à 17h00\nLe Jeudi : de 09h00 à 12h00\nLe Vendredi : de 14h00 à 17h00","latitude":43.979614,"longitude":5.564058,"website":"https://www.mairie-simiane-la-rotonde.fr/","hasWebsite":true,"hasHoraires":true,"url":"https://lannuaire.service-public.gouv.fr/provence-alpes-cote-d-azur/alpes-de-haute-provence/d478a683-f025-4079-810f-bad58326cb5b"}
{"nom":"Sisteron","nomNormalise":"sisteron","typeCollectivite":"Commune","region":"Provence-Alpes-Côte d'Azur","departement":"Alpes-de-Haute-Provence","departementCode":"04","adresse":{"street":"4 place de la République","postalCode":"04200","city":"Sisteron","country":"France"},"contacts":{"email":"mairie@sisteron.fr","telephone":"0492610037"},"horaires":"Du Lundi au Jeudi : de 08h30 à 12h00 de 13h30 à 17h30\nLe Vendredi : de 08h30 à 12h00 de 13h30 à 17h00","latitude":44.194855,"longitude":5.9425735,"website":"http://www.sisteron.fr/","hasWebsite":true,"hasHoraires":true,"url":"https://lannuaire.service-public.gouv.fr/provence-alpes-cote-d-azur/alpes-de-haute-provence/4077ed48-bb51-4a5c-b661-b70a4b20ba8d"}
{"nom":"Soleilhas","nomNormalise":"soleilhas","typeCollectivite":"Commune","region":"Provence-Alpes-Côte d'Azur","departement":"Alpes-de-Haute-Provence","departementCode":"04","adresse":{"street":"59 rue Clastre","postalCode":"04120","city":"Soleilhas","country":"France"},"contacts":{"email":"contact@mairiesoleilhas.fr","telephone":"0493604287"},"horaires":"Du Mardi au Vendredi : de 08h30 à 17h00","latitude":43.85699,"longitude":6.649743,"website":"http://www.soleilhas.fr/","hasWebsite":true,"hasHoraires":true,"url":"https://lannuaire.service-public.gouv.fr/provence-alpes-cote-d-azur/alpes-de-haute-provence/7037b2cc-0e8c-43f3-95fb-3251ee955bf5"}
{"nom":"Sourribes","nomNormalise":"sourribes","typeCollectivite":"Commune","region":"Provence-Alpes-Côte d'Azur","departement":"Alpes-de-Haute-Provence","departementCode":"04","adresse":{"street":"25 Place Albert-Burle","postalCode":"04290","city":"Sourribes","country":"France"},"contacts":{"email":"mairie.sourribes@wanadoo.fr","telephone":"0492643024"},"horaires":"Le Mardi : de 09h00 à 12h00 de 14h00 à 18h00\nLe Jeudi : de 09h00 à 12h00 de 14h00 à 18h00","latitude":44.148026,"longitude":6.015459,"website":"http://sourribes.fr/","hasWebsite":true,"hasHoraires":true,"url":"https://lannuaire.service-public.gouv.fr/provence-alpes-cote-d-azur/alpes-de-haute-provence/52fc511b-1508-428d-b52d-b73a859b1193"}
{"nom":"Tartonne","nomNormalise":"tartonne","typeCollectivite":"Commune","region":"Provence-Alpes-Côte d'Azur","departement":"Alpes-de-Haute-Provence","departementCode":"04","adresse":{"street":"Mairie","postalCode":"04330","city":"Tartonne","country":"France"},"contacts":{"email":"tartonne-mairie@tartonne.fr","telephone":"0492342179"},"horaires":"Le Mercredi : de 09h00 à 12h00\nLe Vendredi : de 09h00 à 13h00","latitude":44.07055,"longitude":6.388269,"website":"","hasWebsite":false,"hasHoraires":true,"url":"https://lannuaire.service-public.gouv.fr/provence-alpes-cote-d-azur/alpes-de-haute-provence/daf41162-5833-4197-a7a3-846a434047f9"}
{"nom":"Thèze","nomNormalise":"theze","typeCollectivite":"Commune","region":"Provence-Alpes-Côte d'Azur","departement":"Alpes-de-Haute-Provence","departementCode":"04","adresse":{"street":"80 Chemin de l'Éclause","postalCode":"04200","city":"Thèze","country":"France"},"contacts":{"email":"mairie.theze@wanadoo.fr","telephone":"0492621294"},"horaires":"Le Lundi : de 13h00 à 16h00\nLe Jeudi : de 13h00 à 16h00","latitude":44.32006,"longitude":5.924602,"website":"","hasWebsite":false,"hasHoraires":true,"url":"https://lannuaire.service-public.gouv.fr/provence-alpes-cote-d-azur/alpes-de-haute-provence/e3721b9f-037a-424d-8126-046fa25a845d"}
{"nom":"Thoard","nomNormalise":"thoard","typeCollectivite":"Commune","region":"Provence-Alpes-Côte d'Azur","departement":"Alpes-de-Haute-Provence","departementCode":"04","adresse":{"street":"1 boulevard Paul-Avignon","postalCode":"04380","city":"Thoard","country":"France"},"contacts":{"email":"mairie@thoard04.fr","telephone":"0492346374"},"horaires":"Le Lundi : de 08h00 à 12h00 de 13h00 à 15h00\nLe Mardi : de 08h00 à 12h00\nLe Mercredi : de 08h00 à 12h00 de 13h00 à 15h00\nDu Jeudi au Vendredi : de 08h00 à 12h00","latitude":44.150295,"longitude":6.14929,"website":"https://www.thoard04.fr/","hasWebsite":true,"hasHoraires":true,"url":"https://lannuaire.service-public.gouv.fr/provence-alpes-cote-d-azur/alpes-de-haute-provence/7acfaf52-f10a-464b-9517-ff75d1b21508"}
{"nom":"Thorame-Basse","nomNormalise":"thoramebasse","typeCollectivite":"Commune","region":"Provence-Alpes-Côte d'Azur","departement":"Alpes-de-Haute-Provence","departementCode":"04","adresse":{"street":"Place de la Mairie","postalCode":"04170","city":"Thorame-Basse","country":"France"},"contacts":{"email":"mairie.thoramebasse@orange.fr","telephone":"0492839297"},"horaires":"Le Mardi : de 13h30 à 17h00\nLe Vendredi : de 08h30 à 12h00","latitude":44.09054,"longitude":6.499424,"website":"https://www.thorame-basse.fr/","hasWebsite":true,"hasHoraires":true,"url":"https://lannuaire.service-public.gouv.fr/provence-alpes-cote-d-azur/alpes-de-haute-provence/6fb02914-7063-4400-9fec-d116b24a6e1f"}
{"nom":"Thorame-Haute","nomNormalise":"thoramehaute","typeCollectivite":"Commune","region":"Provence-Alpes-Côte d'Azur","departement":"Alpes-de-Haute-Provence","departementCode":"04","adresse":{"street":"12 route du lac","postalCode":"04170","city":"Thorame-Haute","country":"France"},"contacts":{"email":"mairie.thoramehaute@orange.fr","telephone":"0492839086"},"horaires":"Le Mardi : de 08h30 à 12h00\nLe Jeudi : de 08h30 à 12h00","latitude":44.096725,"longitude":6.554709,"website":"https://www.thorame-haute.fr/","hasWebsite":true,"hasHoraires":true,"url":"https://lannuaire.service-public.gouv.fr/provence-alpes-cote-d-azur/alpes-de-haute-provence/d38b0fe9-8810-4f3c-b43b-ade9dc87a0d6"}
{"nom":"Turriers","nomNormalise":"turriers","typeCollectivite":"Commune","region":"Provence-Alpes-Côte d'Azur","departement":"Alpes-de-Haute-Provence","departementCode":"04","adresse":{"street":"70 place Pierre-Franco","postalCode":"04250","city":"Turriers","country":"France"},"contacts":{"email":"mairie.turriers04@wanadoo.fr","telephone":"0492551128"},"horaires":"Du Lundi au Mardi : de 08h30 à 12h00 de 13h00 à 17h00\nLe Jeudi : de 08h30 à 12h00 de 13h00 à 17h00\nLe Vendredi : de 08h30 à 12h00","latitude":44.401413,"longitude":6.168472,"website":"http://www.turriers.net/","hasWebsite":true,"hasHoraires":true,"url":"https://lannuaire.service-public.gouv.fr/provence-alpes-cote-d-azur/alpes-de-haute-provence/d91b918c-1575-439a-b5c4-7b44f6fc9647"}
{"nom":"Ubaye-Serre-Ponçon","nomNormalise":"ubayeserreponcon","typeCollectivite":"Commune","region":"Provence-Alpes-Côte d'Azur","departement":"Alpes-de-Haute-Provence","departementCode":"04","adresse":{"street":"La Bréole","postalCode":"04340","city":"Ubaye-Serre-Ponçon","country":"France"},"contacts":{"email":"accueil@mairie-usp.fr","telephone":"0492855261"},"horaires":"Du Lundi au Vendredi : de 09h00 à 12h00 de 13h30 à 17h00","latitude":44.456573,"longitude":6.294086,"website":"http://ubaye-serre-poncon.fr/","hasWebsite":true,"hasHoraires":true,"url":"https://lannuaire.service-public.gouv.fr/provence-alpes-cote-d-azur/alpes-de-haute-provence/64680caf-9ca7-46b5-b989-5af86df7934d"}
{"nom":"Ubraye","nomNormalise":"ubraye","typeCollectivite":"Commune","region":"Provence-Alpes-Côte d'Azur","departement":"Alpes-de-Haute-Provence","departementCode":"04","adresse":{"street":"Le Village","postalCode":"04240","city":"Ubraye","country":"France"},"contacts":{"email":"mairie-ubraye@orange.fr","telephone":"0492832828"},"horaires":"Du Lundi au Mardi : de 09h30 à 15h00\nLe Jeudi : de 09h30 à 15h00","latitude":43.90835,"longitude":6.696325,"website":"https://www.ubraye.com/","hasWebsite":true,"hasHoraires":true,"url":"https://lannuaire.service-public.gouv.fr/provence-alpes-cote-d-azur/alpes-de-haute-provence/a79d8df8-b3f4-41dd-9df9-91d06d1aacb3"}
{"nom":"Uvernet-Fours","nomNormalise":"uvernetfours","typeCollectivite":"Commune","region":"Provence-Alpes-Côte d'Azur","departement":"Alpes-de-Haute-Provence","departementCode":"04","adresse":{"street":"Place de la Mairie","postalCode":"04400","city":"Uvernet-Fours","country":"France"},"contacts":{"email":"mairie.uvernet-fours@orange.fr","telephone":"0492808000"},"horaires":"Le Lundi : de 09h00 à 12h00 de 14h00 à 17h00\nLe Mardi : de 14h00 à 17h00\nDu Mercredi au Vendredi : de 09h00 à 12h00 de 14h00 à 17h00","latitude":44.359135,"longitude":6.627546,"website":"https://www.uvernet-fours.fr/","hasWebsite":true,"hasHoraires":true,"url":"https://lannuaire.service-public.gouv.fr/provence-alpes-cote-d-azur/alpes-de-haute-provence/d4a0aeeb-7e25-4e36-92e7-cfcf3b1599c4"}
{"nom":"Vachères","nomNormalise":"vacheres","typeCollectivite":"Commune","region":"Provence-Alpes-Côte d'Azur","departement":"Alpes-de-Haute-Provence","departementCode":"04","adresse":{"street":"27 place de la Mairie","postalCode":"04110","city":"Vachères","country":"France"},"contacts":{"email":"secretariat@mairie-vacheres.fr","telephone":"0492756215"},"horaires":"Le Lundi : de 08h30 à 12h30\nLe Mardi : de 09h00 à 12h00\nDu Mercredi au Vendredi : de 08h30 à 12h30\nLe Samedi : de 09h00 à 12h00","latitude":43.93125,"longitude":5.637742,"website":"https://www.mairie-vacheres.fr/","hasWebsite":true,"hasHoraires":true,"url":"https://lannuaire.service-public.gouv.fr/provence-alpes-cote-d-azur/alpes-de-haute-provence/c2f3b864-6a03-41be-b23e-91a640df3fcf"}
{"nom":"Valavoire","nomNormalise":"valavoire","typeCollectivite":"Commune","region":"Provence-Alpes-Côte d'Azur","departement":"Alpes-de-Haute-Provence","departementCode":"04","adresse":{"street":"15 Calade de la Mairie","postalCode":"04250","city":"Valavoire","country":"France"},"contacts":{"email":"mairie-de-valavoire@wanadoo.fr","telephone":"0964266250"},"horaires":"Le Lundi : de 09h30 à 12h00 de 14h00 à 16h30\nLe Jeudi : de 14h00 à 16h30","latitude":44.27908,"longitude":6.066376,"website":"https://valavoire.fr/","hasWebsite":true,"hasHoraires":true,"url":"https://lannuaire.service-public.gouv.fr/provence-alpes-cote-d-azur/alpes-de-haute-provence/6406f9c3-a680-4e92-8915-41ba1df7cd22"}
{"nom":"Valbelle","nomNormalise":"valbelle","typeCollectivite":"Commune","region":"Provence-Alpes-Côte d'Azur","departement":"Alpes-de-Haute-Provence","departementCode":"04","adresse":{"street":"Le Village","postalCode":"04200","city":"Valbelle","country":"France"},"contacts":{"email":"mairiedevalbelle@wanadoo.fr","telephone":"0492628659"},"horaires":"Du Mardi au Jeudi : de 08h30 à 12h00","latitude":44.15099,"longitude":5.87634,"website":"","hasWebsite":false,"hasHoraires":true,"url":"https://lannuaire.service-public.gouv.fr/provence-alpes-cote-d-azur/alpes-de-haute-provence/393b015d-388c-4389-93bb-915b8b8c63d6"}
{"nom":"Val-d'Oronaye","nomNormalise":"valdoronaye","typeCollectivite":"Commune","region":"Provence-Alpes-Côte d'Azur","departement":"Alpes-de-Haute-Provence","departementCode":"04","adresse":{"street":"2 rue François-de-Meyronnes","postalCode":"04530","city":"Val-d'Oronaye","country":"France"},"contacts":{"email":"mairie@valdoronaye.fr","telephone":"0492843049"},"horaires":"Du Lundi au Vendredi : de 08h30 à 12h00 de 14h00 à 16h00","latitude":44.47605,"longitude":6.7986603,"website":"https://www.valdoronaye.fr/","hasWebsite":true,"hasHoraires":true,"url":"https://lannuaire.service-public.gouv.fr/provence-alpes-cote-d-azur/alpes-de-haute-provence/7b2b9666-49d0-477c-a6f1-f5c5e0b3dcd0"}
{"nom":"Val-de-Chalvagne","nomNormalise":"valdechalvagne","typeCollectivite":"Commune","region":"Provence-Alpes-Côte d'Azur","departement":"Alpes-de-Haute-Provence","departementCode":"04","adresse":{"street":"Hameau Castellet-Saint-Cassien","postalCode":"04320","city":"Val-de-Chalvagne","country":"France"},"contacts":{"email":"mairie@val-de-chalvagne.fr","telephone":"0493054029"},"horaires":"Le Lundi : de 08h30 à 12h00 de 13h30 à 17h00\nLe Mardi : de 13h30 à 17h00\nLe Jeudi : de 13h30 à 17h00\nLe Vendredi : de 08h30 à 12h00 de 13h30 à 17h00","latitude":43.914948,"longitude":6.807721,"website":"http://www.val-de-chalvagne.fr/","hasWebsite":true,"hasHoraires":true,"url":"https://lannuaire.service-public.gouv.fr/provence-alpes-cote-d-azur/alpes-de-haute-provence/de3a8720-a71b-42f4-838d-fa23029e1617"}
{"nom":"Valensole","nomNormalise":"valensole","typeCollectivite":"Commune","region":"Provence-Alpes-Côte d'Azur","departement":"Alpes-de-Haute-Provence","departementCode":"04","adresse":{"street":"2 Place Frédéric-Mistral","postalCode":"04210","city":"Valensole","country":"France"},"contacts":{"email":"mairie.valensole@wanadoo.fr","telephone":"0492748013"},"horaires":"Du Lundi au Jeudi : de 08h00 à 12h00 de 15h00 à 17h00\nLe Vendredi : de 08h00 à 12h00 de 15h00 à 16h30","latitude":43.83708,"longitude":5.986327,"website":"https://www.valensole.fr/","hasWebsite":true,"hasHoraires":true,"url":"https://lannuaire.service-public.gouv.fr/provence-alpes-cote-d-azur/alpes-de-haute-provence/0d631940-1ee5-49e0-b741-9d2a7ee35acc"}
{"nom":"Valernes","nomNormalise":"valernes","typeCollectivite":"Commune","region":"Provence-Alpes-Côte d'Azur","departement":"Alpes-de-Haute-Provence","departementCode":"04","adresse":{"street":"Le Village","postalCode":"04200","city":"Valernes","country":"France"},"contacts":{"email":"mairie-de-valernes@orange.fr","telephone":"0492621646"},"horaires":"Le Mardi : de 09h00 à 12h00\nLe Vendredi : de 09h00 à 12h00","latitude":44.26189,"longitude":5.958947,"website":"https://www.valernes.fr/","hasWebsite":true,"hasHoraires":true,"url":"https://lannuaire.service-public.gouv.fr/provence-alpes-cote-d-azur/alpes-de-haute-provence/6cc3fc41-1604-43ce-aaa3-85039367e39c"}
{"nom":"Vaumeilh","nomNormalise":"vaumeilh","typeCollectivite":"Commune","region":"Provence-Alpes-Côte d'Azur","departement":"Alpes-de-Haute-Provence","departementCode":"04","adresse":{"street":"19 montée du Château","postalCode":"04200","city":"Vaumeilh","country":"France"},"contacts":{"email":"mairie.vaumeilh@wanadoo.fr","telephone":"0492621006"},"horaires":"Le Lundi : de 13h30 à 17h30\nLe Jeudi : de 08h30 à 12h00","latitude":44.28846,"longitude":5.95792,"website":"","hasWebsite":false,"hasHoraires":true,"url":"https://lannuaire.service-public.gouv.fr/provence-alpes-cote-d-azur/alpes-de-haute-provence/4104351b-e5d6-47f0-a6cc-66ffa518d0a1"}
{"nom":"Venterol","nomNormalise":"venterol","typeCollectivite":"Commune","region":"Provence-Alpes-Côte d'Azur","departement":"Alpes-de-Haute-Provence","departementCode":"04","adresse":{"street":"61 chemin des Barnoux","postalCode":"05130","city":"Venterol","country":"France"},"contacts":{"email":"mairie@venterol-04.fr","telephone":"0492541212"},"horaires":"Du Lundi au Mardi : de 09h00 à 12h00 de 14h00 à 17h00\nLe Jeudi : de 14h00 à 17h00\nLe Vendredi : de 09h00 à 12h00","latitude":44.4431,"longitude":6.1005,"website":"https://venterol-04.fr/","hasWebsite":true,"hasHoraires":true,"url":"https://lannuaire.service-public.gouv.fr/provence-alpes-cote-d-azur/alpes-de-haute-provence/50191a51-16e4-4d53-aab9-cc454a0878b1"}
{"nom":"Verdaches","nomNormalise":"verdaches","typeCollectivite":"Commune","region":"Provence-Alpes-Côte d'Azur","departement":"Alpes-de-Haute-Provence","departementCode":"04","adresse":{"street":"Le Village","postalCode":"04140","city":"Verdaches","country":"France"},"contacts":{"email":"mairie.de.verdaches@orange.fr","telephone":"0492351099"},"horaires":"Le Lundi : de 07h30 à 16h30\nDu Mercredi au Jeudi : de 07h30 à 12h00","latitude":44.263184,"longitude":6.341112,"website":"http://www.verdaches.jimdo.com/","hasWebsite":true,"hasHoraires":true,"url":"https://lannuaire.service-public.gouv.fr/provence-alpes-cote-d-azur/alpes-de-haute-provence/e003efd8-888b-46b4-8dbf-02de5a624356"}
{"nom":"Vergons","nomNormalise":"vergons","typeCollectivite":"Commune","region":"Provence-Alpes-Côte d'Azur","departement":"Alpes-de-Haute-Provence","departementCode":"04","adresse":{"street":"16 place des Vergunni","postalCode":"04170","city":"Vergons","country":"France"},"contacts":{"email":"mairie-vergons@orange.fr","telephone":"0492890019"},"horaires":"Le Mercredi : de 13h30 à 16h30\nLe Vendredi : de 13h30 à 16h30","latitude":43.91386,"longitude":6.588521,"website":"","hasWebsite":false,"hasHoraires":true,"url":"https://lannuaire.service-public.gouv.fr/provence-alpes-cote-d-azur/alpes-de-haute-provence/b8673a4d-ef41-4848-b071-3ed8014f0c10"}
{"nom":"Villars-Colmars","nomNormalise":"villarscolmars","typeCollectivite":"Commune","region":"Provence-Alpes-Côte d'Azur","departement":"Alpes-de-Haute-Provence","departementCode":"04","adresse":{"street":"14 place de la Mairie","postalCode":"04370","city":"Villars-Colmars","country":"France"},"contacts":{"email":"mairie@villars-colmars.fr","telephone":"0492834301"},"horaires":"Le Lundi : de 13h30 à 17h00\nDu Jeudi au Vendredi : de 08h30 à 12h00","latitude":44.16913,"longitude":6.606088,"website":"https://www.villars-colmars.fr/","hasWebsite":true,"hasHoraires":true,"url":"https://lannuaire.service-public.gouv.fr/provence-alpes-cote-d-azur/alpes-de-haute-provence/6bbe0d45-6910-4956-ba66-a0d30274bdcb"}
{"nom":"Villemus","nomNormalise":"villemus","typeCollectivite":"Commune","region":"Provence-Alpes-Côte d'Azur","departement":"Alpes-de-Haute-Provence","departementCode":"04","adresse":{"street":"1 chemin de la Source","postalCode":"04110","city":"Villemus","country":"France"},"contacts":{"email":"mairie.villemus@gmail.com","telephone":"0492764472"},"horaires":"Le Jeudi : de 09h30 à 12h00 de 14h00 à 17h00","latitude":43.85834,"longitude":5.701476,"website":"","hasWebsite":false,"hasHoraires":true,"url":"https://lannuaire.service-public.gouv.fr/provence-alpes-cote-d-azur/alpes-de-haute-provence/753f6054-7e50-40d2-bebe-0906703b9b39"}
{"nom":"Villeneuve","nomNormalise":"villeneuve","typeCollectivite":"Commune","region":"Provence-Alpes-Côte d'Azur","departement":"Alpes-de-Haute-Provence","departementCode":"04","adresse":{"street":"Place Aimé-Aillaud","postalCode":"04180","city":"Villeneuve","country":"France"},"contacts":{"email":"contact@villeneuve.fr","telephone":"0492784231"},"horaires":"Du Lundi au Vendredi : de 09h00 à 12h00 de 14h00 à 17h00","latitude":43.894444,"longitude":5.8611956,"website":"https://villeneuve.dlva.fr/","hasWebsite":true,"hasHoraires":true,"url":"https://lannuaire.service-public.gouv.fr/provence-alpes-cote-d-azur/alpes-de-haute-provence/79840012-49aa-454a-be4d-88d168c7db11"}
{"nom":"Volonne","nomNormalise":"volonne","typeCollectivite":"Commune","region":"Provence-Alpes-Côte d'Azur","departement":"Alpes-de-Haute-Provence","departementCode":"04","adresse":{"street":"1 place Charles-de-Gaulle","postalCode":"04290","city":"Volonne","country":"France"},"contacts":{"email":"mairie.volonne@mairie-volonne.eu","telephone":"0492640757"},"horaires":"Le Lundi : de 08h30 à 12h00 de 15h00 à 17h30\nLe Mardi : de 08h30 à 12h00\nLe Mercredi : de 08h30 à 12h00 de 15h00 à 17h30\nDu Jeudi au Vendredi : de 08h30 à 12h00","latitude":44.111103,"longitude":6.0136924,"website":"https://www.mairie-volonne.fr/","hasWebsite":true,"hasHoraires":true,"url":"https://lannuaire.service-public.gouv.fr/provence-alpes-cote-d-azur/alpes-de-haute-provence/f2baddcf-32c9-4523-8c76-a840337eaaaf"}
{"nom":"Volx","nomNormalise":"volx","typeCollectivite":"Commune","region":"Provence-Alpes-Côte d'Azur","departement":"Alpes-de-Haute-Provence","departementCode":"04","adresse":{"street":"Place des Félibres","postalCode":"04130","city":"Volx","country":"France"},"contacts":{"email":"accueil@mairie-volx.fr","telephone":"0492701800"},"horaires":"Du Lundi au Vendredi : de 08h00 à 12h00 de 13h30 à 17h00","latitude":43.876762,"longitude":5.842605,"website":"https://volx.dlva.fr/","hasWebsite":true,"hasHoraires":true,"url":"https://lannuaire.service-public.gouv.fr/provence-alpes-cote-d-azur/alpes-de-haute-provence/81801be5-a996-429d-af39-fbb2e86930d1"}
