{"nom":"Abriès-Ristolas","nomNormalise":"abriesristolas","typeCollectivite":"Commune","region":"Provence-Alpes-Côte d'Azur","departement":"Hautes-Alpes","departementCode":"05","adresse":{"street":"1 place des Halles","postalCode":"05460","city":"Abriès-Ristolas","country":"France"},"contacts":{"email":"mairie@abries-ristolas.fr","telephone":"0492467103"},"horaires":"Du Lundi au Vendredi : de 09h00 à 12h00","latitude":44.793953,"longitude":6.926206,"website":"http://www.abries-ristolas.fr/","hasWebsite":true,"hasHoraires":true,"url":"https://lannuaire.service-public.gouv.fr/provence-alpes-cote-d-azur/hautes-alpes/cd8b30e6-6563-4930-acb5-e9c9956cb9e8"}
{"nom":"Aiguilles","nomNormalise":"aiguilles","typeCollectivite":"Commune","region":"Provence-Alpes-Côte d'Azur","departement":"Hautes-Alpes","departementCode":"05","adresse":{"street":"1 place Jean-Léa","postalCode":"05470","city":"Aiguilles","country":"France"},"contacts":{"email":"infos@mairie-aiguilles.com","telephone":"0492467017"},"horaires":"Du Lundi au Vendredi : de 09h00 à 12h00","latitude":44.78192,"longitude":6.869101,"website":"https://www.mairie-aiguilles.com/","hasWebsite":true,"hasHoraires":true,"url":"https://lannuaire.service-public.gouv.fr/provence-alpes-cote-d-azur/hautes-alpes/a796b37c-e398-4e5c-9734-fd34cd6f9141"}
{"nom":"Ancelle","nomNormalise":"ancelle","typeCollectivite":"Commune","region":"Provence-Alpes-Côte d'Azur","departement":"Hautes-Alpes","departementCode":"05","adresse":{"street":"2 place de la Mairie","postalCode":"05260","city":"Ancelle","country":"France"},"contacts":{"email":"accueil@mairieancelle.fr","telephone":"0492508305"},"horaires":"Du Lundi au Jeudi : de 09h00 à 12h00 de 14h00 à 17h30\nLe Vendredi : de 09h00 à 12h00 de 14h00 à 16h30","latitude":44.623886,"longitude":6.20542,"website":"https://mairieancelle.fr/","hasWebsite":true,"hasHoraires":true,"url":"https://lannuaire.service-public.gouv.fr/provence-alpes-cote-d-azur/hautes-alpes/9f046d8b-a0ed-4ba5-975d-623a60080832"}
{"nom":"Arvieux","nomNormalise":"arvieux","typeCollectivite":"Commune","region":"Provence-Alpes-Côte d'Azur","departement":"Hautes-Alpes","departementCode":"05","adresse":{"street":"3636 route de l'Izoard","postalCode":"05350","city":"Arvieux","country":"France"},"contacts":{"email":"mairie@arvieux.fr","telephone":"0492467281"},"horaires":"Le Lundi : de 09h00 à 12h00 de 13h30 à 16h30\nLe Mardi : de 09h00 à 12h00\nLe Jeudi : de 09h00 à 12h00 de 13h30 à 16h30\nLe Vendredi : de 09h00 à 12h00","latitude":44.767372,"longitude":6.738928,"website":"http://www.mairie-arvieux.fr/","hasWebsite":true,"hasHoraires":true,"url":"https://lannuaire.service-public.gouv.fr/provence-alpes-cote-d-azur/hautes-alpes/bb609494-5531-48ea-ab69-9d035ea3134d"}
{"nom":"Aspremont","nomNormalise":"aspremont","typeCollectivite":"Commune","region":"Provence-Alpes-Côte d'Azur","departement":"Hautes-Alpes","departementCode":"05","adresse":{"street":"113 route d'Aspres","postalCode":"05140","city":"Aspremont","country":"France"},"contacts":{"email":"aspremont@wanadoo.fr","telephone":"0492586427"},"horaires":"Le Lundi : de 09h00 à 12h00 de 13h30 à 16h30\nLe Jeudi : de 09h00 à 12h00 de 13h30 à 16h30","latitude":44.50049,"longitude":5.7318244,"website":"https://www.aspremont05.fr/","hasWebsite":true,"hasHoraires":true,"url":"https://lannuaire.service-public.gouv.fr/provence-alpes-cote-d-azur/hautes-alpes/cbb87845-e8e1-465a-82a2-9305e132da1f"}
{"nom":"Aspres-les-Corps","nomNormalise":"aspreslescorps","typeCollectivite":"Commune","region":"Provence-Alpes-Côte d'Azur","departement":"Hautes-Alpes","departementCode":"05","adresse":{"street":"1085 rue François-Magnan","postalCode":"05800","city":"Aspres-les-Corps","country":"France"},"contacts":{"email":"mairie@aspreslescorps.fr","telephone":"0492552067"},"horaires":"Le Mardi : de 09h00 à 12h00 de 14h00 à 18h30\nLe Vendredi : de 09h00 à 12h00 de 14h00 à 18h00","latitude":44.801643,"longitude":5.982271,"website":"https://aspreslescorps.fr/","hasWebsite":true,"hasHoraires":true,"url":"https://lannuaire.service-public.gouv.fr/provence-alpes-cote-d-azur/hautes-alpes/ac2b3402-d342-4df5-b105-a9b9bbb971d7"}
{"nom":"Aspres-sur-Buëch","nomNormalise":"aspressurbuech","typeCollectivite":"Commune","region":"Provence-Alpes-Côte d'Azur","departement":"Hautes-Alpes","departementCode":"05","adresse":{"street":"262 la Grande-Rue","postalCode":"05140","city":"Aspres-sur-Buëch","country":"France"},"contacts":{"email":"mairie.aspres-sur-buech@orange.fr","telephone":"0492586034"},"horaires":"Du Lundi au Mardi : de 13h30 à 17h30\nLe Mercredi : de 09h00 à 12h00\nDu Jeudi au Vendredi : de 13h30 à 17h30","latitude":44.52306,"longitude":5.749589,"website":"https://mairie-aspres-sur-buech.fr/","hasWebsite":true,"hasHoraires":true,"url":"https://lannuaire.service-public.gouv.fr/provence-alpes-cote-d-azur/hautes-alpes/77f276f9-13d2-474d-8e22-886517d713ce"}
{"nom":"Aubessagne","nomNormalise":"aubessagne","typeCollectivite":"Commune","region":"Provence-Alpes-Côte d'Azur","departement":"Hautes-Alpes","departementCode":"05","adresse":{"street":"Chauffayer","postalCode":"05800","city":"Aubessagne","country":"France"},"contacts":{"email":"mairie@aubessagne.fr","telephone":"0492552243"},"horaires":"Du Lundi au Mardi : de 13h30 à 17h15\nLe Jeudi : de 13h30 à 19h00\nLe Vendredi : de 13h30 à 17h15","latitude":44.75621,"longitude":6.00688,"website":"https://aubessagne.fr/","hasWebsite":true,"hasHoraires":true,"url":"https://lannuaire.service-public.gouv.fr/provence-alpes-cote-d-azur/hautes-alpes/ce0db4bd-bca8-470a-9ec2-60912f60f550"}
{"nom":"Avançon","nomNormalise":"avancon","typeCollectivite":"Commune","region":"Provence-Alpes-Côte d'Azur","departement":"Hautes-Alpes","departementCode":"05","adresse":{"street":"Le Village","postalCode":"05230","city":"Avançon","country":"France"},"contacts":{"email":"mairieavancon@wanadoo.fr","telephone":"0492503014"},"horaires":"Le Lundi : de 08h30 à 12h00\nLe Mardi : de 17h00 à 18h00\nLe Mercredi : de 09h00 à 12h00 de 13h00 à 17h00\nLe Jeudi : de 14h30 à 19h00\nLe Vendredi : de 08h30 à 12h00","latitude":44.525536,"longitude":6.185435,"website":"https://www.mairie-avancon.fr/","hasWebsite":true,"hasHoraires":true,"url":"https://lannuaire.service-public.gouv.fr/provence-alpes-cote-d-azur/hautes-alpes/23ce2cff-1012-4b1e-8097-e96054073d82"}
{"nom":"Baratier","nomNormalise":"baratier","typeCollectivite":"Commune","region":"Provence-Alpes-Côte d'Azur","departement":"Hautes-Alpes","departementCode":"05","adresse":{"street":"12 place du Village","postalCode":"05200","city":"Baratier","country":"France"},"contacts":{"email":"mairie@baratier.net","telephone":"0492432586"},"horaires":"Le Lundi : de 09h00 à 12h00\nLe Mardi : de 09h00 à 12h00 de 13h30 à 16h30\nLe Jeudi : de 09h00 à 12h00\nLe Vendredi : de 09h00 à 12h00 de 13h30 à 16h30\nLe Samedi : de 09h00 à 12h00","latitude":44.53888,"longitude":6.495497,"website":"https://www.baratier.net/","hasWebsite":true,"hasHoraires":true,"url":"https://lannuaire.service-public.gouv.fr/provence-alpes-cote-d-azur/hautes-alpes/fd28e6ec-5995-4c58-bb21-9639361e6de2"}
{"nom":"Barcillonnette","nomNormalise":"barcillonnette","typeCollectivite":"Commune","region":"Provence-Alpes-Côte d'Azur","departement":"Hautes-Alpes","departementCode":"05","adresse":{"street":"53 rue de la Mairie","postalCode":"05110","city":"Barcillonnette","country":"France"},"contacts":{"email":"mairie.barci05@gmail.com","telephone":"0492542580"},"horaires":"Le Mercredi : de 08h30 à 17h00","latitude":44.435085,"longitude":5.919237,"website":"https://www.intramuros.org/barcillonnette","hasWebsite":true,"hasHoraires":true,"url":"https://lannuaire.service-public.gouv.fr/provence-alpes-cote-d-azur/hautes-alpes/8bf88232-e410-4732-b5f4-e9b59412e04e"}
{"nom":"Barret-sur-Méouge","nomNormalise":"barretsurmeouge","typeCollectivite":"Commune","region":"Provence-Alpes-Côte d'Azur","departement":"Hautes-Alpes","departementCode":"05","adresse":{"street":"Le Village","postalCode":"05300","city":"Barret-sur-Méouge","country":"France"},"contacts":{"email":"mairie.barretsurmeouge@wanadoo.fr","telephone":"0492651093"},"horaires":"Le Mardi : de 14h00 à 16h00\nLe Mercredi : de 14h30 à 15h30\nLe Jeudi : de 10h00 à 11h30 de 14h00 à 16h00","latitude":44.261536,"longitude":5.735091,"website":"https://barret-sur-meouge.fr/","hasWebsite":true,"hasHoraires":true,"url":"https://lannuaire.service-public.gouv.fr/provence-alpes-cote-d-azur/hautes-alpes/1896e7d3-c3d9-4931-bf44-4e51a5f990bc"}
{"nom":"Bréziers","nomNormalise":"breziers","typeCollectivite":"Commune","region":"Provence-Alpes-Côte d'Azur","departement":"Hautes-Alpes","departementCode":"05","adresse":{"street":"4 rue de la Mairie","postalCode":"05190","city":"Bréziers","country":"France"},"contacts":{"email":"mairie.breziers@gmail.com","telephone":"0492551810"},"horaires":"Du Jeudi au Vendredi : de 09h00 à 11h00 de 14h00 à 16h00","latitude":44.42609,"longitude":6.199093,"website":"https://www.mairie-breziers.fr/","hasWebsite":true,"hasHoraires":true,"url":"https://lannuaire.service-public.gouv.fr/provence-alpes-cote-d-azur/hautes-alpes/97138889-c15c-453e-9460-f4094b01e4b5"}
{"nom":"Briançon","nomNormalise":"briancon","typeCollectivite":"Commune","region":"Provence-Alpes-Côte d'Azur","departement":"Hautes-Alpes","departementCode":"05","adresse":{"street":"Cité administrative","postalCode":"05100","city":"Briançon","country":"France"},"contacts":{"email":"cabinet.maire@mairie-briancon.fr","telephone":"0492212072"},"horaires":"Du Lundi au Vendredi : de 08h15 à 11h45 de 13h45 à 16h45","latitude":44.899906,"longitude":6.63375,"website":"https://www.ville-briancon.fr/","hasWebsite":true,"hasHoraires":true,"url":"https://lannuaire.service-public.gouv.fr/provence-alpes-cote-d-azur/hautes-alpes/50abec6c-607c-4fb0-b35f-89f87cb557d9"}
{"nom":"Buissard","nomNormalise":"buissard","typeCollectivite":"Commune","region":"Provence-Alpes-Côte d'Azur","departement":"Hautes-Alpes","departementCode":"05","adresse":{"street":"Les Rissents","postalCode":"05500","city":"Buissard","country":"France"},"contacts":{"email":"mairie.buissard05@orange.fr","telephone":"0492504228"},"horaires":"Le Lundi : de 09h00 à 11h30\nLe Mardi : de 09h00 à 11h30 de 14h00 à 16h00\nLe Vendredi : de 09h00 à 11h30 de 14h00 à 16h00","latitude":44.657093,"longitude":6.144871,"website":"","hasWebsite":false,"hasHoraires":true,"url":"https://lannuaire.service-public.gouv.fr/provence-alpes-cote-d-azur/hautes-alpes/d21f24cf-40ea-4c12-b5d3-97a6fc986799"}
{"nom":"Ceillac","nomNormalise":"ceillac","typeCollectivite":"Commune","region":"Provence-Alpes-Côte d'Azur","departement":"Hautes-Alpes","departementCode":"05","adresse":{"street":"1 place Philippe-Lamour","postalCode":"05600","city":"Ceillac","country":"France"},"contacts":{"email":"mairie@ceillac.fr","telephone":"0492451517"},"horaires":"Du Lundi au Vendredi : de 09h00 à 12h00","latitude":44.668064,"longitude":6.777934,"website":"https://ceillac.fr/","hasWebsite":true,"hasHoraires":true,"url":"https://lannuaire.service-public.gouv.fr/provence-alpes-cote-d-azur/hautes-alpes/9874bc33-6c29-4da8-973d-3a2a74df0a57"}
{"nom":"Cervières","nomNormalise":"cervieres","typeCollectivite":"Commune","region":"Provence-Alpes-Côte d'Azur","departement":"Hautes-Alpes","departementCode":"05","adresse":{"street":"186 rue de la Mairie","postalCode":"05100","city":"Cervières","country":"France"},"contacts":{"email":"secretariat@cervieres.fr","telephone":"0492204242"},"horaires":"Le Lundi : de 09h00 à 12h00 de 14h00 à 16h30\nLe Mercredi : de 09h00 à 12h00 de 14h00 à 16h30\nLe Vendredi : de 09h00 à 11h30","latitude":44.868896,"longitude":6.721966,"website":"https://cervieres.fr/","hasWebsite":true,"hasHoraires":true,"url":"https://lannuaire.service-public.gouv.fr/provence-alpes-cote-d-azur/hautes-alpes/dd6ee2fe-7ce2-425e-baff-01e7000efeec"}
{"nom":"Chabestan","nomNormalise":"chabestan","typeCollectivite":"Commune","region":"Provence-Alpes-Côte d'Azur","departement":"Hautes-Alpes","departementCode":"05","adresse":{"street":"1 place de la Mairie","postalCode":"05400","city":"Chabestan","country":"France"},"contacts":{"email":"mairie.chabestan@wanadoo.fr","telephone":"0492572677"},"horaires":"Le Mardi : de 08h30 à 13h00 de 13h30 à 17h30\nLe Jeudi : de 14h00 à 18h00\n\nSemaines paires","latitude":44.47791,"longitude":5.782644,"website":"","hasWebsite":false,"hasHoraires":true,"url":"https://lannuaire.service-public.gouv.fr/provence-alpes-cote-d-azur/hautes-alpes/5bd496ef-619a-4b7d-bae7-1402af439849"}
{"nom":"Chabottes","nomNormalise":"chabottes","typeCollectivite":"Commune","region":"Provence-Alpes-Côte d'Azur","departement":"Hautes-Alpes","departementCode":"05","adresse":{"street":"80 route des Écrins","postalCode":"05260","city":"Chabottes","country":"France"},"contacts":{"email":"mairie@chabottes.fr","telephone":"0492504070"},"horaires":"Le Lundi : de 08h30 à 12h15\nLe Mardi : de 08h30 à 12h15 de 16h30 à 18h30\nDu Mercredi au Jeudi : de 08h30 à 12h15\nLe Vendredi : de 08h30 à 12h15 de 14h00 à 16h30","latitude":44.64484,"longitude":6.173775,"website":"http://chabottes.fr/","hasWebsite":true,"hasHoraires":true,"url":"https://lannuaire.service-public.gouv.fr/provence-alpes-cote-d-azur/hautes-alpes/faaf2e44-92ea-4856-a5c5-99ac64919590"}
{"nom":"Champcella","nomNormalise":"champcella","typeCollectivite":"Commune","region":"Provence-Alpes-Côte d'Azur","departement":"Hautes-Alpes","departementCode":"05","adresse":{"street":"23 rue du Pied de Ville","postalCode":"05310","city":"Champcella","country":"France"},"contacts":{"email":"mairie@champcella.fr","telephone":"0492209375"},"horaires":"Le Mardi : de 14h00 à 16h30\nLe Jeudi : de 09h00 à 11h30 de 14h00 à 16h30\n\nPermanence du maire sur rendez-vous le jeudi matin","latitude":44.722965,"longitude":6.571685,"website":"https://www.champcella.fr/","hasWebsite":true,"hasHoraires":true,"url":"https://lannuaire.service-public.gouv.fr/provence-alpes-cote-d-azur/hautes-alpes/ef7fe42d-9820-4291-a707-1e8c08b1a559"}
{"nom":"Champoléon","nomNormalise":"champoleon","typeCollectivite":"Commune","region":"Provence-Alpes-Côte d'Azur","departement":"Hautes-Alpes","departementCode":"05","adresse":{"street":"83 rue Pierre-Mélet","postalCode":"05260","city":"Champoléon","country":"France"},"contacts":{"email":"contact@mairiedechampoleon.fr","telephone":"0492559032"},"horaires":"Le Mardi : de 09h00 à 11h45\nLe Jeudi : de 14h00 à 19h00","latitude":44.720585,"longitude":6.259558,"website":"https://mairiedechampoleon.com/","hasWebsite":true,"hasHoraires":true,"url":"https://lannuaire.service-public.gouv.fr/provence-alpes-cote-d-azur/hautes-alpes/feb6fdf1-cc83-4635-bf36-4ff90d21a24a"}
{"nom":"Chanousse","nomNormalise":"chanousse","typeCollectivite":"Commune","region":"Provence-Alpes-Côte d'Azur","departement":"Hautes-Alpes","departementCode":"05","adresse":{"street":"Le Village","postalCode":"05700","city":"Chanousse","country":"France"},"contacts":{"email":"mairiedechanousse@orange.fr","telephone":"0492662159"},"horaires":"Le Lundi : de 09h30 à 12h30","latitude":44.356293,"longitude":5.650505,"website":"","hasWebsite":false,"hasHoraires":true,"url":"https://lannuaire.service-public.gouv.fr/provence-alpes-cote-d-azur/hautes-alpes/8e342208-a859-4139-80e3-fc3053a7722a"}
{"nom":"Châteauneuf-d'Oze","nomNormalise":"chateauneufdoze","typeCollectivite":"Commune","region":"Provence-Alpes-Côte d'Azur","departement":"Hautes-Alpes","departementCode":"05","adresse":{"street":"159 route du Val-d'Oz","postalCode":"05400","city":"Châteauneuf-d'Oze","country":"France"},"contacts":{"email":"mairie.chateauneufdoze.1@wanadoo.fr","telephone":"0492571189"},"horaires":"Le Lundi : de 08h00 à 11h00\nLe Jeudi : de 08h00 à 11h00","latitude":44.51213,"longitude":5.864305,"website":"","hasWebsite":false,"hasHoraires":true,"url":"https://lannuaire.service-public.gouv.fr/provence-alpes-cote-d-azur/hautes-alpes/d8079364-6b36-4b99-b9ca-de827e5f6791"}
{"nom":"Châteauroux-les-Alpes","nomNormalise":"chateaurouxlesalpes","typeCollectivite":"Commune","region":"Provence-Alpes-Côte d'Azur","departement":"Hautes-Alpes","departementCode":"05","adresse":{"street":"21 rue des Aubergeries","postalCode":"05380","city":"Châteauroux-les-Alpes","country":"France"},"contacts":{"email":"contact@chateauroux-les-alpes.com","telephone":"0492432204"},"horaires":"Le Lundi : de 08h30 à 12h00\nLe Mardi : de 08h30 à 12h00 de 13h30 à 16h30\nDu Mercredi au Vendredi : de 08h30 à 12h00","latitude":44.613953,"longitude":6.521204,"website":"https://www.chateauroux-les-alpes.com/","hasWebsite":true,"hasHoraires":true,"url":"https://lannuaire.service-public.gouv.fr/provence-alpes-cote-d-azur/hautes-alpes/5224b5bb-d507-46cf-8b96-bd9b71c73056"}
{"nom":"Châteauvieux","nomNormalise":"chateauvieux","typeCollectivite":"Commune","region":"Provence-Alpes-Côte d'Azur","departement":"Hautes-Alpes","departementCode":"05","adresse":{"street":"155 espace Roger-Boyer","postalCode":"05000","city":"Châteauvieux","country":"France"},"contacts":{"email":"mairie.chateauvieux05@wanadoo.fr","telephone":"0492541213"},"horaires":"Du Lundi au Mardi : de 07h30 à 12h30 de 14h00 à 17h30\nLe Mercredi : de 07h30 à 12h00\nLe Jeudi : de 07h30 à 12h30 de 14h00 à 17h30\nLe Vendredi : de 07h30 à 12h30","latitude":44.485283,"longitude":6.0476384,"website":"http://chateauvieux05.fr/","hasWebsite":true,"hasHoraires":true,"url":"https://lannuaire.service-public.gouv.fr/provence-alpes-cote-d-azur/hautes-alpes/e4bf2d63-d29b-4c2d-96ce-7dbfd2bb4e5a"}
{"nom":"Château-Ville-Vieille","nomNormalise":"chateauvillevieille","typeCollectivite":"Commune","region":"Provence-Alpes-Côte d'Azur","departement":"Hautes-Alpes","departementCode":"05","adresse":{"street":"Château Queyras","postalCode":"05350","city":"Château-Ville-Vieille","country":"France"},"contacts":{"email":"contact@mairiechavivi.fr","telephone":"0492467070"},"horaires":"Du Lundi au Vendredi : de 09h00 à 12h00","latitude":44.75691,"longitude":6.791471,"website":"https://chateau-ville-vieille.fr/fr/","hasWebsite":true,"hasHoraires":true,"url":"https://lannuaire.service-public.gouv.fr/provence-alpes-cote-d-azur/hautes-alpes/f96ed721-245a-40ea-aca0-5738d777267e"}
{"nom":"Chorges","nomNormalise":"chorges","typeCollectivite":"Commune","region":"Provence-Alpes-Côte d'Azur","departement":"Hautes-Alpes","departementCode":"05","adresse":{"street":"5 Grande-Rue","postalCode":"05230","city":"Chorges","country":"France"},"contacts":{"email":"mairie@mairie-chorges.fr","telephone":"0492506030"},"horaires":"Du Lundi au Vendredi : de 08h30 à 12h00 de 14h00 à 17h00","latitude":44.545715,"longitude":6.275548,"website":"https://www.mairie-chorges.fr/","hasWebsite":true,"hasHoraires":true,"url":"https://lannuaire.service-public.gouv.fr/provence-alpes-cote-d-azur/hautes-alpes/aa6b041e-ae24-402b-8ce8-7a4093bfd5b9"}
{"nom":"Crévoux","nomNormalise":"crevoux","typeCollectivite":"Commune","region":"Provence-Alpes-Côte d'Azur","departement":"Hautes-Alpes","departementCode":"05","adresse":{"street":"Le Village","postalCode":"05200","city":"Crévoux","country":"France"},"contacts":{"email":"mairie@crevoux.fr","telephone":"0492431811"},"horaires":"Le Lundi : de 14h00 à 16h30\nLe Mardi : de 08h30 à 11h30\nLe Jeudi : de 14h00 à 16h30\nLe Vendredi : de 08h30 à 11h30","latitude":44.54806,"longitude":6.607987,"website":"https://mairie.crevoux.fr/","hasWebsite":true,"hasHoraires":true,"url":"https://lannuaire.service-public.gouv.fr/provence-alpes-cote-d-azur/hautes-alpes/d82938ea-003a-4769-bff8-2716154e7779"}
{"nom":"Crots","nomNormalise":"crots","typeCollectivite":"Commune","region":"Provence-Alpes-Côte d'Azur","departement":"Hautes-Alpes","departementCode":"05","adresse":{"street":"1 Place des Ballerins","postalCode":"05200","city":"Crots","country":"France"},"contacts":{"email":"mairie.crots@wanadoo.fr","telephone":"0492431305"},"horaires":"Le Lundi : de 09h30 à 12h00\nLe Mardi : de 09h30 à 12h00 de 14h00 à 18h00\nLe Mercredi : de 09h30 à 12h00\nLe Jeudi : de 09h30 à 12h00 de 14h00 à 18h00\nLe Vendredi : de 09h30 à 12h00","latitude":44.533844,"longitude":6.470155,"website":"https://www.crots.fr/","hasWebsite":true,"hasHoraires":true,"url":"https://lannuaire.service-public.gouv.fr/provence-alpes-cote-d-azur/hautes-alpes/5b7127e1-50b6-41fb-b807-413e840b8dfb"}
{"nom":"Embrun","nomNormalise":"embrun","typeCollectivite":"Commune","region":"Provence-Alpes-Côte d'Azur","departement":"Hautes-Alpes","departementCode":"05","adresse":{"street":"7 Place Barthelon","postalCode":"05200","city":"Embrun","country":"France"},"contacts":{"email":"secretariat.maire@ville-embrun.fr","telephone":"0492446600"},"horaires":"Du Lundi au Vendredi : de 08h00 à 12h00 de 13h30 à 17h30","latitude":44.56392,"longitude":6.495785,"website":"https://www.ville-embrun.fr/","hasWebsite":true,"hasHoraires":true,"url":"https://lannuaire.service-public.gouv.fr/provence-alpes-cote-d-azur/hautes-alpes/02706b15-58d5-4891-814c-07e9759049db"}
{"nom":"Éourres","nomNormalise":"eourres","typeCollectivite":"Commune","region":"Provence-Alpes-Côte d'Azur","departement":"Hautes-Alpes","departementCode":"05","adresse":{"street":"11 rue de l'école","postalCode":"05300","city":"Éourres","country":"France"},"contacts":{"email":"mairie.eourres@wanadoo.fr","telephone":"0492652049"},"horaires":"Le Mardi : de 09h00 à 12h30","latitude":44.21286,"longitude":5.6981297,"website":"https://eourres.fr/","hasWebsite":true,"hasHoraires":true,"url":"https://lannuaire.service-public.gouv.fr/provence-alpes-cote-d-azur/hautes-alpes/ccfbf09b-5f9e-4982-b99a-2134c5645f1b"}
{"nom":"Esparron","nomNormalise":"esparron","typeCollectivite":"Commune","region":"Provence-Alpes-Côte d'Azur","departement":"Hautes-Alpes","departementCode":"05","adresse":{"street":"Le Village","postalCode":"05110","city":"Esparron","country":"France"},"contacts":{"email":"mairie.esparron@wanadoo.fr","telephone":"0492542487"},"horaires":"Le Jeudi : de 09h00 à 13h00","latitude":44.453526,"longitude":5.903086,"website":"","hasWebsite":false,"hasHoraires":true,"url":"https://lannuaire.service-public.gouv.fr/provence-alpes-cote-d-azur/hautes-alpes/09a39824-9f1d-40ff-9b75-0a57b80c694a"}
{"nom":"Espinasses","nomNormalise":"espinasses","typeCollectivite":"Commune","region":"Provence-Alpes-Côte d'Azur","departement":"Hautes-Alpes","departementCode":"05","adresse":{"street":"Avenue de l'Espine","postalCode":"05190","city":"Espinasses","country":"France"},"contacts":{"email":"mairie.espinasses@wanadoo.fr","telephone":"0492544455"},"horaires":"Le Lundi : de 14h00 à 18h00\nLe Mardi : de 09h00 à 12h00 de 14h00 à 18h00\nLe Jeudi : de 09h00 à 12h00 de 14h00 à 18h00\nLe Vendredi : de 14h00 à 17h00","latitude":44.46755,"longitude":6.222693,"website":"http://www.mairie-espinasses.fr/","hasWebsite":true,"hasHoraires":true,"url":"https://lannuaire.service-public.gouv.fr/provence-alpes-cote-d-azur/hautes-alpes/03f88c0c-6ebe-4a38-974e-28fafa00ec9f"}
{"nom":"Étoile-Saint-Cyrice","nomNormalise":"etoilesaintcyrice","typeCollectivite":"Commune","region":"Provence-Alpes-Côte d'Azur","departement":"Hautes-Alpes","departementCode":"05","adresse":{"street":"10 Draille-de-la-Mairie","postalCode":"05700","city":"Étoile-Saint-Cyrice","country":"France"},"contacts":{"email":"mairie.etoile05@wanadoo.fr","telephone":"0492663047"},"horaires":"Le Jeudi : de 10h00 à 12h00\nAccueil ouvert uniquement les semaines paires de 10h à 12h et les semaines impaires de 14hà 16h.","latitude":44.316505,"longitude":5.628344,"website":"https://etoilestcyrice.fr/","hasWebsite":true,"hasHoraires":true,"url":"https://lannuaire.service-public.gouv.fr/provence-alpes-cote-d-azur/hautes-alpes/23bcfa4a-4ced-4fa7-a447-15332420476b"}
{"nom":"Eygliers","nomNormalise":"eygliers","typeCollectivite":"Commune","region":"Provence-Alpes-Côte d'Azur","departement":"Hautes-Alpes","departementCode":"05","adresse":{"street":"40 rue du Rail","postalCode":"05600","city":"Eygliers","country":"France"},"contacts":{"email":"mairie@eygliers.fr","telephone":"0492450324"},"horaires":"Du Mardi au Jeudi : de 08h30 à 11h30","latitude":44.674824,"longitude":6.616675,"website":"http://www.eygliers.fr/","hasWebsite":true,"hasHoraires":true,"url":"https://lannuaire.service-public.gouv.fr/provence-alpes-cote-d-azur/hautes-alpes/697f9540-4113-41cb-8670-10e90c691f82"}
{"nom":"Forest-Saint-Julien","nomNormalise":"forestsaintjulien","typeCollectivite":"Commune","region":"Provence-Alpes-Côte d'Azur","departement":"Hautes-Alpes","departementCode":"05","adresse":{"street":"Manse","postalCode":"05260","city":"Forest-Saint-Julien","country":"France"},"contacts":{"email":"mairie@forest-st-julien.fr","telephone":"0492504384"},"horaires":"Le Lundi : de 08h30 à 12h30\nLe Mercredi : de 13h30 à 16h30\nLe Jeudi : de 08h30 à 12h30\n\nPermanence du maire de 10h à 12h sur rendez-vous.","latitude":44.633694,"longitude":6.135588,"website":"","hasWebsite":false,"hasHoraires":true,"url":"https://lannuaire.service-public.gouv.fr/provence-alpes-cote-d-azur/hautes-alpes/77ec7604-aefb-4db9-8d86-f0b5eeb9c6bb"}
{"nom":"Fouillouse","nomNormalise":"fouillouse","typeCollectivite":"Commune","region":"Provence-Alpes-Côte d'Azur","departement":"Hautes-Alpes","departementCode":"05","adresse":{"street":"Le Village","postalCode":"05130","city":"Fouillouse","country":"France"},"contacts":{"email":"secretariat@mairie-fouillouse05.fr","telephone":"0492541423"},"horaires":"Le Lundi : de 10h00 à 13h00 de 14h00 à 19h00\nLe Jeudi : de 09h30 à 13h00","latitude":44.457985,"longitude":6.00277,"website":"https://www.mairie-fouillouse05.fr/","hasWebsite":true,"hasHoraires":true,"url":"https://lannuaire.service-public.gouv.fr/provence-alpes-cote-d-azur/hautes-alpes/42002e9e-aec7-4106-85c0-89e4f12ab6d1"}
{"nom":"Freissinières","nomNormalise":"freissinieres","typeCollectivite":"Commune","region":"Provence-Alpes-Côte d'Azur","departement":"Hautes-Alpes","departementCode":"05","adresse":{"street":"Les Ribs","postalCode":"05310","city":"Freissinières","country":"France"},"contacts":{"email":"mairie@freissinieres.fr","telephone":"0492209287"},"horaires":"Le Mardi : de 08h30 à 12h00\nLe Mercredi : de 08h30 à 12h00 de 13h30 à 16h30\nLe Jeudi : de 08h30 à 12h00","latitude":44.754223,"longitude":6.5369315,"website":"https://www.freissinieres.fr/","hasWebsite":true,"hasHoraires":true,"url":"https://lannuaire.service-public.gouv.fr/provence-alpes-cote-d-azur/hautes-alpes/044b9dc2-ed2d-4d9d-b83e-0fc8ef423e47"}
{"nom":"Furmeyer","nomNormalise":"furmeyer","typeCollectivite":"Commune","region":"Provence-Alpes-Côte d'Azur","departement":"Hautes-Alpes","departementCode":"05","adresse":{"street":"Les Savoyons","postalCode":"05400","city":"Furmeyer","country":"France"},"contacts":{"email":"mairie.furmeyer@wanadoo.fr","telephone":"0492581138"},"horaires":"Le Jeudi : de 14h00 à 18h00\nLe Vendredi : de 08h00 à 13h00 de 14h00 à 17h00\n\nAccueil ouvert les jeudis des semaines paires uniquement.","latitude":44.53984,"longitude":5.872703,"website":"","hasWebsite":false,"hasHoraires":true,"url":"https://lannuaire.service-public.gouv.fr/provence-alpes-cote-d-azur/hautes-alpes/4cca8942-a6ce-437c-b09e-18c1d606dad4"}
{"nom":"Gap","nomNormalise":"gap","typeCollectivite":"Commune","region":"Provence-Alpes-Côte d'Azur","departement":"Hautes-Alpes","departementCode":"05","adresse":{"street":"3 rue Colonel-Roux","postalCode":"05000","city":"Gap","country":"France"},"contacts":{"email":"mairie@ville-gap.fr","telephone":"0492532424"},"horaires":"Du Lundi au Vendredi : de 08h30 à 12h00 de 13h30 à 17h00\nLe Samedi : de 08h30 à 12h00","latitude":44.558773,"longitude":6.079796,"website":"https://www.ville-gap.fr/","hasWebsite":true,"hasHoraires":true,"url":"https://lannuaire.service-public.gouv.fr/provence-alpes-cote-d-azur/hautes-alpes/3cbf4aa8-e192-4cb0-b537-5651687cd71d"}
{"nom":"Garde-Colombe","nomNormalise":"gardecolombe","typeCollectivite":"Commune","region":"Provence-Alpes-Côte d'Azur","departement":"Hautes-Alpes","departementCode":"05","adresse":{"street":"Eyguians","postalCode":"05300","city":"Garde-Colombe","country":"France"},"contacts":{"email":"mairie@garde-colombe.fr","telephone":"0492662369"},"horaires":"Du Lundi au Vendredi : de 09h00 à 12h00 de 14h00 à 17h00","latitude":44.34582,"longitude":5.767825,"website":"http://www.garde-colombe.fr/","hasWebsite":true,"hasHoraires":true,"url":"https://lannuaire.service-public.gouv.fr/provence-alpes-cote-d-azur/hautes-alpes/9bd4be92-64b4-4ba0-bc75-719b40ab1aa7"}
{"nom":"Guillestre","nomNormalise":"guillestre","typeCollectivite":"Commune","region":"Provence-Alpes-Côte d'Azur","departement":"Hautes-Alpes","departementCode":"05","adresse":{"street":"4 rue Joseph Mathieu","postalCode":"05600","city":"Guillestre","country":"France"},"contacts":{"email":"mairie@villedeguillestre.fr","telephone":"0492450403"},"horaires":"Le Lundi : de 08h30 à 12h00 de 14h30 à 17h30\nLe Mardi : de 08h30 à 12h00\nLe Mercredi : de 08h30 à 12h00 de 14h30 à 17h30\nDu Jeudi au Vendredi : de 08h30 à 12h00","latitude":44.66101,"longitude":6.648375,"website":"https://www.villedeguillestre.fr/","hasWebsite":true,"hasHoraires":true,"url":"https://lannuaire.service-public.gouv.fr/provence-alpes-cote-d-azur/hautes-alpes/78fb7232-4739-493c-b82d-a76139043a45"}
{"nom":"Jarjayes","nomNormalise":"jarjayes","typeCollectivite":"Commune","region":"Provence-Alpes-Côte d'Azur","departement":"Hautes-Alpes","departementCode":"05","adresse":{"street":"71 route du Col","postalCode":"05130","city":"Jarjayes","country":"France"},"contacts":{"email":"mairie@jarjayes.fr","telephone":"0492543132"},"horaires":"Du Lundi au Mardi : de 09h00 à 12h00 de 14h00 à 17h00\nDu Jeudi au Vendredi : de 09h00 à 12h00 de 14h00 à 17h00","latitude":44.50549,"longitude":6.109736,"website":"https://www.jarjayes.fr/","hasWebsite":true,"hasHoraires":true,"url":"https://lannuaire.service-public.gouv.fr/provence-alpes-cote-d-azur/hautes-alpes/40be454d-adac-4df0-81d7-8704354ab1bc"}
{"nom":"L'Argentière-la-Bessée","nomNormalise":"largentierelabessee","typeCollectivite":"Commune","region":"Provence-Alpes-Côte d'Azur","departement":"Hautes-Alpes","departementCode":"05","adresse":{"street":"17 avenue Charles-de-Gaulle","postalCode":"05120","city":"L'Argentière-la-Bessée","country":"France"},"contacts":{"email":"info@ville-argentiere.fr","telephone":"0492231003"},"horaires":"Du Mardi au Vendredi : de 09h30 à 12h00 de 14h00 à 17h00\nLe Samedi : de 09h00 à 12h00","latitude":44.79306,"longitude":6.5588727,"website":"https://ville-argentiere.fr/","hasWebsite":true,"hasHoraires":true,"url":"https://lannuaire.service-public.gouv.fr/provence-alpes-cote-d-azur/hautes-alpes/4953d65c-56af-4bc5-814a-23658c41e8f8"}
{"nom":"L'Épine","nomNormalise":"lepine","typeCollectivite":"Commune","region":"Provence-Alpes-Côte d'Azur","departement":"Hautes-Alpes","departementCode":"05","adresse":{"street":"94 Montée de La Remise","postalCode":"05700","city":"L'Epine","country":"France"},"contacts":{"email":"mairie.de.lepine@wanadoo.fr","telephone":"0492660024"},"horaires":"Le Lundi : de 09h30 à 12h00 de 14h30 à 17h30\nLe Jeudi : de 09h30 à 12h00 de 14h30 à 17h30\nPermanence du maire sur rendez-vous uniquement.","latitude":44.415764,"longitude":5.613611,"website":"https://www.mairielepine-hautesalpes.com/","hasWebsite":true,"hasHoraires":true,"url":"https://lannuaire.service-public.gouv.fr/provence-alpes-cote-d-azur/hautes-alpes/f1ba958c-2a62-48eb-9cde-a3cc72f18981"}
{"nom":"La Bâtie-Montsaléon","nomNormalise":"labatiemontsaleon","typeCollectivite":"Commune","region":"Provence-Alpes-Côte d'Azur","departement":"Hautes-Alpes","departementCode":"05","adresse":{"street":"Place de la Mairie","postalCode":"05700","city":"La Bâtie-Montsaléon","country":"France"},"contacts":{"email":"contact-mairie@labatiemontsaleon.fr","telephone":"0488038254"},"horaires":"Le Mardi : de 09h00 à 12h00 de 13h30 à 17h30\nLe Jeudi : de 09h00 à 12h00\nLe Vendredi : de 09h00 à 12h00 de 13h30 à 17h30","latitude":44.455845,"longitude":5.751118,"website":"https://labatiemontsaleon.fr/","hasWebsite":true,"hasHoraires":true,"url":"https://lannuaire.service-public.gouv.fr/provence-alpes-cote-d-azur/hautes-alpes/a9c8087c-efd2-46f1-ac08-ff44081677af"}
{"nom":"La Bâtie-Neuve","nomNormalise":"labatieneuve","typeCollectivite":"Commune","region":"Provence-Alpes-Côte d'Azur","departement":"Hautes-Alpes","departementCode":"05","adresse":{"street":"32 place de la Mairie","postalCode":"05230","city":"La Bâtie-Neuve","country":"France"},"contacts":{"email":"accueil@labatieneuve.fr","telephone":"0492503223"},"horaires":"Du Lundi au Vendredi : de 08h30 à 12h00 de 14h30 à 18h00","latitude":44.565205,"longitude":6.197745,"website":"https://www.labatieneuve.fr/","hasWebsite":true,"hasHoraires":true,"url":"https://lannuaire.service-public.gouv.fr/provence-alpes-cote-d-azur/hautes-alpes/a56c4170-6eeb-4b23-8beb-ff63c290edaa"}
{"nom":"La Bâtie-Vieille","nomNormalise":"labatievieille","typeCollectivite":"Commune","region":"Provence-Alpes-Côte d'Azur","departement":"Hautes-Alpes","departementCode":"05","adresse":{"street":"Le Village","postalCode":"05000","city":"La Bâtie-Vieille","country":"France"},"contacts":{"email":"mairie.labatie-vieille@wanadoo.fr","telephone":"0492514973"},"horaires":"Le Mardi : de 09h00 à 12h30 de 13h30 à 18h00\nLe Mercredi : de 09h00 à 12h30","latitude":44.553223,"longitude":6.163203,"website":"https://www.mairie-labatievieille.fr/","hasWebsite":true,"hasHoraires":true,"url":"https://lannuaire.service-public.gouv.fr/provence-alpes-cote-d-azur/hautes-alpes/2ea595f0-2238-469c-8139-ae3cfc9c6044"}
{"nom":"La Beaume","nomNormalise":"labeaume","typeCollectivite":"Commune","region":"Provence-Alpes-Côte d'Azur","departement":"Hautes-Alpes","departementCode":"05","adresse":{"street":"Le Village","postalCode":"05140","city":"La Beaume","country":"France"},"contacts":{"email":"la-beaume@wanadoo.fr","telephone":"0492586561"},"horaires":"Du Lundi au Mardi : de 10h00 à 12h00 de 14h00 à 16h00\nLe Jeudi : de 10h00 à 12h00 de 14h00 à 16h00\nLe Vendredi : de 10h00 à 12h00","latitude":44.553974,"longitude":5.636495,"website":"https://labeaume-05.fr/","hasWebsite":true,"hasHoraires":true,"url":"https://lannuaire.service-public.gouv.fr/provence-alpes-cote-d-azur/hautes-alpes/b98d7ce3-2155-4229-a3cc-058403d79557"}
{"nom":"La Chapelle-en-Valgaudémar","nomNormalise":"lachapelleenvalgaudemar","typeCollectivite":"Commune","region":"Provence-Alpes-Côte d'Azur","departement":"Hautes-Alpes","departementCode":"05","adresse":{"street":"62 rue Clémence-d'Ambel","postalCode":"05800","city":"La Chapelle-en-Valgaudémar","country":"France"},"contacts":{"email":"la.chapelle.en.valgaudemar@wanadoo.fr","telephone":"0492552317"},"horaires":"Du Mercredi au Jeudi : de 09h00 à 12h00","latitude":44.820656,"longitude":6.2191424,"website":"","hasWebsite":false,"hasHoraires":true,"url":"https://lannuaire.service-public.gouv.fr/provence-alpes-cote-d-azur/hautes-alpes/bce5bf1d-6f60-4a5d-8f29-f0c65414110d"}
{"nom":"La Fare-en-Champsaur","nomNormalise":"lafareenchampsaur","typeCollectivite":"Commune","region":"Provence-Alpes-Côte d'Azur","departement":"Hautes-Alpes","departementCode":"05","adresse":{"street":"Les Barraques","postalCode":"05500","city":"La Fare-en-Champsaur","country":"France"},"contacts":{"email":"la-fare.mairie@orange.fr","telephone":"0492501035"},"horaires":"Du Lundi au Vendredi : de 08h30 à 11h30","latitude":44.677563,"longitude":6.07014,"website":"https://www.mairie-la-fare-en-champsaur.fr/","hasWebsite":true,"hasHoraires":true,"url":"https://lannuaire.service-public.gouv.fr/provence-alpes-cote-d-azur/hautes-alpes/87523a22-361b-4021-9868-e783ebcb5c35"}
{"nom":"La Faurie","nomNormalise":"lafaurie","typeCollectivite":"Commune","region":"Provence-Alpes-Côte d'Azur","departement":"Hautes-Alpes","departementCode":"05","adresse":{"street":"20 route des Écoles","postalCode":"05140","city":"La Faurie","country":"France"},"contacts":{"email":"mairie.la.faurie@gmail.com","telephone":"0492581784"},"horaires":"Du Lundi au Mardi : de 08h30 à 12h30\nLe Vendredi : de 08h30 à 12h30 de 13h00 à 17h00","latitude":44.566822,"longitude":5.738847,"website":"","hasWebsite":false,"hasHoraires":true,"url":"https://lannuaire.service-public.gouv.fr/provence-alpes-cote-d-azur/hautes-alpes/7a74534e-8571-4443-bbf4-f68cff020356"}
{"nom":"La Freissinouse","nomNormalise":"lafreissinouse","typeCollectivite":"Commune","region":"Provence-Alpes-Côte d'Azur","departement":"Hautes-Alpes","departementCode":"05","adresse":{"street":"200 les Écoles","postalCode":"05000","city":"La Freissinouse","country":"France"},"contacts":{"email":"mairie@lafreissinouse.fr","telephone":"0492578008"},"horaires":"Le Lundi : de 13h30 à 16h00\nLe Mercredi : de 09h30 à 12h30\nLe Jeudi : de 13h30 à 18h00\nLe Vendredi : de 09h30 à 12h30","latitude":44.53585,"longitude":6.01045,"website":"https://www.lafreissinouse.fr/","hasWebsite":true,"hasHoraires":true,"url":"https://lannuaire.service-public.gouv.fr/provence-alpes-cote-d-azur/hautes-alpes/64e50052-18a0-4430-b770-3eb452bce624"}
{"nom":"La Grave","nomNormalise":"lagrave","typeCollectivite":"Commune","region":"Provence-Alpes-Côte d'Azur","departement":"Hautes-Alpes","departementCode":"05","adresse":{"street":"51 route des Grands-Cols","postalCode":"05320","city":"La Grave","country":"France"},"contacts":{"email":"mairie@lagrave-lameije.fr","telephone":"0476799029"},"horaires":"Du Lundi au Mardi : de 09h30 à 11h30\nLe Jeudi : de 09h30 à 11h30\nFermé le mercredi. Le vendredi et le samedi sur rendez-vous.","latitude":45.046124,"longitude":6.307197,"website":"https://lagrave-lameije.fr/","hasWebsite":true,"hasHoraires":true,"url":"https://lannuaire.service-public.gouv.fr/provence-alpes-cote-d-azur/hautes-alpes/bf28aa52-ff52-45f5-95d4-ba43fe1d3354"}
{"nom":"La Haute-Beaume","nomNormalise":"lahautebeaume","typeCollectivite":"Commune","region":"Provence-Alpes-Côte d'Azur","departement":"Hautes-Alpes","departementCode":"05","adresse":{"street":"Le village","postalCode":"05140","city":"La Haute-Beaume","country":"France"},"contacts":{"email":"mairie.hautebeaume@orange.fr","telephone":"0492467458"},"horaires":"Le Lundi : de 10h00 à 12h00","latitude":44.564297,"longitude":5.630141,"website":"","hasWebsite":false,"hasHoraires":true,"url":"https://lannuaire.service-public.gouv.fr/provence-alpes-cote-d-azur/hautes-alpes/816cf25f-ab35-4168-95f8-ae5b352a0335"}
{"nom":"La Motte-en-Champsaur","nomNormalise":"lamotteenchampsaur","typeCollectivite":"Commune","region":"Provence-Alpes-Côte d'Azur","departement":"Hautes-Alpes","departementCode":"05","adresse":{"street":"Place Jean-Hyppolyte-Gondre","postalCode":"05500","city":"La Motte-en-Champsaur","country":"France"},"contacts":{"email":"motte.en.champsaur@orange.fr","telephone":"0492500966"},"horaires":"Du Lundi au Mardi : de 13h00 à 16h30\nDu Jeudi au Vendredi : de 13h00 à 16h30","latitude":44.733105,"longitude":6.069383,"website":"https://www.la-motte-en-champsaur.fr/","hasWebsite":true,"hasHoraires":true,"url":"https://lannuaire.service-public.gouv.fr/provence-alpes-cote-d-azur/hautes-alpes/6ec8b909-295a-4c97-ba62-9a69883e0429"}
{"nom":"La Piarre","nomNormalise":"lapiarre","typeCollectivite":"Commune","region":"Provence-Alpes-Côte d'Azur","departement":"Hautes-Alpes","departementCode":"05","adresse":{"street":"101 rue Jean-Louis Pons","postalCode":"05700","city":"La Piarre","country":"France"},"contacts":{"email":"mairie.lapiarre@gmail.com","telephone":"0492671482"},"horaires":"Le Mardi : de 14h00 à 17h00","latitude":44.47528,"longitude":5.655378,"website":"","hasWebsite":false,"hasHoraires":true,"url":"https://lannuaire.service-public.gouv.fr/provence-alpes-cote-d-azur/hautes-alpes/4b4b5938-cacb-4114-9ef8-786a99f54696"}
{"nom":"Laragne-Montéglin","nomNormalise":"laragnemonteglin","typeCollectivite":"Commune","region":"Provence-Alpes-Côte d'Azur","departement":"Hautes-Alpes","departementCode":"05","adresse":{"street":"2 avenue Arthur-Audibert","postalCode":"05300","city":"Laragne-Montéglin","country":"France"},"contacts":{"email":"info@mairie-laragne.fr","telephone":"0492651190"},"horaires":"Le Lundi : de 08h00 à 12h00 de 13h30 à 16h15\nLe Mardi : de 08h00 à 12h00 de 13h30 à 19h00\nLe Mercredi : de 08h00 à 12h00 de 13h30 à 16h15\nLe Jeudi : de 08h00 à 12h00\n\nPermanence téléphonique de 13h30 à 16h15.\nLe Vendredi : de 08h00 à 12h00 de 13h30 à 16h15","latitude":44.315098,"longitude":5.8216715,"website":"http://www.laragne.net/","hasWebsite":true,"hasHoraires":true,"url":"https://lannuaire.service-public.gouv.fr/provence-alpes-cote-d-azur/hautes-alpes/1767dc03-014a-4ef3-b0b4-e7d64f9bce3d"}
{"nom":"Lardier-et-Valença","nomNormalise":"lardieretvalenca","typeCollectivite":"Commune","region":"Provence-Alpes-Côte d'Azur","departement":"Hautes-Alpes","departementCode":"05","adresse":{"street":"Le Collet","postalCode":"05110","city":"Lardier-et-Valença","country":"France"},"contacts":{"email":"mairie@lardieretvalenca.fr","telephone":"0492542049"},"horaires":"Le Lundi : de 09h00 à 12h00\nLe Mardi : de 13h30 à 17h00\nLe Jeudi : de 13h30 à 17h00","latitude":44.435684,"longitude":5.9813275,"website":"https://www.mairie-lardier-valenca.fr/","hasWebsite":true,"hasHoraires":true,"url":"https://lannuaire.service-public.gouv.fr/provence-alpes-cote-d-azur/hautes-alpes/5187f438-cc5e-468e-97cb-c728502cf49e"}
{"nom":"La Roche-de-Rame","nomNormalise":"larochederame","typeCollectivite":"Commune","region":"Provence-Alpes-Côte d'Azur","departement":"Hautes-Alpes","departementCode":"05","adresse":{"street":"5 chemin de la Mairie","postalCode":"05310","city":"La Roche-de-Rame","country":"France"},"contacts":{"email":"mairie@larochederame.fr","telephone":"0492209010"},"horaires":"Du Lundi au Vendredi : de 09h30 à 12h00","latitude":44.74987,"longitude":6.579979,"website":"https://www.larochederame.fr/","hasWebsite":true,"hasHoraires":true,"url":"https://lannuaire.service-public.gouv.fr/provence-alpes-cote-d-azur/hautes-alpes/d18e0742-59a0-465d-9070-966848471a06"}
{"nom":"La Roche-des-Arnauds","nomNormalise":"larochedesarnauds","typeCollectivite":"Commune","region":"Provence-Alpes-Côte d'Azur","departement":"Hautes-Alpes","departementCode":"05","adresse":{"street":"63 place de la Mairie","postalCode":"05400","city":"La Roche-des-Arnauds","country":"France"},"contacts":{"email":"mairie@la-roche-des-arnauds.com","telephone":"0492578234"},"horaires":"Du Lundi au Vendredi : de 08h00 à 12h00\nLe Samedi : de 09h00 à 12h00","latitude":44.563595,"longitude":5.958913,"website":"https://www.la-roche-des-arnauds.com/","hasWebsite":true,"hasHoraires":true,"url":"https://lannuaire.service-public.gouv.fr/provence-alpes-cote-d-azur/hautes-alpes/eccc5743-2032-435f-b759-cbf8d494c060"}
{"nom":"La Rochette","nomNormalise":"larochette","typeCollectivite":"Commune","region":"Provence-Alpes-Côte d'Azur","departement":"Hautes-Alpes","departementCode":"05","adresse":{"street":"Les Férauds","postalCode":"05000","city":"La Rochette","country":"France"},"contacts":{"email":"mairie@larochette05.fr","telephone":"0492523759"},"horaires":"Le Lundi : de 13h30 à 16h30\nLe Mardi : de 09h15 à 11h45 de 13h30 à 16h30\nLe Mercredi : de 09h15 à 11h45\nLe Jeudi : de 09h15 à 11h45 de 13h30 à 16h30\nLe Vendredi : de 09h15 à 11h45","latitude":44.59376,"longitude":6.151525,"website":"https://www.mairie-larochette05.fr/","hasWebsite":true,"hasHoraires":true,"url":"https://lannuaire.service-public.gouv.fr/provence-alpes-cote-d-azur/hautes-alpes/ef4712e6-7761-42fa-89e8-7ad7e6201bf1"}
{"nom":"La Salle-les-Alpes","nomNormalise":"lasallelesalpes","typeCollectivite":"Commune","region":"Provence-Alpes-Côte d'Azur","departement":"Hautes-Alpes","departementCode":"05","adresse":{"street":"15 rue de la Guisane","postalCode":"05240","city":"La Salle-les-Alpes","country":"France"},"contacts":{"email":"secretariatgeneral@lasallelesalpes.fr","telephone":"0492255400"},"horaires":"Du Lundi au Mardi : de 09h00 à 12h00 de 14h00 à 16h30\nLe Jeudi : de 09h00 à 12h00\nLe Vendredi : de 09h00 à 12h00 de 14h00 à 16h30","latitude":44.9441,"longitude":6.566397,"website":"http://www.lasallelesalpes.net/","hasWebsite":true,"hasHoraires":true,"url":"https://lannuaire.service-public.gouv.fr/provence-alpes-cote-d-azur/hautes-alpes/f43e89dd-9c2c-4a6b-ab0d-3ea226ab346e"}
{"nom":"La Saulce","nomNormalise":"lasaulce","typeCollectivite":"Commune","region":"Provence-Alpes-Côte d'Azur","departement":"Hautes-Alpes","departementCode":"05","adresse":{"street":"1 avenue de Marseille","postalCode":"05110","city":"La Saulce","country":"France"},"contacts":{"email":"mairie@lasaulce.fr","telephone":"0492542013"},"horaires":"Le Lundi : de 09h00 à 12h00 de 15h00 à 18h15\nDu Mardi au Jeudi : de 09h00 à 12h00 de 15h00 à 17h30\nLe Vendredi : de 09h00 à 12h00\nLe Samedi : de 10h00 à 12h00","latitude":44.42512,"longitude":6.007956,"website":"https://www.lasaulce.fr/","hasWebsite":true,"hasHoraires":true,"url":"https://lannuaire.service-public.gouv.fr/provence-alpes-cote-d-azur/hautes-alpes/c4ca76a6-63b4-441e-9b5b-aedd32105eb8"}
{"nom":"Laye","nomNormalise":"laye","typeCollectivite":"Commune","region":"Provence-Alpes-Côte d'Azur","departement":"Hautes-Alpes","departementCode":"05","adresse":{"street":"9 hameau de Brutinel","postalCode":"05500","city":"Laye","country":"France"},"contacts":{"email":"communedelaye@wanadoo.fr","telephone":"0492500895"},"horaires":"Le Lundi : de 14h00 à 17h00\nLe Jeudi : de 09h00 à 11h30","latitude":44.66065,"longitude":6.084327,"website":"http://www.laye.fr/","hasWebsite":true,"hasHoraires":true,"url":"https://lannuaire.service-public.gouv.fr/provence-alpes-cote-d-azur/hautes-alpes/d2e777d7-2ebb-4d07-b475-051293d03dc6"}
{"nom":"Lazer","nomNormalise":"lazer","typeCollectivite":"Commune","region":"Provence-Alpes-Côte d'Azur","departement":"Hautes-Alpes","departementCode":"05","adresse":{"street":"Route de Gap","postalCode":"05300","city":"Lazer","country":"France"},"contacts":{"email":"mairie.lazer@wanadoo.fr","telephone":"0492650630"},"horaires":"Le Lundi : de 08h30 à 12h00 de 13h30 à 17h30\nDu Mardi au Mercredi : de 08h30 à 12h00\nLe Jeudi : de 08h30 à 12h00 de 13h30 à 17h30\nLe Vendredi : de 08h30 à 12h00","latitude":44.348564,"longitude":5.83619,"website":"https://www.mairie-lazer.fr/","hasWebsite":true,"hasHoraires":true,"url":"https://lannuaire.service-public.gouv.fr/provence-alpes-cote-d-azur/hautes-alpes/ebcaaffe-0c64-4d01-9b2d-75739ee284a3"}
{"nom":"Le Bersac","nomNormalise":"lebersac","typeCollectivite":"Commune","region":"Provence-Alpes-Côte d'Azur","departement":"Hautes-Alpes","departementCode":"05","adresse":{"street":"20 montée de la Draye","postalCode":"05700","city":"Le Bersac","country":"France"},"contacts":{"email":"mairie@lebersac.fr","telephone":"0492670806"},"horaires":"Le Mercredi : de 10h00 à 11h30\nLe Jeudi : de 10h00 à 16h00","latitude":44.405388,"longitude":5.7465887,"website":"http://www.lebersac.fr/","hasWebsite":true,"hasHoraires":true,"url":"https://lannuaire.service-public.gouv.fr/provence-alpes-cote-d-azur/hautes-alpes/0b2a6f68-e7d1-488d-9e60-972359e09c18"}
{"nom":"Le Dévoluy","nomNormalise":"ledevoluy","typeCollectivite":"Commune","region":"Provence-Alpes-Côte d'Azur","departement":"Hautes-Alpes","departementCode":"05","adresse":{"street":"Le Près","postalCode":"05250","city":"Le Dévoluy","country":"France"},"contacts":{"email":"contact@mairiedevoluy.fr","telephone":"0492588938"},"horaires":"Du Lundi au Mardi : de 09h00 à 12h00 de 13h30 à 16h30\nLe Mercredi : de 09h00 à 12h00\nLe Jeudi : de 09h00 à 12h00 de 13h30 à 16h30\nLe Vendredi : de 09h00 à 12h00","latitude":44.687737,"longitude":5.945451,"website":"https://www.mairiedevoluy.com/","hasWebsite":true,"hasHoraires":true,"url":"https://lannuaire.service-public.gouv.fr/provence-alpes-cote-d-azur/hautes-alpes/54b9e834-4fbb-4c9a-aa8a-251b63e07ee8"}
{"nom":"Le Glaizil","nomNormalise":"leglaizil","typeCollectivite":"Commune","region":"Provence-Alpes-Côte d'Azur","departement":"Hautes-Alpes","departementCode":"05","adresse":{"street":"2 rue du Pont","postalCode":"05800","city":"Le Glaizil","country":"France"},"contacts":{"email":"mairie@le-glaizil.fr","telephone":"0492552287"},"horaires":"Le Mardi : de 08h00 à 12h00\nLe Jeudi : de 14h00 à 17h00","latitude":44.754898,"longitude":5.982319,"website":"https://mairie.le-glaizil.fr/","hasWebsite":true,"hasHoraires":true,"url":"https://lannuaire.service-public.gouv.fr/provence-alpes-cote-d-azur/hautes-alpes/1abf50f5-4b0f-4725-915f-663735ac2b36"}
{"nom":"Le Monêtier-les-Bains","nomNormalise":"lemonetierlesbains","typeCollectivite":"Commune","region":"Provence-Alpes-Côte d'Azur","departement":"Hautes-Alpes","departementCode":"05","adresse":{"street":"Place Novalese","postalCode":"05220","city":"Le Monêtier-les-Bains","country":"France"},"contacts":{"email":"monetier@monetier.com","telephone":"0492244004"},"horaires":"Le Lundi : de 14h30 à 16h30\nDu Mardi au Jeudi : de 09h00 à 12h00 de 14h30 à 16h30\nLe Vendredi : de 09h00 à 13h00","latitude":44.975864,"longitude":6.507809,"website":"https://www.monetier.com/","hasWebsite":true,"hasHoraires":true,"url":"https://lannuaire.service-public.gouv.fr/provence-alpes-cote-d-azur/hautes-alpes/637566c7-1bd7-414f-a4eb-7004e7665e64"}
{"nom":"Le Noyer","nomNormalise":"lenoyer","typeCollectivite":"Commune","region":"Provence-Alpes-Côte d'Azur","departement":"Hautes-Alpes","departementCode":"05","adresse":{"street":"La Ville","postalCode":"05500","city":"Le Noyer","country":"France"},"contacts":{"email":"mairiedunoyer@wanadoo.fr","telephone":"0492501145"},"horaires":"Le Lundi : de 13h30 à 17h00\nLe Mercredi : de 08h30 à 12h00\nLe Vendredi : de 13h30 à 17h00","latitude":44.6978,"longitude":6.0121255,"website":"https://www.lenoyerenchampsaur.fr/","hasWebsite":true,"hasHoraires":true,"url":"https://lannuaire.service-public.gouv.fr/provence-alpes-cote-d-azur/hautes-alpes/e1af0e97-9013-4433-8304-0f569d83652a"}
{"nom":"Le Poet","nomNormalise":"lepoet","typeCollectivite":"Commune","region":"Provence-Alpes-Côte d'Azur","departement":"Hautes-Alpes","departementCode":"05","adresse":{"street":"22 route Napoléon","postalCode":"05300","city":"Le Poet","country":"France"},"contacts":{"email":"sg@mairielepoet.fr","telephone":"0492657011"},"horaires":"Du Lundi au Vendredi : de 08h45 à 12h15\nL'agence postale est située dans la mairie et est ouverte aux mêmes horaires.","latitude":44.292084,"longitude":5.897662,"website":"https://www.mairielepoet.fr/","hasWebsite":true,"hasHoraires":true,"url":"https://lannuaire.service-public.gouv.fr/provence-alpes-cote-d-azur/hautes-alpes/1b15621b-eef3-4adf-bf9d-f5445bea32e9"}
{"nom":"Le Saix","nomNormalise":"lesaix","typeCollectivite":"Commune","region":"Provence-Alpes-Côte d'Azur","departement":"Hautes-Alpes","departementCode":"05","adresse":{"street":"Impasse de la Cure","postalCode":"05400","city":"Le Saix","country":"France"},"contacts":{"email":"mairie.lesaix@wanadoo.fr","telephone":"0492572903"},"horaires":"Le Lundi : de 08h30 à 13h00 de 13h30 à 17h30","latitude":44.475014,"longitude":5.824386,"website":"https://village-le-saix.fr/","hasWebsite":true,"hasHoraires":true,"url":"https://lannuaire.service-public.gouv.fr/provence-alpes-cote-d-azur/hautes-alpes/d00cc071-8f2b-4622-a493-0c38e886fb72"}
{"nom":"Le Sauze-du-Lac","nomNormalise":"lesauzedulac","typeCollectivite":"Commune","region":"Provence-Alpes-Côte d'Azur","departement":"Hautes-Alpes","departementCode":"05","adresse":{"street":"321 rue Principale","postalCode":"05160","city":"Le Sauze-du-Lac","country":"France"},"contacts":{"email":"mairie@lesauzedulac.fr","telephone":"0492442534"},"horaires":"Du Lundi au Mardi : de 09h00 à 12h30 de 13h30 à 16h30\nDu Jeudi au Vendredi : de 09h00 à 12h30 de 13h30 à 16h30","latitude":44.47819,"longitude":6.314773,"website":"https://www.lesauzedulac.fr/","hasWebsite":true,"hasHoraires":true,"url":"https://lannuaire.service-public.gouv.fr/provence-alpes-cote-d-azur/hautes-alpes/fba93609-a317-4f20-bcd0-58ed845219af"}
{"nom":"Les Orres","nomNormalise":"lesorres","typeCollectivite":"Commune","region":"Provence-Alpes-Côte d'Azur","departement":"Hautes-Alpes","departementCode":"05","adresse":{"street":"Chef-lieu","postalCode":"05200","city":"Les Orres","country":"France"},"contacts":{"email":"contact@mairie-lesorres.fr","telephone":"0492440040"},"horaires":"Du Lundi au Vendredi : de 09h00 à 12h00 de 14h30 à 17h00","latitude":44.514183,"longitude":6.5510683,"website":"https://www.mairie-lesorres.fr/","hasWebsite":true,"hasHoraires":true,"url":"https://lannuaire.service-public.gouv.fr/provence-alpes-cote-d-azur/hautes-alpes/9afa7b3f-79ea-45d3-9ca8-712f724a7b97"}
{"nom":"Les Vigneaux","nomNormalise":"lesvigneaux","typeCollectivite":"Commune","region":"Provence-Alpes-Côte d'Azur","departement":"Hautes-Alpes","departementCode":"05","adresse":{"street":"474 route de l'École","postalCode":"05120","city":"Les Vigneaux","country":"France"},"contacts":{"email":"mairie@lesvigneaux.fr","telephone":"0492231339"},"horaires":"Le Lundi : de 09h00 à 12h00\nLe Mardi : de 14h00 à 18h00\nLe Jeudi : de 08h30 à 12h00","latitude":44.824123,"longitude":6.544269,"website":"https://www.lesvigneaux.fr/","hasWebsite":true,"hasHoraires":true,"url":"https://lannuaire.service-public.gouv.fr/provence-alpes-cote-d-azur/hautes-alpes/4e4ab5c6-b010-4db0-baf1-96296e884ab8"}
{"nom":"Lettret","nomNormalise":"lettret","typeCollectivite":"Commune","region":"Provence-Alpes-Côte d'Azur","departement":"Hautes-Alpes","departementCode":"05","adresse":{"street":"5 place de la Fontaine","postalCode":"05130","city":"Lettret","country":"France"},"contacts":{"email":"mairie.lettret@free.fr","telephone":"0413690086"},"horaires":"Le Lundi : de 13h00 à 17h00\nLe Vendredi : de 09h00 à 12h30","latitude":44.468155,"longitude":6.0615125,"website":"https://mairie-lettret.fr/","hasWebsite":true,"hasHoraires":true,"url":"https://lannuaire.service-public.gouv.fr/provence-alpes-cote-d-azur/hautes-alpes/65c3fe30-92a2-4397-8e8b-ca9f8567a515"}
{"nom":"Manteyer","nomNormalise":"manteyer","typeCollectivite":"Commune","region":"Provence-Alpes-Côte d'Azur","departement":"Hautes-Alpes","departementCode":"05","adresse":{"street":"Quartier de l'Église","postalCode":"05400","city":"Manteyer","country":"France"},"contacts":{"email":"contact@manteyer-mairie.fr","telephone":"0492578073"},"horaires":"Le Mardi : de 08h30 à 12h00 de 14h00 à 17h30\nLe Vendredi : de 08h30 à 12h00 de 14h00 à 17h30","latitude":44.538128,"longitude":5.964482,"website":"https://www.manteyer-mairie.fr/","hasWebsite":true,"hasHoraires":true,"url":"https://lannuaire.service-public.gouv.fr/provence-alpes-cote-d-azur/hautes-alpes/9bceae66-6538-451d-ab68-223c98ad4973"}
{"nom":"Méreuil","nomNormalise":"mereuil","typeCollectivite":"Commune","region":"Provence-Alpes-Côte d'Azur","departement":"Hautes-Alpes","departementCode":"05","adresse":{"street":"10 rue du Château","postalCode":"05700","city":"Méreuil","country":"France"},"contacts":{"email":"mairie.mereuil@wanadoo.fr","telephone":"0492670958"},"horaires":"Le Mercredi : de 09h00 à 12h00 de 14h00 à 17h00","latitude":44.387054,"longitude":5.729837,"website":"","hasWebsite":false,"hasHoraires":true,"url":"https://lannuaire.service-public.gouv.fr/provence-alpes-cote-d-azur/hautes-alpes/cdbee481-d510-4d2e-8dd6-acbd7236fd38"}
{"nom":"Molines-en-Queyras","nomNormalise":"molinesenqueyras","typeCollectivite":"Commune","region":"Provence-Alpes-Côte d'Azur","departement":"Hautes-Alpes","departementCode":"05","adresse":{"street":"225 Rue du Serre","postalCode":"05350","city":"Molines-en-Queyras","country":"France"},"contacts":{"email":"mairie@molinesenqueyras.fr","telephone":"0492458337"},"horaires":"Du Lundi au Vendredi : de 08h00 à 12h00 de 13h30 à 17h00","latitude":44.731,"longitude":6.8422,"website":"https://www.mairie-molinesenqueyras.fr/","hasWebsite":true,"hasHoraires":true,"url":"https://lannuaire.service-public.gouv.fr/provence-alpes-cote-d-azur/hautes-alpes/905f19a1-9368-44b4-bf5f-0b7802ddaec1"}
{"nom":"Monétier-Allemont","nomNormalise":"monetierallemont","typeCollectivite":"Commune","region":"Provence-Alpes-Côte d'Azur","departement":"Hautes-Alpes","departementCode":"05","adresse":{"street":"1 place de la Mairie","postalCode":"05110","city":"Monétier-Allemont","country":"France"},"contacts":{"email":"mairiemonetierallemont@orange.fr","telephone":"0492664058"},"horaires":"Le Lundi : de 09h00 à 12h00\nLe Mardi : de 14h00 à 17h00\nLe Jeudi : de 09h00 à 12h00\nLe Vendredi : de 14h00 à 17h00","latitude":44.38602,"longitude":5.944055,"website":"","hasWebsite":false,"hasHoraires":true,"url":"https://lannuaire.service-public.gouv.fr/provence-alpes-cote-d-azur/hautes-alpes/75d71fc4-e4b8-4203-b954-bb86e6e442ae"}
{"nom":"Montbrand","nomNormalise":"montbrand","typeCollectivite":"Commune","region":"Provence-Alpes-Côte d'Azur","departement":"Hautes-Alpes","departementCode":"05","adresse":{"street":"Le Forest","postalCode":"05140","city":"Montbrand","country":"France"},"contacts":{"email":"montbrand@wanadoo.fr","telephone":"0492572990"},"horaires":"Le Lundi : de 13h30 à 17h30\nLe Jeudi : de 13h30 à 17h30","latitude":44.585472,"longitude":5.691032,"website":"","hasWebsite":false,"hasHoraires":true,"url":"https://lannuaire.service-public.gouv.fr/provence-alpes-cote-d-azur/hautes-alpes/c55a99f1-aeea-4736-8597-38c1ed954a77"}
{"nom":"Montclus","nomNormalise":"montclus","typeCollectivite":"Commune","region":"Provence-Alpes-Côte d'Azur","departement":"Hautes-Alpes","departementCode":"05","adresse":{"street":"Le Village","postalCode":"05700","city":"Montclus","country":"France"},"contacts":{"email":"mairie.montclus05@free.fr","telephone":"0492670551"},"horaires":"Le Lundi : de 13h00 à 17h30\nLe Mercredi : de 08h30 à 12h00","latitude":44.414913,"longitude":5.68397,"website":"https://www.intramuros.org/montclus","hasWebsite":true,"hasHoraires":true,"url":"https://lannuaire.service-public.gouv.fr/provence-alpes-cote-d-azur/hautes-alpes/ca8ee6c7-59a5-42e4-b47c-a7144971fbdf"}
{"nom":"Mont-Dauphin","nomNormalise":"montdauphin","typeCollectivite":"Commune","region":"Provence-Alpes-Côte d'Azur","departement":"Hautes-Alpes","departementCode":"05","adresse":{"street":"Caserne Campana","postalCode":"05600","city":"Mont-Dauphin","country":"France"},"contacts":{"email":"secretariatmairie@montdauphin-vauban.fr","telephone":"0492451834"},"horaires":"Le Lundi : de 14h00 à 18h00\nLe Mardi : de 08h00 à 12h00\nLe Jeudi : de 14h00 à 18h00","latitude":44.669426,"longitude":6.62578,"website":"https://www.montdauphin-vauban.fr/","hasWebsite":true,"hasHoraires":true,"url":"https://lannuaire.service-public.gouv.fr/provence-alpes-cote-d-azur/hautes-alpes/d271b9d7-3c77-4503-a941-7a80202d9d70"}
{"nom":"Montgardin","nomNormalise":"montgardin","typeCollectivite":"Commune","region":"Provence-Alpes-Côte d'Azur","departement":"Hautes-Alpes","departementCode":"05","adresse":{"street":"4 Place Roger-Mamo","postalCode":"05230","city":"Montgardin","country":"France"},"contacts":{"email":"mairiemontgardin@free.fr","telephone":"0492503781"},"horaires":"Le Mardi : de 13h30 à 17h00\nLe Jeudi : de 08h30 à 12h00","latitude":44.55001,"longitude":6.240248,"website":"https://www.mairie-montgardin.fr/","hasWebsite":true,"hasHoraires":true,"url":"https://lannuaire.service-public.gouv.fr/provence-alpes-cote-d-azur/hautes-alpes/d575ea7e-56fb-4d9a-85fb-62275079d7a8"}
{"nom":"Montgenèvre","nomNormalise":"montgenevre","typeCollectivite":"Commune","region":"Provence-Alpes-Côte d'Azur","departement":"Hautes-Alpes","departementCode":"05","adresse":{"street":"80 place du Chalvet","postalCode":"05100","city":"Montgenèvre","country":"France"},"contacts":{"email":"mairie@montgenevre.com","telephone":"0492219288"},"horaires":"Du Lundi au Vendredi : de 13h30 à 17h00\n\nAccueil téléphonique du lundi au vendredi de 8h30 à 12h et 13h30 à 17h.","latitude":44.933155,"longitude":6.727146,"website":"https://montgenevre.fr/","hasWebsite":true,"hasHoraires":true,"url":"https://lannuaire.service-public.gouv.fr/provence-alpes-cote-d-azur/hautes-alpes/f1842c4f-0b55-4d05-8ab3-da4262236d9a"}
{"nom":"Montjay","nomNormalise":"montjay","typeCollectivite":"Commune","region":"Provence-Alpes-Côte d'Azur","departement":"Hautes-Alpes","departementCode":"05","adresse":{"street":"Le Village","postalCode":"05150","city":"Montjay","country":"France"},"contacts":{"email":"mairie.montjay05@gmail.com","telephone":"0492662603"},"horaires":"Le Mardi : de 09h00 à 12h30 de 13h30 à 17h00\nLe Vendredi : de 09h00 à 12h30 de 13h30 à 17h00","latitude":44.35987,"longitude":5.605362,"website":"","hasWebsite":false,"hasHoraires":true,"url":"https://lannuaire.service-public.gouv.fr/provence-alpes-cote-d-azur/hautes-alpes/0cb29a5d-78f7-4e35-a14d-4e2b29582272"}
{"nom":"Montmaur","nomNormalise":"montmaur","typeCollectivite":"Commune","region":"Provence-Alpes-Côte d'Azur","departement":"Hautes-Alpes","departementCode":"05","adresse":{"street":"15 avenue Albert-Bonnardel","postalCode":"05400","city":"Montmaur","country":"France"},"contacts":{"email":"mairie-montmaur@wanadoo.fr","telephone":"0492580559"},"horaires":"Du Lundi au Vendredi : de 08h00 à 12h00","latitude":44.57062,"longitude":5.874615,"website":"http://www.montmaur05.fr/","hasWebsite":true,"hasHoraires":true,"url":"https://lannuaire.service-public.gouv.fr/provence-alpes-cote-d-azur/hautes-alpes/fcb689bc-ac1d-4321-a9ce-94edca93efa1"}
{"nom":"Mairie déléguée - Montmorin","nomNormalise":"mairiedelegueemontmorin","typeCollectivite":"Commune","region":"Provence-Alpes-Côte d'Azur","departement":"Hautes-Alpes","departementCode":"05","adresse":{"street":"Montmorin","postalCode":"05150","city":"Valdoule","country":"France"},"contacts":{"email":"mairie.montmorin@orange.fr","telephone":"0492660250"},"horaires":"Le Mercredi : de 08h30 à 12h00 de 13h30 à 17h30","latitude":44.452084,"longitude":5.542843,"website":"","hasWebsite":false,"hasHoraires":true,"url":"https://lannuaire.service-public.gouv.fr/provence-alpes-cote-d-azur/hautes-alpes/95e3fec0-c9b2-4767-b20a-551b933f16b1"}
{"nom":"Montrond","nomNormalise":"montrond","typeCollectivite":"Commune","region":"Provence-Alpes-Côte d'Azur","departement":"Hautes-Alpes","departementCode":"05","adresse":{"street":"10 Place du 19-Mars-1962","postalCode":"05700","city":"Montrond","country":"France"},"contacts":{"email":"mairie.montrond@wanadoo.fr","telephone":"0492671288"},"horaires":"Le Jeudi : de 08h30 à 12h30 de 13h00 à 17h00","latitude":44.38218,"longitude":5.741819,"website":"","hasWebsite":false,"hasHoraires":true,"url":"https://lannuaire.service-public.gouv.fr/provence-alpes-cote-d-azur/hautes-alpes/69b719c6-5d86-456d-9cfd-208343736f05"}
{"nom":"Moydans","nomNormalise":"moydans","typeCollectivite":"Commune","region":"Provence-Alpes-Côte d'Azur","departement":"Hautes-Alpes","departementCode":"05","adresse":{"street":"Route des Alpes","postalCode":"05150","city":"Moydans","country":"France"},"contacts":{"email":"mairie.moydans@wanadoo.fr","telephone":"0492666251"},"horaires":"Le Mardi : de 13h00 à 17h30","latitude":44.3997,"longitude":5.503793,"website":"","hasWebsite":false,"hasHoraires":true,"url":"https://lannuaire.service-public.gouv.fr/provence-alpes-cote-d-azur/hautes-alpes/a0f0aa23-53c7-49d9-ba8e-fce8d9a372a2"}
{"nom":"Neffes","nomNormalise":"neffes","typeCollectivite":"Commune","region":"Provence-Alpes-Côte d'Azur","departement":"Hautes-Alpes","departementCode":"05","adresse":{"street":"Le Village","postalCode":"05000","city":"Neffes","country":"France"},"contacts":{"email":"contact@mairieneffes.fr","telephone":"0492578087"},"horaires":"Le Lundi : de 09h00 à 12h00\nLe Mardi : de 09h00 à 12h00 de 14h00 à 17h30\nLe Jeudi : de 14h00 à 17h00","latitude":44.504646,"longitude":6.022969,"website":"https://www.mairieneffes.fr/","hasWebsite":true,"hasHoraires":true,"url":"https://lannuaire.service-public.gouv.fr/provence-alpes-cote-d-azur/hautes-alpes/d9573a60-e63e-4972-9e07-b5128f7c8ac8"}
{"nom":"Névache","nomNormalise":"nevache","typeCollectivite":"Commune","region":"Provence-Alpes-Côte d'Azur","departement":"Hautes-Alpes","departementCode":"05","adresse":{"street":"Ville-Basse","postalCode":"05100","city":"Névache","country":"France"},"contacts":{"email":"mairie.nevache@orange.fr","telephone":"0492211919"},"horaires":"Du Lundi au Mardi : de 10h00 à 12h00\nDu Jeudi au Vendredi : de 10h00 à 12h00","latitude":45.01886,"longitude":6.6129794,"website":"http://www.nevache.fr/","hasWebsite":true,"hasHoraires":true,"url":"https://lannuaire.service-public.gouv.fr/provence-alpes-cote-d-azur/hautes-alpes/42bcef68-bfcc-4b17-9292-344ace0bfc4e"}
{"nom":"Nossage-et-Bénévent","nomNormalise":"nossageetbenevent","typeCollectivite":"Commune","region":"Provence-Alpes-Côte d'Azur","departement":"Hautes-Alpes","departementCode":"05","adresse":{"street":"485 chemin de Pige-Bouin","postalCode":"05700","city":"Nossage-et-Bénévent","country":"France"},"contacts":{"email":"mairie.nossage@gmail.com","telephone":"0492662127"},"horaires":"Le Lundi : de 09h00 à 11h00","latitude":44.314793,"longitude":5.748778,"website":"","hasWebsite":false,"hasHoraires":true,"url":"https://lannuaire.service-public.gouv.fr/provence-alpes-cote-d-azur/hautes-alpes/c3be8fa8-7d4b-4bbd-a4a9-9beb26b15dd3"}
{"nom":"Orcières","nomNormalise":"orcieres","typeCollectivite":"Commune","region":"Provence-Alpes-Côte d'Azur","departement":"Hautes-Alpes","departementCode":"05","adresse":{"street":"3756 route d'Orcieres","postalCode":"05170","city":"Orcières","country":"France"},"contacts":{"email":"dgs@orcieres-mairie.fr","telephone":"0492557026"},"horaires":"Du Lundi au Vendredi : de 08h00 à 12h00 de 14h00 à 17h00","latitude":44.68388,"longitude":6.326432,"website":"https://www.orcieres-mairie.fr/","hasWebsite":true,"hasHoraires":true,"url":"https://lannuaire.service-public.gouv.fr/provence-alpes-cote-d-azur/hautes-alpes/64ec153a-2f9b-4624-aed1-63d0aaede7eb"}
{"nom":"Orpierre","nomNormalise":"orpierre","typeCollectivite":"Commune","region":"Provence-Alpes-Côte d'Azur","departement":"Hautes-Alpes","departementCode":"05","adresse":{"street":"5 place des Aires","postalCode":"05700","city":"Orpierre","country":"France"},"contacts":{"email":"secretariat@orpierre.fr","telephone":"0492662136"},"horaires":"Du Lundi au Mardi : de 09h00 à 12h00\nDu Jeudi au Vendredi : de 09h00 à 12h00","latitude":44.313942,"longitude":5.693528,"website":"","hasWebsite":false,"hasHoraires":true,"url":"https://lannuaire.service-public.gouv.fr/provence-alpes-cote-d-azur/hautes-alpes/d030ea9e-6e67-4a4e-85d9-88740573d749"}
{"nom":"Oze","nomNormalise":"oze","typeCollectivite":"Commune","region":"Provence-Alpes-Côte d'Azur","departement":"Hautes-Alpes","departementCode":"05","adresse":{"street":"Le Village","postalCode":"05400","city":"Oze","country":"France"},"contacts":{"email":"mairie.oze@wanadoo.fr","telephone":"0492572997"},"horaires":"Le Mardi : de 13h30 à 17h30\nLe Vendredi : de 13h30 à 17h30","latitude":44.50254,"longitude":5.800908,"website":"","hasWebsite":false,"hasHoraires":true,"url":"https://lannuaire.service-public.gouv.fr/provence-alpes-cote-d-azur/hautes-alpes/243279a2-7a46-4155-af4f-cedd6f921a9d"}
{"nom":"Pelleautier","nomNormalise":"pelleautier","typeCollectivite":"Commune","region":"Provence-Alpes-Côte d'Azur","departement":"Hautes-Alpes","departementCode":"05","adresse":{"street":"170 rue de la Mairie","postalCode":"05000","city":"Pelleautier","country":"France"},"contacts":{"email":"mairiepelleautier@gmail.com","telephone":"0492578742"},"horaires":"Le Lundi : de 08h00 à 12h00\nLe Mardi : de 13h30 à 17h30\nLe Jeudi : de 13h30 à 17h30\nLe Vendredi : de 08h00 à 12h00 de 13h30 à 17h00","latitude":44.516,"longitude":6.01763,"website":"https://www.pelleautier.fr/","hasWebsite":true,"hasHoraires":true,"url":"https://lannuaire.service-public.gouv.fr/provence-alpes-cote-d-azur/hautes-alpes/b91f5a78-4e06-489c-8749-f68d7553d0ca"}
{"nom":"Poligny","nomNormalise":"poligny","typeCollectivite":"Commune","region":"Provence-Alpes-Côte d'Azur","departement":"Hautes-Alpes","departementCode":"05","adresse":{"street":"Le Village","postalCode":"05500","city":"Poligny","country":"France"},"contacts":{"email":"poligny_commune@orange.fr","telephone":"0492505066"},"horaires":"Le Lundi : de 14h00 à 17h00\nLe Vendredi : de 14h00 à 18h00","latitude":44.691418,"longitude":6.047047,"website":"https://www.mairiedepoligny05500.com/","hasWebsite":true,"hasHoraires":true,"url":"https://lannuaire.service-public.gouv.fr/provence-alpes-cote-d-azur/hautes-alpes/4cb252b7-aa49-417f-ae9c-b3cb515f21c1"}
{"nom":"Prunières","nomNormalise":"prunieres","typeCollectivite":"Commune","region":"Provence-Alpes-Côte d'Azur","departement":"Hautes-Alpes","departementCode":"05","adresse":{"street":"Les Plantas","postalCode":"05230","city":"Prunières","country":"France"},"contacts":{"email":"contact@prunieres.fr","telephone":"0492506589"},"horaires":"Le Lundi : de 14h00 à 17h00\nLe Jeudi : de 09h00 à 11h30","latitude":44.542202,"longitude":6.3332253,"website":"https://www.prunieres.fr/","hasWebsite":true,"hasHoraires":true,"url":"https://lannuaire.service-public.gouv.fr/provence-alpes-cote-d-azur/hautes-alpes/81da123a-22d1-489d-9f50-7c0d2643a890"}
{"nom":"Puy-Saint-André","nomNormalise":"puysaintandre","typeCollectivite":"Commune","region":"Provence-Alpes-Côte d'Azur","departement":"Hautes-Alpes","departementCode":"05","adresse":{"street":"644 route du Canal","postalCode":"05100","city":"Puy-Saint-André","country":"France"},"contacts":{"email":"mairie@puysaintandre.fr","telephone":"0492202426"},"horaires":"Le Lundi : de 09h00 à 12h00\nDu Mercredi au Jeudi : de 09h00 à 12h00","latitude":44.87839,"longitude":6.5968876,"website":"https://www.puysaintandre.fr/","hasWebsite":true,"hasHoraires":true,"url":"https://lannuaire.service-public.gouv.fr/provence-alpes-cote-d-azur/hautes-alpes/90d44c05-1c05-479b-966f-73a98f20093d"}
{"nom":"Puy-Saint-Eusèbe","nomNormalise":"puysainteusebe","typeCollectivite":"Commune","region":"Provence-Alpes-Côte d'Azur","departement":"Hautes-Alpes","departementCode":"05","adresse":{"street":"Le Villard","postalCode":"05200","city":"Puy-Saint-Eusèbe","country":"France"},"contacts":{"email":"mairie@puysainteusebe.com","telephone":"0492432881"},"horaires":"Du Lundi au Mardi : de 09h00 à 12h00 de 13h30 à 17h00\nLe Jeudi : de 09h00 à 12h00 de 13h30 à 17h00","latitude":44.568836,"longitude":6.402251,"website":"https://www.puysainteusebe.com/","hasWebsite":true,"hasHoraires":true,"url":"https://lannuaire.service-public.gouv.fr/provence-alpes-cote-d-azur/hautes-alpes/8631e8b3-b163-4761-bd0d-c52ab164c0d8"}
{"nom":"Puy-Saint-Pierre","nomNormalise":"puysaintpierre","typeCollectivite":"Commune","region":"Provence-Alpes-Côte d'Azur","departement":"Hautes-Alpes","departementCode":"05","adresse":{"street":"Le Pinet","postalCode":"05100","city":"Puy-Saint-Pierre","country":"France"},"contacts":{"email":"accueil@puysaintpierre.fr","telephone":"0492210945"},"horaires":"Le Mardi : de 17h00 à 19h00\nLe Mercredi : de 09h00 à 12h00\nLe Vendredi : de 09h00 à 12h00","latitude":44.89369,"longitude":6.6281123,"website":"https://www.puysaintpierre.fr/","hasWebsite":true,"hasHoraires":true,"url":"https://lannuaire.service-public.gouv.fr/provence-alpes-cote-d-azur/hautes-alpes/5538b54d-ad48-4e35-8578-02352f14965c"}
{"nom":"Puy-Saint-Vincent","nomNormalise":"puysaintvincent","typeCollectivite":"Commune","region":"Provence-Alpes-Côte d'Azur","departement":"Hautes-Alpes","departementCode":"05","adresse":{"street":"Les Alberts","postalCode":"05290","city":"Puy-Saint-Vincent","country":"France"},"contacts":{"email":"info@mairie-puy-saint-vincent.fr","telephone":"0492233066"},"horaires":"Du Lundi au Vendredi : de 09h00 à 12h00","latitude":44.827984,"longitude":6.495226,"website":"https://www.paysdesecrins.com/nos-stations/puy-saint-vincent","hasWebsite":true,"hasHoraires":true,"url":"https://lannuaire.service-public.gouv.fr/provence-alpes-cote-d-azur/hautes-alpes/8c363668-475b-4be1-a74d-7db8bf422221"}
{"nom":"Puy-Sanières","nomNormalise":"puysanieres","typeCollectivite":"Commune","region":"Provence-Alpes-Côte d'Azur","departement":"Hautes-Alpes","departementCode":"05","adresse":{"street":"Les Truchets","postalCode":"05200","city":"Puy-Sanières","country":"France"},"contacts":{"email":"mairiedepuysanieres@wanadoo.fr","telephone":"0492433888"},"horaires":"Le Lundi : de 09h00 à 12h00 de 13h30 à 16h00\nLe Mardi : de 09h00 à 12h00\nDu Jeudi au Vendredi : de 09h00 à 12h00","latitude":44.55651,"longitude":6.43676,"website":"https://www.puysanieres.fr/","hasWebsite":true,"hasHoraires":true,"url":"https://lannuaire.service-public.gouv.fr/provence-alpes-cote-d-azur/hautes-alpes/0dcd5201-4d3b-4382-841c-bdc22d97b94b"}
{"nom":"Rabou","nomNormalise":"rabou","typeCollectivite":"Commune","region":"Provence-Alpes-Côte d'Azur","departement":"Hautes-Alpes","departementCode":"05","adresse":{"street":"31 route de Rabou","postalCode":"05400","city":"Rabou","country":"France"},"contacts":{"email":"mairie.rabou@ccbd.fr","telephone":"0492579216"},"horaires":"Le Mardi : de 09h00 à 12h30 de 13h30 à 17h30\nLe Vendredi : de 09h00 à 12h30 de 13h30 à 17h30","latitude":44.590107,"longitude":6.005078,"website":"","hasWebsite":false,"hasHoraires":true,"url":"https://lannuaire.service-public.gouv.fr/provence-alpes-cote-d-azur/hautes-alpes/f4714156-4ce2-48a5-bb70-98ca661fa8a5"}
{"nom":"Rambaud","nomNormalise":"rambaud","typeCollectivite":"Commune","region":"Provence-Alpes-Côte d'Azur","departement":"Hautes-Alpes","departementCode":"05","adresse":{"street":"Le Village","postalCode":"05000","city":"Rambaud","country":"France"},"contacts":{"email":"mairie@rambaud05.fr","telephone":"0492522596"},"horaires":"Le Lundi : de 16h30 à 18h30\nLe Mardi : de 10h00 à 12h00\nDu Jeudi au Vendredi : de 10h00 à 12h00","latitude":44.54484,"longitude":6.132031,"website":"https://www.rambaud-village.fr/","hasWebsite":true,"hasHoraires":true,"url":"https://lannuaire.service-public.gouv.fr/provence-alpes-cote-d-azur/hautes-alpes/4131de35-f790-41bb-9c36-e1c93980434c"}
{"nom":"Réallon","nomNormalise":"reallon","typeCollectivite":"Commune","region":"Provence-Alpes-Côte d'Azur","departement":"Hautes-Alpes","departementCode":"05","adresse":{"street":"La Place","postalCode":"05160","city":"Réallon","country":"France"},"contacts":{"email":"secretariat@reallon.fr","telephone":"0492442393"},"horaires":"Le Mardi : de 09h00 à 12h00 de 14h00 à 16h30\nLe Vendredi : de 09h00 à 12h00 de 14h00 à 16h00","latitude":44.595623,"longitude":6.363069,"website":"https://www.reallon.fr/","hasWebsite":true,"hasHoraires":true,"url":"https://lannuaire.service-public.gouv.fr/provence-alpes-cote-d-azur/hautes-alpes/0c76dd23-fe42-4fa7-981a-4ac9f938b875"}
{"nom":"Remollon","nomNormalise":"remollon","typeCollectivite":"Commune","region":"Provence-Alpes-Côte d'Azur","departement":"Hautes-Alpes","departementCode":"05","adresse":{"street":"2 rue des Templiers","postalCode":"05190","city":"Remollon","country":"France"},"contacts":{"email":"mairie.remollon@gmail.com","telephone":"0492546298"},"horaires":"Le Lundi : de 08h00 à 10h00\nLe Jeudi : de 10h00 à 12h00\nLe Vendredi : de 15h00 à 17h00","latitude":44.468,"longitude":6.167866,"website":"https://www.remollon.fr/","hasWebsite":true,"hasHoraires":true,"url":"https://lannuaire.service-public.gouv.fr/provence-alpes-cote-d-azur/hautes-alpes/1ea975ab-91ec-46a3-b4a2-c831366110de"}
{"nom":"Réotier","nomNormalise":"reotier","typeCollectivite":"Commune","region":"Provence-Alpes-Côte d'Azur","departement":"Hautes-Alpes","departementCode":"05","adresse":{"street":"17 chemin de l'École","postalCode":"05600","city":"Réotier","country":"France"},"contacts":{"email":"mairie@reotier.fr","telephone":"0492453200"},"horaires":"Le Mardi : de 13h30 à 17h00\nDu Mercredi au Jeudi : de 08h15 à 12h15","latitude":44.665974,"longitude":6.58892,"website":"https://www.reotier.fr/","hasWebsite":true,"hasHoraires":true,"url":"https://lannuaire.service-public.gouv.fr/provence-alpes-cote-d-azur/hautes-alpes/5bd20179-e37d-4a43-a942-d16accf0b619"}
{"nom":"Ribeyret","nomNormalise":"ribeyret","typeCollectivite":"Commune","region":"Provence-Alpes-Côte d'Azur","departement":"Hautes-Alpes","departementCode":"05","adresse":{"street":"Le Village","postalCode":"05150","city":"Ribeyret","country":"France"},"contacts":{"email":"mairie.ribeyret@wanadoo.fr","telephone":"0492660243"},"horaires":"Du Lundi au Mardi : de 11h00 à 16h30","latitude":44.41392,"longitude":5.554382,"website":"","hasWebsite":false,"hasHoraires":true,"url":"https://lannuaire.service-public.gouv.fr/provence-alpes-cote-d-azur/hautes-alpes/7dfb1bdc-dbb0-4480-9236-dd0216edc8b0"}
{"nom":"Risoul","nomNormalise":"risoul","typeCollectivite":"Commune","region":"Provence-Alpes-Côte d'Azur","departement":"Hautes-Alpes","departementCode":"05","adresse":{"street":"La Rua","postalCode":"05600","city":"Risoul","country":"France"},"contacts":{"email":"accueil@mairiederisoul.com","telephone":"0492450107"},"horaires":"Du Lundi au Mardi : de 09h00 à 12h00 de 14h00 à 17h00\nLe Mercredi : de 09h00 à 12h00\nDu Jeudi au Vendredi : de 09h00 à 12h00 de 14h00 à 17h00","latitude":44.64965,"longitude":6.637772,"website":"http://www.mairiederisoul.com/","hasWebsite":true,"hasHoraires":true,"url":"https://lannuaire.service-public.gouv.fr/provence-alpes-cote-d-azur/hautes-alpes/ce0c9695-3d30-42a0-b0db-0a6344216e34"}
{"nom":"Rochebrune","nomNormalise":"rochebrune","typeCollectivite":"Commune","region":"Provence-Alpes-Côte d'Azur","departement":"Hautes-Alpes","departementCode":"05","adresse":{"street":"25 rue de la Mairie","postalCode":"05190","city":"Rochebrune","country":"France"},"contacts":{"email":"mairie.rochebrune@gmail.com","telephone":"0492544546"},"horaires":"Du Lundi au Mardi : de 09h00 à 11h00","latitude":44.45638,"longitude":6.176921,"website":"https://www.mairie-rochebrune.fr/","hasWebsite":true,"hasHoraires":true,"url":"https://lannuaire.service-public.gouv.fr/provence-alpes-cote-d-azur/hautes-alpes/42ce3386-d051-484e-b872-29f6e32cc701"}
{"nom":"Rosans","nomNormalise":"rosans","typeCollectivite":"Commune","region":"Provence-Alpes-Côte d'Azur","departement":"Hautes-Alpes","departementCode":"05","adresse":{"street":"2 Place Raymond-Hugues","postalCode":"05150","city":"Rosans","country":"France"},"contacts":{"email":"mairie@rosans.fr","telephone":"0492666014"},"horaires":"Du Lundi au Mardi : de 09h00 à 12h00\nDu Jeudi au Vendredi : de 09h00 à 12h00","latitude":44.391884,"longitude":5.469992,"website":"http://www.rosans.fr/","hasWebsite":true,"hasHoraires":true,"url":"https://lannuaire.service-public.gouv.fr/provence-alpes-cote-d-azur/hautes-alpes/ec84f40c-3c89-49d1-9d66-591ce980efc5"}
{"nom":"Rousset-serre-ponçon","nomNormalise":"roussetserreponcon","typeCollectivite":"Commune","region":"Provence-Alpes-Côte d'Azur","departement":"Hautes-Alpes","departementCode":"05","adresse":{"street":"260 rue de la Mairie","postalCode":"05190","city":"Rousset-Serre-Ponçon","country":"France"},"contacts":{"email":"mairiederousset@gmail.com","telephone":"0492544550"},"horaires":"Du Lundi au Mardi : de 09h00 à 12h00\nLe Jeudi : de 09h00 à 12h00","latitude":44.467537,"longitude":6.23263,"website":"","hasWebsite":false,"hasHoraires":true,"url":"https://lannuaire.service-public.gouv.fr/provence-alpes-cote-d-azur/hautes-alpes/ae69a761-41f3-43c1-8dcb-30d59c77ca48"}
{"nom":"Saint-André-d'Embrun","nomNormalise":"saintandredembrun","typeCollectivite":"Commune","region":"Provence-Alpes-Côte d'Azur","departement":"Hautes-Alpes","departementCode":"05","adresse":{"street":"Hameau de l'Église","postalCode":"05200","city":"Saint-André-d'Embrun","country":"France"},"contacts":{"email":"mairie@saintandredembrun.fr","telephone":"0492430384"},"horaires":"Du Lundi au Vendredi : de 09h00 à 12h00","latitude":44.58673,"longitude":6.5347304,"website":"https://www.saintandredembrun.fr/","hasWebsite":true,"hasHoraires":true,"url":"https://lannuaire.service-public.gouv.fr/provence-alpes-cote-d-azur/hautes-alpes/6a1a5587-ddbc-490b-8085-e86e45efa46f"}
{"nom":"Saint-André-de-Rosans","nomNormalise":"saintandrederosans","typeCollectivite":"Commune","region":"Provence-Alpes-Côte d'Azur","departement":"Hautes-Alpes","departementCode":"05","adresse":{"street":"Le Village","postalCode":"05150","city":"Saint-André-de-Rosans","country":"France"},"contacts":{"email":"st-andre.mairie@wanadoo.fr","telephone":"0492666144"},"horaires":"Le Mardi : de 14h00 à 17h00\nLe Vendredi : de 09h00 à 12h00","latitude":44.377575,"longitude":5.513426,"website":"","hasWebsite":false,"hasHoraires":true,"url":"https://lannuaire.service-public.gouv.fr/provence-alpes-cote-d-azur/hautes-alpes/a19329a2-bd78-4fc4-8e8a-7bb4330a14f8"}
{"nom":"Saint-Apollinaire","nomNormalise":"saintapollinaire","typeCollectivite":"Commune","region":"Provence-Alpes-Côte d'Azur","departement":"Hautes-Alpes","departementCode":"05","adresse":{"street":"Le Village","postalCode":"05160","city":"Saint-Apollinaire","country":"France"},"contacts":{"email":"mairie.st-apollinaire@orange.fr","telephone":"0492442233"},"horaires":"Du Lundi au Mardi : de 10h00 à 12h00 de 14h00 à 16h00\nLe Jeudi : de 10h00 à 12h00 de 14h00 à 16h00","latitude":44.55538,"longitude":6.362,"website":"https://www.saint-apollinaire.fr/","hasWebsite":true,"hasHoraires":true,"url":"https://lannuaire.service-public.gouv.fr/provence-alpes-cote-d-azur/hautes-alpes/5aa976c6-cd5f-425e-a6da-3eb2dec69b6a"}
{"nom":"Saint-Auban-d'Oze","nomNormalise":"saintaubandoze","typeCollectivite":"Commune","region":"Provence-Alpes-Côte d'Azur","departement":"Hautes-Alpes","departementCode":"05","adresse":{"street":"Le Village","postalCode":"05400","city":"Saint-Auban-d'Oze","country":"France"},"contacts":{"email":"mairie.staubandoze@wanadoo.fr","telephone":"0492580975"},"horaires":"Le Mardi : de 08h00 à 10h30\nLe Vendredi : de 08h00 à 10h30","latitude":44.495975,"longitude":5.8467,"website":"","hasWebsite":false,"hasHoraires":true,"url":"https://lannuaire.service-public.gouv.fr/provence-alpes-cote-d-azur/hautes-alpes/98ea2a16-9765-4496-bf2b-1d9dbfc4faf9"}
{"nom":"Saint-Bonnet-en-Champsaur","nomNormalise":"saintbonnetenchampsaur","typeCollectivite":"Commune","region":"Provence-Alpes-Côte d'Azur","departement":"Hautes-Alpes","departementCode":"05","adresse":{"street":"2 place Waldems","postalCode":"05500","city":"Saint-Bonnet-en-Champsaur","country":"France"},"contacts":{"email":"accueil@mairie-saint-bonnet.net","telephone":"0492500053"},"horaires":"Du Lundi au Vendredi : de 08h00 à 12h00 de 13h30 à 16h30","latitude":44.6828,"longitude":6.07632,"website":"https://www.mairie-saint-bonnet.net/","hasWebsite":true,"hasHoraires":true,"url":"https://lannuaire.service-public.gouv.fr/provence-alpes-cote-d-azur/hautes-alpes/7aa9e8ad-e30e-46df-b9fa-99efcc2ebbbf"}
{"nom":"Saint-Chaffrey","nomNormalise":"saintchaffrey","typeCollectivite":"Commune","region":"Provence-Alpes-Côte d'Azur","departement":"Hautes-Alpes","departementCode":"05","adresse":{"street":"563 route du Pont-Levis","postalCode":"05330","city":"Saint-Chaffrey","country":"France"},"contacts":{"email":"accueilmairie@saintchaffrey.fr","telephone":"0492241570"},"horaires":"Le Lundi : de 08h15 à 12h00\nLe Mardi : de 13h30 à 18h00\nLe Mercredi : de 08h15 à 12h00 de 13h30 à 17h00\nLe Jeudi : de 13h30 à 17h00\nLe Vendredi : de 08h15 à 12h00","latitude":44.927574,"longitude":6.606024,"website":"http://www.saint-chaffrey.fr/","hasWebsite":true,"hasHoraires":true,"url":"https://lannuaire.service-public.gouv.fr/provence-alpes-cote-d-azur/hautes-alpes/7a82ce92-0fd6-476c-bb11-d83a134f71b4"}
{"nom":"Saint-Clément-sur-Durance","nomNormalise":"saintclementsurdurance","typeCollectivite":"Commune","region":"Provence-Alpes-Côte d'Azur","departement":"Hautes-Alpes","departementCode":"05","adresse":{"street":"426 route du Pli Couché","postalCode":"05600","city":"Saint-Clément-sur-Durance","country":"France"},"contacts":{"email":"mairie-stclement-d@wanadoo.fr","telephone":"0492451091"},"horaires":"Le Mardi : de 13h30 à 17h00\nLe Jeudi : de 13h30 à 17h00","latitude":44.6477,"longitude":6.577501,"website":"https://www.stclement05.fr/","hasWebsite":true,"hasHoraires":true,"url":"https://lannuaire.service-public.gouv.fr/provence-alpes-cote-d-azur/hautes-alpes/b6d2f6e3-7eaf-4f42-8a24-ed2cd71cc3ad"}
{"nom":"Saint-Crépin","nomNormalise":"saintcrepin","typeCollectivite":"Commune","region":"Provence-Alpes-Côte d'Azur","departement":"Hautes-Alpes","departementCode":"05","adresse":{"street":"60 rue du Tour-de-Ville","postalCode":"05600","city":"Saint-Crépin","country":"France"},"contacts":{"email":"mairie@saintcrepin.com","telephone":"0492450271"},"horaires":"Du Lundi au Mardi : de 08h30 à 12h00\nDu Jeudi au Samedi : de 08h30 à 12h00","latitude":44.706543,"longitude":6.607314,"website":"https://www.saintcrepin.com/","hasWebsite":true,"hasHoraires":true,"url":"https://lannuaire.service-public.gouv.fr/provence-alpes-cote-d-azur/hautes-alpes/ab95267f-ec28-47c8-a191-c98b71f84e28"}
{"nom":"Sainte-Colombe","nomNormalise":"saintecolombe","typeCollectivite":"Commune","region":"Provence-Alpes-Côte d'Azur","departement":"Hautes-Alpes","departementCode":"05","adresse":{"street":"Hameau Les Bégües","postalCode":"05700","city":"Sainte-Colombe","country":"France"},"contacts":{"email":"mairie.stecolombe05@orange.fr","telephone":"0492662844"},"horaires":"Le Mardi : de 14h00 à 16h00","latitude":44.295795,"longitude":5.647448,"website":"https://mairie-saintecolombe-hautesalpes.fr/","hasWebsite":true,"hasHoraires":true,"url":"https://lannuaire.service-public.gouv.fr/provence-alpes-cote-d-azur/hautes-alpes/f8220f48-3555-4a4b-a673-854afa81bd44"}
{"nom":"Mairie déléguée - Sainte-Marie","nomNormalise":"mairiedelegueesaintemarie","typeCollectivite":"Commune","region":"Provence-Alpes-Côte d'Azur","departement":"Hautes-Alpes","departementCode":"05","adresse":{"street":"Sainte-Marie","postalCode":"05150","city":"Valdoule","country":"France"},"contacts":{"email":"mairie.saintemarie@orange.fr","telephone":"0492660366"},"horaires":"Le Mardi : de 08h00 à 12h00","latitude":44.466087,"longitude":5.475353,"website":"","hasWebsite":false,"hasHoraires":true,"url":"https://lannuaire.service-public.gouv.fr/provence-alpes-cote-d-azur/hautes-alpes/b4813f2a-de99-401b-9e69-b0e641a4399d"}
{"nom":"Saint-Étienne-le-Laus","nomNormalise":"saintetiennelelaus","typeCollectivite":"Commune","region":"Provence-Alpes-Côte d'Azur","departement":"Hautes-Alpes","departementCode":"05","adresse":{"street":"278 rue du Puy-Maurel","postalCode":"05130","city":"Saint-Étienne-le-Laus","country":"France"},"contacts":{"email":"mairiestetiennelelaus@wanadoo.fr","telephone":"0492543196"},"horaires":"Le Mardi : de 09h00 à 12h00\nLe Jeudi : de 14h00 à 17h00","latitude":44.502827,"longitude":6.161461,"website":"https://www.mairie-saintetiennelelaus.fr/","hasWebsite":true,"hasHoraires":true,"url":"https://lannuaire.service-public.gouv.fr/provence-alpes-cote-d-azur/hautes-alpes/dbd2f8ec-772b-4798-8892-82e36f5c1acb"}
{"nom":"Saint-Firmin","nomNormalise":"saintfirmin","typeCollectivite":"Commune","region":"Provence-Alpes-Côte d'Azur","departement":"Hautes-Alpes","departementCode":"05","adresse":{"street":"5 place de la Mairie","postalCode":"05800","city":"Saint-Firmin","country":"France"},"contacts":{"email":"mairiesaintfirmin@wanadoo.fr","telephone":"0492552030"},"horaires":"Du Lundi au Vendredi : de 08h00 à 12h00","latitude":44.78126,"longitude":6.029666,"website":"https://saintfirmin05.fr/","hasWebsite":true,"hasHoraires":true,"url":"https://lannuaire.service-public.gouv.fr/provence-alpes-cote-d-azur/hautes-alpes/3cc93d4e-228e-4a6d-964f-a02df335aef1"}
{"nom":"Saint-Jacques-en-Valgodemard","nomNormalise":"saintjacquesenvalgodemard","typeCollectivite":"Commune","region":"Provence-Alpes-Côte d'Azur","departement":"Hautes-Alpes","departementCode":"05","adresse":{"street":"L'Allée","postalCode":"05800","city":"Saint-Jacques-en-Valgodemard","country":"France"},"contacts":{"email":"mairie.stjacques@wanadoo.fr","telephone":"0492552515"},"horaires":"Le Mardi : de 08h30 à 12h00 de 14h00 à 17h00\nLe Jeudi : de 08h30 à 12h00 de 14h00 à 17h00\nLe Vendredi : de 08h00 à 12h00","latitude":44.773876,"longitude":6.034972,"website":"","hasWebsite":false,"hasHoraires":true,"url":"https://lannuaire.service-public.gouv.fr/provence-alpes-cote-d-azur/hautes-alpes/7c891483-705f-4ba4-ba0c-9c54b183c92b"}
{"nom":"Saint-Jean-Saint-Nicolas","nomNormalise":"saintjeansaintnicolas","typeCollectivite":"Commune","region":"Provence-Alpes-Côte d'Azur","departement":"Hautes-Alpes","departementCode":"05","adresse":{"street":"Pont du Fossé","postalCode":"05260","city":"Saint-Jean-Saint-Nicolas","country":"France"},"contacts":{"email":"mairie@st-jean-st-nicolas.fr","telephone":"0492559280"},"horaires":"Le Lundi : de 08h00 à 12h00 de 14h00 à 17h00\nLe Mardi : de 08h00 à 12h00\nLe Mercredi : de 08h00 à 12h00 de 14h00 à 17h00\nLe Jeudi : de 08h00 à 12h00\nLe Vendredi : de 08h00 à 12h00 de 14h00 à 17h00","latitude":44.66774,"longitude":6.227989,"website":"https://www.st-jean-st-nicolas.fr/","hasWebsite":true,"hasHoraires":true,"url":"https://lannuaire.service-public.gouv.fr/provence-alpes-cote-d-azur/hautes-alpes/b80dbadb-405c-4335-bf33-302991bae3b6"}
{"nom":"Saint-Julien-en-Beauchêne","nomNormalise":"saintjulienenbeauchene","typeCollectivite":"Commune","region":"Provence-Alpes-Côte d'Azur","departement":"Hautes-Alpes","departementCode":"05","adresse":{"street":"Le Village","postalCode":"05140","city":"Saint-Julien-en-Beauchêne","country":"France"},"contacts":{"email":"stjulien05@orange.fr","telephone":"0492581645"},"horaires":"Le Lundi : de 09h00 à 11h30 de 14h00 à 16h30\nLe Mercredi : de 09h00 à 11h30 de 14h00 à 16h30\nLe Vendredi : de 09h00 à 11h30 de 14h00 à 16h30","latitude":44.615643,"longitude":5.7076883,"website":"https://saintjulienenbeauchene.fr/","hasWebsite":true,"hasHoraires":true,"url":"https://lannuaire.service-public.gouv.fr/provence-alpes-cote-d-azur/hautes-alpes/27338aea-d967-41c5-8193-c7d75b9a242e"}
{"nom":"Saint-Julien-en-Champsaur","nomNormalise":"saintjulienenchampsaur","typeCollectivite":"Commune","region":"Provence-Alpes-Côte d'Azur","departement":"Hautes-Alpes","departementCode":"05","adresse":{"street":"2 place Vivian-Maier","postalCode":"05500","city":"Saint-Julien-en-Champsaur","country":"France"},"contacts":{"email":"mairie@saintjulienchampsaur.fr","telephone":"0492507069"},"horaires":"Du Lundi au Vendredi : de 08h30 à 12h00 de 13h30 à 17h00","latitude":44.65967,"longitude":6.129129,"website":"","hasWebsite":false,"hasHoraires":true,"url":"https://lannuaire.service-public.gouv.fr/provence-alpes-cote-d-azur/hautes-alpes/0f0c2477-b73c-460b-8415-3aa800c37a13"}
{"nom":"Saint-Laurent-du-Cros","nomNormalise":"saintlaurentducros","typeCollectivite":"Commune","region":"Provence-Alpes-Côte d'Azur","departement":"Hautes-Alpes","departementCode":"05","adresse":{"street":"2 chemin du Mille-Club","postalCode":"05500","city":"Saint-Laurent-du-Cros","country":"France"},"contacts":{"email":"mairie.st-laurent-du-cros@wanadoo.fr","telephone":"0492504287"},"horaires":"Du Lundi au Mardi : de 14h00 à 17h00\nDu Jeudi au Vendredi : de 14h00 à 17h00","latitude":44.64339,"longitude":6.109557,"website":"https://mairiestlaurentducros.fr/","hasWebsite":true,"hasHoraires":true,"url":"https://lannuaire.service-public.gouv.fr/provence-alpes-cote-d-azur/hautes-alpes/9d76408d-8917-4fb4-be10-a0a65724faea"}
{"nom":"Saint-Léger-les-Mélèzes","nomNormalise":"saintlegerlesmelezes","typeCollectivite":"Commune","region":"Provence-Alpes-Côte d'Azur","departement":"Hautes-Alpes","departementCode":"05","adresse":{"street":"1 Place de l'Église","postalCode":"05260","city":"Saint-Léger-les-Mélèzes","country":"France"},"contacts":{"email":"mairie.stleger05@wanadoo.fr","telephone":"0492504074"},"horaires":"Du Lundi au Mardi : de 08h30 à 11h30 de 13h30 à 16h30\nLe Mercredi : de 08h30 à 11h30\nLe Jeudi : de 08h30 à 11h30 de 13h30 à 16h30\nLe Vendredi : de 08h30 à 11h30","latitude":44.644474,"longitude":6.199969,"website":"https://communesaintlegerlesmelezes.com/","hasWebsite":true,"hasHoraires":true,"url":"https://lannuaire.service-public.gouv.fr/provence-alpes-cote-d-azur/hautes-alpes/4ad29839-9b01-4b54-89e2-46e78f37bb1c"}
{"nom":"Saint-Martin-de-Queyrières","nomNormalise":"saintmartindequeyrieres","typeCollectivite":"Commune","region":"Provence-Alpes-Côte d'Azur","departement":"Hautes-Alpes","departementCode":"05","adresse":{"street":"75 rue de la Mairie","postalCode":"05120","city":"Saint-Martin-de-Queyrières","country":"France"},"contacts":{"email":"mairie.stmartindequeyrieres@wanadoo.fr","telephone":"0492210406"},"horaires":"Du Lundi au Vendredi : de 08h00 à 12h00 de 13h30 à 17h00","latitude":44.84113,"longitude":6.58541,"website":"https://www.saintmartindequeyrieres.com/","hasWebsite":true,"hasHoraires":true,"url":"https://lannuaire.service-public.gouv.fr/provence-alpes-cote-d-azur/hautes-alpes/e0acc419-c73a-43bb-8dd1-84a764ef9103"}
{"nom":"Saint-Maurice-en-Valgodemard","nomNormalise":"saintmauriceenvalgodemard","typeCollectivite":"Commune","region":"Provence-Alpes-Côte d'Azur","departement":"Hautes-Alpes","departementCode":"05","adresse":{"street":"248 route de Saint-Maurice","postalCode":"05800","city":"Saint-Maurice-en-Valgodemard","country":"France"},"contacts":{"email":"mairie.st.maurice.valgo@wanadoo.fr","telephone":"0492552809"},"horaires":"Le Mardi : de 13h30 à 16h30\nLe Jeudi : de 13h30 à 16h30","latitude":44.80414,"longitude":6.096107,"website":"","hasWebsite":false,"hasHoraires":true,"url":"https://lannuaire.service-public.gouv.fr/provence-alpes-cote-d-azur/hautes-alpes/652f15f8-675c-4c3e-94ca-25a5a03cc014"}
{"nom":"Saint-Michel-de-Chaillol","nomNormalise":"saintmicheldechaillol","typeCollectivite":"Commune","region":"Provence-Alpes-Côte d'Azur","departement":"Hautes-Alpes","departementCode":"05","adresse":{"street":"68 place de la Mairie","postalCode":"05260","city":"Saint-Michel-de-Chaillol","country":"France"},"contacts":{"email":"mairie.chaillol@outlook.fr","telephone":"0492504857"},"horaires":"Du Lundi au Vendredi : de 08h30 à 11h30","latitude":44.688442,"longitude":6.164543,"website":"https://www.mairie-chaillol.fr/","hasWebsite":true,"hasHoraires":true,"url":"https://lannuaire.service-public.gouv.fr/provence-alpes-cote-d-azur/hautes-alpes/645e7131-8e6b-42af-b535-6d3f079a75c9"}
{"nom":"Saint-Pierre-Avez","nomNormalise":"saintpierreavez","typeCollectivite":"Commune","region":"Provence-Alpes-Côte d'Azur","departement":"Hautes-Alpes","departementCode":"05","adresse":{"street":"2 place de la Mairie","postalCode":"05300","city":"Saint-Pierre-Avez","country":"France"},"contacts":{"email":"mairie-saintpierreavez@orange.fr","telephone":"0492652136"},"horaires":"Le Lundi : de 09h00 à 12h00 de 14h00 à 16h30\nLe Vendredi : de 09h00 à 12h00 de 14h00 à 16h30\n\nUn vendredi sur 2 uniquement.","latitude":44.25649,"longitude":5.7648783,"website":"","hasWebsite":false,"hasHoraires":true,"url":"https://lannuaire.service-public.gouv.fr/provence-alpes-cote-d-azur/hautes-alpes/4b3c8c9b-1a37-4220-8d13-2c64a2f19178"}
{"nom":"Saint-Pierre-d'Argençon","nomNormalise":"saintpierredargencon","typeCollectivite":"Commune","region":"Provence-Alpes-Côte d'Azur","departement":"Hautes-Alpes","departementCode":"05","adresse":{"street":"Le Village","postalCode":"05140","city":"Saint-Pierre-d'Argençon","country":"France"},"contacts":{"email":"saintpierre.argencon@orange.fr","telephone":"0492586581"},"horaires":"Du Lundi au Vendredi : de 09h00 à 11h00","latitude":44.520008,"longitude":5.698886,"website":"","hasWebsite":false,"hasHoraires":true,"url":"https://lannuaire.service-public.gouv.fr/provence-alpes-cote-d-azur/hautes-alpes/4b4d264c-ac20-4529-9e2d-775a1fab7a53"}
{"nom":"Saint-Sauveur","nomNormalise":"saintsauveur","typeCollectivite":"Commune","region":"Provence-Alpes-Côte d'Azur","departement":"Hautes-Alpes","departementCode":"05","adresse":{"street":"101 rue du Chef-Lieu","postalCode":"05200","city":"Saint-Sauveur","country":"France"},"contacts":{"email":"mairie@saintsauveur-hautes-alpes.fr","telephone":"0492431839"},"horaires":"Le Lundi : de 14h00 à 17h00\nLe Jeudi : de 09h00 à 12h00","latitude":44.54117,"longitude":6.519845,"website":"https://www.saintsauveur-hautes-alpes.fr/","hasWebsite":true,"hasHoraires":true,"url":"https://lannuaire.service-public.gouv.fr/provence-alpes-cote-d-azur/hautes-alpes/1464ffa4-dc6f-4526-b4a0-8b8a58a4dc0e"}
{"nom":"Saint-Véran","nomNormalise":"saintveran","typeCollectivite":"Commune","region":"Provence-Alpes-Côte d'Azur","departement":"Hautes-Alpes","departementCode":"05","adresse":{"street":"1 place de l'église","postalCode":"05350","city":"Saint-Véran","country":"France"},"contacts":{"email":"secretariat@mairie-saintveran.fr","telephone":"0492458391"},"horaires":"Du Lundi au Jeudi : de 09h15 à 12h00","latitude":44.700836,"longitude":6.86857,"website":"","hasWebsite":false,"hasHoraires":true,"url":"https://lannuaire.service-public.gouv.fr/provence-alpes-cote-d-azur/hautes-alpes/246b543f-3e38-4426-84f2-54e7b9fd50af"}
{"nom":"Saléon","nomNormalise":"saleon","typeCollectivite":"Commune","region":"Provence-Alpes-Côte d'Azur","departement":"Hautes-Alpes","departementCode":"05","adresse":{"street":"Le Serre","postalCode":"05300","city":"Saléon","country":"France"},"contacts":{"email":"mairie.saleon@wanadoo.fr","telephone":"0492662992"},"horaires":"Le Mardi : de 09h00 à 11h00\nLe Vendredi : de 13h30 à 15h30","latitude":44.36182,"longitude":5.7759,"website":"http://www.saleon.fr/","hasWebsite":true,"hasHoraires":true,"url":"https://lannuaire.service-public.gouv.fr/provence-alpes-cote-d-azur/hautes-alpes/3007a4bf-69c7-49cf-a1db-1c770834e51f"}
{"nom":"Salérans","nomNormalise":"salerans","typeCollectivite":"Commune","region":"Provence-Alpes-Côte d'Azur","departement":"Hautes-Alpes","departementCode":"05","adresse":{"street":"4 rue du Village","postalCode":"05300","city":"Salérans","country":"France"},"contacts":{"email":"mairie.salerans@wanadoo.fr","telephone":"0492652413"},"horaires":"Le Lundi : de 14h00 à 17h00\nLe Jeudi : de 14h00 à 17h00","latitude":44.243187,"longitude":5.7059536,"website":"","hasWebsite":false,"hasHoraires":true,"url":"https://lannuaire.service-public.gouv.fr/provence-alpes-cote-d-azur/hautes-alpes/da57323c-e0a1-421b-998b-7d1c3681ae0b"}
{"nom":"Savines-le-Lac","nomNormalise":"savineslelac","typeCollectivite":"Commune","region":"Provence-Alpes-Côte d'Azur","departement":"Hautes-Alpes","departementCode":"05","adresse":{"street":"1 place de l'Église","postalCode":"05160","city":"Savines-le-Lac","country":"France"},"contacts":{"email":"accueil@savineslelac.fr","telephone":"0492442003"},"horaires":"Du Lundi au Mercredi : de 08h00 à 12h00 de 13h30 à 17h30\nLe Jeudi : de 08h00 à 12h00 de 13h30 à 17h00\nLe Vendredi : de 08h00 à 12h00 de 13h30 à 16h30","latitude":44.52568,"longitude":6.4052563,"website":"https://www.savines-le-lac.fr/","hasWebsite":true,"hasHoraires":true,"url":"https://lannuaire.service-public.gouv.fr/provence-alpes-cote-d-azur/hautes-alpes/9315e6df-ee34-4c00-88ec-e0fd34679bce"}
{"nom":"Savournon","nomNormalise":"savournon","typeCollectivite":"Commune","region":"Provence-Alpes-Côte d'Azur","departement":"Hautes-Alpes","departementCode":"05","adresse":{"street":"60 route de Serres","postalCode":"05700","city":"Savournon","country":"France"},"contacts":{"email":"mairiedesavournon@orange.fr","telephone":"0492670314"},"horaires":"Le Lundi : de 09h00 à 11h00\nLe Mardi : de 09h00 à 12h00\nLe Mercredi : de 09h00 à 11h00\nLe Jeudi : de 09h00 à 12h00\nLe Vendredi : de 09h00 à 11h00","latitude":44.42164,"longitude":5.793918,"website":"https://www.savournon.fr/","hasWebsite":true,"hasHoraires":true,"url":"https://lannuaire.service-public.gouv.fr/provence-alpes-cote-d-azur/hautes-alpes/1fa7da13-944c-4794-94e2-d816384d2998"}
{"nom":"Serres","nomNormalise":"serres","typeCollectivite":"Commune","region":"Provence-Alpes-Côte d'Azur","departement":"Hautes-Alpes","departementCode":"05","adresse":{"street":"1 rue du Portail","postalCode":"05700","city":"Serres","country":"France"},"contacts":{"email":"accueil@ville-serres05.fr","telephone":"0492670350"},"horaires":"Du Lundi au Mardi : de 08h30 à 11h00 de 14h00 à 16h00\nLe Mercredi : de 09h00 à 12h00\nDu Jeudi au Vendredi : de 08h30 à 11h00 de 14h00 à 16h00\nEt Le premier samedi du mois de 9h à 12h.","latitude":44.428425,"longitude":5.714565,"website":"https://www.ville-serres05.fr/","hasWebsite":true,"hasHoraires":true,"url":"https://lannuaire.service-public.gouv.fr/provence-alpes-cote-d-azur/hautes-alpes/297c2ee3-d822-4dbc-a52b-8a6466573620"}
{"nom":"Sigottier","nomNormalise":"sigottier","typeCollectivite":"Commune","region":"Provence-Alpes-Côte d'Azur","departement":"Hautes-Alpes","departementCode":"05","adresse":{"street":"164 chemin de la Montagne","postalCode":"05700","city":"Sigottier","country":"France"},"contacts":{"email":"mairiedesigottier@orange.fr","telephone":"0492671356"},"horaires":"Le Jeudi : de 09h00 à 12h00 de 13h30 à 16h00","latitude":44.454914,"longitude":5.692024,"website":"","hasWebsite":false,"hasHoraires":true,"url":"https://lannuaire.service-public.gouv.fr/provence-alpes-cote-d-azur/hautes-alpes/f7ca6e83-c161-409b-8efe-374133cd8695"}
{"nom":"Sigoyer","nomNormalise":"sigoyer","typeCollectivite":"Commune","region":"Provence-Alpes-Côte d'Azur","departement":"Hautes-Alpes","departementCode":"05","adresse":{"street":"3 place de l'Église","postalCode":"05130","city":"Sigoyer","country":"France"},"contacts":{"email":"mairie05@sigoyer.fr","telephone":"0492578331"},"horaires":"Le Lundi : de 09h00 à 12h00 de 14h00 à 18h00\nDu Mardi au Jeudi : de 09h00 à 12h00\nLe Vendredi : de 09h00 à 12h00 de 14h00 à 16h00","latitude":44.47746,"longitude":5.976943,"website":"http://s582979323.onlinehome.fr/","hasWebsite":true,"hasHoraires":true,"url":"https://lannuaire.service-public.gouv.fr/provence-alpes-cote-d-azur/hautes-alpes/f4d953de-2dc5-4a88-9735-8a74ab9c6792"}
{"nom":"Sorbiers","nomNormalise":"sorbiers","typeCollectivite":"Commune","region":"Provence-Alpes-Côte d'Azur","departement":"Hautes-Alpes","departementCode":"05","adresse":{"street":"1 rue des Écoles","postalCode":"05150","city":"Sorbiers","country":"France"},"contacts":{"email":"mairiesorbiers@gmail.com","telephone":"0786247048"},"horaires":"Le Lundi : de 08h45 à 12h00 de 12h30 à 16h45\nSemaines impaires : 8h45 à 12h et de 12h30 à 16h45. Semaines paires : 12h45 à 16h45.","latitude":44.375103,"longitude":5.563768,"website":"","hasWebsite":false,"hasHoraires":true,"url":"https://lannuaire.service-public.gouv.fr/provence-alpes-cote-d-azur/hautes-alpes/8b6d160b-05a5-4526-a597-109a3859c142"}
{"nom":"Tallard","nomNormalise":"tallard","typeCollectivite":"Commune","region":"Provence-Alpes-Côte d'Azur","departement":"Hautes-Alpes","departementCode":"05","adresse":{"street":"1 place Charles-de-Gaulle","postalCode":"05130","city":"Tallard","country":"France"},"contacts":{"email":"mairie@ville-tallard.fr","telephone":"0492541014"},"horaires":"Du Lundi au Vendredi : de 09h00 à 12h00 de 13h30 à 17h30","latitude":44.463413,"longitude":6.056876,"website":"https://www.ville-tallard.fr/","hasWebsite":true,"hasHoraires":true,"url":"https://lannuaire.service-public.gouv.fr/provence-alpes-cote-d-azur/hautes-alpes/5b73bb23-c4c5-4feb-8577-6e97017a063e"}
{"nom":"Théus","nomNormalise":"theus","typeCollectivite":"Commune","region":"Provence-Alpes-Côte d'Azur","departement":"Hautes-Alpes","departementCode":"05","adresse":{"street":"75 route du Mont-Colombis","postalCode":"05190","city":"Théus","country":"France"},"contacts":{"email":"mairietheus@gmail.com","telephone":"0492546472"},"horaires":"Le Mardi : de 13h15 à 17h15\nLe Jeudi : de 13h15 à 17h15","latitude":44.481495,"longitude":6.1935782,"website":"","hasWebsite":false,"hasHoraires":true,"url":"https://lannuaire.service-public.gouv.fr/provence-alpes-cote-d-azur/hautes-alpes/eb2a1bba-ebe6-4011-aaba-84427e40b722"}
{"nom":"Trescléoux","nomNormalise":"trescleoux","typeCollectivite":"Commune","region":"Provence-Alpes-Côte d'Azur","departement":"Hautes-Alpes","departementCode":"05","adresse":{"street":"26 Chemin-Neuf","postalCode":"05700","city":"Trescléoux","country":"France"},"contacts":{"email":"mairie.trescleoux@orange.fr","telephone":"0492662201"},"horaires":"Le Lundi : de 13h30 à 17h30\nLe Mardi : de 08h00 à 12h00\nLe Vendredi : de 13h30 à 17h30","latitude":44.35475,"longitude":5.708368,"website":"https://trescleoux.fr/","hasWebsite":true,"hasHoraires":true,"url":"https://lannuaire.service-public.gouv.fr/provence-alpes-cote-d-azur/hautes-alpes/23994878-2d91-48f7-af0b-37c02c4fce9b"}
{"nom":"Upaix","nomNormalise":"upaix","typeCollectivite":"Commune","region":"Provence-Alpes-Côte d'Azur","departement":"Hautes-Alpes","departementCode":"05","adresse":{"street":"Rourebeau","postalCode":"05300","city":"Upaix","country":"France"},"contacts":{"email":"mairie-upaix@orange.fr","telephone":"0492657026"},"horaires":"Le Lundi : de 08h00 à 12h30 de 13h00 à 17h00\nDu Mardi au Jeudi : de 08h00 à 12h30\nLe Vendredi : de 08h00 à 12h30 de 13h00 à 17h00","latitude":44.31954,"longitude":5.875817,"website":"https://upaix.fr/","hasWebsite":true,"hasHoraires":true,"url":"https://lannuaire.service-public.gouv.fr/provence-alpes-cote-d-azur/hautes-alpes/676a98f7-ca68-494a-bf1a-3bc6174ada1c"}
{"nom":"Val Buëch-Méouge","nomNormalise":"valbuechmeouge","typeCollectivite":"Commune","region":"Provence-Alpes-Côte d'Azur","departement":"Hautes-Alpes","departementCode":"05","adresse":{"street":"Ribiers","postalCode":"05300","city":"Val Buëch-Méouge","country":"France"},"contacts":{"email":"contact@mairie-vbm.fr","telephone":"0492632016"},"horaires":"Du Lundi au Vendredi : de 09h00 à 12h00","latitude":44.23006,"longitude":5.857409,"website":"http://www.mairie-vbm.fr/","hasWebsite":true,"hasHoraires":true,"url":"https://lannuaire.service-public.gouv.fr/provence-alpes-cote-d-azur/hautes-alpes/dcdbf336-5617-4c6b-a9cd-92f38c20adc4"}
{"nom":"Val-des-Prés","nomNormalise":"valdespres","typeCollectivite":"Commune","region":"Provence-Alpes-Côte d'Azur","departement":"Hautes-Alpes","departementCode":"05","adresse":{"street":"Chef-lieu","postalCode":"05100","city":"Val-des-Prés","country":"France"},"contacts":{"email":"mairie@valdespres.fr","telephone":"0492210616"},"horaires":"Le Lundi : de 14h00 à 17h00\nLe Mercredi : de 14h00 à 17h00\nLe Vendredi : de 14h00 à 17h00","latitude":44.94932,"longitude":6.678091,"website":"http://www.valdespres.fr/","hasWebsite":true,"hasHoraires":true,"url":"https://lannuaire.service-public.gouv.fr/provence-alpes-cote-d-azur/hautes-alpes/ea39dae3-a1ed-4233-8883-c186c0a29a60"}
{"nom":"Valdoule","nomNormalise":"valdoule","typeCollectivite":"Commune","region":"Provence-Alpes-Côte d'Azur","departement":"Hautes-Alpes","departementCode":"05","adresse":{"street":"Bruis","postalCode":"05150","city":"Valdoule","country":"France"},"contacts":{"email":"mairie.valdoule05@orange.fr","telephone":"0492660421"},"horaires":"Du Lundi au Mardi : de 08h00 à 12h00","latitude":44.46843,"longitude":5.509541,"website":"","hasWebsite":false,"hasHoraires":true,"url":"https://lannuaire.service-public.gouv.fr/provence-alpes-cote-d-azur/hautes-alpes/8ad6bdb5-e9bd-40e7-b0f5-b02d3e4a7ffe"}
{"nom":"Vallouise-Pelvoux","nomNormalise":"vallouisepelvoux","typeCollectivite":"Commune","region":"Provence-Alpes-Côte d'Azur","departement":"Hautes-Alpes","departementCode":"05","adresse":{"street":"2704 route de Pelvoux","postalCode":"05340","city":"Vallouise-Pelvoux","country":"France"},"contacts":{"email":"mairie@vallouise-pelvoux.fr","telephone":"0492233019"},"horaires":"Du Lundi au Vendredi : de 08h30 à 12h00","latitude":44.868843,"longitude":6.487051,"website":"https://www.vallouise-pelvoux.fr/","hasWebsite":true,"hasHoraires":true,"url":"https://lannuaire.service-public.gouv.fr/provence-alpes-cote-d-azur/hautes-alpes/6edb94cc-f516-47be-b513-033719c5326d"}
{"nom":"Valserres","nomNormalise":"valserres","typeCollectivite":"Commune","region":"Provence-Alpes-Côte d'Azur","departement":"Hautes-Alpes","departementCode":"05","adresse":{"street":"Le Village","postalCode":"05130","city":"Valserres","country":"France"},"contacts":{"email":"valserres@mairies05.fr","telephone":"0492543001"},"horaires":"Le Lundi : de 08h00 à 12h00\nLe Mardi : de 08h00 à 12h00 de 14h00 à 17h00\nLe Mercredi : de 08h00 à 12h00\nLe Jeudi : de 08h00 à 12h00 de 14h00 à 17h00\nLe Vendredi : de 08h00 à 12h00","latitude":44.48704,"longitude":6.12572,"website":"http://www.cc-serreponconvaldavance.com/","hasWebsite":true,"hasHoraires":true,"url":"https://lannuaire.service-public.gouv.fr/provence-alpes-cote-d-azur/hautes-alpes/a34c536d-7f4a-45b9-b70b-b8eacd799068"}
{"nom":"Vars","nomNormalise":"vars","typeCollectivite":"Commune","region":"Provence-Alpes-Côte d'Azur","departement":"Hautes-Alpes","departementCode":"05","adresse":{"street":"Sainte-Marie","postalCode":"05560","city":"Vars","country":"France"},"contacts":{"email":"vieassociative@mairie-vars.fr","telephone":"0492465009"},"horaires":"Du Lundi au Vendredi : de 10h00 à 12h00 de 14h00 à 16h00","latitude":44.5939,"longitude":6.689806,"website":"https://www.mairie-vars.fr/","hasWebsite":true,"hasHoraires":true,"url":"https://lannuaire.service-public.gouv.fr/provence-alpes-cote-d-azur/hautes-alpes/46b5d3f1-61d8-4352-a621-7971caeb085a"}
{"nom":"Ventavon","nomNormalise":"ventavon","typeCollectivite":"Commune","region":"Provence-Alpes-Côte d'Azur","departement":"Hautes-Alpes","departementCode":"05","adresse":{"street":"70 place de la Mairie","postalCode":"05300","city":"Ventavon","country":"France"},"contacts":{"email":"mairie@ventavon.fr","telephone":"0492664054"},"horaires":"Du Lundi au Jeudi : de 14h00 à 17h00\nLe Vendredi : de 08h00 à 12h00","latitude":44.370964,"longitude":5.9061356,"website":"https://www.ventavon.fr/","hasWebsite":true,"hasHoraires":true,"url":"https://lannuaire.service-public.gouv.fr/provence-alpes-cote-d-azur/hautes-alpes/de41c4de-e4e6-4390-81cf-38b059744b98"}
{"nom":"Veynes","nomNormalise":"veynes","typeCollectivite":"Commune","region":"Provence-Alpes-Côte d'Azur","departement":"Hautes-Alpes","departementCode":"05","adresse":{"street":"Place de la République","postalCode":"05400","city":"Veynes","country":"France"},"contacts":{"email":"secretariatgrl@veynes.fr","telephone":"0492581022"},"horaires":"Du Lundi au Vendredi : de 08h30 à 11h45 de 13h30 à 17h00","latitude":44.534756,"longitude":5.824206,"website":"https://veynes.fr/","hasWebsite":true,"hasHoraires":true,"url":"https://lannuaire.service-public.gouv.fr/provence-alpes-cote-d-azur/hautes-alpes/afd9492b-81f0-45c7-9e40-de4478e15a05"}
{"nom":"Villar-d'Arène","nomNormalise":"villardarene","typeCollectivite":"Commune","region":"Provence-Alpes-Côte d'Azur","departement":"Hautes-Alpes","departementCode":"05","adresse":{"street":"9 Rue de la Mairie","postalCode":"05480","city":"Villar-d'Arène","country":"France"},"contacts":{"email":"mairie@villardarene.fr","telephone":"0476799055"},"horaires":"Le Lundi : de 14h00 à 17h00\nLe Mardi : de 09h00 à 12h00\nDu Jeudi au Vendredi : de 09h00 à 12h00","latitude":45.042824,"longitude":6.335357,"website":"https://villardarene.fr/","hasWebsite":true,"hasHoraires":true,"url":"https://lannuaire.service-public.gouv.fr/provence-alpes-cote-d-azur/hautes-alpes/1cd44577-2a7f-476c-aa01-29cd82d7ac68"}
{"nom":"Villar-Loubière","nomNormalise":"villarloubiere","typeCollectivite":"Commune","region":"Provence-Alpes-Côte d'Azur","departement":"Hautes-Alpes","departementCode":"05","adresse":{"street":"1 Rue de la Mairie","postalCode":"05800","city":"Villar-Loubière","country":"France"},"contacts":{"email":"villarloubiere@wanadoo.fr","telephone":"0492552772"},"horaires":"Le Mardi : de 08h00 à 12h00","latitude":44.825577,"longitude":6.14474,"website":"","hasWebsite":false,"hasHoraires":true,"url":"https://lannuaire.service-public.gouv.fr/provence-alpes-cote-d-azur/hautes-alpes/537f4610-88d6-480b-9ebc-8e4235a389c1"}
{"nom":"Villar-Saint-Pancrace","nomNormalise":"villarsaintpancrace","typeCollectivite":"Commune","region":"Provence-Alpes-Côte d'Azur","departement":"Hautes-Alpes","departementCode":"05","adresse":{"street":"9 rue de l'École","postalCode":"05100","city":"Villard-Saint-Pancrace","country":"France"},"contacts":{"email":"mairie@villard-st-pancrace.com","telephone":"0492210527"},"horaires":"Du Lundi au Mercredi : de 14h00 à 17h30\nLe Jeudi : de 10h00 à 12h00\nLe Vendredi : de 14h00 à 17h30","latitude":44.874805,"longitude":6.6287017,"website":"https://www.villard-st-pancrace.com/","hasWebsite":true,"hasHoraires":true,"url":"https://lannuaire.service-public.gouv.fr/provence-alpes-cote-d-azur/hautes-alpes/5e6313de-0516-4392-a3da-092a6822057b"}
{"nom":"Vitrolles","nomNormalise":"vitrolles","typeCollectivite":"Commune","region":"Provence-Alpes-Côte d'Azur","departement":"Hautes-Alpes","departementCode":"05","adresse":{"street":"Le Plan-de-Vitrolles","postalCode":"05110","city":"Vitrolles","country":"France"},"contacts":{"email":"mairie@vitrolles05.com","telephone":"0492542566"},"horaires":"Le Lundi : de 13h30 à 17h00\nLe Mardi : de 14h00 à 18h00\nLe Vendredi : de 08h00 à 12h00 de 14h00 à 17h00","latitude":44.412704,"longitude":5.955245,"website":"https://www.vitrolles05.fr/fr/","hasWebsite":true,"hasHoraires":true,"url":"https://lannuaire.service-public.gouv.fr/provence-alpes-cote-d-azur/hautes-alpes/06a200e7-bb77-480c-82e9-66c44a319fb6"}
