{"nom":"Aiglun","nomNormalise":"aiglun","typeCollectivite":"Commune","region":"Provence-Alpes-Côte d'Azur","departement":"Alpes-Maritimes","departementCode":"06","adresse":{"street":"9 place de la Mairie","postalCode":"06910","city":"Aiglun","country":"France"},"contacts":{"email":"aiglun06@gmail.com","telephone":"0493058535"},"horaires":"Le Mardi : de 09h15 à 12h15 de 14h00 à 16h00\nLe Jeudi : de 09h15 à 12h15 de 14h00 à 16h00\nPermanence téléphonique le lundi matin","latitude":43.857735,"longitude":6.914638,"website":"https://www.aiglun06.fr/","hasWebsite":true,"hasHoraires":true,"url":"https://lannuaire.service-public.gouv.fr/provence-alpes-cote-d-azur/alpes-maritimes/66a96116-23f1-4928-8f32-54e2de5e9dbe"}
{"nom":"Amirat","nomNormalise":"amirat","typeCollectivite":"Commune","region":"Provence-Alpes-Côte d'Azur","departement":"Alpes-Maritimes","departementCode":"06","adresse":{"street":"21 rue de la Mairie","postalCode":"06910","city":"Amirat","country":"France"},"contacts":{"email":"mairie.amirat@nordnet.fr","telephone":"0493058055"},"horaires":"Le Lundi : de 08h30 à 16h30\nLe Mercredi : de 08h30 à 16h30","latitude":43.89038,"longitude":6.826532,"website":"http://www.village-amirat.fr/","hasWebsite":true,"hasHoraires":true,"url":"https://lannuaire.service-public.gouv.fr/provence-alpes-cote-d-azur/alpes-maritimes/b6bd8a91-2bd5-43f7-9e0f-19b80b58596d"}
{"nom":"Andon","nomNormalise":"andon","typeCollectivite":"Commune","region":"Provence-Alpes-Côte d'Azur","departement":"Alpes-Maritimes","departementCode":"06","adresse":{"street":"23 place Victorin-Bonhomme","postalCode":"06750","city":"Andon","country":"France"},"contacts":{"email":"mairie@andon.fr","telephone":"0493604540"},"horaires":"Du Lundi au Mardi : de 09h00 à 12h00 de 14h00 à 16h00\nDu Jeudi au Vendredi : de 09h00 à 12h00 de 14h00 à 16h00","latitude":43.7734,"longitude":6.78511,"website":"http://www.ville-andon.com/","hasWebsite":true,"hasHoraires":true,"url":"https://lannuaire.service-public.gouv.fr/provence-alpes-cote-d-azur/alpes-maritimes/9f773cf2-be12-4343-8383-e2dd275cbf49"}
{"nom":"Antibes-Juan-les-Pins","nomNormalise":"antibesjuanlespins","typeCollectivite":"Commune","region":"Provence-Alpes-Côte d'Azur","departement":"Alpes-Maritimes","departementCode":"06","adresse":{"street":"Cours Massena","postalCode":"06605","city":"Antibes Cedex","country":"France"},"contacts":{"email":"mairie@ville-antibes.fr","telephone":"0492905000"},"horaires":"Du Lundi au Vendredi : de 08h00 à 18h00","latitude":43.58065,"longitude":7.127672,"website":"https://www.antibes-juanlespins.com/","hasWebsite":true,"hasHoraires":true,"url":"https://lannuaire.service-public.gouv.fr/provence-alpes-cote-d-azur/alpes-maritimes/eed9faf1-9551-4ecd-b40e-aa7b6f61f415"}
{"nom":"Ascros","nomNormalise":"ascros","typeCollectivite":"Commune","region":"Provence-Alpes-Côte d'Azur","departement":"Alpes-Maritimes","departementCode":"06","adresse":{"street":"4 Montée-de-la-Bourgade","postalCode":"06260","city":"Ascros","country":"France"},"contacts":{"email":"maire.ascros@hotmail.fr","telephone":"0493058421"},"horaires":"Le Lundi : de 10h00 à 12h00 de 14h00 à 18h00\nDu Mardi au Mercredi : de 09h30 à 12h00\nLe Jeudi : de 10h00 à 12h00 de 14h00 à 18h00\nLe Vendredi : de 09h30 à 12h00\nLe Samedi : de 10h00 à 12h00 de 14h00 à 18h00","latitude":43.920918,"longitude":7.014456,"website":"","hasWebsite":false,"hasHoraires":true,"url":"https://lannuaire.service-public.gouv.fr/provence-alpes-cote-d-azur/alpes-maritimes/9db5b339-9f60-4d7e-a522-404dcb06ea5e"}
{"nom":"Aspremont","nomNormalise":"aspremont","typeCollectivite":"Commune","region":"Provence-Alpes-Côte d'Azur","departement":"Alpes-Maritimes","departementCode":"06","adresse":{"street":"21 avenue Caravadossi","postalCode":"06790","city":"Aspremont","country":"France"},"contacts":{"email":"mairie@aspremont.fr","telephone":"0493080001"},"horaires":"Le Lundi : de 08h30 à 12h00 de 13h30 à 17h00\nLe Mardi : de 08h30 à 12h00\nLe Mercredi : de 08h30 à 12h00 de 13h30 à 17h00\nLe Jeudi : de 08h30 à 12h00\nLe Vendredi : de 08h30 à 12h00 de 13h30 à 17h00","latitude":43.7865,"longitude":7.24575,"website":"http://www.aspremont.fr/","hasWebsite":true,"hasHoraires":true,"url":"https://lannuaire.service-public.gouv.fr/provence-alpes-cote-d-azur/alpes-maritimes/5ab637cd-7491-4a60-8bb4-8af130b9ad24"}
{"nom":"Auribeau-sur-Siagne","nomNormalise":"auribeausursiagne","typeCollectivite":"Commune","region":"Provence-Alpes-Côte d'Azur","departement":"Alpes-Maritimes","departementCode":"06","adresse":{"street":"Montée de la Mairie","postalCode":"06810","city":"Auribeau-sur-Siagne","country":"France"},"contacts":{"email":"courrier@mairie-auribeau.fr","telephone":"0492602020"},"horaires":"Du Lundi au Mardi : de 08h30 à 16h30\nLe Mercredi : de 08h30 à 12h30\nDu Jeudi au Vendredi : de 08h30 à 16h30","latitude":43.600418,"longitude":6.910543,"website":"http://www.auribeausursiagne.fr/","hasWebsite":true,"hasHoraires":true,"url":"https://lannuaire.service-public.gouv.fr/provence-alpes-cote-d-azur/alpes-maritimes/b1486764-d8db-45b9-a3c7-b69a6af9e0e4"}
{"nom":"Auvare","nomNormalise":"auvare","typeCollectivite":"Commune","region":"Provence-Alpes-Côte d'Azur","departement":"Alpes-Maritimes","departementCode":"06","adresse":{"street":"Place de la Mairie","postalCode":"06260","city":"Auvare","country":"France"},"contacts":{"email":"mairie.auvare@orange.fr","telephone":"0493051429"},"horaires":"Le Lundi : de 09h00 à 16h30","latitude":43.98779,"longitude":6.907638,"website":"","hasWebsite":false,"hasHoraires":true,"url":"https://lannuaire.service-public.gouv.fr/provence-alpes-cote-d-azur/alpes-maritimes/59e5bdab-7b1b-4cc6-9956-15ad3348fc64"}
{"nom":"Bairols","nomNormalise":"bairols","typeCollectivite":"Commune","region":"Provence-Alpes-Côte d'Azur","departement":"Alpes-Maritimes","departementCode":"06","adresse":{"street":"Entrée du Village","postalCode":"06420","city":"Bairols","country":"France"},"contacts":{"email":"mairie.bairols@wanadoo.fr","telephone":"0493029046"},"horaires":"Le Mardi : de 09h00 à 15h30\nLe Vendredi : de 09h00 à 15h30","latitude":43.98215,"longitude":7.126826,"website":"","hasWebsite":false,"hasHoraires":true,"url":"https://lannuaire.service-public.gouv.fr/provence-alpes-cote-d-azur/alpes-maritimes/3dc62e2e-0b29-4f1a-a8c3-0231b1a88540"}
{"nom":"Beaulieu-sur-Mer","nomNormalise":"beaulieusurmer","typeCollectivite":"Commune","region":"Provence-Alpes-Côte d'Azur","departement":"Alpes-Maritimes","departementCode":"06","adresse":{"street":"3 boulevard du Maréchal-Leclerc","postalCode":"06310","city":"Beaulieu-sur-Mer","country":"France"},"contacts":{"email":"mairie@beaulieusurmer.fr","telephone":"0493764700"},"horaires":"Du Lundi au Vendredi : de 08h30 à 12h30 de 13h30 à 16h30","latitude":43.70943,"longitude":7.335124,"website":"http://www.beaulieusurmer.fr/","hasWebsite":true,"hasHoraires":true,"url":"https://lannuaire.service-public.gouv.fr/provence-alpes-cote-d-azur/alpes-maritimes/c4000eaf-b1e1-4da2-8f15-96246763eeb9"}
{"nom":"Beausoleil","nomNormalise":"beausoleil","typeCollectivite":"Commune","region":"Provence-Alpes-Côte d'Azur","departement":"Alpes-Maritimes","departementCode":"06","adresse":{"street":"27 boulevard de la République","postalCode":"06240","city":"Beausoleil","country":"France"},"contacts":{"email":"mairie@villedebeausoleil.fr","telephone":"0493417171"},"horaires":"Du Lundi au Jeudi : de 08h30 à 12h30 de 13h30 à 17h00\nLe Vendredi : de 08h30 à 12h00 de 13h30 à 16h00","latitude":43.7431,"longitude":7.42538,"website":"http://www.villedebeausoleil.fr/","hasWebsite":true,"hasHoraires":true,"url":"https://lannuaire.service-public.gouv.fr/provence-alpes-cote-d-azur/alpes-maritimes/177037b8-f687-4c5f-bbba-e1dcd03888a6"}
{"nom":"Belvédère","nomNormalise":"belvedere","typeCollectivite":"Commune","region":"Provence-Alpes-Côte d'Azur","departement":"Alpes-Maritimes","departementCode":"06","adresse":{"street":"1 place du Colonel-Baldoni","postalCode":"06450","city":"Belvédère","country":"France"},"contacts":{"email":"accueil@mairie-belvedere.fr","telephone":"0493034123"},"horaires":"Du Lundi au Mardi : de 09h00 à 11h30 de 14h00 à 17h00\nDu Mercredi au Vendredi : de 09h00 à 11h30","latitude":44.015,"longitude":7.3197403,"website":"http://www.mairie-belvedere.fr/","hasWebsite":true,"hasHoraires":true,"url":"https://lannuaire.service-public.gouv.fr/provence-alpes-cote-d-azur/alpes-maritimes/1cf4c5a9-f3e3-4b8f-b366-c3c894c5f040"}
{"nom":"Bendejun","nomNormalise":"bendejun","typeCollectivite":"Commune","region":"Provence-Alpes-Côte d'Azur","departement":"Alpes-Maritimes","departementCode":"06","adresse":{"street":"1 place Flaminius-Raiberti","postalCode":"06390","city":"Bendejun","country":"France"},"contacts":{"email":"accueil@bendejun.net","telephone":"0493917474"},"horaires":"Du Lundi au Vendredi : de 08h00 à 12h00 de 13h30 à 16h30","latitude":43.835407,"longitude":7.295053,"website":"https://www.bendejun.net/","hasWebsite":true,"hasHoraires":true,"url":"https://lannuaire.service-public.gouv.fr/provence-alpes-cote-d-azur/alpes-maritimes/655d8073-0a3a-455f-b8ab-305b95b0b793"}
{"nom":"Berre-les-Alpes","nomNormalise":"berrelesalpes","typeCollectivite":"Commune","region":"Provence-Alpes-Côte d'Azur","departement":"Alpes-Maritimes","departementCode":"06","adresse":{"street":"39 avenue Paul-Granet","postalCode":"06390","city":"Berre-les-Alpes","country":"France"},"contacts":{"email":"mairie.berrelesalpes@orange.fr","telephone":"0493918007"},"horaires":"Du Lundi au Mardi : de 08h00 à 12h00 de 14h00 à 18h00\nDu Jeudi au Vendredi : de 08h00 à 12h00 de 14h00 à 18h00","latitude":43.8301,"longitude":7.32833,"website":"https://www.berrelesalpes.fr/","hasWebsite":true,"hasHoraires":true,"url":"https://lannuaire.service-public.gouv.fr/provence-alpes-cote-d-azur/alpes-maritimes/1bdc595c-6e10-4539-967b-4b8f3a377ab1"}
{"nom":"Beuil","nomNormalise":"beuil","typeCollectivite":"Commune","region":"Provence-Alpes-Côte d'Azur","departement":"Alpes-Maritimes","departementCode":"06","adresse":{"street":"26 rue du Comté-de-Beuil","postalCode":"06470","city":"Beuil","country":"France"},"contacts":{"email":"maire@beuil.fr","telephone":"0493022020"},"horaires":"Le Mardi : de 09h00 à 12h00\nLe Jeudi : de 09h00 à 12h00","latitude":44.0948,"longitude":6.98821,"website":"http://www.beuil.fr/","hasWebsite":true,"hasHoraires":true,"url":"https://lannuaire.service-public.gouv.fr/provence-alpes-cote-d-azur/alpes-maritimes/e62084dd-e09a-4c84-8929-686611cc7bdb"}
{"nom":"Bézaudun-les-Alpes","nomNormalise":"bezaudunlesalpes","typeCollectivite":"Commune","region":"Provence-Alpes-Côte d'Azur","departement":"Alpes-Maritimes","departementCode":"06","adresse":{"street":"31 rue Haute","postalCode":"06510","city":"Bézaudun-les-Alpes","country":"France"},"contacts":{"email":"mairie@bezaudunlesalpes.fr","telephone":"0493591234"},"horaires":"Du Lundi au Mardi : de 08h00 à 12h00 de 14h00 à 17h00\nLe Mercredi : de 08h00 à 12h00\nLe Jeudi : de 08h00 à 12h00 de 14h00 à 17h00\nLe Vendredi : de 08h00 à 12h00\nLe Samedi : de 10h00 à 12h00\n\nAccueil ouvert le dernier samedi du mois sur rendez-vous uniquement.","latitude":43.8089,"longitude":7.09652,"website":"http://bezaudun.fr/","hasWebsite":true,"hasHoraires":true,"url":"https://lannuaire.service-public.gouv.fr/provence-alpes-cote-d-azur/alpes-maritimes/168a36ea-2fa9-4538-931c-e19342cac564"}
{"nom":"Biot","nomNormalise":"biot","typeCollectivite":"Commune","region":"Provence-Alpes-Côte d'Azur","departement":"Alpes-Maritimes","departementCode":"06","adresse":{"street":"8-10 route de Valbonne","postalCode":"06410","city":"Biot","country":"France"},"contacts":{"email":"accueil@biot.fr","telephone":"0492915580"},"horaires":"Du Lundi au Vendredi : de 08h30 à 12h00 de 13h30 à 17h00","latitude":43.6345,"longitude":7.0734477,"website":"https://www.biot.fr/","hasWebsite":true,"hasHoraires":true,"url":"https://lannuaire.service-public.gouv.fr/provence-alpes-cote-d-azur/alpes-maritimes/96a737ce-fa89-4752-97e1-872ed601f0ab"}
{"nom":"Blausasc","nomNormalise":"blausasc","typeCollectivite":"Commune","region":"Provence-Alpes-Côte d'Azur","departement":"Alpes-Maritimes","departementCode":"06","adresse":{"street":"Esplanade Nicole-Lottier","postalCode":"06440","city":"Blausasc","country":"France"},"contacts":{"email":"secretariat@blausasc.fr","telephone":"0493795104"},"horaires":"Du Lundi au Jeudi : de 08h00 à 12h00 de 13h30 à 17h00\nLe Vendredi : de 08h00 à 12h00 de 13h30 à 16h30","latitude":43.805893,"longitude":7.362774,"website":"https://www.blausasc.fr/","hasWebsite":true,"hasHoraires":true,"url":"https://lannuaire.service-public.gouv.fr/provence-alpes-cote-d-azur/alpes-maritimes/4cbfa1cb-67c7-420d-8db5-58eba49a226e"}
{"nom":"Bonson","nomNormalise":"bonson","typeCollectivite":"Commune","region":"Provence-Alpes-Côte d'Azur","departement":"Alpes-Maritimes","departementCode":"06","adresse":{"street":"1 place Désiré-Scoffier","postalCode":"06830","city":"Bonson","country":"France"},"contacts":{"email":"mairie@village-bonson06.fr","telephone":"0493085839"},"horaires":"Du Lundi au Samedi : de 09h00 à 12h00","latitude":43.860085,"longitude":7.182585,"website":"http://www.bonson.org/","hasWebsite":true,"hasHoraires":true,"url":"https://lannuaire.service-public.gouv.fr/provence-alpes-cote-d-azur/alpes-maritimes/e1f28b8e-0536-442b-a4a8-efef95d2ca6b"}
{"nom":"Bouyon","nomNormalise":"bouyon","typeCollectivite":"Commune","region":"Provence-Alpes-Côte d'Azur","departement":"Alpes-Maritimes","departementCode":"06","adresse":{"street":"1 place de la Mairie","postalCode":"06510","city":"Bouyon","country":"France"},"contacts":{"email":"mairie.bouyon@orange.fr","telephone":"0493590707"},"horaires":"Du Mercredi au Jeudi : de 09h00 à 12h00","latitude":43.82541,"longitude":7.123298,"website":"https://www.bouyon.fr/","hasWebsite":true,"hasHoraires":true,"url":"https://lannuaire.service-public.gouv.fr/provence-alpes-cote-d-azur/alpes-maritimes/3279a30c-5810-4136-9cb9-3be267c8fe08"}
{"nom":"Breil-sur-Roya","nomNormalise":"breilsurroya","typeCollectivite":"Commune","region":"Provence-Alpes-Côte d'Azur","departement":"Alpes-Maritimes","departementCode":"06","adresse":{"street":"29 boulevard Rouvier","postalCode":"06540","city":"Breil-sur-Roya","country":"France"},"contacts":{"email":"maire@villedebreil.fr","telephone":"0493049999"},"horaires":"Du Lundi au Vendredi : de 09h00 à 12h00 de 13h30 à 16h00","latitude":43.9375,"longitude":7.51372,"website":"http://www.ville-breil-sur-roya.fr/","hasWebsite":true,"hasHoraires":true,"url":"https://lannuaire.service-public.gouv.fr/provence-alpes-cote-d-azur/alpes-maritimes/9e5be4cf-8e46-470d-9641-4672435e423d"}
{"nom":"Briançonnet","nomNormalise":"brianconnet","typeCollectivite":"Commune","region":"Provence-Alpes-Côte d'Azur","departement":"Alpes-Maritimes","departementCode":"06","adresse":{"street":"1 place de la Mairie","postalCode":"06850","city":"Briançonnet","country":"France"},"contacts":{"email":"mairiedebrianconnet.compta@yahoo.fr","telephone":"0493604072"},"horaires":"Du Lundi au Mercredi : de 08h00 à 12h00\nLe Vendredi : de 08h00 à 12h00","latitude":43.864674,"longitude":6.758102,"website":"https://brianconnet.fr/","hasWebsite":true,"hasHoraires":true,"url":"https://lannuaire.service-public.gouv.fr/provence-alpes-cote-d-azur/alpes-maritimes/d617eec2-5b9b-483e-91bd-1b5e9e59e8d6"}
{"nom":"Cabris","nomNormalise":"cabris","typeCollectivite":"Commune","region":"Provence-Alpes-Côte d'Azur","departement":"Alpes-Maritimes","departementCode":"06","adresse":{"street":"33 rue Frédéric-Mistral","postalCode":"06530","city":"Cabris","country":"France"},"contacts":{"email":"mairie@cabris.fr","telephone":"0493605014"},"horaires":"Du Lundi au Vendredi : de 09h00 à 12h00 de 13h00 à 17h00","latitude":43.6559,"longitude":6.875,"website":"https://www.cabris.fr/","hasWebsite":true,"hasHoraires":true,"url":"https://lannuaire.service-public.gouv.fr/provence-alpes-cote-d-azur/alpes-maritimes/1cfe4a7b-4463-489e-8d65-964d4d19d0f8"}
{"nom":"Cagnes-sur-Mer","nomNormalise":"cagnessurmer","typeCollectivite":"Commune","region":"Provence-Alpes-Côte d'Azur","departement":"Alpes-Maritimes","departementCode":"06","adresse":{"street":"Place de l'Hôtel-de-Ville","postalCode":"06800","city":"Cagnes-sur-Mer Cedex","country":"France"},"contacts":{"email":"nouscontacter@cagnes.fr","telephone":"0493221900"},"horaires":"Du Lundi au Vendredi : de 08h00 à 12h30 de 13h30 à 17h00","latitude":43.6631,"longitude":7.14825,"website":"https://www.cagnes.fr/","hasWebsite":true,"hasHoraires":true,"url":"https://lannuaire.service-public.gouv.fr/provence-alpes-cote-d-azur/alpes-maritimes/5dfb5e9b-e341-4da4-b603-f169c47405ed"}
{"nom":"Caille","nomNormalise":"caille","typeCollectivite":"Commune","region":"Provence-Alpes-Côte d'Azur","departement":"Alpes-Maritimes","departementCode":"06","adresse":{"street":"18 rue Principale","postalCode":"06750","city":"Caille","country":"France"},"contacts":{"email":"mairiecaille@orange.fr","telephone":"0493603151"},"horaires":"Du Lundi au Mardi : de 13h30 à 17h30\nDu Jeudi au Vendredi : de 13h30 à 17h30","latitude":43.778885,"longitude":6.72981,"website":"https://www.ville-caille.net/","hasWebsite":true,"hasHoraires":true,"url":"https://lannuaire.service-public.gouv.fr/provence-alpes-cote-d-azur/alpes-maritimes/957a21b2-273d-45fa-beb1-114e195e7873"}
{"nom":"Cannes","nomNormalise":"cannes","typeCollectivite":"Commune","region":"Provence-Alpes-Côte d'Azur","departement":"Alpes-Maritimes","departementCode":"06","adresse":{"street":"1 Place Cornut-Gentille","postalCode":"06414","city":"Cannes Cedex","country":"France"},"contacts":{"email":"mairie@ville-cannes.fr","telephone":"0497064000"},"horaires":"Du Lundi au Vendredi : de 07h30 à 19h30\nLe Samedi : de 07h30 à 13h30","latitude":43.55115,"longitude":7.011752,"website":"https://www.cannes.com/","hasWebsite":true,"hasHoraires":true,"url":"https://lannuaire.service-public.gouv.fr/provence-alpes-cote-d-azur/alpes-maritimes/09b51360-4c05-46a5-be10-50b5f2ab5258"}
{"nom":"Cantaron","nomNormalise":"cantaron","typeCollectivite":"Commune","region":"Provence-Alpes-Côte d'Azur","departement":"Alpes-Maritimes","departementCode":"06","adresse":{"street":"45 place de l'École","postalCode":"06340","city":"Cantaron","country":"France"},"contacts":{"email":"mairie@cantaron.fr","telephone":"0493276460"},"horaires":"Du Lundi au Vendredi : de 08h30 à 12h00 de 13h00 à 17h00","latitude":43.7616,"longitude":7.31821,"website":"https://cantaron.fr/","hasWebsite":true,"hasHoraires":true,"url":"https://lannuaire.service-public.gouv.fr/provence-alpes-cote-d-azur/alpes-maritimes/70557904-6ba8-421c-9115-8974940be561"}
{"nom":"Cap-d'Ail","nomNormalise":"capdail","typeCollectivite":"Commune","region":"Provence-Alpes-Côte d'Azur","departement":"Alpes-Maritimes","departementCode":"06","adresse":{"street":"62 avenue du 3-Septembre","postalCode":"06320","city":"Cap-d'Ail","country":"France"},"contacts":{"email":"secretariatmaire@cap-dail.fr","telephone":"0492105959"},"horaires":"Du Lundi au Vendredi : de 08h00 à 12h00 de 13h00 à 16h30","latitude":43.72208,"longitude":7.405839,"website":"http://www.cap-dail.fr/","hasWebsite":true,"hasHoraires":true,"url":"https://lannuaire.service-public.gouv.fr/provence-alpes-cote-d-azur/alpes-maritimes/ea2700a4-aa45-40cb-93eb-e7acc840f87b"}
{"nom":"Carros","nomNormalise":"carros","typeCollectivite":"Commune","region":"Provence-Alpes-Côte d'Azur","departement":"Alpes-Maritimes","departementCode":"06","adresse":{"street":"2 rue de l'Eusière","postalCode":"06510","city":"Carros","country":"France"},"contacts":{"email":"mairie@ville-carros.fr","telephone":"0492084470"},"horaires":"Du Lundi au Jeudi : de 08h30 à 12h00 de 13h00 à 17h00\nLe Vendredi : de 08h30 à 12h00 de 13h00 à 16h30\nLe Samedi : de 09h00 à 12h00\n\nuniquement sur rendez-vous pour les demandes et retraits de carte nationale d'identité et passeport","latitude":43.7733,"longitude":7.19162,"website":"https://www.ville-carros.fr/","hasWebsite":true,"hasHoraires":true,"url":"https://lannuaire.service-public.gouv.fr/provence-alpes-cote-d-azur/alpes-maritimes/8bf00f64-3d35-4fa9-8d61-b1da1407638f"}
{"nom":"Castagniers","nomNormalise":"castagniers","typeCollectivite":"Commune","region":"Provence-Alpes-Côte d'Azur","departement":"Alpes-Maritimes","departementCode":"06","adresse":{"street":"1 place de la Mairie","postalCode":"06670","city":"Castagniers","country":"France"},"contacts":{"email":"mairie@mairiecastagniers.fr","telephone":"0493080511"},"horaires":"Du Lundi au Mardi : de 08h30 à 12h00 de 13h30 à 17h30\nLe Mercredi : de 08h30 à 12h00\nDu Jeudi au Vendredi : de 08h30 à 12h00 de 13h30 à 17h30","latitude":43.79053,"longitude":7.23072,"website":"https://www.mairie-castagniers.com/","hasWebsite":true,"hasHoraires":true,"url":"https://lannuaire.service-public.gouv.fr/provence-alpes-cote-d-azur/alpes-maritimes/25863eee-c8ac-4fe3-b92c-edcf1b8a775b"}
{"nom":"Castellar","nomNormalise":"castellar","typeCollectivite":"Commune","region":"Provence-Alpes-Côte d'Azur","departement":"Alpes-Maritimes","departementCode":"06","adresse":{"street":"1 place Georges-Clemenceau","postalCode":"06500","city":"Castellar","country":"France"},"contacts":{"email":"mairie@castellar.fr","telephone":"0492105900"},"horaires":"Du Lundi au Mardi : de 09h00 à 12h00 de 13h00 à 16h00\nDu Mercredi au Vendredi : de 09h00 à 12h00","latitude":43.8032,"longitude":7.49677,"website":"https://www.castellar.fr/","hasWebsite":true,"hasHoraires":true,"url":"https://lannuaire.service-public.gouv.fr/provence-alpes-cote-d-azur/alpes-maritimes/2609e446-bea0-43f3-b1be-e6351ba2876c"}
{"nom":"Castillon","nomNormalise":"castillon","typeCollectivite":"Commune","region":"Provence-Alpes-Côte d'Azur","departement":"Alpes-Maritimes","departementCode":"06","adresse":{"street":"Place Lucien-Rousset","postalCode":"06500","city":"Castillon","country":"France"},"contacts":{"email":"mairie@castillon06.com","telephone":"0493043200"},"horaires":"Du Lundi au Vendredi : de 09h00 à 12h30 de 13h30 à 17h00","latitude":43.833683,"longitude":7.472559,"website":"http://www.castillon06.com/","hasWebsite":true,"hasHoraires":true,"url":"https://lannuaire.service-public.gouv.fr/provence-alpes-cote-d-azur/alpes-maritimes/8faecbe5-c96b-44e5-9c08-fd17b8684f4d"}
{"nom":"Caussols","nomNormalise":"caussols","typeCollectivite":"Commune","region":"Provence-Alpes-Côte d'Azur","departement":"Alpes-Maritimes","departementCode":"06","adresse":{"street":"76 place Derégnaucourt","postalCode":"06460","city":"Caussols","country":"France"},"contacts":{"email":"mairie-caussols@wanadoo.fr","telephone":"0493092964"},"horaires":"Du Lundi au Mardi : de 08h30 à 12h00\nDu Jeudi au Vendredi : de 08h30 à 12h00","latitude":43.741,"longitude":6.900228,"website":"http://www.caussols.fr/","hasWebsite":true,"hasHoraires":true,"url":"https://lannuaire.service-public.gouv.fr/provence-alpes-cote-d-azur/alpes-maritimes/637f7902-234d-4068-9023-89b2271d7333"}
{"nom":"Châteauneuf","nomNormalise":"chateauneuf","typeCollectivite":"Commune","region":"Provence-Alpes-Côte d'Azur","departement":"Alpes-Maritimes","departementCode":"06","adresse":{"street":"4 place Georges-Clemenceau","postalCode":"06740","city":"Châteauneuf","country":"France"},"contacts":{"email":"secretariat@ville-chateauneuf.fr","telephone":"0492603603"},"horaires":"Le Lundi : de 08h30 à 12h00 de 13h30 à 17h00\nLe Mardi : de 08h30 à 12h00\nDu Mercredi au Jeudi : de 08h30 à 12h00 de 13h30 à 17h00\nLe Vendredi : de 08h30 à 12h00","latitude":43.675037,"longitude":6.975168,"website":"https://www.ville-chateauneuf.fr/","hasWebsite":true,"hasHoraires":true,"url":"https://lannuaire.service-public.gouv.fr/provence-alpes-cote-d-azur/alpes-maritimes/31614bf0-7345-4c74-87a3-5f527e7569df"}
{"nom":"Châteauneuf-d'Entraunes","nomNormalise":"chateauneufdentraunes","typeCollectivite":"Commune","region":"Provence-Alpes-Côte d'Azur","departement":"Alpes-Maritimes","departementCode":"06","adresse":{"street":"Rue de la Mairie","postalCode":"06470","city":"Châteauneuf-d'Entraunes","country":"France"},"contacts":{"email":"chateauneufdentraunes@wanadoo.fr","telephone":"0493055476"},"horaires":"Le Lundi : de 08h30 à 12h30 de 13h00 à 17h00\nLe Vendredi : de 08h30 à 12h30 de 13h00 à 17h00\n\nUn vendredi sur deux","latitude":44.12837,"longitude":6.832522,"website":"","hasWebsite":false,"hasHoraires":true,"url":"https://lannuaire.service-public.gouv.fr/provence-alpes-cote-d-azur/alpes-maritimes/8589dfd1-300d-4e59-8ec0-38e75436c4f4"}
{"nom":"Châteauneuf-Villevieille","nomNormalise":"chateauneufvillevieille","typeCollectivite":"Commune","region":"Provence-Alpes-Côte d'Azur","departement":"Alpes-Maritimes","departementCode":"06","adresse":{"street":"18 avenue de la Tour","postalCode":"06390","city":"Châteauneuf-Villevieille","country":"France"},"contacts":{"email":"chateauneuf.villevieille@wanadoo.fr","telephone":"0493790365"},"horaires":"Le Mardi : de 09h00 à 12h00\nLe Mercredi : de 09h00 à 12h00 de 14h00 à 16h30\nDu Jeudi au Samedi : de 09h00 à 12h00","latitude":43.81019,"longitude":7.2961197,"website":"http://www.chateauneufvillevieille.fr/","hasWebsite":true,"hasHoraires":true,"url":"https://lannuaire.service-public.gouv.fr/provence-alpes-cote-d-azur/alpes-maritimes/7cb334b6-3fe8-4d0d-9797-ebd5b3786219"}
{"nom":"Cipières","nomNormalise":"cipieres","typeCollectivite":"Commune","region":"Provence-Alpes-Côte d'Azur","departement":"Alpes-Maritimes","departementCode":"06","adresse":{"street":"1 la Place","postalCode":"06620","city":"Cipières","country":"France"},"contacts":{"email":"mairie.cipieres@wanadoo.fr","telephone":"0493599648"},"horaires":"Du Lundi au Mardi : de 08h30 à 12h00\nDu Jeudi au Vendredi : de 08h30 à 12h00","latitude":43.7832,"longitude":6.9558,"website":"http://www.cipieres.fr/","hasWebsite":true,"hasHoraires":true,"url":"https://lannuaire.service-public.gouv.fr/provence-alpes-cote-d-azur/alpes-maritimes/87f78f0f-54eb-45ca-b4be-b3344fabd7d2"}
{"nom":"Clans","nomNormalise":"clans","typeCollectivite":"Commune","region":"Provence-Alpes-Côte d'Azur","departement":"Alpes-Maritimes","departementCode":"06","adresse":{"street":"7 avenue de l'Hôtel-de-Ville","postalCode":"06420","city":"Clans","country":"France"},"contacts":{"email":"mairie@clans06.com","telephone":"0493029008"},"horaires":"Du Lundi au Vendredi : de 08h30 à 12h30\n\nPermanence téléphonique de 8h30 à 16h30.\nPermanence téléphonique de 8h30 à 16h30.","latitude":43.99498,"longitude":7.147647,"website":"https://clans06.com/","hasWebsite":true,"hasHoraires":true,"url":"https://lannuaire.service-public.gouv.fr/provence-alpes-cote-d-azur/alpes-maritimes/a3861651-f361-4b14-9251-2aa22529f5c4"}
{"nom":"Coaraze","nomNormalise":"coaraze","typeCollectivite":"Commune","region":"Provence-Alpes-Côte d'Azur","departement":"Alpes-Maritimes","departementCode":"06","adresse":{"street":"6 place du Portal","postalCode":"06390","city":"Coaraze","country":"France"},"contacts":{"email":"secretariat.coaraze@outlook.com","telephone":"0493793480"},"horaires":"Le Lundi : de 08h30 à 16h30\nLe Mercredi : de 08h30 à 11h30\nDu Jeudi au Vendredi : de 08h30 à 16h30","latitude":43.86501,"longitude":7.293688,"website":"https://www.coaraze.fr/","hasWebsite":true,"hasHoraires":true,"url":"https://lannuaire.service-public.gouv.fr/provence-alpes-cote-d-azur/alpes-maritimes/d8588751-32d8-4441-b1bf-5b9e02065aba"}
{"nom":"Collongues","nomNormalise":"collongues","typeCollectivite":"Commune","region":"Provence-Alpes-Côte d'Azur","departement":"Alpes-Maritimes","departementCode":"06","adresse":{"street":"2 place du Château","postalCode":"06910","city":"Collongues","country":"France"},"contacts":{"email":"mairie@collongues06.fr","telephone":"0761092853"},"horaires":"Du Lundi au Mardi : de 08h30 à 12h30 de 13h30 à 17h00\nDu Jeudi au Vendredi : de 08h30 à 12h30 de 13h30 à 17h00\n\nFermé le vendredi en juin, juillet etaoût.","latitude":43.88883,"longitude":6.863249,"website":"","hasWebsite":false,"hasHoraires":true,"url":"https://lannuaire.service-public.gouv.fr/provence-alpes-cote-d-azur/alpes-maritimes/855797d8-fb53-4685-a964-b9b333341dfe"}
{"nom":"Colomars","nomNormalise":"colomars","typeCollectivite":"Commune","region":"Provence-Alpes-Côte d'Azur","departement":"Alpes-Maritimes","departementCode":"06","adresse":{"street":"3 rue Étienne-Curti","postalCode":"06670","city":"Colomars","country":"France"},"contacts":{"email":"mairie@colomars.fr","telephone":"0492151850"},"horaires":"Le Lundi : de 08h30 à 12h30 de 13h30 à 17h00\nLe Mardi : de 08h30 à 12h30\nLe Mercredi : de 08h30 à 12h30 de 13h30 à 17h00\nLe Jeudi : de 08h30 à 12h30\nLe Vendredi : de 08h30 à 12h30 de 13h30 à 16h30","latitude":43.7628,"longitude":7.22157,"website":"http://www.colomars.fr/","hasWebsite":true,"hasHoraires":true,"url":"https://lannuaire.service-public.gouv.fr/provence-alpes-cote-d-azur/alpes-maritimes/468413d8-23a1-47a0-ac45-ced42bc5e6a4"}
{"nom":"Conségudes","nomNormalise":"consegudes","typeCollectivite":"Commune","region":"Provence-Alpes-Côte d'Azur","departement":"Alpes-Maritimes","departementCode":"06","adresse":{"street":"1 place Louis-Revel","postalCode":"06510","city":"Conségudes","country":"France"},"contacts":{"email":"mairie.consegudes@orange.fr","telephone":"0493590741"},"horaires":"Du Lundi au Mardi : de 08h15 à 17h00\nLe Jeudi : de 08h15 à 17h00\nLe Vendredi : de 08h15 à 16h00","latitude":43.843708,"longitude":7.0474596,"website":"","hasWebsite":false,"hasHoraires":true,"url":"https://lannuaire.service-public.gouv.fr/provence-alpes-cote-d-azur/alpes-maritimes/8f002182-820e-445b-8583-6e5e7b5cf6ea"}
{"nom":"Contes","nomNormalise":"contes","typeCollectivite":"Commune","region":"Provence-Alpes-Côte d'Azur","departement":"Alpes-Maritimes","departementCode":"06","adresse":{"street":"19 rue du 8-Mai-1945","postalCode":"06390","city":"Contes","country":"France"},"contacts":{"email":"mairie@ville-contes.net","telephone":"0493790001"},"horaires":"Du Lundi au Vendredi : de 08h30 à 12h00 de 14h00 à 17h00","latitude":43.81163,"longitude":7.3143554,"website":"https://www.ville-contes.net/","hasWebsite":true,"hasHoraires":true,"url":"https://lannuaire.service-public.gouv.fr/provence-alpes-cote-d-azur/alpes-maritimes/917440f9-a343-4602-a307-ac95a3c23695"}
{"nom":"Courmes","nomNormalise":"courmes","typeCollectivite":"Commune","region":"Provence-Alpes-Côte d'Azur","departement":"Alpes-Maritimes","departementCode":"06","adresse":{"street":"83 place de la Mairie","postalCode":"06620","city":"Courmes","country":"France"},"contacts":{"email":"mairie-de-courmes@wanadoo.fr","telephone":"0493407532"},"horaires":"Du Lundi au Vendredi : de 08h00 à 12h00 de 13h00 à 16h00","latitude":43.742596,"longitude":7.008509,"website":"https://www.courmes.fr/","hasWebsite":true,"hasHoraires":true,"url":"https://lannuaire.service-public.gouv.fr/provence-alpes-cote-d-azur/alpes-maritimes/27cfa157-a971-47f6-8e76-2fd96bde1def"}
{"nom":"Coursegoules","nomNormalise":"coursegoules","typeCollectivite":"Commune","region":"Provence-Alpes-Côte d'Azur","departement":"Alpes-Maritimes","departementCode":"06","adresse":{"street":"1 place de la Mairie","postalCode":"06140","city":"Coursegoules","country":"France"},"contacts":{"email":"mairie@coursegoules.fr","telephone":"0493591160"},"horaires":"Le Lundi : de 09h00 à 12h00 de 14h00 à 17h00\nLe Mardi : de 09h00 à 12h00\nLe Jeudi : de 09h00 à 12h00\nLe Vendredi : de 09h00 à 12h00 de 14h00 à 17h00\nLe Samedi : de 09h00 à 12h00\n\nUniquement sur rendez-vous","latitude":43.794792,"longitude":7.040042,"website":"https://lapagelocale.fr/06140-coursegoules","hasWebsite":true,"hasHoraires":true,"url":"https://lannuaire.service-public.gouv.fr/provence-alpes-cote-d-azur/alpes-maritimes/cf861bd3-84cc-4a0a-b0f1-01785941ff82"}
{"nom":"Cuébris","nomNormalise":"cuebris","typeCollectivite":"Commune","region":"Provence-Alpes-Côte d'Azur","departement":"Alpes-Maritimes","departementCode":"06","adresse":{"street":"5 place de l'Église","postalCode":"06910","city":"Cuébris","country":"France"},"contacts":{"email":"mairie.cuebris@orange.fr","telephone":"0493059077"},"horaires":"Du Lundi au Mardi : de 08h30 à 12h30\nDu Jeudi au Vendredi : de 08h30 à 12h30","latitude":43.886547,"longitude":7.0201697,"website":"","hasWebsite":false,"hasHoraires":true,"url":"https://lannuaire.service-public.gouv.fr/provence-alpes-cote-d-azur/alpes-maritimes/8b6c5609-71aa-48e6-86d6-72f8ec106d64"}
{"nom":"Daluis","nomNormalise":"daluis","typeCollectivite":"Commune","region":"Provence-Alpes-Côte d'Azur","departement":"Alpes-Maritimes","departementCode":"06","adresse":{"street":"Quartier la Salette","postalCode":"06470","city":"Daluis","country":"France"},"contacts":{"email":"mairie.daluis@wanadoo.fr","telephone":"0975907251"},"horaires":"Le Mardi : de 08h00 à 12h00 de 14h00 à 18h00\nDu Jeudi au Vendredi : de 08h00 à 12h00 de 14h00 à 18h00","latitude":44.022785,"longitude":6.810511,"website":"http://www.daluis.fr/","hasWebsite":true,"hasHoraires":true,"url":"https://lannuaire.service-public.gouv.fr/provence-alpes-cote-d-azur/alpes-maritimes/a8dee819-59c4-4656-bebb-46698fc1dce8"}
{"nom":"Drap","nomNormalise":"drap","typeCollectivite":"Commune","region":"Provence-Alpes-Côte d'Azur","departement":"Alpes-Maritimes","departementCode":"06","adresse":{"street":"1 Place Georges-Clemenceau","postalCode":"06340","city":"Drap","country":"France"},"contacts":{"email":"mairie@ville-drap.fr","telephone":"0497000630"},"horaires":"Du Lundi au Vendredi : de 08h30 à 12h00 de 13h30 à 17h00","latitude":43.753967,"longitude":7.320656,"website":"http://www.ville-drap.fr/","hasWebsite":true,"hasHoraires":true,"url":"https://lannuaire.service-public.gouv.fr/provence-alpes-cote-d-azur/alpes-maritimes/7987c627-8acc-4524-a216-f29776df027a"}
{"nom":"Duranus","nomNormalise":"duranus","typeCollectivite":"Commune","region":"Provence-Alpes-Côte d'Azur","departement":"Alpes-Maritimes","departementCode":"06","adresse":{"street":"5 route de la Mairie","postalCode":"06670","city":"Duranus","country":"France"},"contacts":{"email":"mairie@duranus.fr","telephone":"0493031563"},"horaires":"Le Mardi : de 10h00 à 17h00\nLe Vendredi : de 10h00 à 17h00","latitude":43.894234,"longitude":7.258133,"website":"","hasWebsite":false,"hasHoraires":true,"url":"https://lannuaire.service-public.gouv.fr/provence-alpes-cote-d-azur/alpes-maritimes/29cbd23c-3804-4b2e-9cbe-be45bc75277f"}
{"nom":"Entraunes","nomNormalise":"entraunes","typeCollectivite":"Commune","region":"Provence-Alpes-Côte d'Azur","departement":"Alpes-Maritimes","departementCode":"06","adresse":{"street":"Place de la Mairie","postalCode":"06470","city":"Entraunes","country":"France"},"contacts":{"email":"mairie@entraunes.fr","telephone":"0493055126"},"horaires":"Du Mardi au Samedi : de 09h30 à 12h00","latitude":44.18821,"longitude":6.748335,"website":"https://entraunes.fr/","hasWebsite":true,"hasHoraires":true,"url":"https://lannuaire.service-public.gouv.fr/provence-alpes-cote-d-azur/alpes-maritimes/b8c30bd9-25d0-4f7f-ab92-0f932323cd9f"}
{"nom":"Escragnolles","nomNormalise":"escragnolles","typeCollectivite":"Commune","region":"Provence-Alpes-Côte d'Azur","departement":"Alpes-Maritimes","departementCode":"06","adresse":{"street":"2 place du Général-Mireur","postalCode":"06460","city":"Escragnolles","country":"France"},"contacts":{"email":"mairie-escragnolles@orange.fr","telephone":"0493092909"},"horaires":"Du Lundi au Vendredi : de 09h00 à 12h00 de 14h00 à 17h30","latitude":43.731075,"longitude":6.783025,"website":"https://www.escragnolles.fr/","hasWebsite":true,"hasHoraires":true,"url":"https://lannuaire.service-public.gouv.fr/provence-alpes-cote-d-azur/alpes-maritimes/c5db4412-2461-44db-809c-af0572145811"}
{"nom":"Eze","nomNormalise":"eze","typeCollectivite":"Commune","region":"Provence-Alpes-Côte d'Azur","departement":"Alpes-Maritimes","departementCode":"06","adresse":{"street":"6 avenue du Jardin-Exotique","postalCode":"06360","city":"Eze","country":"France"},"contacts":{"email":"contact@ville-eze.fr","telephone":"0492106060"},"horaires":"Du Lundi au Vendredi : de 09h00 à 12h00 de 14h00 à 16h00","latitude":43.72909,"longitude":7.361728,"website":"https://www.ville-eze.fr/","hasWebsite":true,"hasHoraires":true,"url":"https://lannuaire.service-public.gouv.fr/provence-alpes-cote-d-azur/alpes-maritimes/fad79dbc-5fab-4afe-a6c3-01a137e68765"}
{"nom":"Falicon","nomNormalise":"falicon","typeCollectivite":"Commune","region":"Provence-Alpes-Côte d'Azur","departement":"Alpes-Maritimes","departementCode":"06","adresse":{"street":"3 place Marcel-Eusebi","postalCode":"06950","city":"Falicon","country":"France"},"contacts":{"email":"contact@mairie-falicon.com","telephone":"0492079270"},"horaires":"Du Lundi au Vendredi : de 08h30 à 12h00 de 13h30 à 17h00","latitude":43.748837,"longitude":7.2788,"website":"https://www.falicon.fr/","hasWebsite":true,"hasHoraires":true,"url":"https://lannuaire.service-public.gouv.fr/provence-alpes-cote-d-azur/alpes-maritimes/9a1a8d7f-1f0a-4fb5-a6d8-53caff6f69c0"}
{"nom":"Fontan","nomNormalise":"fontan","typeCollectivite":"Commune","region":"Provence-Alpes-Côte d'Azur","departement":"Alpes-Maritimes","departementCode":"06","adresse":{"street":"Place du Centenaire","postalCode":"06540","city":"Fontan","country":"France"},"contacts":{"email":"mairie@ville-fontan.fr","telephone":"0493045001"},"horaires":"Du Lundi au Vendredi : de 09h00 à 12h00","latitude":44.002445,"longitude":7.552914,"website":"https://ville-fontan.eu/","hasWebsite":true,"hasHoraires":true,"url":"https://lannuaire.service-public.gouv.fr/provence-alpes-cote-d-azur/alpes-maritimes/4f6b38e4-b5d1-414e-9e70-468a1fe44914"}
{"nom":"Gars","nomNormalise":"gars","typeCollectivite":"Commune","region":"Provence-Alpes-Côte d'Azur","departement":"Alpes-Maritimes","departementCode":"06","adresse":{"street":"1 place du Château","postalCode":"06850","city":"Gars","country":"France"},"contacts":{"email":"mairiedegars@nordnet.fr","telephone":"0493058080"},"horaires":"Le Mardi : de 08h30 à 16h30\nLe Vendredi : de 08h30 à 16h30","latitude":43.865498,"longitude":6.8031697,"website":"http://www.ville-gars.net/","hasWebsite":true,"hasHoraires":true,"url":"https://lannuaire.service-public.gouv.fr/provence-alpes-cote-d-azur/alpes-maritimes/ce227a57-a1f2-41dd-8581-a3021a0e54d8"}
{"nom":"Gattières","nomNormalise":"gattieres","typeCollectivite":"Commune","region":"Provence-Alpes-Côte d'Azur","departement":"Alpes-Maritimes","departementCode":"06","adresse":{"street":"11 rue Torrin-et-Grassi","postalCode":"06510","city":"Gattières","country":"France"},"contacts":{"email":"accueil@mairie-gattieres.fr","telephone":"0492084570"},"horaires":"Du Lundi au Mercredi : de 08h30 à 12h00 de 13h00 à 17h00\nLe Jeudi : de 08h30 à 12h00 de 13h30 à 17h00\nLe Samedi : de 10h00 à 12h00\n\nAccueil ouvert chaque 1er samedi du mois, uniquement pour l'état civil.","latitude":43.760406,"longitude":7.17681,"website":"https://gattieres.fr/","hasWebsite":true,"hasHoraires":true,"url":"https://lannuaire.service-public.gouv.fr/provence-alpes-cote-d-azur/alpes-maritimes/d67ab832-6c60-4fd0-8efd-6fde0873bb7f"}
{"nom":"Gilette","nomNormalise":"gilette","typeCollectivite":"Commune","region":"Provence-Alpes-Côte d'Azur","departement":"Alpes-Maritimes","departementCode":"06","adresse":{"street":"1 place du Docteur-René-Morani","postalCode":"06830","city":"Gilette","country":"France"},"contacts":{"email":"mairie.gilette@orange.fr","telephone":"0493085719"},"horaires":"Du Lundi au Mercredi : de 08h30 à 12h30\nLe Jeudi : de 09h00 à 12h30\nLe Vendredi : de 08h30 à 12h30","latitude":43.849476,"longitude":7.163457,"website":"http://www.gilette.fr/","hasWebsite":true,"hasHoraires":true,"url":"https://lannuaire.service-public.gouv.fr/provence-alpes-cote-d-azur/alpes-maritimes/b06d8bed-6eb3-409b-a8e8-868680534e80"}
{"nom":"Gorbio","nomNormalise":"gorbio","typeCollectivite":"Commune","region":"Provence-Alpes-Côte d'Azur","departement":"Alpes-Maritimes","departementCode":"06","adresse":{"street":"30 rue Garibaldi","postalCode":"06500","city":"Gorbio","country":"France"},"contacts":{"email":"contact@gorbio.fr","telephone":"0492106650"},"horaires":"Du Lundi au Vendredi : de 08h30 à 12h30","latitude":43.786728,"longitude":7.443949,"website":"https://www.gorbio.fr/","hasWebsite":true,"hasHoraires":true,"url":"https://lannuaire.service-public.gouv.fr/provence-alpes-cote-d-azur/alpes-maritimes/38e67370-a416-48eb-8fde-9bab9f681b2c"}
{"nom":"Gourdon","nomNormalise":"gourdon","typeCollectivite":"Commune","region":"Provence-Alpes-Côte d'Azur","departement":"Alpes-Maritimes","departementCode":"06","adresse":{"street":"La Colombière","postalCode":"06620","city":"Gourdon","country":"France"},"contacts":{"email":"contact@mairie-gourdon06.fr","telephone":"0493429200"},"horaires":"Du Lundi au Jeudi : de 08h00 à 17h00\nLe Vendredi : de 08h00 à 16h00\n\nL'agence postale communale située dans les locaux de la mairie est ouverte du lundi au jeudi de 8h15 à 16h30 et le vendredi de 8h15 à 15h30.","latitude":43.723473,"longitude":6.974334,"website":"https://www.gourdon06.fr/","hasWebsite":true,"hasHoraires":true,"url":"https://lannuaire.service-public.gouv.fr/provence-alpes-cote-d-azur/alpes-maritimes/66b1ba08-44f1-4333-a261-0d35bb43eb28"}
{"nom":"Grasse","nomNormalise":"grasse","typeCollectivite":"Commune","region":"Provence-Alpes-Côte d'Azur","departement":"Alpes-Maritimes","departementCode":"06","adresse":{"street":"Place du Petit-Puy","postalCode":"06131","city":"Grasse","country":"France"},"contacts":{"email":"accueil.mairie@ville-grasse.fr","telephone":"0497055000"},"horaires":"Du Lundi au Vendredi : de 08h15 à 16h30\nLe Samedi : de 09h00 à 12h00\n\nPasseports et cartes d'identité uniquement.","latitude":43.65798,"longitude":6.92444,"website":"http://www.ville-grasse.fr/","hasWebsite":true,"hasHoraires":true,"url":"https://lannuaire.service-public.gouv.fr/provence-alpes-cote-d-azur/alpes-maritimes/1491685a-9ac8-4acb-bf12-6853b97830f2"}
{"nom":"Gréolières","nomNormalise":"greolieres","typeCollectivite":"Commune","region":"Provence-Alpes-Côte d'Azur","departement":"Alpes-Maritimes","departementCode":"06","adresse":{"street":"5 rue de la Mairie","postalCode":"06620","city":"Gréolières","country":"France"},"contacts":{"email":"mairie.greolieres@orange.fr","telephone":"0493599516"},"horaires":"Le Lundi : de 09h00 à 11h45\nDu Mercredi au Jeudi : de 09h00 à 11h45","latitude":43.795,"longitude":6.9434,"website":"https://www.greolieres.fr/","hasWebsite":true,"hasHoraires":true,"url":"https://lannuaire.service-public.gouv.fr/provence-alpes-cote-d-azur/alpes-maritimes/f1fdd8cc-f740-4848-8af5-d4780293e6ef"}
{"nom":"Guillaumes","nomNormalise":"guillaumes","typeCollectivite":"Commune","region":"Provence-Alpes-Côte d'Azur","departement":"Alpes-Maritimes","departementCode":"06","adresse":{"street":"1 place Napoléon-III","postalCode":"06470","city":"Guillaumes","country":"France"},"contacts":{"email":"mairie@guillaumes.fr","telephone":"0493055013"},"horaires":"Le Mardi : de 10h00 à 12h00 de 14h00 à 16h00\nDu Mercredi au Samedi : de 10h00 à 12h00","latitude":44.089355,"longitude":6.854309,"website":"https://www.guillaumes.fr/","hasWebsite":true,"hasHoraires":true,"url":"https://lannuaire.service-public.gouv.fr/provence-alpes-cote-d-azur/alpes-maritimes/764f4e49-7422-46c5-b066-82802679af07"}
{"nom":"Ilonse","nomNormalise":"ilonse","typeCollectivite":"Commune","region":"Provence-Alpes-Côte d'Azur","departement":"Alpes-Maritimes","departementCode":"06","adresse":{"street":"Place de la Mairie","postalCode":"06420","city":"Ilonse","country":"France"},"contacts":{"email":"mairie.ilonse@wanadoo.fr","telephone":"0493020349"},"horaires":"Le Lundi : de 08h30 à 16h30\nLe Jeudi : de 08h30 à 16h30","latitude":44.03228,"longitude":7.099705,"website":"https://www.ilonse.fr/","hasWebsite":true,"hasHoraires":true,"url":"https://lannuaire.service-public.gouv.fr/provence-alpes-cote-d-azur/alpes-maritimes/8b7978d5-7f38-446a-90bc-ce1b6d5cb1ae"}
{"nom":"Isola","nomNormalise":"isola","typeCollectivite":"Commune","region":"Provence-Alpes-Côte d'Azur","departement":"Alpes-Maritimes","departementCode":"06","adresse":{"street":"Place Jean-Gaissa","postalCode":"06420","city":"Isola","country":"France"},"contacts":{"email":"accueil@mairieisola.com","telephone":"0493232323"},"horaires":"Du Lundi au Vendredi : de 08h30 à 12h00 de 14h00 à 17h00","latitude":44.186375,"longitude":7.052883,"website":"https://www.mairieisola.com/","hasWebsite":true,"hasHoraires":true,"url":"https://lannuaire.service-public.gouv.fr/provence-alpes-cote-d-azur/alpes-maritimes/e3b6288c-6a28-422f-851f-fc5571164cd9"}
{"nom":"L'Escarène","nomNormalise":"lescarene","typeCollectivite":"Commune","region":"Provence-Alpes-Côte d'Azur","departement":"Alpes-Maritimes","departementCode":"06","adresse":{"street":"Place d'Audiffret","postalCode":"06440","city":"L'Escarène","country":"France"},"contacts":{"email":"mairie@escarene.fr","telephone":"0493916400"},"horaires":"Du Lundi au Mardi : de 08h30 à 12h00 de 13h30 à 17h00\nLe Mercredi : de 08h30 à 12h00\nDu Jeudi au Vendredi : de 08h30 à 12h00\nLe Vendredi : de 08h30 à 12h00 de 13h30 à 17h00","latitude":43.83375,"longitude":7.3554373,"website":"https://escarene.fr/","hasWebsite":true,"hasHoraires":true,"url":"https://lannuaire.service-public.gouv.fr/provence-alpes-cote-d-azur/alpes-maritimes/e68cc4c8-7fc5-43e1-8e4d-16ea9e863eb4"}
{"nom":"La Bollène-Vésubie","nomNormalise":"labollenevesubie","typeCollectivite":"Commune","region":"Provence-Alpes-Côte d'Azur","departement":"Alpes-Maritimes","departementCode":"06","adresse":{"street":"Place du Général-de-Gaulle","postalCode":"06450","city":"La Bollène-Vésubie","country":"France"},"contacts":{"email":"labollenevesubie@wanadoo.fr","telephone":"0493030102"},"horaires":"Du Lundi au Vendredi : de 09h00 à 12h00\nAccueil ouvert les après-midis uniquement sur rendez-vous.","latitude":43.9909,"longitude":7.33222,"website":"","hasWebsite":false,"hasHoraires":true,"url":"https://lannuaire.service-public.gouv.fr/provence-alpes-cote-d-azur/alpes-maritimes/d0a11b14-c216-4c42-802b-7320172fd6b7"}
{"nom":"La Brigue","nomNormalise":"labrigue","typeCollectivite":"Commune","region":"Provence-Alpes-Côte d'Azur","departement":"Alpes-Maritimes","departementCode":"06","adresse":{"street":"Place Saint-Martin","postalCode":"06430","city":"La Brigue","country":"France"},"contacts":{"email":"mairie@labrigue.fr","telephone":"0493043600"},"horaires":"Du Lundi au Vendredi : de 08h30 à 12h00 de 13h30 à 17h00\nLe Samedi : de 08h30 à 12h00","latitude":44.06371,"longitude":7.615181,"website":"http://www.labrigue.fr/","hasWebsite":true,"hasHoraires":true,"url":"https://lannuaire.service-public.gouv.fr/provence-alpes-cote-d-azur/alpes-maritimes/2f187de7-c832-4453-b0af-e1db88e7ace0"}
{"nom":"La Colle-sur-Loup","nomNormalise":"lacollesurloup","typeCollectivite":"Commune","region":"Provence-Alpes-Côte d'Azur","departement":"Alpes-Maritimes","departementCode":"06","adresse":{"street":"Chemin du Canadel","postalCode":"06480","city":"La Colle-sur-Loup","country":"France"},"contacts":{"email":"contact@mairie-lacollesurloup.fr","telephone":"0493328325"},"horaires":"Du Lundi au Vendredi : de 08h30 à 12h30 de 13h30 à 17h00\nLe Samedi : de 09h00 à 12h00\n\nAccueil ouvert uniquement pour l'état civil le samedi, pendant la crise sanitaire accueil ouvert sur rendez-vous uniquement.","latitude":43.68675,"longitude":7.10316,"website":"https://www.lacollesurloup.fr/","hasWebsite":true,"hasHoraires":true,"url":"https://lannuaire.service-public.gouv.fr/provence-alpes-cote-d-azur/alpes-maritimes/11a6d4c9-278a-49c8-b526-9644201e9768"}
{"nom":"La Croix-sur-Roudoule","nomNormalise":"lacroixsurroudoule","typeCollectivite":"Commune","region":"Provence-Alpes-Côte d'Azur","departement":"Alpes-Maritimes","departementCode":"06","adresse":{"street":"1 place de la Mairie","postalCode":"06260","city":"La Croix-sur-Roudoule","country":"France"},"contacts":{"email":"lacroixsurroudoule@wanadoo.fr","telephone":"0493050570"},"horaires":"Le Vendredi : de 09h00 à 17h30","latitude":43.987793,"longitude":6.874835,"website":"","hasWebsite":false,"hasHoraires":true,"url":"https://lannuaire.service-public.gouv.fr/provence-alpes-cote-d-azur/alpes-maritimes/c2769bdd-dc26-4f7f-80a6-727a0a759a5c"}
{"nom":"La Gaude","nomNormalise":"lagaude","typeCollectivite":"Commune","region":"Provence-Alpes-Côte d'Azur","departement":"Alpes-Maritimes","departementCode":"06","adresse":{"street":"6 rue Louis-Michel-Féraud","postalCode":"06610","city":"La Gaude","country":"France"},"contacts":{"email":"courrier@lagaude.fr","telephone":"0493594141"},"horaires":"Du Lundi au Vendredi : de 08h30 à 12h00 de 14h00 à 17h30","latitude":43.722355,"longitude":7.150861,"website":"https://www.lagaude.fr/","hasWebsite":true,"hasHoraires":true,"url":"https://lannuaire.service-public.gouv.fr/provence-alpes-cote-d-azur/alpes-maritimes/8a45b15d-f4a8-4a9e-a332-133b6f0ff1b3"}
{"nom":"Lantosque","nomNormalise":"lantosque","typeCollectivite":"Commune","region":"Provence-Alpes-Côte d'Azur","departement":"Alpes-Maritimes","departementCode":"06","adresse":{"street":"Place de la Mairie","postalCode":"06450","city":"Lantosque","country":"France"},"contacts":{"email":"mairiedelantosque@wanadoo.fr","telephone":"0493030002"},"horaires":"Du Lundi au Mercredi : de 08h30 à 12h00\nLe Jeudi : de 08h30 à 12h00 de 14h00 à 17h00\n\nPermanences du Maire : sur rendez-vous pris auprès du secrétariat\nLe Vendredi : de 08h30 à 12h00","latitude":43.97424,"longitude":7.312375,"website":"http://www.mairiedelantosque.fr/","hasWebsite":true,"hasHoraires":true,"url":"https://lannuaire.service-public.gouv.fr/provence-alpes-cote-d-azur/alpes-maritimes/9b104bce-28ef-48e9-bca5-b0124a81d2e5"}
{"nom":"La Penne","nomNormalise":"lapenne","typeCollectivite":"Commune","region":"Provence-Alpes-Côte d'Azur","departement":"Alpes-Maritimes","departementCode":"06","adresse":{"street":"1 place de l'Église","postalCode":"06260","city":"La Penne","country":"France"},"contacts":{"email":"contact@mairiedelapenne.fr","telephone":"0493058429"},"horaires":"Du Lundi au Mardi : de 08h00 à 12h00 de 13h00 à 17h00\nLe Jeudi : de 08h00 à 12h00\nLe Vendredi : de 08h00 à 12h00 de 13h00 à 16h00\nLe Samedi : de 08h00 à 12h00","latitude":43.927937,"longitude":6.948272,"website":"","hasWebsite":false,"hasHoraires":true,"url":"https://lannuaire.service-public.gouv.fr/provence-alpes-cote-d-azur/alpes-maritimes/98ea4ce7-3867-45af-bd6e-dab63f18bd37"}
{"nom":"La Roque-en-Provence","nomNormalise":"laroqueenprovence","typeCollectivite":"Commune","region":"Provence-Alpes-Côte d'Azur","departement":"Alpes-Maritimes","departementCode":"06","adresse":{"street":"1 rue de Provence","postalCode":"06910","city":"La Roque-en-Provence","country":"France"},"contacts":{"email":"contact@laroqueenprovence.fr","telephone":"0493059053"},"horaires":"Le Jeudi : de 09h00 à 12h00 de 14h00 à 17h00\nLe Vendredi : de 09h00 à 12h00 de 14h00 à 17h00","latitude":43.794926,"longitude":6.9432287,"website":"http://www.laroqueenprovence.fr/","hasWebsite":true,"hasHoraires":true,"url":"https://lannuaire.service-public.gouv.fr/provence-alpes-cote-d-azur/alpes-maritimes/c0ffdf99-2572-4575-9ca1-80aac5074644"}
{"nom":"La Roquette-sur-Siagne","nomNormalise":"laroquettesursiagne","typeCollectivite":"Commune","region":"Provence-Alpes-Côte d'Azur","departement":"Alpes-Maritimes","departementCode":"06","adresse":{"street":"630 chemin de la Commune","postalCode":"06550","city":"La Roquette-sur-Siagne","country":"France"},"contacts":{"email":"courrier@laroquettesursiagne.com","telephone":"0492194500"},"horaires":"Du Lundi au Vendredi : de 08h00 à 16h00","latitude":43.580505,"longitude":6.9560375,"website":"https://www.laroquettesursiagne.com/","hasWebsite":true,"hasHoraires":true,"url":"https://lannuaire.service-public.gouv.fr/provence-alpes-cote-d-azur/alpes-maritimes/469a8711-1ea1-4939-8bc0-43beb72880ec"}
{"nom":"La Roquette-sur-Var","nomNormalise":"laroquettesurvar","typeCollectivite":"Commune","region":"Provence-Alpes-Côte d'Azur","departement":"Alpes-Maritimes","departementCode":"06","adresse":{"street":"15 place de la Libération","postalCode":"06670","city":"La Roquette-sur-Var","country":"France"},"contacts":{"email":"mairie@laroquettesurvar.fr","telephone":"0493084021"},"horaires":"Le Lundi : de 09h00 à 12h00\nLe Mercredi : de 09h00 à 12h00\nLe Vendredi : de 09h00 à 12h00","latitude":43.8279,"longitude":7.198116,"website":"https://www.laroquettesurvar.fr/","hasWebsite":true,"hasHoraires":true,"url":"https://lannuaire.service-public.gouv.fr/provence-alpes-cote-d-azur/alpes-maritimes/8d65c559-a050-4822-ae63-57f1003f094f"}
{"nom":"La Tour","nomNormalise":"latour","typeCollectivite":"Commune","region":"Provence-Alpes-Côte d'Azur","departement":"Alpes-Maritimes","departementCode":"06","adresse":{"street":"Grand'place","postalCode":"06420","city":"La Tour","country":"France"},"contacts":{"email":"secretariat@mairielatour.org","telephone":"0493020527"},"horaires":"Du Lundi au Jeudi : de 09h00 à 12h00\nLe Vendredi : de 16h00 à 19h00","latitude":43.94617,"longitude":7.184039,"website":"https://www.latoursurtinee.fr/","hasWebsite":true,"hasHoraires":true,"url":"https://lannuaire.service-public.gouv.fr/provence-alpes-cote-d-azur/alpes-maritimes/f89d81f5-d3fb-4f75-a652-7b7ea9d24314"}
{"nom":"La Trinité","nomNormalise":"latrinite","typeCollectivite":"Commune","region":"Provence-Alpes-Côte d'Azur","departement":"Alpes-Maritimes","departementCode":"06","adresse":{"street":"19 rue de l'Hôtel-de-Ville","postalCode":"06340","city":"La Trinité","country":"France"},"contacts":{"email":"service.courrier@villelt.fr","telephone":"0493276400"},"horaires":"Du Lundi au Vendredi : de 08h30 à 12h00 de 13h00 à 17h00\nLe Samedi : de 08h30 à 12h00\n\nAccueil ouvert uniquement pour l'état civil.","latitude":43.743114,"longitude":7.313764,"website":"https://villedelatrinite.fr/","hasWebsite":true,"hasHoraires":true,"url":"https://lannuaire.service-public.gouv.fr/provence-alpes-cote-d-azur/alpes-maritimes/ab60433c-e377-45aa-957e-6193d68cb2c1"}
{"nom":"La Turbie","nomNormalise":"laturbie","typeCollectivite":"Commune","region":"Provence-Alpes-Côte d'Azur","departement":"Alpes-Maritimes","departementCode":"06","adresse":{"street":"27 avenue de la Victoire","postalCode":"06320","city":"La Turbie","country":"France"},"contacts":{"email":"accueil@ville-la-turbie.fr","telephone":"0492415161"},"horaires":"Du Lundi au Vendredi : de 08h30 à 12h00 de 14h00 à 17h00\nAccueil ouvert sur rendez-vous uniquement.","latitude":43.74539,"longitude":7.399633,"website":"https://www.ville-la-turbie.fr/","hasWebsite":true,"hasHoraires":true,"url":"https://lannuaire.service-public.gouv.fr/provence-alpes-cote-d-azur/alpes-maritimes/5bc9c693-c5b1-42e9-9669-d4a5d0977fe2"}
{"nom":"Le Bar-sur-Loup","nomNormalise":"lebarsurloup","typeCollectivite":"Commune","region":"Provence-Alpes-Côte d'Azur","departement":"Alpes-Maritimes","departementCode":"06","adresse":{"street":"Place de la Tour","postalCode":"06620","city":"Le Bar-sur-Loup","country":"France"},"contacts":{"email":"accueil@lebarsurloup.fr","telephone":"0492603570"},"horaires":"Du Lundi au Jeudi : de 08h30 à 12h30 de 13h30 à 16h30\nLe Vendredi : de 08h30 à 12h30","latitude":43.701466,"longitude":6.9892187,"website":"https://www.lebarsurloup.fr/","hasWebsite":true,"hasHoraires":true,"url":"https://lannuaire.service-public.gouv.fr/provence-alpes-cote-d-azur/alpes-maritimes/0df63e40-3d42-437d-a670-5719ff4d7833"}
{"nom":"Le Broc","nomNormalise":"lebroc","typeCollectivite":"Commune","region":"Provence-Alpes-Côte d'Azur","departement":"Alpes-Maritimes","departementCode":"06","adresse":{"street":"1 place de l'Hôtel-de-Ville","postalCode":"06510","city":"Le Broc","country":"France"},"contacts":{"email":"contact@lebroc.fr","telephone":"0492082730"},"horaires":"Du Lundi au Vendredi : de 09h00 à 12h00 de 14h00 à 16h30","latitude":43.80854,"longitude":7.17074,"website":"https://www.lebroc.fr/","hasWebsite":true,"hasHoraires":true,"url":"https://lannuaire.service-public.gouv.fr/provence-alpes-cote-d-azur/alpes-maritimes/16d079f3-aa86-4988-87d3-8a183b29dd2c"}
{"nom":"Le Cannet","nomNormalise":"lecannet","typeCollectivite":"Commune","region":"Provence-Alpes-Côte d'Azur","departement":"Alpes-Maritimes","departementCode":"06","adresse":{"street":"20 boulevard Sadi-Carnot","postalCode":"06115","city":"Le Cannet","country":"France"},"contacts":{"email":"contact@mairie-le-cannet.fr","telephone":"0492182000"},"horaires":"Du Lundi au Vendredi : de 08h30 à 17h00","latitude":43.57047,"longitude":7.016513,"website":"https://www.lecannet.fr/","hasWebsite":true,"hasHoraires":true,"url":"https://lannuaire.service-public.gouv.fr/provence-alpes-cote-d-azur/alpes-maritimes/75053587-9fed-4489-b0bd-876e9c148d17"}
{"nom":"Le Mas","nomNormalise":"lemas","typeCollectivite":"Commune","region":"Provence-Alpes-Côte d'Azur","departement":"Alpes-Maritimes","departementCode":"06","adresse":{"street":"16 route de Saint-Auban","postalCode":"06910","city":"Le Mas","country":"France"},"contacts":{"email":"secretariatlemas@gmail.com","telephone":"0493604029"},"horaires":"Du Lundi au Mardi : de 08h30 à 12h30 de 13h30 à 18h30\nLe Jeudi : de 08h30 à 12h30 de 13h30 à 18h30\nLe Vendredi : de 08h30 à 12h30 de 13h30 à 17h30","latitude":43.843082,"longitude":6.858767,"website":"http://www.commune-lemas.fr/","hasWebsite":true,"hasHoraires":true,"url":"https://lannuaire.service-public.gouv.fr/provence-alpes-cote-d-azur/alpes-maritimes/609c8c83-4430-4f43-90a5-d92929377954"}
{"nom":"Le Rouret","nomNormalise":"lerouret","typeCollectivite":"Commune","region":"Provence-Alpes-Côte d'Azur","departement":"Alpes-Maritimes","departementCode":"06","adresse":{"street":"Allée des Anciens-Combattants","postalCode":"06650","city":"Le Rouret","country":"France"},"contacts":{"email":"contact@mairie-lerouret.fr","telephone":"0493772002"},"horaires":"Du Lundi au Mardi : de 08h00 à 12h30 de 13h30 à 17h00\nLe Mercredi : de 08h00 à 12h00\nLe Jeudi : de 08h00 à 12h30 de 13h30 à 17h30\nLe Vendredi : de 08h00 à 12h30 de 13h30 à 15h30","latitude":43.674446,"longitude":7.0064383,"website":"https://lerouret.fr/","hasWebsite":true,"hasHoraires":true,"url":"https://lannuaire.service-public.gouv.fr/provence-alpes-cote-d-azur/alpes-maritimes/62997004-0485-4c16-b8bb-cf2c18a3d8d7"}
{"nom":"Les Ferres","nomNormalise":"lesferres","typeCollectivite":"Commune","region":"Provence-Alpes-Côte d'Azur","departement":"Alpes-Maritimes","departementCode":"06","adresse":{"street":"5 route du Mont-Saint-Michel","postalCode":"06510","city":"Les Ferres","country":"France"},"contacts":{"email":"commune-de-les-ferres@orange.fr","telephone":"0493590810"},"horaires":"Le Lundi : de 08h30 à 17h00\nLe Vendredi : de 08h30 à 17h00","latitude":43.846653,"longitude":7.093229,"website":"https://www.lesferres.fr/","hasWebsite":true,"hasHoraires":true,"url":"https://lannuaire.service-public.gouv.fr/provence-alpes-cote-d-azur/alpes-maritimes/7660e130-6e62-4bf4-bd9a-3427359e4198"}
{"nom":"Les Mujouls","nomNormalise":"lesmujouls","typeCollectivite":"Commune","region":"Provence-Alpes-Côte d'Azur","departement":"Alpes-Maritimes","departementCode":"06","adresse":{"street":"1 place Noël-Rainéro","postalCode":"06910","city":"Les Mujouls","country":"France"},"contacts":{"email":"mairielesmujouls@nordnet.fr","telephone":"0493058062"},"horaires":"Du Jeudi au Vendredi : de 09h00 à 16h00","latitude":43.883556,"longitude":6.862364,"website":"","hasWebsite":false,"hasHoraires":true,"url":"https://lannuaire.service-public.gouv.fr/provence-alpes-cote-d-azur/alpes-maritimes/6029acf5-9e5a-4f60-894a-f357d3d433de"}
{"nom":"Le Tignet","nomNormalise":"letignet","typeCollectivite":"Commune","region":"Provence-Alpes-Côte d'Azur","departement":"Alpes-Maritimes","departementCode":"06","adresse":{"street":"Avenue de l'Hôtel-de-Ville","postalCode":"06530","city":"Le Tignet","country":"France"},"contacts":{"email":"mairie@letignet.fr","telephone":"0493666666"},"horaires":"Le Lundi : de 08h30 à 12h00 de 13h30 à 17h00\nDu Mardi au Mercredi : de 08h30 à 12h00\nLe Jeudi : de 08h30 à 12h00 de 13h30 à 17h00\nLe Vendredi : de 08h30 à 12h00","latitude":43.639996,"longitude":6.846153,"website":"https://www.letignet.fr/","hasWebsite":true,"hasHoraires":true,"url":"https://lannuaire.service-public.gouv.fr/provence-alpes-cote-d-azur/alpes-maritimes/c6dbcddc-6665-4bb6-8ef8-5d8a9460da1c"}
{"nom":"Levens","nomNormalise":"levens","typeCollectivite":"Commune","region":"Provence-Alpes-Côte d'Azur","departement":"Alpes-Maritimes","departementCode":"06","adresse":{"street":"5 place de la République","postalCode":"06670","city":"Levens","country":"France"},"contacts":{"email":"accueil@mairie-levens.fr","telephone":"0493916116"},"horaires":"Le Lundi : de 08h30 à 12h00 de 13h30 à 16h00\nLe Mardi : de 08h30 à 12h00\nDu Mercredi au Vendredi : de 08h30 à 12h00 de 13h30 à 16h00","latitude":43.8589,"longitude":7.22634,"website":"http://www.levens.fr/","hasWebsite":true,"hasHoraires":true,"url":"https://lannuaire.service-public.gouv.fr/provence-alpes-cote-d-azur/alpes-maritimes/9bba262c-91fd-4c83-8f14-2cb7c836394a"}
{"nom":"Lieuche","nomNormalise":"lieuche","typeCollectivite":"Commune","region":"Provence-Alpes-Côte d'Azur","departement":"Alpes-Maritimes","departementCode":"06","adresse":{"street":"14 place Renée-Boetti","postalCode":"06260","city":"Lieuche","country":"France"},"contacts":{"email":"mairie@lieuche.fr","telephone":"0493050150"},"horaires":"Le Jeudi : de 09h00 à 12h00 de 14h00 à 18h00","latitude":43.99599,"longitude":7.015854,"website":"","hasWebsite":false,"hasHoraires":true,"url":"https://lannuaire.service-public.gouv.fr/provence-alpes-cote-d-azur/alpes-maritimes/7f55fa17-d81a-4ea6-8c68-d7f95de5dcbc"}
{"nom":"Lucéram","nomNormalise":"luceram","typeCollectivite":"Commune","region":"Provence-Alpes-Côte d'Azur","departement":"Alpes-Maritimes","departementCode":"06","adresse":{"street":"6 place Adrien-Barralis","postalCode":"06440","city":"Lucéram","country":"France"},"contacts":{"email":"mairie@luceram.fr","telephone":"0493916050"},"horaires":"Du Lundi au Mardi : de 09h00 à 12h00 de 14h00 à 16h00\nLe Mercredi : de 09h00 à 12h00\nDu Jeudi au Vendredi : de 09h00 à 12h00 de 14h00 à 16h00","latitude":43.884033,"longitude":7.3606944,"website":"https://www.luceram.fr/","hasWebsite":true,"hasHoraires":true,"url":"https://lannuaire.service-public.gouv.fr/provence-alpes-cote-d-azur/alpes-maritimes/24cd31a7-4aa9-41b4-8f23-ccf61358683f"}
{"nom":"Malaussène","nomNormalise":"malaussene","typeCollectivite":"Commune","region":"Provence-Alpes-Côte d'Azur","departement":"Alpes-Maritimes","departementCode":"06","adresse":{"street":"3 carriera de l'Escola","postalCode":"06710","city":"Malaussène","country":"France"},"contacts":{"email":"mairie@malaussene.fr","telephone":"0493053400"},"horaires":"Du Lundi au Vendredi : de 09h30 à 12h00","latitude":43.927338,"longitude":7.131118,"website":"","hasWebsite":false,"hasHoraires":true,"url":"https://lannuaire.service-public.gouv.fr/provence-alpes-cote-d-azur/alpes-maritimes/0f673eab-72eb-48a9-8995-f6f92c7c7da4"}
{"nom":"Mandelieu-la-Napoule","nomNormalise":"mandelieulanapoule","typeCollectivite":"Commune","region":"Provence-Alpes-Côte d'Azur","departement":"Alpes-Maritimes","departementCode":"06","adresse":{"street":"Avenue de la République","postalCode":"06210","city":"Mandelieu-la-Napoule","country":"France"},"contacts":{"email":"maire@mairie-mandelieu.fr","telephone":"0492973000"},"horaires":"Du Lundi au Vendredi : de 08h30 à 12h00 de 13h30 à 17h00","latitude":43.541275,"longitude":6.933299,"website":"https://www.mandelieu.fr/","hasWebsite":true,"hasHoraires":true,"url":"https://lannuaire.service-public.gouv.fr/provence-alpes-cote-d-azur/alpes-maritimes/ef50a561-1a53-4b07-9b6c-86aace5151dd"}
{"nom":"Marie","nomNormalise":"marie","typeCollectivite":"Commune","region":"Provence-Alpes-Côte d'Azur","departement":"Alpes-Maritimes","departementCode":"06","adresse":{"street":"Place de la Mairie","postalCode":"06420","city":"Marie","country":"France"},"contacts":{"email":"communedemarie@wanadoo.fr","telephone":"0493020373"},"horaires":"Le Lundi : de 09h00 à 17h00\nDu Mercredi au Jeudi : de 09h00 à 17h00","latitude":44.031864,"longitude":7.134529,"website":"http://www.ville-marie.fr/","hasWebsite":true,"hasHoraires":true,"url":"https://lannuaire.service-public.gouv.fr/provence-alpes-cote-d-azur/alpes-maritimes/972b60b8-261f-40dd-8e30-1a098e657e40"}
{"nom":"Massoins","nomNormalise":"massoins","typeCollectivite":"Commune","region":"Provence-Alpes-Côte d'Azur","departement":"Alpes-Maritimes","departementCode":"06","adresse":{"street":"Hôtel de Ville","postalCode":"06710","city":"Massoins","country":"France"},"contacts":{"email":"massoins.mairie@wanadoo.fr","telephone":"0493057255"},"horaires":"Du Lundi au Vendredi : de 09h30 à 12h30 de 13h30 à 16h30","latitude":43.94139,"longitude":7.125398,"website":"https://www.massoins.fr/","hasWebsite":true,"hasHoraires":true,"url":"https://lannuaire.service-public.gouv.fr/provence-alpes-cote-d-azur/alpes-maritimes/13e13c0b-5150-42d9-a4cc-342ab42218e7"}
{"nom":"Menton","nomNormalise":"menton","typeCollectivite":"Commune","region":"Provence-Alpes-Côte d'Azur","departement":"Alpes-Maritimes","departementCode":"06","adresse":{"street":"17 rue de la République","postalCode":"06500","city":"Menton","country":"France"},"contacts":{"email":"mairie@ville-menton.fr","telephone":"0492105000"},"horaires":"Du Lundi au Vendredi : de 08h30 à 12h30 de 13h30 à 17h00","latitude":43.775528,"longitude":7.502842,"website":"https://www.menton.fr/","hasWebsite":true,"hasHoraires":true,"url":"https://lannuaire.service-public.gouv.fr/provence-alpes-cote-d-azur/alpes-maritimes/5722d047-8ca8-4047-859f-81ae5d591fa1"}
{"nom":"Mouans-Sartoux","nomNormalise":"mouanssartoux","typeCollectivite":"Commune","region":"Provence-Alpes-Côte d'Azur","departement":"Alpes-Maritimes","departementCode":"06","adresse":{"street":"3 Place du Général-de-Gaulle","postalCode":"06371","city":"Mouans-Sartoux","country":"France"},"contacts":{"email":"mairie@mouans-sartoux.net","telephone":"0492924700"},"horaires":"Du Lundi au Vendredi : de 08h30 à 12h30 de 13h30 à 17h00","latitude":43.620457,"longitude":6.970494,"website":"http://www.mouans-sartoux.net/","hasWebsite":true,"hasHoraires":true,"url":"https://lannuaire.service-public.gouv.fr/provence-alpes-cote-d-azur/alpes-maritimes/3f9f42a9-1c64-40f4-a661-316c2ebf91e8"}
{"nom":"Mougins","nomNormalise":"mougins","typeCollectivite":"Commune","region":"Provence-Alpes-Côte d'Azur","departement":"Alpes-Maritimes","departementCode":"06","adresse":{"street":"72 chemin de l'Horizon","postalCode":"06251","city":"Mougins Cedex","country":"France"},"contacts":{"email":"cabinet@villedemougins.com","telephone":"0492925000"},"horaires":"Du Lundi au Vendredi : de 08h00 à 16h30","latitude":43.599163,"longitude":6.994952,"website":"https://mougins.fr/","hasWebsite":true,"hasHoraires":true,"url":"https://lannuaire.service-public.gouv.fr/provence-alpes-cote-d-azur/alpes-maritimes/596ba8f7-40fd-4de0-ac42-8040d26619b3"}
{"nom":"Moulinet","nomNormalise":"moulinet","typeCollectivite":"Commune","region":"Provence-Alpes-Côte d'Azur","departement":"Alpes-Maritimes","departementCode":"06","adresse":{"street":"2 Place Saint-Joseph","postalCode":"06380","city":"Moulinet","country":"France"},"contacts":{"email":"secretaire.moulinet@gmail.com","telephone":"0493048007"},"horaires":"Le Lundi : de 14h00 à 17h00\nLe Mardi : de 09h00 à 10h00\nLe Mercredi : de 09h00 à 12h00\nLe Jeudi : de 10h30 à 12h00","latitude":43.9409,"longitude":7.41306,"website":"http://www.moulinet.net/","hasWebsite":true,"hasHoraires":true,"url":"https://lannuaire.service-public.gouv.fr/provence-alpes-cote-d-azur/alpes-maritimes/0f0bb2d3-11a2-4100-a42f-f550faa5fb30"}
{"nom":"Nice","nomNormalise":"nice","typeCollectivite":"Commune","region":"Provence-Alpes-Côte d'Azur","departement":"Alpes-Maritimes","departementCode":"06","adresse":{"street":"5 rue de l'Hôtel-de-Ville","postalCode":"06364","city":"Nice","country":"France"},"contacts":{"email":"","telephone":"03906"},"horaires":"Du Lundi au Vendredi : de 08h30 à 17h00","latitude":43.696114,"longitude":7.271782,"website":"https://www.nice.fr/fr/","hasWebsite":true,"hasHoraires":true,"url":"https://lannuaire.service-public.gouv.fr/provence-alpes-cote-d-azur/alpes-maritimes/53bcfa2d-22c7-4d3b-9365-1cb02ebb4a88"}
{"nom":"Opio","nomNormalise":"opio","typeCollectivite":"Commune","region":"Provence-Alpes-Côte d'Azur","departement":"Alpes-Maritimes","departementCode":"06","adresse":{"street":"Place de la Liberté","postalCode":"06650","city":"Opio","country":"France"},"contacts":{"email":"accueil@mairie-opio.fr","telephone":"0493772318"},"horaires":"Du Lundi au Vendredi : de 13h30 à 17h30\nLe service urbanisme est ouvert uniquement le lundi, mardi, jeudi et vendredi de 13h30 à 17h15.","latitude":43.66877,"longitude":6.9818897,"website":"https://mairie-opio.fr/","hasWebsite":true,"hasHoraires":true,"url":"https://lannuaire.service-public.gouv.fr/provence-alpes-cote-d-azur/alpes-maritimes/8d6ea009-67a3-414f-b973-fa72d77d1870"}
{"nom":"Pégomas","nomNormalise":"pegomas","typeCollectivite":"Commune","region":"Provence-Alpes-Côte d'Azur","departement":"Alpes-Maritimes","departementCode":"06","adresse":{"street":"169 avenue de Grasse","postalCode":"06580","city":"Pégomas","country":"France"},"contacts":{"email":"contact@villedepegomas.fr","telephone":"0493422222"},"horaires":"Du Lundi au Vendredi : de 08h30 à 12h30 de 13h30 à 16h30","latitude":43.59369,"longitude":6.928587,"website":"https://villedepegomas.com/","hasWebsite":true,"hasHoraires":true,"url":"https://lannuaire.service-public.gouv.fr/provence-alpes-cote-d-azur/alpes-maritimes/93d3fd3a-3a36-45fc-9b52-f38ef131beb3"}
{"nom":"Peille","nomNormalise":"peille","typeCollectivite":"Commune","region":"Provence-Alpes-Côte d'Azur","departement":"Alpes-Maritimes","departementCode":"06","adresse":{"street":"Place Carnot","postalCode":"06440","city":"Peille","country":"France"},"contacts":{"email":"mairie@peille.fr","telephone":"0493917171"},"horaires":"Du Lundi au Vendredi : de 08h30 à 12h00","latitude":43.8031,"longitude":7.402676,"website":"https://www.peille.fr/","hasWebsite":true,"hasHoraires":true,"url":"https://lannuaire.service-public.gouv.fr/provence-alpes-cote-d-azur/alpes-maritimes/cd926a63-ef96-4c96-ac8e-1d3c55cdd789"}
{"nom":"Peillon","nomNormalise":"peillon","typeCollectivite":"Commune","region":"Provence-Alpes-Côte d'Azur","departement":"Alpes-Maritimes","departementCode":"06","adresse":{"street":"672 avenue de l'Hôtel-de-Ville","postalCode":"06440","city":"Peillon","country":"France"},"contacts":{"email":"mairie@peillon.fr","telephone":"0493799104"},"horaires":"Du Lundi au Vendredi : de 08h00 à 12h00","latitude":43.777847,"longitude":7.381096,"website":"http://www.peillon.fr/","hasWebsite":true,"hasHoraires":true,"url":"https://lannuaire.service-public.gouv.fr/provence-alpes-cote-d-azur/alpes-maritimes/b9633a6c-b70a-4047-aba0-1fecd27695b1"}
{"nom":"Péone","nomNormalise":"peone","typeCollectivite":"Commune","region":"Provence-Alpes-Côte d'Azur","departement":"Alpes-Maritimes","departementCode":"06","adresse":{"street":"26 place Thomas-Guérin","postalCode":"06470","city":"Péone","country":"France"},"contacts":{"email":"commune-de-peone@orange.fr","telephone":"0493025989"},"horaires":"Le Lundi : de 08h30 à 12h00\nLe Mardi : de 08h30 à 12h00 de 13h30 à 17h00\nLe Mercredi : de 08h30 à 12h00\nLe Jeudi : de 08h30 à 12h00 de 13h30 à 17h00\nLe Vendredi : de 08h30 à 12h00","latitude":44.11637,"longitude":6.906687,"website":"https://lapagelocale.fr/06470-peone","hasWebsite":true,"hasHoraires":true,"url":"https://lannuaire.service-public.gouv.fr/provence-alpes-cote-d-azur/alpes-maritimes/d31f4ba8-4c11-46a9-ace3-5658df38b370"}
{"nom":"Peymeinade","nomNormalise":"peymeinade","typeCollectivite":"Commune","region":"Provence-Alpes-Côte d'Azur","departement":"Alpes-Maritimes","departementCode":"06","adresse":{"street":"11 boulevard du Général-de-Gaulle","postalCode":"06530","city":"Peymeinade","country":"France"},"contacts":{"email":"mairie@peymeinade.fr","telephone":"0493661005"},"horaires":"Du Lundi au Vendredi : de 08h00 à 12h00 de 13h30 à 17h00","latitude":43.642445,"longitude":6.875725,"website":"https://peymeinade.fr/","hasWebsite":true,"hasHoraires":true,"url":"https://lannuaire.service-public.gouv.fr/provence-alpes-cote-d-azur/alpes-maritimes/40104b0e-6ea0-4867-adff-97b2b4b8ff19"}
{"nom":"Pierlas","nomNormalise":"pierlas","typeCollectivite":"Commune","region":"Provence-Alpes-Côte d'Azur","departement":"Alpes-Maritimes","departementCode":"06","adresse":{"street":"Place Robini","postalCode":"06260","city":"Pierlas","country":"France"},"contacts":{"email":"contact@mairie-pierlas.com","telephone":"0483108051"},"horaires":"Le Mardi : de 09h00 à 16h00\nLe Jeudi : de 09h00 à 16h00","latitude":44.03137,"longitude":7.035473,"website":"https://www.pierlas.fr/","hasWebsite":true,"hasHoraires":true,"url":"https://lannuaire.service-public.gouv.fr/provence-alpes-cote-d-azur/alpes-maritimes/894b53c0-1433-4fd9-9ea7-e8f7d2e582c7"}
{"nom":"Pierrefeu","nomNormalise":"pierrefeu","typeCollectivite":"Commune","region":"Provence-Alpes-Côte d'Azur","departement":"Alpes-Maritimes","departementCode":"06","adresse":{"street":"36 route du Vieux-Pierrefeu","postalCode":"06910","city":"Pierrefeu","country":"France"},"contacts":{"email":"mairie@pierrefeu-06.fr","telephone":"0493085818"},"horaires":"Du Lundi au Vendredi : de 08h30 à 12h00","latitude":43.863857,"longitude":7.091883,"website":"http://pierrefeu-06.fr/","hasWebsite":true,"hasHoraires":true,"url":"https://lannuaire.service-public.gouv.fr/provence-alpes-cote-d-azur/alpes-maritimes/6f2214d4-ab02-48d3-8ff6-6df4186f4587"}
{"nom":"Puget-Rostang","nomNormalise":"pugetrostang","typeCollectivite":"Commune","region":"Provence-Alpes-Côte d'Azur","departement":"Alpes-Maritimes","departementCode":"06","adresse":{"street":"Place des Tilleuls","postalCode":"06260","city":"Puget-Rostang","country":"France"},"contacts":{"email":"mairie.puget.rostang@wanadoo.fr","telephone":"0493050397"},"horaires":"Du Lundi au Mardi : de 09h00 à 17h00\nLe Jeudi : de 09h00 à 17h00","latitude":43.973873,"longitude":6.917236,"website":"","hasWebsite":false,"hasHoraires":true,"url":"https://lannuaire.service-public.gouv.fr/provence-alpes-cote-d-azur/alpes-maritimes/71e3930d-0af3-4b6e-a98f-711ef2efc825"}
{"nom":"Puget-Theniers","nomNormalise":"pugettheniers","typeCollectivite":"Commune","region":"Provence-Alpes-Côte d'Azur","departement":"Alpes-Maritimes","departementCode":"06","adresse":{"street":"Place Adolphe-Conil","postalCode":"06260","city":"Puget-Theniers","country":"France"},"contacts":{"email":"mairie@puget-theniers.fr","telephone":"0493050029"},"horaires":"Du Lundi au Vendredi : de 08h30 à 12h00 de 14h00 à 16h00","latitude":43.955757,"longitude":6.8937364,"website":"http://www.puget-theniers.fr/","hasWebsite":true,"hasHoraires":true,"url":"https://lannuaire.service-public.gouv.fr/provence-alpes-cote-d-azur/alpes-maritimes/d6ffe9c7-7f6d-4835-ae4a-f21c83e62657"}
{"nom":"Revest-les-Roches","nomNormalise":"revestlesroches","typeCollectivite":"Commune","region":"Provence-Alpes-Côte d'Azur","departement":"Alpes-Maritimes","departementCode":"06","adresse":{"street":"3 place Saint-Laurent","postalCode":"06830","city":"Revest-les-Roches","country":"France"},"contacts":{"email":"mairie.revestlesroches@wanadoo.fr","telephone":"0493085572"},"horaires":"Le Mardi : de 09h00 à 12h00 de 14h00 à 18h00\nLe Vendredi : de 09h00 à 12h00 de 14h00 à 18h00","latitude":43.8814,"longitude":7.15607,"website":"http://www.mairie-revestlesroches.fr/","hasWebsite":true,"hasHoraires":true,"url":"https://lannuaire.service-public.gouv.fr/provence-alpes-cote-d-azur/alpes-maritimes/cea93db3-0e9f-496e-877b-68a308c1b490"}
{"nom":"Rigaud","nomNormalise":"rigaud","typeCollectivite":"Commune","region":"Provence-Alpes-Côte d'Azur","departement":"Alpes-Maritimes","departementCode":"06","adresse":{"street":"1 place Yvan-Féraud","postalCode":"06260","city":"Rigaud","country":"France"},"contacts":{"email":"commune.rigaud@wanadoo.fr","telephone":"0493050337"},"horaires":"Le Mardi : de 09h00 à 12h00 de 14h00 à 17h00\nLe Mercredi : de 09h00 à 12h30\nDu Jeudi au Vendredi : de 09h00 à 12h30 de 14h00 à 17h00\nLe Samedi : de 09h00 à 12h30","latitude":43.99024,"longitude":6.991647,"website":"","hasWebsite":false,"hasHoraires":true,"url":"https://lannuaire.service-public.gouv.fr/provence-alpes-cote-d-azur/alpes-maritimes/3e6d5ef2-aae2-4e67-a3b7-b9409e726485"}
{"nom":"Rimplas","nomNormalise":"rimplas","typeCollectivite":"Commune","region":"Provence-Alpes-Côte d'Azur","departement":"Alpes-Maritimes","departementCode":"06","adresse":{"street":"3 promenade Saint-Roch","postalCode":"06420","city":"Rimplas","country":"France"},"contacts":{"email":"mairie@ville-rimplas.fr","telephone":"0493028093"},"horaires":"Du Lundi au Mardi : de 09h00 à 13h00\nDu Jeudi au Vendredi : de 09h00 à 13h00\n\nAccueil téléphonique de 13h à 16h.","latitude":44.063217,"longitude":7.130899,"website":"https://www.ville-rimplas.fr/","hasWebsite":true,"hasHoraires":true,"url":"https://lannuaire.service-public.gouv.fr/provence-alpes-cote-d-azur/alpes-maritimes/3043708c-0a74-4855-b8a1-3d0b84406346"}
{"nom":"Roquebillière","nomNormalise":"roquebilliere","typeCollectivite":"Commune","region":"Provence-Alpes-Côte d'Azur","departement":"Alpes-Maritimes","departementCode":"06","adresse":{"street":"Place Corniglion-Molinier","postalCode":"06450","city":"Roquebillière","country":"France"},"contacts":{"email":"val.roq@wanadoo.fr","telephone":"0493036060"},"horaires":"Du Lundi au Mardi : de 08h30 à 12h00 de 13h30 à 17h30\nLe Mercredi : de 08h30 à 12h00\nDu Jeudi au Vendredi : de 08h30 à 12h00 de 13h30 à 17h30","latitude":44.012,"longitude":7.30815,"website":"","hasWebsite":false,"hasHoraires":true,"url":"https://lannuaire.service-public.gouv.fr/provence-alpes-cote-d-azur/alpes-maritimes/dae8be19-89b3-4c16-9c00-259711388b33"}
{"nom":"Roquebrune-Cap-Martin","nomNormalise":"roquebrunecapmartin","typeCollectivite":"Commune","region":"Provence-Alpes-Côte d'Azur","departement":"Alpes-Maritimes","departementCode":"06","adresse":{"street":"22 avenue Paul-Doumer","postalCode":"06190","city":"Roquebrune-Cap-Martin","country":"France"},"contacts":{"email":"","telephone":"0492104848"},"horaires":"Du Lundi au Vendredi : de 08h30 à 12h00 de 13h30 à 17h00","latitude":43.757816,"longitude":7.473635,"website":"https://roquebrune-cap-martin.fr/","hasWebsite":true,"hasHoraires":true,"url":"https://lannuaire.service-public.gouv.fr/provence-alpes-cote-d-azur/alpes-maritimes/b9732a35-57b5-478c-91a9-3004e56db9e8"}
{"nom":"Roquefort-les-Pins","nomNormalise":"roquefortlespins","typeCollectivite":"Commune","region":"Provence-Alpes-Côte d'Azur","departement":"Alpes-Maritimes","departementCode":"06","adresse":{"street":"1 place Jean-Antoine-Merle","postalCode":"06330","city":"Roquefort-les-Pins","country":"France"},"contacts":{"email":"mairie@ville-roquefort-les-pins.fr","telephone":"0492603500"},"horaires":"Du Lundi au Vendredi : de 08h00 à 12h30 de 13h30 à 17h00\nEn continue le mercredi.","latitude":43.665844,"longitude":7.0508704,"website":"https://www.ville-roquefort-les-pins.fr/","hasWebsite":true,"hasHoraires":true,"url":"https://lannuaire.service-public.gouv.fr/provence-alpes-cote-d-azur/alpes-maritimes/b67404b1-04b5-4f8b-beda-260bc7a7c9c9"}
{"nom":"Roquestéron","nomNormalise":"roquesteron","typeCollectivite":"Commune","region":"Provence-Alpes-Côte d'Azur","departement":"Alpes-Maritimes","departementCode":"06","adresse":{"street":"1 rue du Pont-de-France","postalCode":"06910","city":"Roquestéron","country":"France"},"contacts":{"email":"mairie.de.roquesteron@wanadoo.fr","telephone":"0493059292"},"horaires":"Du Lundi au Mardi : de 08h30 à 12h00 de 13h30 à 16h30\nLe Mercredi : de 08h30 à 12h00 de 13h30 à 17h00\nDu Jeudi au Vendredi : de 08h30 à 12h00 de 13h30 à 16h30","latitude":43.874077,"longitude":7.005591,"website":"https://www.roquesteron.fr/","hasWebsite":true,"hasHoraires":true,"url":"https://lannuaire.service-public.gouv.fr/provence-alpes-cote-d-azur/alpes-maritimes/82b6532b-f1b8-4ccf-8810-d452ea76e587"}
{"nom":"Roubion","nomNormalise":"roubion","typeCollectivite":"Commune","region":"Provence-Alpes-Côte d'Azur","departement":"Alpes-Maritimes","departementCode":"06","adresse":{"street":"Hôtel de Ville","postalCode":"06420","city":"Roubion","country":"France"},"contacts":{"email":"secretariat@roubion.com","telephone":"0493020048"},"horaires":"Du Vendredi au Samedi : de 14h00 à 17h00","latitude":44.092583,"longitude":7.050677,"website":"http://www.roubion.com/","hasWebsite":true,"hasHoraires":true,"url":"https://lannuaire.service-public.gouv.fr/provence-alpes-cote-d-azur/alpes-maritimes/6e187821-f259-4627-9095-4dc2d4a1983c"}
{"nom":"Roure","nomNormalise":"roure","typeCollectivite":"Commune","region":"Provence-Alpes-Côte d'Azur","departement":"Alpes-Maritimes","departementCode":"06","adresse":{"street":"Place André-Ségur","postalCode":"06420","city":"Roure","country":"France"},"contacts":{"email":"mairie.roure@wanadoo.fr","telephone":"0493020070"},"horaires":"Du Lundi au Mardi : de 14h30 à 16h30\nDu Jeudi au Vendredi : de 14h30 à 16h30","latitude":44.08991,"longitude":7.0874667,"website":"https://www.roure.fr/","hasWebsite":true,"hasHoraires":true,"url":"https://lannuaire.service-public.gouv.fr/provence-alpes-cote-d-azur/alpes-maritimes/97ba84f2-386d-4c1f-8051-66abdce0b54e"}
{"nom":"Saint-André-de-la-Roche","nomNormalise":"saintandredelaroche","typeCollectivite":"Commune","region":"Provence-Alpes-Côte d'Azur","departement":"Alpes-Maritimes","departementCode":"06","adresse":{"street":"21 boulevard du 8-Mai-1945","postalCode":"06730","city":"Saint-André-de-la-Roche","country":"France"},"contacts":{"email":"contact@sadlr.fr","telephone":"0493277100"},"horaires":"Du Lundi au Vendredi : de 08h30 à 12h00 de 13h00 à 16h45","latitude":43.73859,"longitude":7.2877746,"website":"https://saintandredelaroche.fr/","hasWebsite":true,"hasHoraires":true,"url":"https://lannuaire.service-public.gouv.fr/provence-alpes-cote-d-azur/alpes-maritimes/31bdda14-9175-4391-bcb2-e036f8d4e066"}
{"nom":"Saint-Antonin","nomNormalise":"saintantonin","typeCollectivite":"Commune","region":"Provence-Alpes-Côte d'Azur","departement":"Alpes-Maritimes","departementCode":"06","adresse":{"street":"Place Georges-Meyffret","postalCode":"06260","city":"Saint-Antonin","country":"France"},"contacts":{"email":"mairie.saintantonin@orange.fr","telephone":"0493058413"},"horaires":"Le Mardi : de 09h00 à 13h00 de 13h30 à 17h30\nLe Mercredi : de 08h30 à 12h30\nLe Jeudi : de 09h00 à 13h00 de 13h30 à 17h30\nLe Samedi : de 08h30 à 12h30\n\nContacter l'accueil avant de se déplacer.","latitude":43.91063,"longitude":6.979364,"website":"","hasWebsite":false,"hasHoraires":true,"url":"https://lannuaire.service-public.gouv.fr/provence-alpes-cote-d-azur/alpes-maritimes/7cfc207a-55f9-45fb-b5b4-bdb3f2493629"}
{"nom":"Saint-Auban","nomNormalise":"saintauban","typeCollectivite":"Commune","region":"Provence-Alpes-Côte d'Azur","departement":"Alpes-Maritimes","departementCode":"06","adresse":{"street":"9 place Don-Jean-Bellon","postalCode":"06850","city":"Saint-Auban","country":"France"},"contacts":{"email":"mairie@saintauban.fr","telephone":"0493604320"},"horaires":"Du Lundi au Mardi : de 09h00 à 12h00 de 14h00 à 17h00\nDu Jeudi au Vendredi : de 09h00 à 12h00 de 14h00 à 18h00\nLe Samedi : de 09h00 à 12h00","latitude":43.848534,"longitude":6.7264714,"website":"https://www.saintauban.fr/","hasWebsite":true,"hasHoraires":true,"url":"https://lannuaire.service-public.gouv.fr/provence-alpes-cote-d-azur/alpes-maritimes/0c04888e-b93b-4013-8040-1c1b3a462fea"}
{"nom":"Saint-Blaise","nomNormalise":"saintblaise","typeCollectivite":"Commune","region":"Provence-Alpes-Côte d'Azur","departement":"Alpes-Maritimes","departementCode":"06","adresse":{"street":"11 place de l'Église","postalCode":"06670","city":"Saint-Blaise","country":"France"},"contacts":{"email":"contact@mairie-saint-blaise06.fr","telephone":"0493797293"},"horaires":"Le Lundi : de 08h30 à 11h30\nLe Mercredi : de 08h30 à 11h30\nLe Vendredi : de 08h30 à 11h30","latitude":43.8216,"longitude":7.23924,"website":"http://www.mairie-saint-blaise06.fr/","hasWebsite":true,"hasHoraires":true,"url":"https://lannuaire.service-public.gouv.fr/provence-alpes-cote-d-azur/alpes-maritimes/e64653f9-ef56-4de1-b79d-4c0a96073a5c"}
{"nom":"Saint-Cézaire-sur-Siagne","nomNormalise":"saintcezairesursiagne","typeCollectivite":"Commune","region":"Provence-Alpes-Côte d'Azur","departement":"Alpes-Maritimes","departementCode":"06","adresse":{"street":"5 rue de la République","postalCode":"06530","city":"Saint-Cézaire-sur-Siagne","country":"France"},"contacts":{"email":"mairie@saintcezairesursiagne.fr","telephone":"0493405757"},"horaires":"Le Lundi : de 08h30 à 12h00 de 14h00 à 18h00\nLe Mardi : de 08h30 à 12h00\nLe Mercredi : de 08h30 à 12h00 de 14h00 à 17h00\nLe Jeudi : de 08h30 à 12h00\nLe Vendredi : de 08h30 à 12h00 de 14h00 à 17h00","latitude":43.649967,"longitude":6.7924623,"website":"https://www.saintcezairesursiagne.fr/","hasWebsite":true,"hasHoraires":true,"url":"https://lannuaire.service-public.gouv.fr/provence-alpes-cote-d-azur/alpes-maritimes/a20e9b35-5751-4432-bd7c-188504e2ad83"}
{"nom":"Saint-Dalmas-le-Selvage","nomNormalise":"saintdalmasleselvage","typeCollectivite":"Commune","region":"Provence-Alpes-Côte d'Azur","departement":"Alpes-Maritimes","departementCode":"06","adresse":{"street":"51 rue Las-Planas","postalCode":"06660","city":"Saint-Dalmas-le-Selvage","country":"France"},"contacts":{"email":"stdalmas.selv@free.fr","telephone":"0493024101"},"horaires":"Du Lundi au Mardi : de 09h00 à 12h00\nDu Jeudi au Samedi : de 09h00 à 12h00","latitude":44.2836,"longitude":6.8659,"website":"http://www.saintdalmasleselvage.org/","hasWebsite":true,"hasHoraires":true,"url":"https://lannuaire.service-public.gouv.fr/provence-alpes-cote-d-azur/alpes-maritimes/86d4daf6-f258-4a36-b5e8-7d8ee142cd9f"}
{"nom":"Sainte-Agnès","nomNormalise":"sainteagnes","typeCollectivite":"Commune","region":"Provence-Alpes-Côte d'Azur","departement":"Alpes-Maritimes","departementCode":"06","adresse":{"street":"102 place Saint-Jean","postalCode":"06500","city":"Sainte-Agnès","country":"France"},"contacts":{"email":"accueil.mairie@sainteagnes.fr","telephone":"0493358458"},"horaires":"Du Lundi au Vendredi : de 08h00 à 12h30 de 14h00 à 17h00","latitude":43.7891,"longitude":7.46879,"website":"https://www.sainteagnes.fr/","hasWebsite":true,"hasHoraires":true,"url":"https://lannuaire.service-public.gouv.fr/provence-alpes-cote-d-azur/alpes-maritimes/80bbfad3-d650-4063-acff-bd67d7f95bb0"}
{"nom":"Saint-Étienne-de-Tinée","nomNormalise":"saintetiennedetinee","typeCollectivite":"Commune","region":"Provence-Alpes-Côte d'Azur","departement":"Alpes-Maritimes","departementCode":"06","adresse":{"street":"Place de l'Église","postalCode":"06660","city":"Saint-Étienne-de-Tinée","country":"France"},"contacts":{"email":"mairie@saintetiennedetinee.org","telephone":"0493022400"},"horaires":"Du Lundi au Vendredi : de 08h00 à 12h00 de 13h30 à 16h30\nLe Samedi : de 09h00 à 12h00","latitude":44.25587,"longitude":6.925733,"website":"https://saintetiennedetinee.fr/","hasWebsite":true,"hasHoraires":true,"url":"https://lannuaire.service-public.gouv.fr/provence-alpes-cote-d-azur/alpes-maritimes/1ac71778-40c8-438f-aea6-12533ab2d227"}
{"nom":"Saint-Jean-Cap-Ferrat","nomNormalise":"saintjeancapferrat","typeCollectivite":"Commune","region":"Provence-Alpes-Côte d'Azur","departement":"Alpes-Maritimes","departementCode":"06","adresse":{"street":"21 avenue Denis-Semeria","postalCode":"06230","city":"Saint-Jean-Cap-Ferrat","country":"France"},"contacts":{"email":"mairie2@saintjeancapferrat.fr","telephone":"0493765100"},"horaires":"Du Lundi au Vendredi : de 08h30 à 12h00 de 13h30 à 17h00","latitude":43.69168,"longitude":7.33278,"website":"http://www.saint-jean-cap-ferrat.fr/","hasWebsite":true,"hasHoraires":true,"url":"https://lannuaire.service-public.gouv.fr/provence-alpes-cote-d-azur/alpes-maritimes/0a9e0aaf-0f38-4285-abe0-f3dac8a8ea28"}
{"nom":"Saint-Jeannet","nomNormalise":"saintjeannet","typeCollectivite":"Commune","region":"Provence-Alpes-Côte d'Azur","departement":"Alpes-Maritimes","departementCode":"06","adresse":{"street":"54 rue du château","postalCode":"06640","city":"Saint-Jeannet","country":"France"},"contacts":{"email":"","telephone":"0493594945"},"horaires":"Le Lundi : de 09h00 à 12h00 de 14h00 à 17h30","latitude":43.747524,"longitude":7.14287,"website":"https://www.saintjeannet.org/","hasWebsite":true,"hasHoraires":true,"url":"https://lannuaire.service-public.gouv.fr/provence-alpes-cote-d-azur/alpes-maritimes/400bb9cd-fd59-4074-8ec2-e8370be0806d"}
{"nom":"Saint-Laurent-du-Var","nomNormalise":"saintlaurentduvar","typeCollectivite":"Commune","region":"Provence-Alpes-Côte d'Azur","departement":"Alpes-Maritimes","departementCode":"06","adresse":{"street":"222 esplanade du Levant","postalCode":"06700","city":"Saint-Laurent-du-Var","country":"France"},"contacts":{"email":"cabinet.maire@saintlaurentduvar.fr","telephone":"0492124242"},"horaires":"Le Lundi : de 08h30 à 12h15 de 13h30 à 17h00\nLe Mardi : de 08h30 à 12h15 de 13h30 à 18h00\nLe Mercredi : de 08h30 à 12h15 de 13h30 à 17h00\nLe Jeudi : de 08h00 à 12h15\n\n(fermé l’après-midi au public)\nLe Vendredi : de 08h30 à 16h00\n\n(journée continue)\nLe Samedi : de 09h00 à 11h30\n\n(uniquement service Etat Civil)","latitude":43.675026,"longitude":7.19055,"website":"https://saintlaurentduvar.fr/","hasWebsite":true,"hasHoraires":true,"url":"https://lannuaire.service-public.gouv.fr/provence-alpes-cote-d-azur/alpes-maritimes/a10a60b3-8a6e-4840-939e-ccf734acb67c"}
{"nom":"Saint-Léger","nomNormalise":"saintleger","typeCollectivite":"Commune","region":"Provence-Alpes-Côte d'Azur","departement":"Alpes-Maritimes","departementCode":"06","adresse":{"street":"Hôtel de Ville","postalCode":"06260","city":"Saint-Léger","country":"France"},"contacts":{"email":"mairiesaintleger@gmail.com","telephone":"0493051000"},"horaires":"Du Vendredi au Samedi : de 09h00 à 16h00","latitude":44.000427,"longitude":6.827476,"website":"","hasWebsite":false,"hasHoraires":true,"url":"https://lannuaire.service-public.gouv.fr/provence-alpes-cote-d-azur/alpes-maritimes/3957d2fd-2c07-4a10-aef7-32d7c9406cea"}
{"nom":"Saint-Martin-d'Entraunes","nomNormalise":"saintmartindentraunes","typeCollectivite":"Commune","region":"Provence-Alpes-Côte d'Azur","departement":"Alpes-Maritimes","departementCode":"06","adresse":{"street":"Le Village","postalCode":"06470","city":"Saint-Martin-d'Entraunes","country":"France"},"contacts":{"email":"mairie@saint-martin-dentraunes.com","telephone":"0493055104"},"horaires":"Du Lundi au Mardi : de 08h00 à 12h00 de 13h30 à 17h00\nLe Mercredi : de 08h00 à 13h00 de 14h00 à 17h00\nDu Jeudi au Vendredi : de 08h00 à 12h00 de 13h30 à 17h00\nLe Samedi : de 09h00 à 12h00","latitude":44.142593,"longitude":6.761088,"website":"","hasWebsite":false,"hasHoraires":true,"url":"https://lannuaire.service-public.gouv.fr/provence-alpes-cote-d-azur/alpes-maritimes/1fdacee7-2a12-4d1e-a68d-8c8520382703"}
{"nom":"Saint-Martin-du-Var","nomNormalise":"saintmartinduvar","typeCollectivite":"Commune","region":"Provence-Alpes-Côte d'Azur","departement":"Alpes-Maritimes","departementCode":"06","adresse":{"street":"Place Alexis-Maiffredi","postalCode":"06670","city":"Saint-Martin-du-Var","country":"France"},"contacts":{"email":"mairie@saintmartinduvar.fr","telephone":"0492082150"},"horaires":"Du Lundi au Mardi : de 13h00 à 18h00\nDu Jeudi au Vendredi : de 13h00 à 18h00\nService état civil ouvert uniquement de 14h à 18h.","latitude":43.821926,"longitude":7.191766,"website":"https://www.saintmartinduvar.fr/","hasWebsite":true,"hasHoraires":true,"url":"https://lannuaire.service-public.gouv.fr/provence-alpes-cote-d-azur/alpes-maritimes/183aaf8a-65c3-43ce-954b-4602ca8ed5bf"}
{"nom":"Saint-Martin-Vésubie","nomNormalise":"saintmartinvesubie","typeCollectivite":"Commune","region":"Provence-Alpes-Côte d'Azur","departement":"Alpes-Maritimes","departementCode":"06","adresse":{"street":"Place Charles-de-Gaulle","postalCode":"06450","city":"Saint-Martin-Vésubie","country":"France"},"contacts":{"email":"mairie@saintmartinvesubie.fr","telephone":"0493036000"},"horaires":"Du Lundi au Vendredi : de 09h00 à 12h00","latitude":44.069782,"longitude":7.2564898,"website":"https://www.saintmartinvesubie.fr/","hasWebsite":true,"hasHoraires":true,"url":"https://lannuaire.service-public.gouv.fr/provence-alpes-cote-d-azur/alpes-maritimes/dcadc5dd-920b-4ba4-aa5a-35d6a8a8edce"}
{"nom":"Saint-Paul-de-Vence","nomNormalise":"saintpauldevence","typeCollectivite":"Commune","region":"Provence-Alpes-Côte d'Azur","departement":"Alpes-Maritimes","departementCode":"06","adresse":{"street":"1 place de la Mairie","postalCode":"06570","city":"Saint-Paul-de-Vence","country":"France"},"contacts":{"email":"mairie@saint-pauldevence.fr","telephone":"0493324100"},"horaires":"Du Lundi au Mardi : de 09h00 à 12h30 de 13h15 à 16h00\nLe Mercredi : de 09h00 à 12h30 de 13h15 à 16h30\nDu Jeudi au Vendredi : de 09h00 à 12h30 de 13h15 à 16h00","latitude":43.696877,"longitude":7.1221223,"website":"https://www.saintpauldevence.org/","hasWebsite":true,"hasHoraires":true,"url":"https://lannuaire.service-public.gouv.fr/provence-alpes-cote-d-azur/alpes-maritimes/da97c2c0-1797-4e31-b4c8-ba8b5ddcd798"}
{"nom":"Saint-Sauveur-sur-Tinée","nomNormalise":"saintsauveursurtinee","typeCollectivite":"Commune","region":"Provence-Alpes-Côte d'Azur","departement":"Alpes-Maritimes","departementCode":"06","adresse":{"street":"Place de la Mairie","postalCode":"06420","city":"Saint-Sauveur-sur-Tinée","country":"France"},"contacts":{"email":"mairie@saintsauveursurtinee.fr","telephone":"0493020022"},"horaires":"Du Lundi au Mercredi : de 08h30 à 12h00 de 13h30 à 17h00\nLe Vendredi : de 08h30 à 12h00 de 13h30 à 17h00","latitude":44.0826,"longitude":7.10561,"website":"https://www.saintsauveursurtinee.fr/","hasWebsite":true,"hasHoraires":true,"url":"https://lannuaire.service-public.gouv.fr/provence-alpes-cote-d-azur/alpes-maritimes/c72dde6c-e18a-4769-9103-b87207d228ee"}
{"nom":"Saint-Vallier-de-Thiey","nomNormalise":"saintvallierdethiey","typeCollectivite":"Commune","region":"Provence-Alpes-Côte d'Azur","departement":"Alpes-Maritimes","departementCode":"06","adresse":{"street":"2 place de l'Apié","postalCode":"06460","city":"Saint-Vallier-de-Thiey","country":"France"},"contacts":{"email":"mairie@mairie-saintvallierdethiey.fr","telephone":"0492603200"},"horaires":"Du Lundi au Jeudi : de 08h00 à 12h00 de 14h00 à 17h00\nLe Vendredi : de 08h00 à 12h00 de 14h00 à 16h00","latitude":43.6984,"longitude":6.84811,"website":"https://saintvallierdethiey.com/","hasWebsite":true,"hasHoraires":true,"url":"https://lannuaire.service-public.gouv.fr/provence-alpes-cote-d-azur/alpes-maritimes/2f02e54d-737f-4296-98be-8c1dc14e0698"}
{"nom":"Sallagriffon","nomNormalise":"sallagriffon","typeCollectivite":"Commune","region":"Provence-Alpes-Côte d'Azur","departement":"Alpes-Maritimes","departementCode":"06","adresse":{"street":"3 place de la Mairie","postalCode":"06910","city":"Sallagriffon","country":"France"},"contacts":{"email":"mairie.sallagriffon@orange.fr","telephone":"0493058605"},"horaires":"Le Mercredi : de 08h30 à 12h30\nLe Vendredi : de 08h30 à 16h00","latitude":43.88348,"longitude":6.905662,"website":"","hasWebsite":false,"hasHoraires":true,"url":"https://lannuaire.service-public.gouv.fr/provence-alpes-cote-d-azur/alpes-maritimes/d6092026-b1d7-45d0-9eed-fd695955b299"}
{"nom":"Saorge","nomNormalise":"saorge","typeCollectivite":"Commune","region":"Provence-Alpes-Côte d'Azur","departement":"Alpes-Maritimes","departementCode":"06","adresse":{"street":"Avenue du Docteur-Joseph-Daveo","postalCode":"06540","city":"Saorge","country":"France"},"contacts":{"email":"mairie.saorge@wanadoo.fr","telephone":"0493045123"},"horaires":"Du Lundi au Mardi : de 10h00 à 12h00 de 14h00 à 16h00\nLe Mercredi : de 10h00 à 12h00\nDu Jeudi au Vendredi : de 10h00 à 12h00 de 14h00 à 16h00","latitude":43.987877,"longitude":7.550956,"website":"http://www.saorge.fr/","hasWebsite":true,"hasHoraires":true,"url":"https://lannuaire.service-public.gouv.fr/provence-alpes-cote-d-azur/alpes-maritimes/d8774cee-e402-4141-92fc-b73f0da88c0f"}
{"nom":"Sauze","nomNormalise":"sauze","typeCollectivite":"Commune","region":"Provence-Alpes-Côte d'Azur","departement":"Alpes-Maritimes","departementCode":"06","adresse":{"street":"Place Roger-Bottero","postalCode":"06470","city":"Sauze","country":"France"},"contacts":{"email":"mairiesauze06@gmail.com","telephone":"0493055186"},"horaires":"Le Mardi : de 09h30 à 17h00","latitude":44.087868,"longitude":6.8355503,"website":"","hasWebsite":false,"hasHoraires":true,"url":"https://lannuaire.service-public.gouv.fr/provence-alpes-cote-d-azur/alpes-maritimes/a367ea5e-ae0b-47dc-9403-5c8df111a813"}
{"nom":"Séranon","nomNormalise":"seranon","typeCollectivite":"Commune","region":"Provence-Alpes-Côte d'Azur","departement":"Alpes-Maritimes","departementCode":"06","adresse":{"street":"4 rue de la Mairie","postalCode":"06750","city":"Séranon","country":"France"},"contacts":{"email":"mairie@mairiedeseranon.fr","telephone":"0493603040"},"horaires":"Du Lundi au Mardi : de 09h00 à 12h00 de 13h30 à 17h00\nDu Jeudi au Vendredi : de 09h00 à 12h00 de 13h30 à 17h00","latitude":43.774357,"longitude":6.704115,"website":"https://mairiedeseranon.fr/","hasWebsite":true,"hasHoraires":true,"url":"https://lannuaire.service-public.gouv.fr/provence-alpes-cote-d-azur/alpes-maritimes/8b572945-49e6-41fe-a6ab-f9f73d9f9e31"}
{"nom":"Sigale","nomNormalise":"sigale","typeCollectivite":"Commune","region":"Provence-Alpes-Côte d'Azur","departement":"Alpes-Maritimes","departementCode":"06","adresse":{"street":"7 place de l'Église","postalCode":"06910","city":"Sigale","country":"France"},"contacts":{"email":"mairie-sigale@wanadoo.fr","telephone":"0493058352"},"horaires":"Du Lundi au Mardi : de 08h30 à 12h00\nDu Jeudi au Vendredi : de 08h30 à 12h00","latitude":43.8716,"longitude":6.96318,"website":"https://www.sigale.fr/","hasWebsite":true,"hasHoraires":true,"url":"https://lannuaire.service-public.gouv.fr/provence-alpes-cote-d-azur/alpes-maritimes/395238f6-2cf6-485a-a0da-236bc590aa6c"}
{"nom":"Sospel","nomNormalise":"sospel","typeCollectivite":"Commune","region":"Provence-Alpes-Côte d'Azur","departement":"Alpes-Maritimes","departementCode":"06","adresse":{"street":"5 boulevard Première-DFL","postalCode":"06380","city":"Sospel","country":"France"},"contacts":{"email":"secretariat@sospel.fr","telephone":"0493043300"},"horaires":"Du Lundi au Vendredi : de 09h00 à 12h30 de 13h30 à 16h00","latitude":43.87793,"longitude":7.449154,"website":"https://www.sospel.fr/","hasWebsite":true,"hasHoraires":true,"url":"https://lannuaire.service-public.gouv.fr/provence-alpes-cote-d-azur/alpes-maritimes/432d03ca-3602-4f2c-a07a-10c44f0fcdba"}
{"nom":"Spéracèdes","nomNormalise":"speracedes","typeCollectivite":"Commune","region":"Provence-Alpes-Côte d'Azur","departement":"Alpes-Maritimes","departementCode":"06","adresse":{"street":"11 boulevard du Docteur-Sauvy","postalCode":"06530","city":"Spéracèdes","country":"France"},"contacts":{"email":"fmata@speracedes.fr","telephone":"0493605873"},"horaires":"Du Lundi au Jeudi : de 08h30 à 12h00 de 13h30 à 17h00\nLe Vendredi : de 08h00 à 12h00 de 13h00 à 16h00","latitude":43.6478,"longitude":6.85687,"website":"https://www.speracedes.fr/","hasWebsite":true,"hasHoraires":true,"url":"https://lannuaire.service-public.gouv.fr/provence-alpes-cote-d-azur/alpes-maritimes/d399ce8e-86c8-4c23-905f-b7b2b32ea826"}
{"nom":"Tende","nomNormalise":"tende","typeCollectivite":"Commune","region":"Provence-Alpes-Côte d'Azur","departement":"Alpes-Maritimes","departementCode":"06","adresse":{"street":"1 place du Général-de-Gaulle","postalCode":"06430","city":"Tende","country":"France"},"contacts":{"email":"mairie@tende.fr","telephone":"0493043500"},"horaires":"Du Lundi au Vendredi : de 08h45 à 12h00 de 13h30 à 16h30","latitude":44.088963,"longitude":7.593418,"website":"https://www.tende.fr/","hasWebsite":true,"hasHoraires":true,"url":"https://lannuaire.service-public.gouv.fr/provence-alpes-cote-d-azur/alpes-maritimes/66c5d853-1111-4373-bc9e-229e401fcb44"}
{"nom":"Théoule-sur-Mer","nomNormalise":"theoulesurmer","typeCollectivite":"Commune","region":"Provence-Alpes-Côte d'Azur","departement":"Alpes-Maritimes","departementCode":"06","adresse":{"street":"1 place Général-Bertrand","postalCode":"06590","city":"Théoule-sur-Mer","country":"France"},"contacts":{"email":"mairie@ville-theoulesurmer.fr","telephone":"0492974777"},"horaires":"Du Lundi au Vendredi : de 08h30 à 12h00 de 13h30 à 16h30","latitude":43.50594,"longitude":6.940085,"website":"https://theoule-sur-mer.fr/","hasWebsite":true,"hasHoraires":true,"url":"https://lannuaire.service-public.gouv.fr/provence-alpes-cote-d-azur/alpes-maritimes/3811fb15-37f7-43d8-9c42-9f4fdd924489"}
{"nom":"Thiéry","nomNormalise":"thiery","typeCollectivite":"Commune","region":"Provence-Alpes-Côte d'Azur","departement":"Alpes-Maritimes","departementCode":"06","adresse":{"street":"6 la Carrière","postalCode":"06710","city":"Thiéry","country":"France"},"contacts":{"email":"mairie.thiery@wanadoo.fr","telephone":"0493057998"},"horaires":"Le Lundi : de 09h00 à 12h30 de 14h00 à 18h00","latitude":43.97807,"longitude":7.030337,"website":"http://www.thiery.fr/","hasWebsite":true,"hasHoraires":true,"url":"https://lannuaire.service-public.gouv.fr/provence-alpes-cote-d-azur/alpes-maritimes/f33b1cca-0a99-4bd1-819e-90d7083c8671"}
{"nom":"Toudon","nomNormalise":"toudon","typeCollectivite":"Commune","region":"Provence-Alpes-Côte d'Azur","departement":"Alpes-Maritimes","departementCode":"06","adresse":{"street":"25 allée Saint-Jean","postalCode":"06830","city":"Toudon","country":"France"},"contacts":{"email":"mairie-de-toudon@wanadoo.fr","telephone":"0493085525"},"horaires":"Du Lundi au Mardi : de 09h00 à 17h00\nDu Mercredi au Vendredi : de 09h00 à 13h00","latitude":43.901318,"longitude":7.112437,"website":"https://www.toudon.fr/","hasWebsite":true,"hasHoraires":true,"url":"https://lannuaire.service-public.gouv.fr/provence-alpes-cote-d-azur/alpes-maritimes/0d44309c-0864-40ab-a930-0f24a83ede91"}
{"nom":"Touet-de-l'Escarène","nomNormalise":"touetdelescarene","typeCollectivite":"Commune","region":"Provence-Alpes-Côte d'Azur","departement":"Alpes-Maritimes","departementCode":"06","adresse":{"street":"1 rue du Four","postalCode":"06440","city":"Touet-de-l'Escarène","country":"France"},"contacts":{"email":"mairietouetdelescarene@wanadoo.fr","telephone":"0493917373"},"horaires":"Du Lundi au Mardi : de 09h00 à 12h30\nLe Mercredi : de 09h00 à 12h30 de 13h30 à 17h00\nDu Jeudi au Vendredi : de 09h00 à 12h30","latitude":43.848087,"longitude":7.3640003,"website":"http://www.touetdelescarene.fr/","hasWebsite":true,"hasHoraires":true,"url":"https://lannuaire.service-public.gouv.fr/provence-alpes-cote-d-azur/alpes-maritimes/99fcc588-d981-4478-80c7-78d30b379b79"}
{"nom":"Touet-sur-Var","nomNormalise":"touetsurvar","typeCollectivite":"Commune","region":"Provence-Alpes-Côte d'Azur","departement":"Alpes-Maritimes","departementCode":"06","adresse":{"street":"4300 avenue du Général-de-Gaulle","postalCode":"06710","city":"Touet-sur-Var","country":"France"},"contacts":{"email":"mairie@touet-sur-var.fr","telephone":"0493057557"},"horaires":"Le Lundi : de 08h30 à 12h00\nDu Mardi au Jeudi : de 08h30 à 12h00 de 14h00 à 16h30\nLe Vendredi : de 08h30 à 12h00","latitude":43.94657,"longitude":7.018277,"website":"https://www.touet-sur-var.fr/","hasWebsite":true,"hasHoraires":true,"url":"https://lannuaire.service-public.gouv.fr/provence-alpes-cote-d-azur/alpes-maritimes/d3f80b7b-937b-4f6b-98e8-7f39336a0b45"}
{"nom":"Tourette-du-Château","nomNormalise":"touretteduchateau","typeCollectivite":"Commune","region":"Provence-Alpes-Côte d'Azur","departement":"Alpes-Maritimes","departementCode":"06","adresse":{"street":"22 place de la Fontaine","postalCode":"06830","city":"Tourette-du-Château","country":"France"},"contacts":{"email":"mairie@touretteduchateau.fr","telephone":"0493085983"},"horaires":"Le Mardi : de 09h00 à 12h00 de 14h00 à 17h00\nLe Vendredi : de 09h00 à 12h00 de 14h00 à 17h00","latitude":43.882366,"longitude":7.14285,"website":"http://www.touretteduchateau.fr/","hasWebsite":true,"hasHoraires":true,"url":"https://lannuaire.service-public.gouv.fr/provence-alpes-cote-d-azur/alpes-maritimes/cf7a6f3d-5c5e-4641-9232-f768d6b64a10"}
{"nom":"Tournefort","nomNormalise":"tournefort","typeCollectivite":"Commune","region":"Provence-Alpes-Côte d'Azur","departement":"Alpes-Maritimes","departementCode":"06","adresse":{"street":"63 route de Massoins","postalCode":"06420","city":"Tournefort","country":"France"},"contacts":{"email":"mairie-tournefort@orange.fr","telephone":"0493029056"},"horaires":"Le Lundi : de 09h30 à 15h30\nDu Mardi au Mercredi : de 09h30 à 16h00\nDu Jeudi au Vendredi : de 09h30 à 15h30","latitude":43.9464,"longitude":7.15117,"website":"","hasWebsite":false,"hasHoraires":true,"url":"https://lannuaire.service-public.gouv.fr/provence-alpes-cote-d-azur/alpes-maritimes/3b09b93e-bfed-4f5e-8e5f-a38a53134ca5"}
{"nom":"Tourrette-Levens","nomNormalise":"tourrettelevens","typeCollectivite":"Commune","region":"Provence-Alpes-Côte d'Azur","departement":"Alpes-Maritimes","departementCode":"06","adresse":{"street":"70 place du Docteur-Paul-Simon","postalCode":"06690","city":"Tourrette-Levens","country":"France"},"contacts":{"email":"mairie@tourrette-levens.fr","telephone":"0493910016"},"horaires":"Du Lundi au Vendredi : de 08h30 à 12h00 de 12h45 à 16h15","latitude":43.787212,"longitude":7.276181,"website":"http://www.tourrette-levens.fr/","hasWebsite":true,"hasHoraires":true,"url":"https://lannuaire.service-public.gouv.fr/provence-alpes-cote-d-azur/alpes-maritimes/223919ce-6e98-4edf-8004-27006293a07b"}
{"nom":"Tourrettes-sur-Loup","nomNormalise":"tourrettessurloup","typeCollectivite":"Commune","region":"Provence-Alpes-Côte d'Azur","departement":"Alpes-Maritimes","departementCode":"06","adresse":{"street":"1 place Maximin-Escalier","postalCode":"06140","city":"Tourrettes-sur-Loup","country":"France"},"contacts":{"email":"mairie@tsl06.fr","telephone":"0493593011"},"horaires":"Du Lundi au Vendredi : de 08h00 à 12h00 de 13h30 à 16h30","latitude":43.71579,"longitude":7.058914,"website":"https://tourrettessurloup.com/","hasWebsite":true,"hasHoraires":true,"url":"https://lannuaire.service-public.gouv.fr/provence-alpes-cote-d-azur/alpes-maritimes/e018d92d-5805-4f6a-96ca-2d141221bdc4"}
{"nom":"Utelle","nomNormalise":"utelle","typeCollectivite":"Commune","region":"Provence-Alpes-Côte d'Azur","departement":"Alpes-Maritimes","departementCode":"06","adresse":{"street":"Place Claude-Damiano","postalCode":"06450","city":"Utelle","country":"France"},"contacts":{"email":"contact@mairieutelle.fr","telephone":"0493031701"},"horaires":"Du Lundi au Vendredi : de 08h30 à 12h00\nAccueil ouvert l'après-midi sur rendez-vous de 14h à 16h45 sauf le mercredi après-midi.","latitude":43.919193,"longitude":7.263806,"website":"https://utelle.fr/","hasWebsite":true,"hasHoraires":true,"url":"https://lannuaire.service-public.gouv.fr/provence-alpes-cote-d-azur/alpes-maritimes/3c927192-7fec-41b8-8d30-3fabd28f0db5"}
{"nom":"Valbonne","nomNormalise":"valbonne","typeCollectivite":"Commune","region":"Provence-Alpes-Côte d'Azur","departement":"Alpes-Maritimes","departementCode":"06","adresse":{"street":"1 place de l'Hôtel-de-Ville","postalCode":"06902","city":"Valbonne-Sophia-Antipolis Cedex","country":"France"},"contacts":{"email":"mairie@ville-valbonne.fr","telephone":"0493123100"},"horaires":"Du Lundi au Vendredi : de 08h30 à 12h30 de 13h30 à 17h00","latitude":43.64152,"longitude":7.009186,"website":"https://www.ville-valbonne.fr/","hasWebsite":true,"hasHoraires":true,"url":"https://lannuaire.service-public.gouv.fr/provence-alpes-cote-d-azur/alpes-maritimes/c58176ac-0352-4fa1-8b62-1face3852f6a"}
{"nom":"Valdeblore","nomNormalise":"valdeblore","typeCollectivite":"Commune","region":"Provence-Alpes-Côte d'Azur","departement":"Alpes-Maritimes","departementCode":"06","adresse":{"street":"La Bolline","postalCode":"06420","city":"Valdeblore","country":"France"},"contacts":{"email":"mairie.valdeblore@wanadoo.fr","telephone":"0493232580"},"horaires":"Du Lundi au Vendredi : de 14h00 à 17h00","latitude":44.07259,"longitude":7.166383,"website":"https://www.ville-valdeblore.fr/","hasWebsite":true,"hasHoraires":true,"url":"https://lannuaire.service-public.gouv.fr/provence-alpes-cote-d-azur/alpes-maritimes/33a6d956-82f3-48ba-9b3c-8a7a2d953c49"}
{"nom":"Valderoure","nomNormalise":"valderoure","typeCollectivite":"Commune","region":"Provence-Alpes-Côte d'Azur","departement":"Alpes-Maritimes","departementCode":"06","adresse":{"street":"85 rue de la Mairie","postalCode":"06750","city":"Valderoure","country":"France"},"contacts":{"email":"accueil@valderoure.fr","telephone":"0493604771"},"horaires":"Le Lundi : de 08h30 à 12h30 de 13h30 à 17h00\nLe Mardi : de 09h00 à 12h30 de 13h30 à 17h00\nLe Jeudi : de 09h00 à 12h30 de 13h30 à 17h00\nLe Vendredi : de 08h30 à 12h30 de 13h30 à 18h00","latitude":43.7743,"longitude":6.70434,"website":"https://lapagelocale.fr/06750-valderoure","hasWebsite":true,"hasHoraires":true,"url":"https://lannuaire.service-public.gouv.fr/provence-alpes-cote-d-azur/alpes-maritimes/473e5aa1-1e4f-441e-8b05-78f0586f19da"}
{"nom":"Vallauris","nomNormalise":"vallauris","typeCollectivite":"Commune","region":"Provence-Alpes-Côte d'Azur","departement":"Alpes-Maritimes","departementCode":"06","adresse":{"street":"Place Jacques-Cavasse","postalCode":"06220","city":"Vallauris","country":"France"},"contacts":{"email":"groupecabmaire@vallauris.fr","telephone":"0493642424"},"horaires":"Du Lundi au Vendredi : de 08h00 à 12h00 de 13h30 à 17h00","latitude":43.579765,"longitude":7.0555406,"website":"https://www.vallauris-golfe-juan.fr/index.php","hasWebsite":true,"hasHoraires":true,"url":"https://lannuaire.service-public.gouv.fr/provence-alpes-cote-d-azur/alpes-maritimes/4e336e02-3c87-46e1-a4b0-bbf4bfda4810"}
{"nom":"Venanson","nomNormalise":"venanson","typeCollectivite":"Commune","region":"Provence-Alpes-Côte d'Azur","departement":"Alpes-Maritimes","departementCode":"06","adresse":{"street":"1 place du Lavoir","postalCode":"06450","city":"Venanson","country":"France"},"contacts":{"email":"accueil@venanson.fr","telephone":"0493032305"},"horaires":"Du Lundi au Vendredi : de 09h00 à 12h00","latitude":44.05329,"longitude":7.2526855,"website":"https://www.venanson.fr/","hasWebsite":true,"hasHoraires":true,"url":"https://lannuaire.service-public.gouv.fr/provence-alpes-cote-d-azur/alpes-maritimes/4d2fe87f-3aa3-42c3-9957-9a0edbc2337e"}
{"nom":"Vence","nomNormalise":"vence","typeCollectivite":"Commune","region":"Provence-Alpes-Côte d'Azur","departement":"Alpes-Maritimes","departementCode":"06","adresse":{"street":"Place Georges-Clemenceau","postalCode":"06141","city":"Vence Cedex","country":"France"},"contacts":{"email":"mairie@ville-vence.fr","telephone":"0493584100"},"horaires":"Du Lundi au Vendredi : de 08h30 à 12h30 de 13h30 à 17h00\nLe Samedi : de 09h00 à 12h00\n\nAccueil ouvert uniquement pour les passeports et les cartes d'identité.","latitude":43.7227,"longitude":7.11346,"website":"https://vence.fr/","hasWebsite":true,"hasHoraires":true,"url":"https://lannuaire.service-public.gouv.fr/provence-alpes-cote-d-azur/alpes-maritimes/b76f2df7-4131-4805-9856-f638324ac068"}
{"nom":"Villars-sur-Var","nomNormalise":"villarssurvar","typeCollectivite":"Commune","region":"Provence-Alpes-Côte d'Azur","departement":"Alpes-Maritimes","departementCode":"06","adresse":{"street":"3 place Robini","postalCode":"06710","city":"Villars-sur-Var","country":"France"},"contacts":{"email":"mairie@villarssurvar06.fr","telephone":"0493053232"},"horaires":"Du Lundi au Mardi : de 09h00 à 12h30 de 13h30 à 17h30\nLe Mercredi : de 09h00 à 12h30 de 13h30 à 16h30\nLe Jeudi : de 09h00 à 12h30\nLe Vendredi : de 09h00 à 12h30 de 13h30 à 16h30","latitude":43.93686,"longitude":7.0974803,"website":"https://www.villarssurvar.fr/","hasWebsite":true,"hasHoraires":true,"url":"https://lannuaire.service-public.gouv.fr/provence-alpes-cote-d-azur/alpes-maritimes/97737a1d-bcd4-4fe3-ab45-7ab4bfea77f4"}
{"nom":"Villefranche-sur-Mer","nomNormalise":"villefranchesurmer","typeCollectivite":"Commune","region":"Provence-Alpes-Côte d'Azur","departement":"Alpes-Maritimes","departementCode":"06","adresse":{"street":"Citadelle","postalCode":"06236","city":"Villefranche-sur-Mer","country":"France"},"contacts":{"email":"mairie@villefranche-sur-mer.fr","telephone":"0493763333"},"horaires":"Du Lundi au Vendredi : de 08h00 à 12h00 de 13h00 à 16h30","latitude":43.7042,"longitude":7.31015,"website":"http://www.villefranche-sur-mer.fr/","hasWebsite":true,"hasHoraires":true,"url":"https://lannuaire.service-public.gouv.fr/provence-alpes-cote-d-azur/alpes-maritimes/da27e29d-027d-4104-9b2d-d4ccd194f810"}
{"nom":"Villeneuve-d'Entraunes","nomNormalise":"villeneuvedentraunes","typeCollectivite":"Commune","region":"Provence-Alpes-Côte d'Azur","departement":"Alpes-Maritimes","departementCode":"06","adresse":{"street":"4 place Jean-Claude-Coste","postalCode":"06470","city":"Villeneuve-d'Entraunes","country":"France"},"contacts":{"email":"mairie@villeneuvedentraunes.fr","telephone":"0493055472"},"horaires":"Le Mercredi : de 09h00 à 12h00\nDu Jeudi au Vendredi : de 09h00 à 12h00 de 14h00 à 17h00","latitude":44.120453,"longitude":6.795841,"website":"","hasWebsite":false,"hasHoraires":true,"url":"https://lannuaire.service-public.gouv.fr/provence-alpes-cote-d-azur/alpes-maritimes/94ffaf46-d033-45e8-a4b9-9b8af6f7b244"}
{"nom":"Villeneuve-Loubet","nomNormalise":"villeneuveloubet","typeCollectivite":"Commune","region":"Provence-Alpes-Côte d'Azur","departement":"Alpes-Maritimes","departementCode":"06","adresse":{"street":"Place de la République","postalCode":"06270","city":"Villeneuve-Loubet","country":"France"},"contacts":{"email":"cab@villeneuveloubet.fr","telephone":"0492026000"},"horaires":"Le Lundi : de 08h00 à 12h00 de 13h30 à 17h00\nLe Mardi : de 08h00 à 17h00\nLe Mercredi : de 08h00 à 12h00 de 14h00 à 17h00\nLe Jeudi : de 08h00 à 12h00 de 13h30 à 18h00\nLe Vendredi : de 08h00 à 16h00\nLe Samedi : de 09h30 à 12h30","latitude":43.65815,"longitude":7.1217375,"website":"https://www.villeneuveloubet.fr/","hasWebsite":true,"hasHoraires":true,"url":"https://lannuaire.service-public.gouv.fr/provence-alpes-cote-d-azur/alpes-maritimes/a60058f2-c09f-4d44-8c04-b1b665bfbbf4"}
