{"nom":"Agen-d'Aveyron","nomNormalise":"agendaveyron","typeCollectivite":"Commune","region":"Occitanie","departement":"Aveyron","departementCode":"12","adresse":{"street":"2 place Marc-Robert","postalCode":"12630","city":"Agen-d'Aveyron","country":"France"},"contacts":{"email":"accueil@agen-d-aveyron.fr","telephone":"0565423088"},"horaires":"Du Lundi au Mardi : de 08h00 à 12h00 de 14h00 à 17h00\nLe Mercredi : de 08h00 à 12h00\nDu Jeudi au Vendredi : de 08h00 à 12h00 de 14h00 à 17h00\nLe Samedi : de 09h00 à 12h00","latitude":44.357708,"longitude":2.680738,"website":"https://www.agen-d-aveyron.fr/","hasWebsite":true,"hasHoraires":true,"url":"https://lannuaire.service-public.gouv.fr/occitanie/aveyron/73d31db6-8ab4-435f-81b0-a57d8c6ec1a4"}
{"nom":"Aguessac","nomNormalise":"aguessac","typeCollectivite":"Commune","region":"Occitanie","departement":"Aveyron","departementCode":"12","adresse":{"street":"28 avenue des Causses","postalCode":"12520","city":"Aguessac","country":"France"},"contacts":{"email":"mairie@aguessac.fr","telephone":"0565598015"},"horaires":"Le Lundi : de 08h30 à 11h30\nLe Mardi : de 08h30 à 11h30 de 17h00 à 19h00\nDu Mercredi au Vendredi : de 08h30 à 11h30","latitude":44.156,"longitude":3.09806,"website":"https://www.aguessac.fr/","hasWebsite":true,"hasHoraires":true,"url":"https://lannuaire.service-public.gouv.fr/occitanie/aveyron/eb52451a-d507-41e8-8704-03192bcd51ec"}
{"nom":"Almont-les-Junies","nomNormalise":"almontlesjunies","typeCollectivite":"Commune","region":"Occitanie","departement":"Aveyron","departementCode":"12","adresse":{"street":"72 place Jean Centres","postalCode":"12300","city":"Almont-les-Junies","country":"France"},"contacts":{"email":"mairie@almont-les-junies.fr","telephone":"0565640476"},"horaires":"Du Lundi au Vendredi : de 08h30 à 12h00","latitude":44.59611,"longitude":2.293646,"website":"https://www.almont-les-junies.fr/fr/index.html","hasWebsite":true,"hasHoraires":true,"url":"https://lannuaire.service-public.gouv.fr/occitanie/aveyron/04c5324a-0785-417b-b868-0086568501ec"}
{"nom":"Alrance","nomNormalise":"alrance","typeCollectivite":"Commune","region":"Occitanie","departement":"Aveyron","departementCode":"12","adresse":{"street":"5 rue de la Caillolie","postalCode":"12430","city":"Alrance","country":"France"},"contacts":{"email":"mairie-alrance@orange.fr","telephone":"0565465646"},"horaires":"Le Mardi : de 08h30 à 12h00 de 14h00 à 17h30\nLe Jeudi : de 08h30 à 12h00 de 14h00 à 17h30\nLe Samedi : de 08h30 à 12h00","latitude":44.13154,"longitude":2.682677,"website":"https://www.levezou.fr/citoyen-du-levezou/les-19-communes/alrance","hasWebsite":true,"hasHoraires":true,"url":"https://lannuaire.service-public.gouv.fr/occitanie/aveyron/569673c7-b4c1-45e0-89d6-f7d696781e2f"}
{"nom":"Ambeyrac","nomNormalise":"ambeyrac","typeCollectivite":"Commune","region":"Occitanie","departement":"Aveyron","departementCode":"12","adresse":{"street":"17 rue Cap-Del-Mas","postalCode":"12260","city":"Ambeyrac","country":"France"},"contacts":{"email":"mairie.ambeyrac@orange.fr","telephone":"0565816043"},"horaires":"Le Lundi : de 13h30 à 18h00\nLe Mercredi : de 09h00 à 12h30\nLe Jeudi : de 09h00 à 12h00","latitude":44.509605,"longitude":1.944705,"website":"https://mairieambeyrac.fr/","hasWebsite":true,"hasHoraires":true,"url":"https://lannuaire.service-public.gouv.fr/occitanie/aveyron/c9411ea1-22ff-4cb7-9637-599f80a388be"}
{"nom":"Anglars-Saint-Félix","nomNormalise":"anglarssaintfelix","typeCollectivite":"Commune","region":"Occitanie","departement":"Aveyron","departementCode":"12","adresse":{"street":"4 rue de la Mairie","postalCode":"12390","city":"Anglars-Saint-Félix","country":"France"},"contacts":{"email":"contact@anglarsaintfelix.fr","telephone":"0565645106"},"horaires":"Du Mardi au Samedi : de 08h00 à 13h00","latitude":44.42339,"longitude":2.21905,"website":"https://www.anglarsaintfelix.fr/","hasWebsite":true,"hasHoraires":true,"url":"https://lannuaire.service-public.gouv.fr/occitanie/aveyron/a3f605b4-7b87-4302-8dd1-c1c17eec6a71"}
{"nom":"Argences-en-Aubrac","nomNormalise":"argencesenaubrac","typeCollectivite":"Commune","region":"Occitanie","departement":"Aveyron","departementCode":"12","adresse":{"street":"Sainte-Geneviève-sur-Argence","postalCode":"12420","city":"Argences-en-Aubrac","country":"France"},"contacts":{"email":"contact@argencesenaubrac.fr","telephone":"0565664146"},"horaires":"Du Lundi au Vendredi : de 09h00 à 12h00 de 13h30 à 17h30","latitude":44.8034,"longitude":2.75818,"website":"https://www.argencesenaubrac.fr/","hasWebsite":true,"hasHoraires":true,"url":"https://lannuaire.service-public.gouv.fr/occitanie/aveyron/27391f02-968b-4134-943b-8f446128bb05"}
{"nom":"Arnac-sur-Dourdou","nomNormalise":"arnacsurdourdou","typeCollectivite":"Commune","region":"Occitanie","departement":"Aveyron","departementCode":"12","adresse":{"street":"23 rue du Velours","postalCode":"12360","city":"Arnac-sur-Dourdou","country":"France"},"contacts":{"email":"mairie@arnac-sur-dourdou.fr","telephone":"0565495872"},"horaires":"Le Lundi : de 14h00 à 17h00","latitude":43.726643,"longitude":2.933418,"website":"https://arnac-sur-dourdou.fr/","hasWebsite":true,"hasHoraires":true,"url":"https://lannuaire.service-public.gouv.fr/occitanie/aveyron/486a68e4-fc4e-40f4-aad4-5659c6a18f09"}
{"nom":"Arques","nomNormalise":"arques","typeCollectivite":"Commune","region":"Occitanie","departement":"Aveyron","departementCode":"12","adresse":{"street":"Le Bourg","postalCode":"12290","city":"Arques","country":"France"},"contacts":{"email":"mairie-arques@wanadoo.fr","telephone":"0565706698"},"horaires":"Le Mardi : de 09h00 à 12h00 de 14h00 à 17h00\nDu Jeudi au Vendredi : de 09h00 à 12h00","latitude":44.319023,"longitude":2.7974703,"website":"","hasWebsite":false,"hasHoraires":true,"url":"https://lannuaire.service-public.gouv.fr/occitanie/aveyron/fa62422e-0da6-46c8-a337-ab609791879b"}
{"nom":"Arvieu","nomNormalise":"arvieu","typeCollectivite":"Commune","region":"Occitanie","departement":"Aveyron","departementCode":"12","adresse":{"street":"226 avenue de Pareloup","postalCode":"12120","city":"Arvieu","country":"France"},"contacts":{"email":"contact@arvieu.fr","telephone":"0565467106"},"horaires":"Le Lundi : de 09h00 à 12h00 de 14h00 à 16h00\nLe Mardi : de 09h00 à 12h00\nLe Mercredi : de 09h00 à 12h00 de 14h00 à 16h00\nLe Jeudi : de 09h00 à 12h00\nLe Vendredi : de 09h00 à 12h00 de 14h00 à 16h00","latitude":44.192665,"longitude":2.660956,"website":"https://www.arvieu.fr/","hasWebsite":true,"hasHoraires":true,"url":"https://lannuaire.service-public.gouv.fr/occitanie/aveyron/cd4ccb40-9672-485a-95b2-3bcbdb8d9d82"}
{"nom":"Asprières","nomNormalise":"asprieres","typeCollectivite":"Commune","region":"Occitanie","departement":"Aveyron","departementCode":"12","adresse":{"street":"2 place du Casal","postalCode":"12700","city":"Asprières","country":"France"},"contacts":{"email":"contact@mairie-asprieres.fr","telephone":"0565638960"},"horaires":"Du Lundi au Mardi : de 14h00 à 17h00\nLe Jeudi : de 09h30 à 12h30\n\nEn dehors de ces horaires possibilité de prendre un rendez-vous","latitude":44.54559,"longitude":2.144154,"website":"","hasWebsite":false,"hasHoraires":true,"url":"https://lannuaire.service-public.gouv.fr/occitanie/aveyron/da9907af-6660-44a2-8d7b-3f2a02912008"}
{"nom":"Aubin","nomNormalise":"aubin","typeCollectivite":"Commune","region":"Occitanie","departement":"Aveyron","departementCode":"12","adresse":{"street":"1 place Maruéjouls","postalCode":"12110","city":"Aubin","country":"France"},"contacts":{"email":"contact@aubin-aveyron.fr","telephone":"0565631411"},"horaires":"Le Lundi : de 08h00 à 18h00\n\nJournée continue sans interruption\nDu Mardi au Jeudi : de 08h00 à 12h00 de 13h30 à 17h30\nLe Vendredi : de 08h00 à 12h00 de 13h30 à 16h30\nJournée continue sans interruption","latitude":44.52761,"longitude":2.246249,"website":"https://www.aubin-aveyron.fr/","hasWebsite":true,"hasHoraires":true,"url":"https://lannuaire.service-public.gouv.fr/occitanie/aveyron/817c2ed4-fa68-44be-9d0d-45ba3fd20bec"}
{"nom":"Auriac-Lagast","nomNormalise":"auriaclagast","typeCollectivite":"Commune","region":"Occitanie","departement":"Aveyron","departementCode":"12","adresse":{"street":"1860 route du Lagast","postalCode":"12120","city":"Auriac-Lagast","country":"France"},"contacts":{"email":"mairie@auriac-lagast.fr","telephone":"0565467984"},"horaires":"Du Mardi au Mercredi : de 09h00 à 12h00 de 13h00 à 17h00\nLe Vendredi : de 08h00 à 12h00","latitude":44.14615,"longitude":2.579948,"website":"https://www.auriac-lagast.fr/","hasWebsite":true,"hasHoraires":true,"url":"https://lannuaire.service-public.gouv.fr/occitanie/aveyron/53ec60ad-e6cc-4643-b361-40277807fbcc"}
{"nom":"Auzits","nomNormalise":"auzits","typeCollectivite":"Commune","region":"Occitanie","departement":"Aveyron","departementCode":"12","adresse":{"street":"La Planque","postalCode":"12390","city":"Auzits","country":"France"},"contacts":{"email":"mairie@auzits.fr","telephone":"0565634528"},"horaires":"Le Lundi : de 09h00 à 12h00\nLe Mardi : de 09h00 à 12h00\nDu Mercredi au Vendredi : de 09h00 à 12h00","latitude":44.433445,"longitude":2.283495,"website":"https://www.auzits.fr/","hasWebsite":true,"hasHoraires":true,"url":"https://lannuaire.service-public.gouv.fr/occitanie/aveyron/017a0e88-434d-4f65-8597-d1b2d6f94a67"}
{"nom":"Ayssènes","nomNormalise":"ayssenes","typeCollectivite":"Commune","region":"Occitanie","departement":"Aveyron","departementCode":"12","adresse":{"street":"Le Bourg","postalCode":"12430","city":"Ayssènes","country":"France"},"contacts":{"email":"commune.ayssenes@orange.fr","telephone":"0565465091"},"horaires":"Le Lundi : de 09h00 à 13h00\nLe Mercredi : de 09h00 à 13h00\nLe Jeudi : de 09h00 à 13h00 de 13h30 à 17h30","latitude":44.069675,"longitude":2.779495,"website":"https://www.ayssenes.fr/","hasWebsite":true,"hasHoraires":true,"url":"https://lannuaire.service-public.gouv.fr/occitanie/aveyron/be965c87-2299-4637-9dbf-c15c1bccda90"}
{"nom":"Balaguier-d'Olt","nomNormalise":"balaguierdolt","typeCollectivite":"Commune","region":"Occitanie","departement":"Aveyron","departementCode":"12","adresse":{"street":"2 place de la Mairie","postalCode":"12260","city":"Balaguier-d'Olt","country":"France"},"contacts":{"email":"mairie.balaguierdolt@orange.fr","telephone":"0565646461"},"horaires":"Le Mardi : de 14h00 à 16h30\nDu Jeudi au Vendredi : de 14h00 à 16h30","latitude":44.523567,"longitude":1.973324,"website":"https://balaguierdolt.e-monsite.com/","hasWebsite":true,"hasHoraires":true,"url":"https://lannuaire.service-public.gouv.fr/occitanie/aveyron/333bd017-d729-497e-848c-306f06cf5a0d"}
{"nom":"Balaguier-sur-Rance","nomNormalise":"balaguiersurrance","typeCollectivite":"Commune","region":"Occitanie","departement":"Aveyron","departementCode":"12","adresse":{"street":"25 route de Plaisance","postalCode":"12380","city":"Balaguier-sur-Rance","country":"France"},"contacts":{"email":"mairie.balaguier@wanadoo.fr","telephone":"0565996027"},"horaires":"Le Jeudi : de 08h30 à 18h30","latitude":43.898006,"longitude":2.576984,"website":"","hasWebsite":false,"hasHoraires":true,"url":"https://lannuaire.service-public.gouv.fr/occitanie/aveyron/18db45fd-7237-4d6d-a348-8fc721165c46"}
{"nom":"Baraqueville","nomNormalise":"baraqueville","typeCollectivite":"Commune","region":"Occitanie","departement":"Aveyron","departementCode":"12","adresse":{"street":"116 place René-Cassin","postalCode":"12160","city":"Baraqueville","country":"France"},"contacts":{"email":"contact@baraqueville.fr","telephone":"0565711010"},"horaires":"Le Lundi : de 09h00 à 12h00 de 14h00 à 17h00\nLe Mardi : de 14h00 à 17h00\nLe Mercredi : de 09h00 à 12h00 de 14h00 à 17h00\nLe Jeudi : de 09h00 à 12h00\nLe Vendredi : de 09h00 à 12h00 de 14h00 à 17h00\nLe Samedi : de 09h00 à 12h00\n\nAccueil ouvert le 3e samedi du mois uniquement.","latitude":44.27784,"longitude":2.432042,"website":"https://www.baraqueville.fr/","hasWebsite":true,"hasHoraires":true,"url":"https://lannuaire.service-public.gouv.fr/occitanie/aveyron/6b7362bf-5c6a-4482-a5c8-136fe73bd045"}
{"nom":"Belcastel","nomNormalise":"belcastel","typeCollectivite":"Commune","region":"Occitanie","departement":"Aveyron","departementCode":"12","adresse":{"street":"167 route des Berges-de-l'Aveyron","postalCode":"12390","city":"Belcastel","country":"France"},"contacts":{"email":"mairie@belcastel.fr","telephone":"0565645225"},"horaires":"Le Lundi : de 09h00 à 12h00 de 14h00 à 16h00\nLe Mercredi : de 09h00 à 12h00 de 14h00 à 16h00\nLe Jeudi : de 09h00 à 12h00 de 14h00 à 17h30\nLe Vendredi : de 09h00 à 12h00 de 14h00 à 17h30","latitude":44.387657,"longitude":2.33464,"website":"https://www.mairie-belcastel.fr/","hasWebsite":true,"hasHoraires":true,"url":"https://lannuaire.service-public.gouv.fr/occitanie/aveyron/93b82983-d68a-4608-871a-da45fe69ab5f"}
{"nom":"Belmont-sur-Rance","nomNormalise":"belmontsurrance","typeCollectivite":"Commune","region":"Occitanie","departement":"Aveyron","departementCode":"12","adresse":{"street":"212 avenue de Lacaune","postalCode":"12370","city":"Belmont-sur-Rance","country":"France"},"contacts":{"email":"mairie@belmontsurrance.fr","telephone":"0565999180"},"horaires":"Du Lundi au Mercredi : de 09h00 à 12h30 de 14h00 à 18h00\nDu Jeudi au Vendredi : de 09h00 à 12h00","latitude":43.816975,"longitude":2.75263,"website":"https://www.belmont-sur-rance-aveyron.fr/","hasWebsite":true,"hasHoraires":true,"url":"https://lannuaire.service-public.gouv.fr/occitanie/aveyron/a0568f29-65b6-43e3-acfd-dd118b8b87dd"}
{"nom":"Bertholène","nomNormalise":"bertholene","typeCollectivite":"Commune","region":"Occitanie","departement":"Aveyron","departementCode":"12","adresse":{"street":"38 rue des Caminades","postalCode":"12310","city":"Bertholène","country":"France"},"contacts":{"email":"mairie@bertholene.fr","telephone":"0565696218"},"horaires":"Du Lundi au Vendredi : de 09h00 à 12h00","latitude":44.3946,"longitude":2.77784,"website":"https://www.bertholene.fr/","hasWebsite":true,"hasHoraires":true,"url":"https://lannuaire.service-public.gouv.fr/occitanie/aveyron/11f27c06-9b55-455c-ba7d-242b2570291c"}
{"nom":"Bessuéjouls","nomNormalise":"bessuejouls","typeCollectivite":"Commune","region":"Occitanie","departement":"Aveyron","departementCode":"12","adresse":{"street":"321 route de Saint-Pierre","postalCode":"12500","city":"Bessuéjouls","country":"France"},"contacts":{"email":"mairie@bessuejouls.fr","telephone":"0565440260"},"horaires":"Le Lundi : de 14h00 à 17h00\nLe Mercredi : de 15h00 à 18h30\nLe Vendredi : de 08h30 à 12h00","latitude":44.5259,"longitude":2.72838,"website":"","hasWebsite":false,"hasHoraires":true,"url":"https://lannuaire.service-public.gouv.fr/occitanie/aveyron/fb155508-3bf3-4f1a-91d0-bbd1c85a1ad1"}
{"nom":"Boisse-Penchot","nomNormalise":"boissepenchot","typeCollectivite":"Commune","region":"Occitanie","departement":"Aveyron","departementCode":"12","adresse":{"street":"16 rue du Château-Bas","postalCode":"12300","city":"Boisse-Penchot","country":"France"},"contacts":{"email":"mairie@boisse-penchot.fr","telephone":"0565633176"},"horaires":"Du Lundi au Vendredi : de 09h00 à 12h00","latitude":44.59011,"longitude":2.205906,"website":"","hasWebsite":false,"hasHoraires":true,"url":"https://lannuaire.service-public.gouv.fr/occitanie/aveyron/cc1dc1a4-9280-4958-8477-888cd150a9e5"}
{"nom":"Bor-et-Bar","nomNormalise":"boretbar","typeCollectivite":"Commune","region":"Occitanie","departement":"Aveyron","departementCode":"12","adresse":{"street":"3635 Route de Carmaux","postalCode":"12270","city":"Bor-et-Bar","country":"France"},"contacts":{"email":"mairie-de-bor-et-bar@wanadoo.fr","telephone":"0565658158"},"horaires":"Le Mardi : de 13h30 à 18h00\nLe Samedi : de 08h00 à 12h00","latitude":44.188183,"longitude":2.07584,"website":"https://boretbar.fr/","hasWebsite":true,"hasHoraires":true,"url":"https://lannuaire.service-public.gouv.fr/occitanie/aveyron/61a17066-bc40-433a-98c8-d51be6e9cf82"}
{"nom":"Bouillac","nomNormalise":"bouillac","typeCollectivite":"Commune","region":"Occitanie","departement":"Aveyron","departementCode":"12","adresse":{"street":"1 rue de la Mairie","postalCode":"12300","city":"Bouillac","country":"France"},"contacts":{"email":"mairie-bouillac@wanadoo.fr","telephone":"0565431027"},"horaires":"Du Lundi au Mardi : de 16h00 à 18h00\nDu Jeudi au Vendredi : de 16h00 à 18h00\nLe Samedi : de 10h00 à 12h00\n\nPermanence des élus uniquement.","latitude":44.574314,"longitude":2.162112,"website":"","hasWebsite":false,"hasHoraires":true,"url":"https://lannuaire.service-public.gouv.fr/occitanie/aveyron/817261a0-7f56-458b-9970-3bea2f20c72f"}
{"nom":"Bournazel","nomNormalise":"bournazel","typeCollectivite":"Commune","region":"Occitanie","departement":"Aveyron","departementCode":"12","adresse":{"street":"159 route de Rignac","postalCode":"12390","city":"Bournazel","country":"France"},"contacts":{"email":"mairie@bournazel-aveyron.fr","telephone":"0565644150"},"horaires":"Le Mardi : de 09h00 à 12h00\nLe Mercredi : de 13h30 à 17h00\nLe Vendredi : de 09h00 à 12h00","latitude":44.459713,"longitude":2.2977304,"website":"https://www.bournazel-aveyron.fr/","hasWebsite":true,"hasHoraires":true,"url":"https://lannuaire.service-public.gouv.fr/occitanie/aveyron/3d5bc4bb-d4f9-4fd3-8095-c62122ad75cb"}
{"nom":"Boussac","nomNormalise":"boussac","typeCollectivite":"Commune","region":"Occitanie","departement":"Aveyron","departementCode":"12","adresse":{"street":"44 rue de la Mairie","postalCode":"12160","city":"Boussac","country":"France"},"contacts":{"email":"mairie@boussac-aveyron.fr","telephone":"0565690263"},"horaires":"Le Lundi : de 13h30 à 17h00\nLe Mardi : de 08h00 à 12h30\n\nPermanence du maire de 14h00 à 17h00 uniquement sur rendez-vous.\nDu Jeudi au Vendredi : de 08h00 à 12h30\nLe Samedi : de 09h00 à 12h30\n\nFermé le dernier samedi du mois","latitude":44.278454,"longitude":2.366139,"website":"https://www.boussac-aveyron.fr/","hasWebsite":true,"hasHoraires":true,"url":"https://lannuaire.service-public.gouv.fr/occitanie/aveyron/939e4b77-10d5-42f8-8f32-9502ca647dc2"}
{"nom":"Bozouls","nomNormalise":"bozouls","typeCollectivite":"Commune","region":"Occitanie","departement":"Aveyron","departementCode":"12","adresse":{"street":"2 place de la Mairie","postalCode":"12340","city":"Bozouls","country":"France"},"contacts":{"email":"accueil@bozouls.fr","telephone":"0565512800"},"horaires":"Du Lundi au Vendredi : de 08h30 à 12h00 de 13h30 à 17h30","latitude":44.46978,"longitude":2.72029,"website":"https://www.bozouls.fr/","hasWebsite":true,"hasHoraires":true,"url":"https://lannuaire.service-public.gouv.fr/occitanie/aveyron/1011d2c6-1cc7-4249-af5c-44567d50af23"}
{"nom":"Brandonnet","nomNormalise":"brandonnet","typeCollectivite":"Commune","region":"Occitanie","departement":"Aveyron","departementCode":"12","adresse":{"street":"33 Place de la Mairie","postalCode":"12350","city":"Brandonnet","country":"France"},"contacts":{"email":"mairie.brandonnet@wanadoo.fr","telephone":"0565293251"},"horaires":"Le Lundi : de 09h00 à 12h00 de 13h00 à 17h30\nLe Jeudi : de 08h00 à 12h00 de 13h00 à 17h30","latitude":44.388065,"longitude":2.135685,"website":"https://www.brandonnet.fr/","hasWebsite":true,"hasHoraires":true,"url":"https://lannuaire.service-public.gouv.fr/occitanie/aveyron/5d774527-6f18-4597-9e08-dab410f7c39d"}
{"nom":"Brasc","nomNormalise":"brasc","typeCollectivite":"Commune","region":"Occitanie","departement":"Aveyron","departementCode":"12","adresse":{"street":"Place de la Mairie","postalCode":"12550","city":"Brasc","country":"France"},"contacts":{"email":"secretariat@brasc.fr","telephone":"0565997785"},"horaires":"Le Lundi : de 09h00 à 12h00\nLe Mercredi : de 09h00 à 12h00\nLe Vendredi : de 09h00 à 12h00","latitude":43.97772,"longitude":2.57356,"website":"https://www.brasc.fr/","hasWebsite":true,"hasHoraires":true,"url":"https://lannuaire.service-public.gouv.fr/occitanie/aveyron/83512022-6bb4-48d5-89d7-c37f272a0f11"}
{"nom":"Brommat","nomNormalise":"brommat","typeCollectivite":"Commune","region":"Occitanie","departement":"Aveyron","departementCode":"12","adresse":{"street":"16 rue Francis Issanchou","postalCode":"12600","city":"Brommat","country":"France"},"contacts":{"email":"contact@brommat.fr","telephone":"0565660096"},"horaires":"Le Lundi : de 09h00 à 12h00 de 14h00 à 17h00\nDu Mardi au Samedi : de 09h00 à 12h00\n\nSamedi premier et troisième du mois","latitude":44.82901,"longitude":2.68445,"website":"https://www.brommat.fr/","hasWebsite":true,"hasHoraires":true,"url":"https://lannuaire.service-public.gouv.fr/occitanie/aveyron/678adae6-a97b-4b80-8bc7-4f2716313b5e"}
{"nom":"Broquiès","nomNormalise":"broquies","typeCollectivite":"Commune","region":"Occitanie","departement":"Aveyron","departementCode":"12","adresse":{"street":"20 place de la Mairie","postalCode":"12480","city":"Broquiès","country":"France"},"contacts":{"email":"mairie@broquiesfr","telephone":"0565994126"},"horaires":"Du Lundi au Mardi : de 09h00 à 12h00\nLe Mercredi : de 09h00 à 12h00 de 13h30 à 16h00\nLe Jeudi : de 09h00 à 12h00","latitude":44.005547,"longitude":2.695335,"website":"https://www.broquies.fr/","hasWebsite":true,"hasHoraires":true,"url":"https://lannuaire.service-public.gouv.fr/occitanie/aveyron/f337892e-8606-4287-b388-247523dae445"}
{"nom":"Brousse-le-Château","nomNormalise":"brousselechateau","typeCollectivite":"Commune","region":"Occitanie","departement":"Aveyron","departementCode":"12","adresse":{"street":"Le Bourg","postalCode":"12480","city":"Brousse-le-Château","country":"France"},"contacts":{"email":"mairie.brousselechateau@orange.fr","telephone":"0565994114"},"horaires":"Du Mardi au Vendredi : de 14h00 à 18h00","latitude":43.9973,"longitude":2.62463,"website":"https://www.brousselechateau.net/","hasWebsite":true,"hasHoraires":true,"url":"https://lannuaire.service-public.gouv.fr/occitanie/aveyron/e052d2d7-0ba2-4a41-9b74-738c2dc970ee"}
{"nom":"Brusque","nomNormalise":"brusque","typeCollectivite":"Commune","region":"Occitanie","departement":"Aveyron","departementCode":"12","adresse":{"street":"Place Saint-Jacques","postalCode":"12360","city":"Brusque","country":"France"},"contacts":{"email":"mairie@brusque.fr","telephone":"0565995312"},"horaires":"Du Mardi au Jeudi : de 09h00 à 12h00\nLe Vendredi : de 13h30 à 15h30","latitude":43.767,"longitude":2.94921,"website":"","hasWebsite":false,"hasHoraires":true,"url":"https://lannuaire.service-public.gouv.fr/occitanie/aveyron/20d8160a-9311-4b65-940d-36128d6cc682"}
{"nom":"Cabanès","nomNormalise":"cabanes","typeCollectivite":"Commune","region":"Occitanie","departement":"Aveyron","departementCode":"12","adresse":{"street":"45 place Fernand-Lacombe","postalCode":"12800","city":"Cabanès","country":"France"},"contacts":{"email":"mairiecabanes12@gmail.com","telephone":"0565470041"},"horaires":"Du Mardi au Jeudi : de 09h00 à 12h00","latitude":44.1853,"longitude":2.305489,"website":"","hasWebsite":false,"hasHoraires":true,"url":"https://lannuaire.service-public.gouv.fr/occitanie/aveyron/937c928c-6fc1-43d5-8167-811367170f04"}
{"nom":"Calmels-et-le-Viala","nomNormalise":"calmelsetleviala","typeCollectivite":"Commune","region":"Occitanie","departement":"Aveyron","departementCode":"12","adresse":{"street":"83 route de la Mairie","postalCode":"12400","city":"Calmels-et-le-Viala","country":"France"},"contacts":{"email":"mairie.calmels-viala@wanadoo.fr","telephone":"0565990290"},"horaires":"Du Mardi au Mercredi : de 08h30 à 12h00","latitude":43.94536,"longitude":2.752314,"website":"https://www.calmelsetleviala.fr/","hasWebsite":true,"hasHoraires":true,"url":"https://lannuaire.service-public.gouv.fr/occitanie/aveyron/615e0b79-f2c2-4232-9879-50715e81da15"}
{"nom":"Calmont","nomNormalise":"calmont","typeCollectivite":"Commune","region":"Occitanie","departement":"Aveyron","departementCode":"12","adresse":{"street":"37 rue du Castellat","postalCode":"12450","city":"Calmont","country":"France"},"contacts":{"email":"accueil@mairie-calmont.fr","telephone":"0565694722"},"horaires":"Le Lundi : de 09h00 à 12h00 de 14h00 à 17h00\nLe Mardi : de 14h00 à 18h30\nLe Mercredi : de 09h00 à 12h00 de 14h00 à 17h00\nLe Jeudi : de 14h00 à 17h00\nLe Vendredi : de 09h00 à 12h00 de 14h00 à 17h00","latitude":44.24888,"longitude":2.512892,"website":"https://www.mairie-calmont.fr/","hasWebsite":true,"hasHoraires":true,"url":"https://lannuaire.service-public.gouv.fr/occitanie/aveyron/36134ba1-93cd-4dd1-b6c1-973d8a26b2a8"}
{"nom":"Camarès","nomNormalise":"camares","typeCollectivite":"Commune","region":"Occitanie","departement":"Aveyron","departementCode":"12","adresse":{"street":"11 Grand'rue","postalCode":"12360","city":"Camarès","country":"France"},"contacts":{"email":"contact@camares.fr","telephone":"0565981520"},"horaires":"Du Lundi au Mardi : de 08h30 à 12h00\nDu Jeudi au Vendredi : de 08h30 à 12h00","latitude":43.82165,"longitude":2.878437,"website":"","hasWebsite":false,"hasHoraires":true,"url":"https://lannuaire.service-public.gouv.fr/occitanie/aveyron/529da9a9-7d90-489b-844f-e3fc972805ed"}
{"nom":"Camboulazet","nomNormalise":"camboulazet","typeCollectivite":"Commune","region":"Occitanie","departement":"Aveyron","departementCode":"12","adresse":{"street":"36 place de la Mairie","postalCode":"12160","city":"Camboulazet","country":"France"},"contacts":{"email":"contact@camboulazet12.fr","telephone":"0565690242"},"horaires":"Le Lundi : de 09h00 à 12h00\nLe Mardi : de 09h00 à 12h00 de 14h00 à 18h00\nLe Jeudi : de 09h00 à 12h00\nLe Vendredi : de 09h00 à 12h00 de 14h00 à 18h00\nLe Samedi : de 10h00 à 12h00","latitude":44.228683,"longitude":2.442836,"website":"https://www.camboulazet12.fr/","hasWebsite":true,"hasHoraires":true,"url":"https://lannuaire.service-public.gouv.fr/occitanie/aveyron/0139cf1d-fbab-478d-a68d-75d05ca04306"}
{"nom":"Camjac","nomNormalise":"camjac","typeCollectivite":"Commune","region":"Occitanie","departement":"Aveyron","departementCode":"12","adresse":{"street":"La Croix-Rouge","postalCode":"12800","city":"Camjac","country":"France"},"contacts":{"email":"mairie.camjac@wanadoo.fr","telephone":"0565692085"},"horaires":"Du Mardi au Samedi : de 08h45 à 12h15","latitude":44.19805,"longitude":2.34192,"website":"http://www.camjac.fr/","hasWebsite":true,"hasHoraires":true,"url":"https://lannuaire.service-public.gouv.fr/occitanie/aveyron/41dadfa9-af50-48a5-8a0e-d543181a3d03"}
{"nom":"Campagnac","nomNormalise":"campagnac","typeCollectivite":"Commune","region":"Occitanie","departement":"Aveyron","departementCode":"12","adresse":{"street":"Rue de la Mairie","postalCode":"12560","city":"Campagnac","country":"France"},"contacts":{"email":"mairie@campagnac.fr","telephone":"0565704127"},"horaires":"Le Lundi : de 08h30 à 12h00\nLe Mercredi : de 08h30 à 12h00\nLe Vendredi : de 08h30 à 12h00","latitude":44.419163,"longitude":3.088276,"website":"https://www.campagnac.fr/","hasWebsite":true,"hasHoraires":true,"url":"https://lannuaire.service-public.gouv.fr/occitanie/aveyron/f6b1cdda-9686-4a53-b39b-e0977c8a605a"}
{"nom":"Campouriez","nomNormalise":"campouriez","typeCollectivite":"Commune","region":"Occitanie","departement":"Aveyron","departementCode":"12","adresse":{"street":"15 Place Charle de Louvrié","postalCode":"12460","city":"Campouriez","country":"France"},"contacts":{"email":"mairie@campouriez.fr","telephone":"0565448531"},"horaires":"Du Lundi au Vendredi : de 09h00 à 12h00 de 13h30 à 17h00","latitude":44.689537,"longitude":2.606594,"website":"https://www.campouriez.fr/","hasWebsite":true,"hasHoraires":true,"url":"https://lannuaire.service-public.gouv.fr/occitanie/aveyron/f7089e6b-cecc-44ae-851e-b96adfb64000"}
{"nom":"Campuac","nomNormalise":"campuac","typeCollectivite":"Commune","region":"Occitanie","departement":"Aveyron","departementCode":"12","adresse":{"street":"14 place de la Fontaine","postalCode":"12580","city":"Campuac","country":"France"},"contacts":{"email":"mairie@campuac.fr","telephone":"0565446145"},"horaires":"Du Mardi au Samedi : de 09h00 à 12h15","latitude":44.569347,"longitude":2.589938,"website":"https://www.campuac.fr/","hasWebsite":true,"hasHoraires":true,"url":"https://lannuaire.service-public.gouv.fr/occitanie/aveyron/ed597033-5006-4623-be66-e46c0ad1e229"}
{"nom":"Canet-de-Salars","nomNormalise":"canetdesalars","typeCollectivite":"Commune","region":"Occitanie","departement":"Aveyron","departementCode":"12","adresse":{"street":"5 avenue de Pareloup","postalCode":"12290","city":"Canet-de-Salars","country":"France"},"contacts":{"email":"mairie@canetdesalars.fr","telephone":"0565468404"},"horaires":"Du Lundi au Mercredi : de 10h00 à 12h00\nLe Vendredi : de 14h00 à 16h00","latitude":44.235306,"longitude":2.75252,"website":"","hasWebsite":false,"hasHoraires":true,"url":"https://lannuaire.service-public.gouv.fr/occitanie/aveyron/0ef2629f-2aff-4dc4-a9a7-0733b6fccdf9"}
{"nom":"Cantoin","nomNormalise":"cantoin","typeCollectivite":"Commune","region":"Occitanie","departement":"Aveyron","departementCode":"12","adresse":{"street":"10 place de la Mairie","postalCode":"12420","city":"Cantoin","country":"France"},"contacts":{"email":"mairie.cantoin@wanadoo.fr","telephone":"0565664315"},"horaires":"Du Lundi au Mardi : de 09h00 à 12h00\nDu Jeudi au Vendredi : de 09h00 à 12h00","latitude":44.83631,"longitude":2.813426,"website":"https://cantoin.com/","hasWebsite":true,"hasHoraires":true,"url":"https://lannuaire.service-public.gouv.fr/occitanie/aveyron/35be5fcd-eba8-4f66-9632-d09aaaf39bd5"}
{"nom":"Capdenac-Gare","nomNormalise":"capdenacgare","typeCollectivite":"Commune","region":"Occitanie","departement":"Aveyron","departementCode":"12","adresse":{"street":"1 avenue Albert-Thomas","postalCode":"12700","city":"Capdenac-Gare","country":"France"},"contacts":{"email":"contact@capdenacgare.fr","telephone":"0565802222"},"horaires":"Du Lundi au Vendredi : de 08h00 à 12h00 de 13h30 à 17h00","latitude":44.5744,"longitude":2.0805,"website":"https://www.capdenacgare.fr/","hasWebsite":true,"hasHoraires":true,"url":"https://lannuaire.service-public.gouv.fr/occitanie/aveyron/66fa8294-5f1d-4c80-821d-10d0538787fe"}
{"nom":"Cassagnes-Bégonhès","nomNormalise":"cassagnesbegonhes","typeCollectivite":"Commune","region":"Occitanie","departement":"Aveyron","departementCode":"12","adresse":{"street":"330 route de Lodève","postalCode":"12120","city":"Cassagnes-Bégonhès","country":"France"},"contacts":{"email":"accueil@cassagnes-begonhes.fr","telephone":"0565467009"},"horaires":"Du Lundi au Mercredi : de 09h00 à 12h00 de 14h00 à 17h00\nLe Jeudi : de 09h00 à 12h00\nLe Vendredi : de 09h00 à 12h00 de 14h00 à 17h00","latitude":44.167854,"longitude":2.530055,"website":"https://www.cassagnes-begonhes.fr/","hasWebsite":true,"hasHoraires":true,"url":"https://lannuaire.service-public.gouv.fr/occitanie/aveyron/4533e6ca-f0e6-41e1-acf4-5cd1ed9a969b"}
{"nom":"Cassuéjouls","nomNormalise":"cassuejouls","typeCollectivite":"Commune","region":"Occitanie","departement":"Aveyron","departementCode":"12","adresse":{"street":"7 Rue de la Mairie","postalCode":"12210","city":"Cassuéjouls","country":"France"},"contacts":{"email":"mairie@cassuejouls.fr","telephone":"0565443841"},"horaires":"Du Lundi au Mardi : de 08h00 à 12h00\nLe Jeudi : de 08h00 à 12h00","latitude":44.72656,"longitude":2.817873,"website":"https://www.cassuejouls.fr/","hasWebsite":true,"hasHoraires":true,"url":"https://lannuaire.service-public.gouv.fr/occitanie/aveyron/0720b6ea-5ac8-4aa5-81c5-2dd7e6ac15d7"}
{"nom":"Castanet","nomNormalise":"castanet","typeCollectivite":"Commune","region":"Occitanie","departement":"Aveyron","departementCode":"12","adresse":{"street":"20 place Jean-Boudou","postalCode":"12240","city":"Castanet","country":"France"},"contacts":{"email":"mairie@castanet12.fr","telephone":"0565699104"},"horaires":"Du Lundi au Vendredi : de 08h30 à 12h00","latitude":44.279022,"longitude":2.290242,"website":"https://www.castanet12.fr/","hasWebsite":true,"hasHoraires":true,"url":"https://lannuaire.service-public.gouv.fr/occitanie/aveyron/cf350301-bb98-4760-9def-ccc8bac19742"}
{"nom":"Castelmary","nomNormalise":"castelmary","typeCollectivite":"Commune","region":"Occitanie","departement":"Aveyron","departementCode":"12","adresse":{"street":"1915 route de la Salvetat","postalCode":"12800","city":"Castelmary","country":"France"},"contacts":{"email":"mairie@castelmary.fr","telephone":"0565722500"},"horaires":"Le Mercredi : de 08h30 à 12h30","latitude":44.169796,"longitude":2.251423,"website":"","hasWebsite":false,"hasHoraires":true,"url":"https://lannuaire.service-public.gouv.fr/occitanie/aveyron/52a263c5-da4d-44b4-84ad-707b71eec870"}
{"nom":"Castelnau-de-Mandailles","nomNormalise":"castelnaudemandailles","typeCollectivite":"Commune","region":"Occitanie","departement":"Aveyron","departementCode":"12","adresse":{"street":"9 rue de la Housse Galante","postalCode":"12500","city":"Castelnau-de-Mandailles","country":"France"},"contacts":{"email":"mairie@castelnaudemandailles.fr","telephone":"0565487145"},"horaires":"Du Lundi au Vendredi : de 09h00 à 12h00","latitude":44.53547,"longitude":2.88639,"website":"","hasWebsite":false,"hasHoraires":true,"url":"https://lannuaire.service-public.gouv.fr/occitanie/aveyron/7ad91b62-e2e9-4163-9b5e-c82b436da25f"}
{"nom":"Castelnau-Pégayrols","nomNormalise":"castelnaupegayrols","typeCollectivite":"Commune","region":"Occitanie","departement":"Aveyron","departementCode":"12","adresse":{"street":"Maison de services au public","postalCode":"12620","city":"Castelnau-Pégayrols","country":"France"},"contacts":{"email":"contact@castelnaupegayrols.fr","telephone":"0565620297"},"horaires":"Du Lundi au Mardi : de 09h00 à 12h00 de 13h30 à 16h30\nDu Jeudi au Vendredi : de 09h00 à 12h00 de 13h30 à 16h30\nLe Samedi : de 09h00 à 12h00","latitude":44.12961,"longitude":2.9313338,"website":"https://www.castelnaupegayrols.fr/","hasWebsite":true,"hasHoraires":true,"url":"https://lannuaire.service-public.gouv.fr/occitanie/aveyron/5f3d88c6-2eae-495e-8ad8-18ca64cb8833"}
{"nom":"Causse-et-Diège","nomNormalise":"causseetdiege","typeCollectivite":"Commune","region":"Occitanie","departement":"Aveyron","departementCode":"12","adresse":{"street":"Loupiac","postalCode":"12700","city":"Causse-et-Diège","country":"France"},"contacts":{"email":"secretariat.mairie@causseetdiege.fr","telephone":"0565646647"},"horaires":"Du Lundi au Mardi : de 14h00 à 17h00\nLe Mercredi : de 09h00 à 12h00\nLe Jeudi : de 11h00 à 12h00 de 14h00 à 17h00\nLe Vendredi : de 14h00 à 17h00","latitude":44.540787,"longitude":2.027691,"website":"https://www.causseetdiege.fr/","hasWebsite":true,"hasHoraires":true,"url":"https://lannuaire.service-public.gouv.fr/occitanie/aveyron/661df984-bcca-43dc-8691-869fc0b65f14"}
{"nom":"Centrès","nomNormalise":"centres","typeCollectivite":"Commune","region":"Occitanie","departement":"Aveyron","departementCode":"12","adresse":{"street":"394 route du Ségala","postalCode":"12120","city":"Centrès","country":"France"},"contacts":{"email":"mairie@centres.fr","telephone":"0565692301"},"horaires":"Du Lundi au Jeudi : de 13h00 à 17h30\nLe Vendredi : de 09h00 à 12h00","latitude":44.163548,"longitude":2.409253,"website":"https://www.centres.fr/","hasWebsite":true,"hasHoraires":true,"url":"https://lannuaire.service-public.gouv.fr/occitanie/aveyron/35e8b092-c761-4536-b5f0-0c4373e9b50b"}
{"nom":"Clairvaux-d'Aveyron","nomNormalise":"clairvauxdaveyron","typeCollectivite":"Commune","region":"Occitanie","departement":"Aveyron","departementCode":"12","adresse":{"street":"3 place de l'Ancienne-École","postalCode":"12330","city":"Clairvaux-d'Aveyron","country":"France"},"contacts":{"email":"contact@mairiedeclairvauxdaveyron.fr","telephone":"0565727109"},"horaires":"Du Lundi au Vendredi : de 08h00 à 12h00","latitude":44.41346,"longitude":2.4221644,"website":"http://mairiedeclairvauxdaveyron.fr/","hasWebsite":true,"hasHoraires":true,"url":"https://lannuaire.service-public.gouv.fr/occitanie/aveyron/2f65932c-01f8-4510-96a2-30903624c5d1"}
{"nom":"Colombiès","nomNormalise":"colombies","typeCollectivite":"Commune","region":"Occitanie","departement":"Aveyron","departementCode":"12","adresse":{"street":"141 rue de la Mairie","postalCode":"12240","city":"Colombiès","country":"France"},"contacts":{"email":"mairie@colombies.fr","telephone":"0565699212"},"horaires":"Du Lundi au Vendredi : de 08h00 à 12h00 de 14h00 à 17h00\nAccueil sur rendez-vous l'après-midi.","latitude":44.387398,"longitude":2.334783,"website":"https://www.colombies.fr/","hasWebsite":true,"hasHoraires":true,"url":"https://lannuaire.service-public.gouv.fr/occitanie/aveyron/e92b03d4-4f1f-4a1b-b116-a60ac4b8a440"}
{"nom":"Combret","nomNormalise":"combret","typeCollectivite":"Commune","region":"Occitanie","departement":"Aveyron","departementCode":"12","adresse":{"street":"Rue du Serre","postalCode":"12370","city":"Combret","country":"France"},"contacts":{"email":"mairie@combret-aveyron.fr","telephone":"0565996458"},"horaires":"Le Mardi : de 14h00 à 16h00\nLe Vendredi : de 10h00 à 12h00","latitude":43.842842,"longitude":2.673644,"website":"https://www.combret-aveyron.fr/","hasWebsite":true,"hasHoraires":true,"url":"https://lannuaire.service-public.gouv.fr/occitanie/aveyron/01a76b79-f6cc-49e2-930a-df099fc3a4a8"}
{"nom":"Compeyre","nomNormalise":"compeyre","typeCollectivite":"Commune","region":"Occitanie","departement":"Aveyron","departementCode":"12","adresse":{"street":"5 place du Perié","postalCode":"12520","city":"Compeyre","country":"France"},"contacts":{"email":"secretariat.mairie@compeyre.fr","telephone":"0565598792"},"horaires":"Le Lundi : de 09h00 à 13h00\nLe Jeudi : de 13h00 à 17h00","latitude":44.160927,"longitude":3.0998,"website":"https://www.compeyre.fr/","hasWebsite":true,"hasHoraires":true,"url":"https://lannuaire.service-public.gouv.fr/occitanie/aveyron/af3f7c4b-da57-4a0a-ab36-cbd4a172b80b"}
{"nom":"Compolibat","nomNormalise":"compolibat","typeCollectivite":"Commune","region":"Occitanie","departement":"Aveyron","departementCode":"12","adresse":{"street":"23 chemin des Sources","postalCode":"12350","city":"Compolibat","country":"France"},"contacts":{"email":"secretariat@compolibat.fr","telephone":"0565819550"},"horaires":"Du Lundi au Vendredi : de 09h00 à 12h00","latitude":44.377228,"longitude":2.195147,"website":"https://www.compolibat.fr/","hasWebsite":true,"hasHoraires":true,"url":"https://lannuaire.service-public.gouv.fr/occitanie/aveyron/93439fe8-f9d5-4456-985a-76e91da4e994"}
{"nom":"Comprégnac","nomNormalise":"compregnac","typeCollectivite":"Commune","region":"Occitanie","departement":"Aveyron","departementCode":"12","adresse":{"street":"4 Rue de la Mairie","postalCode":"12100","city":"Comprégnac","country":"France"},"contacts":{"email":"mairie@compregnac12.fr","telephone":"0565623106"},"horaires":"Le Lundi : de 14h15 à 18h15\nLe Mardi : de 14h15 à 18h00\nLe Vendredi : de 09h00 à 12h00","latitude":44.08291,"longitude":2.960778,"website":"https://www.compregnac12.fr/","hasWebsite":true,"hasHoraires":true,"url":"https://lannuaire.service-public.gouv.fr/occitanie/aveyron/e0c0b592-fb4b-46d2-a2d0-0381666d05b5"}
{"nom":"Comps-la-Grand-Ville","nomNormalise":"compslagrandville","typeCollectivite":"Commune","region":"Occitanie","departement":"Aveyron","departementCode":"12","adresse":{"street":"116 rue de la Vidarie","postalCode":"12120","city":"Comps-la-Grand-Ville","country":"France"},"contacts":{"email":"mairie@comps-lagrandville.fr","telephone":"0565741223"},"horaires":"Du Lundi au Jeudi : de 09h00 à 12h00 de 14h00 à 17h00\nLe Vendredi : de 09h00 à 12h00 de 14h30 à 16h00\nLe Samedi : de 09h00 à 11h00","latitude":44.2294,"longitude":2.56648,"website":"http://www.comps-lagrandville.fr/","hasWebsite":true,"hasHoraires":true,"url":"https://lannuaire.service-public.gouv.fr/occitanie/aveyron/16a10b2b-5547-46c3-aa7b-22dce53a8b86"}
{"nom":"Condom-d'Aubrac","nomNormalise":"condomdaubrac","typeCollectivite":"Commune","region":"Occitanie","departement":"Aveyron","departementCode":"12","adresse":{"street":"Le Bourg","postalCode":"12470","city":"Condom-d'Aubrac","country":"France"},"contacts":{"email":"mairie@condomdaubrac.fr","telephone":"0565442711"},"horaires":"Le Lundi : de 14h00 à 17h30\nLe Mardi : de 09h00 à 12h30\nLe Jeudi : de 14h00 à 17h30\nLe Vendredi : de 09h00 à 12h30","latitude":44.60429,"longitude":2.86509,"website":"https://www.condomdaubrac.fr/","hasWebsite":true,"hasHoraires":true,"url":"https://lannuaire.service-public.gouv.fr/occitanie/aveyron/87592c79-c609-4677-a46b-f24996b39af7"}
{"nom":"Connac","nomNormalise":"connac","typeCollectivite":"Commune","region":"Occitanie","departement":"Aveyron","departementCode":"12","adresse":{"street":"Le Bourg","postalCode":"12170","city":"Connac","country":"France"},"contacts":{"email":"contact@mairie-connac.fr","telephone":"0565740108"},"horaires":"Le Mardi : de 13h00 à 17h00\nLe Jeudi : de 08h00 à 12h00","latitude":44.020138,"longitude":2.601952,"website":"","hasWebsite":false,"hasHoraires":true,"url":"https://lannuaire.service-public.gouv.fr/occitanie/aveyron/971162c6-ecf1-444d-8c0c-fc7539584fcd"}
{"nom":"Conques-en-Rouergue","nomNormalise":"conquesenrouergue","typeCollectivite":"Commune","region":"Occitanie","departement":"Aveyron","departementCode":"12","adresse":{"street":"1 rue des Moulins","postalCode":"12320","city":"Conques-en-Rouergue","country":"France"},"contacts":{"email":"accueil@conques-en-rouergue.fr","telephone":"0565728360"},"horaires":"Du Mardi au Vendredi : de 09h00 à 12h00","latitude":44.5995,"longitude":2.397208,"website":"https://conques-en-rouergue.com/","hasWebsite":true,"hasHoraires":true,"url":"https://lannuaire.service-public.gouv.fr/occitanie/aveyron/244916c8-e514-4bd6-9258-ed96cbe5d571"}
{"nom":"Cornus","nomNormalise":"cornus","typeCollectivite":"Commune","region":"Occitanie","departement":"Aveyron","departementCode":"12","adresse":{"street":"60 avenue Charles-Andrieu","postalCode":"12540","city":"Cornus","country":"France"},"contacts":{"email":"accueil@mairie-cornus.fr","telephone":"0565993847"},"horaires":"Le Vendredi : de 09h00 à 12h00 de 14h00 à 17h00","latitude":43.903316,"longitude":3.178791,"website":"","hasWebsite":false,"hasHoraires":true,"url":"https://lannuaire.service-public.gouv.fr/occitanie/aveyron/3308e6f1-c000-499d-9d84-0852271a4e50"}
{"nom":"Coubisou","nomNormalise":"coubisou","typeCollectivite":"Commune","region":"Occitanie","departement":"Aveyron","departementCode":"12","adresse":{"street":"1814 route de Coubisou","postalCode":"12190","city":"Coubisou","country":"France"},"contacts":{"email":"mairie@coubisou.fr","telephone":"0565440492"},"horaires":"Du Lundi au Mardi : de 14h00 à 17h00\nLe Jeudi : de 09h30 à 12h00 de 14h00 à 17h00\nLe Vendredi : de 14h00 à 17h00","latitude":44.553158,"longitude":2.731936,"website":"https://www.coubisou.fr/","hasWebsite":true,"hasHoraires":true,"url":"https://lannuaire.service-public.gouv.fr/occitanie/aveyron/d91f44c1-bb83-4208-be34-3c6b5cb1d368"}
{"nom":"Coupiac","nomNormalise":"coupiac","typeCollectivite":"Commune","region":"Occitanie","departement":"Aveyron","departementCode":"12","adresse":{"street":"1 place de la Mairie","postalCode":"12550","city":"Coupiac","country":"France"},"contacts":{"email":"mairie@coupiacsudaveyron.fr","telephone":"0565997738"},"horaires":"Du Lundi au Mardi : de 09h00 à 12h00\nDu Jeudi au Vendredi : de 09h00 à 12h00","latitude":43.955673,"longitude":2.579504,"website":"https://www.coupiacsudaveyron.fr/","hasWebsite":true,"hasHoraires":true,"url":"https://lannuaire.service-public.gouv.fr/occitanie/aveyron/8d3d2450-1dd2-467b-9b1a-50b598237216"}
{"nom":"Cransac-les-Thermes","nomNormalise":"cransaclesthermes","typeCollectivite":"Commune","region":"Occitanie","departement":"Aveyron","departementCode":"12","adresse":{"street":"28 place de l'hôtel de ville","postalCode":"12110","city":"Cransac-les-Thermes","country":"France"},"contacts":{"email":"cransac@wanadoo.fr","telephone":"0565630355"},"horaires":"Du Lundi au Jeudi : de 08h00 à 12h00 de 13h30 à 17h30\nLe Vendredi : de 08h00 à 12h00","latitude":44.525,"longitude":2.28219,"website":"https://www.cransac-les-thermes.fr/","hasWebsite":true,"hasHoraires":true,"url":"https://lannuaire.service-public.gouv.fr/occitanie/aveyron/e6537e0a-d13f-40db-bc90-747b1476c08c"}
{"nom":"Creissels","nomNormalise":"creissels","typeCollectivite":"Commune","region":"Occitanie","departement":"Aveyron","departementCode":"12","adresse":{"street":"16 rue du Moulin-Haut","postalCode":"12100","city":"Creissels","country":"France"},"contacts":{"email":"accueil@creissels.fr","telephone":"0565601652"},"horaires":"Le Lundi : de 09h00 à 12h00 de 14h00 à 18h00\nLe Mardi : de 09h00 à 12h00\nDu Mercredi au Jeudi : de 09h00 à 12h00 de 14h00 à 18h00\nLe Vendredi : de 09h00 à 12h00","latitude":44.0848,"longitude":3.062556,"website":"https://www.creissels.fr/","hasWebsite":true,"hasHoraires":true,"url":"https://lannuaire.service-public.gouv.fr/occitanie/aveyron/1ffd111c-3c4f-45b8-a320-0ce0b42de4f4"}
{"nom":"Crespin","nomNormalise":"crespin","typeCollectivite":"Commune","region":"Occitanie","departement":"Aveyron","departementCode":"12","adresse":{"street":"36 Rue de la Mairie","postalCode":"12800","city":"Crespin","country":"France"},"contacts":{"email":"mairie-de-crespin@wanadoo.fr","telephone":"0565692335"},"horaires":"Le Mardi : de 09h00 à 12h00\nLe Jeudi : de 09h00 à 12h00","latitude":44.161823,"longitude":2.28473,"website":"","hasWebsite":false,"hasHoraires":true,"url":"https://lannuaire.service-public.gouv.fr/occitanie/aveyron/0a306495-8c3b-44d2-876e-449cfbe25799"}
{"nom":"Curan","nomNormalise":"curan","typeCollectivite":"Commune","region":"Occitanie","departement":"Aveyron","departementCode":"12","adresse":{"street":"1 place du Tilleul","postalCode":"12410","city":"Curan","country":"France"},"contacts":{"email":"mairie@curan.fr","telephone":"0565463589"},"horaires":"Du Lundi au Samedi : de 09h00 à 12h00\nAccueil ouvert uniquement les 1er et 3e samedis du mois.","latitude":44.198547,"longitude":2.854107,"website":"https://www.curan.fr/","hasWebsite":true,"hasHoraires":true,"url":"https://lannuaire.service-public.gouv.fr/occitanie/aveyron/04c6b4c9-eb13-4fc7-9e32-6433ead530c6"}
{"nom":"Curières","nomNormalise":"curieres","typeCollectivite":"Commune","region":"Occitanie","departement":"Aveyron","departementCode":"12","adresse":{"street":"16 place de l'Oratoire","postalCode":"12210","city":"Curières","country":"France"},"contacts":{"email":"accueil@curieres.fr","telephone":"0565443694"},"horaires":"Du Lundi au Mardi : de 09h00 à 12h00\nDu Jeudi au Vendredi : de 09h00 à 12h00","latitude":44.652042,"longitude":2.865154,"website":"https://www.curieres.fr/","hasWebsite":true,"hasHoraires":true,"url":"https://lannuaire.service-public.gouv.fr/occitanie/aveyron/b6337585-82f1-41b3-9546-62ca5045a12b"}
{"nom":"Decazeville","nomNormalise":"decazeville","typeCollectivite":"Commune","region":"Occitanie","departement":"Aveyron","departementCode":"12","adresse":{"street":"Place Decazes","postalCode":"12300","city":"Decazeville","country":"France"},"contacts":{"email":"mairie@decazeville.fr","telephone":"0565438700"},"horaires":"Du Lundi au Vendredi : de 09h00 à 12h00 de 13h30 à 17h30","latitude":44.5555,"longitude":2.25718,"website":"https://decazeville.fr/","hasWebsite":true,"hasHoraires":true,"url":"https://lannuaire.service-public.gouv.fr/occitanie/aveyron/dba0d993-674e-4409-90b4-87096123235d"}
{"nom":"Druelle Balsac","nomNormalise":"druellebalsac","typeCollectivite":"Commune","region":"Occitanie","departement":"Aveyron","departementCode":"12","adresse":{"street":"2 rue du Stade","postalCode":"12510","city":"Druelle Balsac","country":"France"},"contacts":{"email":"mairie@druellebalsac.fr","telephone":"0565693640"},"horaires":"Du Lundi au Jeudi : de 08h30 à 12h00 de 13h30 à 17h30\nLe Vendredi : de 08h30 à 17h30","latitude":44.37011,"longitude":2.516572,"website":"https://www.druellebalsac.fr/","hasWebsite":true,"hasHoraires":true,"url":"https://lannuaire.service-public.gouv.fr/occitanie/aveyron/dab355a1-ebd8-4d7b-8673-09577dcd0d1d"}
{"nom":"Drulhe","nomNormalise":"drulhe","typeCollectivite":"Commune","region":"Occitanie","departement":"Aveyron","departementCode":"12","adresse":{"street":"42 place de l'Eglise Notre Dame","postalCode":"12350","city":"Drulhe","country":"France"},"contacts":{"email":"mairie@drulhe.fr","telephone":"0565806303"},"horaires":"Le Mardi : de 09h00 à 12h30 de 13h15 à 17h15\nLe Jeudi : de 09h00 à 12h30 de 13h15 à 17h15","latitude":44.46178,"longitude":2.12937,"website":"","hasWebsite":false,"hasHoraires":true,"url":"https://lannuaire.service-public.gouv.fr/occitanie/aveyron/b5da5b29-39b4-4d40-b37d-02cc29027a83"}
{"nom":"Durenque","nomNormalise":"durenque","typeCollectivite":"Commune","region":"Occitanie","departement":"Aveyron","departementCode":"12","adresse":{"street":"3244 Avenue du Lagast","postalCode":"12170","city":"Durenque","country":"France"},"contacts":{"email":"mairie@durenque.fr","telephone":"0565465803"},"horaires":"Du Lundi au Mardi : de 09h00 à 12h00 de 14h00 à 17h00\nLe Jeudi : de 09h00 à 12h00 de 14h00 à 17h00","latitude":44.109863,"longitude":2.619596,"website":"https://durenque.fr/","hasWebsite":true,"hasHoraires":true,"url":"https://lannuaire.service-public.gouv.fr/occitanie/aveyron/bf535727-2331-4d4c-add1-784db9843030"}
{"nom":"Entraygues-sur-Truyère","nomNormalise":"entrayguessurtruyere","typeCollectivite":"Commune","region":"Occitanie","departement":"Aveyron","departementCode":"12","adresse":{"street":"3 place de l'Église","postalCode":"12140","city":"Entraygues-sur-Truyère","country":"France"},"contacts":{"email":"contact@mairie-entraygues.fr","telephone":"0565445331"},"horaires":"Du Lundi au Vendredi : de 09h00 à 12h00\nSur rendez-vous l'après-midi.","latitude":44.644806,"longitude":2.56424,"website":"https://entraygues.fr/","hasWebsite":true,"hasHoraires":true,"url":"https://lannuaire.service-public.gouv.fr/occitanie/aveyron/4466d17b-96fb-489f-bb3c-477c8d0488b0"}
{"nom":"Escandolières","nomNormalise":"escandolieres","typeCollectivite":"Commune","region":"Occitanie","departement":"Aveyron","departementCode":"12","adresse":{"street":"2142 route de la Méridienne","postalCode":"12390","city":"Escandolières","country":"France"},"contacts":{"email":"mairie@escandolieres.fr","telephone":"0565634679"},"horaires":"Le Lundi : de 14h00 à 17h00\nDu Mercredi au Jeudi : de 14h00 à 17h00","latitude":44.462444,"longitude":2.3594458,"website":"https://www.escandolieres.fr/","hasWebsite":true,"hasHoraires":true,"url":"https://lannuaire.service-public.gouv.fr/occitanie/aveyron/4a6d7445-e81b-48a7-99a2-f46fb0d6ffc2"}
{"nom":"Espalion","nomNormalise":"espalion","typeCollectivite":"Commune","region":"Occitanie","departement":"Aveyron","departementCode":"12","adresse":{"street":"1 place de la Résistance","postalCode":"12500","city":"Espalion","country":"France"},"contacts":{"email":"mairie@espalion.fr","telephone":"0565511030"},"horaires":"Le Lundi : de 09h00 à 12h00 de 13h30 à 17h30\nDu Mardi au Jeudi : de 08h30 à 12h00 de 13h30 à 17h30\nLe Vendredi : de 09h00 à 12h00 de 13h30 à 17h00","latitude":44.52086,"longitude":2.761573,"website":"https://www.espalion.fr/","hasWebsite":true,"hasHoraires":true,"url":"https://lannuaire.service-public.gouv.fr/occitanie/aveyron/95d24ad3-a013-4f52-ab86-9209656de8cb"}
{"nom":"Espeyrac","nomNormalise":"espeyrac","typeCollectivite":"Commune","region":"Occitanie","departement":"Aveyron","departementCode":"12","adresse":{"street":"2 place de la Fontaine","postalCode":"12140","city":"Espeyrac","country":"France"},"contacts":{"email":"mairie-espeyrac@wanadoo.fr","telephone":"0565698869"},"horaires":"Du Lundi au Vendredi : de 08h00 à 12h00","latitude":44.612576,"longitude":2.51005,"website":"https://espeyrac-aveyron.com/","hasWebsite":true,"hasHoraires":true,"url":"https://lannuaire.service-public.gouv.fr/occitanie/aveyron/2756b0ea-2095-451f-9127-230786297d43"}
{"nom":"Estaing","nomNormalise":"estaing","typeCollectivite":"Commune","region":"Occitanie","departement":"Aveyron","departementCode":"12","adresse":{"street":"5 place Raynaldy","postalCode":"12190","city":"Estaing","country":"France"},"contacts":{"email":"mairie@estaing12.fr","telephone":"0565447032"},"horaires":"Du Lundi au Vendredi : de 09h00 à 12h00\nUniquement sur rendez-vous l'après-midi.","latitude":44.55508,"longitude":2.671297,"website":"https://www.estaing12.fr/","hasWebsite":true,"hasHoraires":true,"url":"https://lannuaire.service-public.gouv.fr/occitanie/aveyron/de91645d-1ed4-44f6-a1e3-e666eb44af90"}
{"nom":"Fayet","nomNormalise":"fayet","typeCollectivite":"Commune","region":"Occitanie","departement":"Aveyron","departementCode":"12","adresse":{"street":"Allée de la Ringade","postalCode":"12360","city":"Fayet","country":"France"},"contacts":{"email":"mairiedefayet@orange.fr","telephone":"0565495852"},"horaires":"Le Lundi : de 09h00 à 12h00\nLe Jeudi : de 09h00 à 12h00","latitude":43.802746,"longitude":2.948865,"website":"http://www.commune-de-fayet.com/","hasWebsite":true,"hasHoraires":true,"url":"https://lannuaire.service-public.gouv.fr/occitanie/aveyron/ad587f47-fc45-4564-85ce-fccd50f34c42"}
{"nom":"Firmi","nomNormalise":"firmi","typeCollectivite":"Commune","region":"Occitanie","departement":"Aveyron","departementCode":"12","adresse":{"street":"9 place de l'Hôtel-de-Ville","postalCode":"12300","city":"Firmi","country":"France"},"contacts":{"email":"contact@mairie-firmi.fr","telephone":"0565634302"},"horaires":"Le Lundi : de 08h00 à 12h00 de 13h30 à 17h00\nDu Mercredi au Vendredi : de 08h00 à 12h00 de 13h30 à 17h00","latitude":44.5411,"longitude":2.30733,"website":"https://www.mairie-firmi.fr/","hasWebsite":true,"hasHoraires":true,"url":"https://lannuaire.service-public.gouv.fr/occitanie/aveyron/7574a185-4cd8-4b00-9680-7d49cfdb6d0c"}
{"nom":"Flagnac","nomNormalise":"flagnac","typeCollectivite":"Commune","region":"Occitanie","departement":"Aveyron","departementCode":"12","adresse":{"street":"65 route de la Planque","postalCode":"12300","city":"Flagnac","country":"France"},"contacts":{"email":"mairie@flagnac.fr","telephone":"0565640106"},"horaires":"Du Lundi au Samedi : de 08h30 à 11h30","latitude":44.604366,"longitude":2.246734,"website":"https://www.flagnac.fr/","hasWebsite":true,"hasHoraires":true,"url":"https://lannuaire.service-public.gouv.fr/occitanie/aveyron/e03caa01-53ca-43e6-82f0-e82fdf70eee2"}
{"nom":"Flavin","nomNormalise":"flavin","typeCollectivite":"Commune","region":"Occitanie","departement":"Aveyron","departementCode":"12","adresse":{"street":"30 avenue du 11-Novembre","postalCode":"12450","city":"Flavin","country":"France"},"contacts":{"email":"contact@flavin.fr","telephone":"0565719433"},"horaires":"Du Lundi au Mardi : de 08h30 à 12h00 de 14h00 à 17h00\nLe Mercredi : de 14h00 à 17h00\nLe Jeudi : de 08h30 à 12h00 de 14h00 à 17h00\nLe Vendredi : de 08h30 à 12h00 de 14h00 à 16h00","latitude":44.2879,"longitude":2.60163,"website":"http://www.flavin.fr/","hasWebsite":true,"hasHoraires":true,"url":"https://lannuaire.service-public.gouv.fr/occitanie/aveyron/d1448cc5-fa15-4b99-b5e5-a2bdfab0862f"}
{"nom":"Florentin-la-Capelle","nomNormalise":"florentinlacapelle","typeCollectivite":"Commune","region":"Occitanie","departement":"Aveyron","departementCode":"12","adresse":{"street":"Le Bourg","postalCode":"12140","city":"Florentin-la-Capelle","country":"France"},"contacts":{"email":"mairie@florentin-la-capelle.fr","telephone":"0565444107"},"horaires":"Du Lundi au Vendredi : de 08h00 à 12h00","latitude":44.629242,"longitude":2.631021,"website":"https://www.florentin-la-capelle.fr/","hasWebsite":true,"hasHoraires":true,"url":"https://lannuaire.service-public.gouv.fr/occitanie/aveyron/5abd0769-e3af-48e1-9a6d-f65b86560906"}
{"nom":"Foissac","nomNormalise":"foissac","typeCollectivite":"Commune","region":"Occitanie","departement":"Aveyron","departementCode":"12","adresse":{"street":"Le Bourg","postalCode":"12260","city":"Foissac","country":"France"},"contacts":{"email":"foissac.mairie@wanadoo.fr","telephone":"0565646116"},"horaires":"Le Lundi : de 14h00 à 16h00\nDu Jeudi au Vendredi : de 14h00 à 16h00","latitude":44.510162,"longitude":2.00233,"website":"http://www.mairie-foissac.fr/","hasWebsite":true,"hasHoraires":true,"url":"https://lannuaire.service-public.gouv.fr/occitanie/aveyron/cdf0df61-d0d9-4d75-9cfd-eb996d1cced0"}
{"nom":"Fondamente","nomNormalise":"fondamente","typeCollectivite":"Commune","region":"Occitanie","departement":"Aveyron","departementCode":"12","adresse":{"street":"3029 Avenue du Larzac","postalCode":"12540","city":"Fondamente","country":"France"},"contacts":{"email":"mairie-fondamente@wanadoo.fr","telephone":"0565993705"},"horaires":"Le Lundi : de 14h00 à 18h00\nDu Jeudi au Vendredi : de 13h30 à 16h30","latitude":43.87589,"longitude":3.121175,"website":"","hasWebsite":false,"hasHoraires":true,"url":"https://lannuaire.service-public.gouv.fr/occitanie/aveyron/56b88aa0-27d3-4c0a-ad76-d236c788fc31"}
{"nom":"Gabriac","nomNormalise":"gabriac","typeCollectivite":"Commune","region":"Occitanie","departement":"Aveyron","departementCode":"12","adresse":{"street":"Route de Bozouls","postalCode":"12340","city":"Gabriac","country":"France"},"contacts":{"email":"mairie@gabriac.fr","telephone":"0565449284"},"horaires":"Du Lundi au Mardi : de 08h30 à 12h00\nLe Jeudi : de 08h30 à 12h00\nLe Vendredi : de 14h00 à 18h00","latitude":44.4682,"longitude":2.73323,"website":"https://www.gabriac.fr/","hasWebsite":true,"hasHoraires":true,"url":"https://lannuaire.service-public.gouv.fr/occitanie/aveyron/eadb5178-55d1-4008-ab0d-d622f3ff619c"}
{"nom":"Gaillac-d'Aveyron","nomNormalise":"gaillacdaveyron","typeCollectivite":"Commune","region":"Occitanie","departement":"Aveyron","departementCode":"12","adresse":{"street":"26 route des Cans","postalCode":"12310","city":"Gaillac-d'Aveyron","country":"France"},"contacts":{"email":"mairie@gaillacdaveyron.fr","telephone":"0565696568"},"horaires":"Du Lundi au Mardi : de 08h30 à 12h30 de 13h30 à 17h30\nLe Mercredi : de 08h30 à 12h30\n\nSur rendez-vous uniquement.\nLe Jeudi : de 08h30 à 12h30 de 13h30 à 17h30","latitude":44.355026,"longitude":2.929782,"website":"https://gaillacdaveyron.fr/","hasWebsite":true,"hasHoraires":true,"url":"https://lannuaire.service-public.gouv.fr/occitanie/aveyron/95ab0f7a-dbea-47fc-bb27-5d8be47a7c99"}
{"nom":"Galgan","nomNormalise":"galgan","typeCollectivite":"Commune","region":"Occitanie","departement":"Aveyron","departementCode":"12","adresse":{"street":"56 rue du Cantou","postalCode":"12220","city":"Galgan","country":"France"},"contacts":{"email":"mairie@galgan.fr","telephone":"0565804108"},"horaires":"Du Lundi au Mardi : de 13h00 à 16h45\nLe Mercredi : de 14h00 à 16h45\nDu Jeudi au Vendredi : de 13h00 à 16h45","latitude":44.502,"longitude":2.178495,"website":"https://www.galgan.fr/","hasWebsite":true,"hasHoraires":true,"url":"https://lannuaire.service-public.gouv.fr/occitanie/aveyron/c7032440-d0de-4d72-8207-f59841c9cae6"}
{"nom":"Gissac","nomNormalise":"gissac","typeCollectivite":"Commune","region":"Occitanie","departement":"Aveyron","departementCode":"12","adresse":{"street":"140 Route Gissac-Haut","postalCode":"12360","city":"Gissac","country":"France"},"contacts":{"email":"mairie@gissac.fr","telephone":"0565995718"},"horaires":"Le Vendredi : de 09h00 à 12h00","latitude":43.84631,"longitude":2.932027,"website":"","hasWebsite":false,"hasHoraires":true,"url":"https://lannuaire.service-public.gouv.fr/occitanie/aveyron/365d04a4-70f7-4dbc-93df-78b586328cda"}
{"nom":"Golinhac","nomNormalise":"golinhac","typeCollectivite":"Commune","region":"Occitanie","departement":"Aveyron","departementCode":"12","adresse":{"street":"Le Bourg","postalCode":"12140","city":"Golinhac","country":"France"},"contacts":{"email":"mairie@golinhac.fr","telephone":"0565445012"},"horaires":"Du Lundi au Samedi : de 08h30 à 12h00\nAccueil ouvert uniquement les 1er et 3e samedis du mois de 8h30 à12h.","latitude":44.60481,"longitude":2.582673,"website":"https://notremairiegolinhac.fr/","hasWebsite":true,"hasHoraires":true,"url":"https://lannuaire.service-public.gouv.fr/occitanie/aveyron/3a8021f9-48e6-4848-9389-ed0efee2b0ae"}
{"nom":"Goutrens","nomNormalise":"goutrens","typeCollectivite":"Commune","region":"Occitanie","departement":"Aveyron","departementCode":"12","adresse":{"street":"Le Bourg","postalCode":"12390","city":"Goutrens","country":"France"},"contacts":{"email":"mairie@goutrens.fr","telephone":"0565727124"},"horaires":"Le Lundi : de 08h30 à 12h30 de 13h30 à 19h00\nDu Mardi au Vendredi : de 08h30 à 12h30","latitude":44.442516,"longitude":2.370145,"website":"https://www.goutrens.fr/","hasWebsite":true,"hasHoraires":true,"url":"https://lannuaire.service-public.gouv.fr/occitanie/aveyron/ee157967-9d6f-4498-892d-8ed3234b3728"}
{"nom":"Gramond","nomNormalise":"gramond","typeCollectivite":"Commune","region":"Occitanie","departement":"Aveyron","departementCode":"12","adresse":{"street":"33 Rue Cérès","postalCode":"12160","city":"Gramond","country":"France"},"contacts":{"email":"mairie@gramond.fr","telephone":"0565690296"},"horaires":"Du Lundi au Mardi : de 09h00 à 12h00 de 14h00 à 16h30\nDu Jeudi au Vendredi : de 09h00 à 12h00 de 14h00 à 16h30","latitude":44.264977,"longitude":2.366895,"website":"https://www.gramond.fr/","hasWebsite":true,"hasHoraires":true,"url":"https://lannuaire.service-public.gouv.fr/occitanie/aveyron/9ee5c60d-5ffa-4f2a-bc16-101b87a15fcb"}
{"nom":"Huparlac","nomNormalise":"huparlac","typeCollectivite":"Commune","region":"Occitanie","departement":"Aveyron","departementCode":"12","adresse":{"street":"Le Bourg","postalCode":"12460","city":"Huparlac","country":"France"},"contacts":{"email":"mairie@huparlac.fr","telephone":"0565443620"},"horaires":"Du Lundi au Samedi : de 09h00 à 12h00","latitude":44.71248,"longitude":2.761407,"website":"","hasWebsite":false,"hasHoraires":true,"url":"https://lannuaire.service-public.gouv.fr/occitanie/aveyron/c59b401a-61f4-4095-82e4-a2c3be812755"}
{"nom":"L'Hospitalet-du-Larzac","nomNormalise":"lhospitaletdularzac","typeCollectivite":"Commune","region":"Occitanie","departement":"Aveyron","departementCode":"12","adresse":{"street":"20 Grand'rue","postalCode":"12230","city":"L'Hospitalet-du-Larzac","country":"France"},"contacts":{"email":"mairie@lhospitaletdularzac.fr","telephone":"0565627101"},"horaires":"Le Mardi : de 09h00 à 13h00\nLe Jeudi : de 09h00 à 13h00","latitude":43.97313,"longitude":3.195443,"website":"http://www.lhospitaletdularzac.fr/","hasWebsite":true,"hasHoraires":true,"url":"https://lannuaire.service-public.gouv.fr/occitanie/aveyron/e4599a37-700e-4d88-8983-8214ecaac4d9"}
{"nom":"La Bastide-Pradines","nomNormalise":"labastidepradines","typeCollectivite":"Commune","region":"Occitanie","departement":"Aveyron","departementCode":"12","adresse":{"street":"8 chemin des Baumes","postalCode":"12490","city":"La Bastide-Pradines","country":"France"},"contacts":{"email":"mairie@labastidepradines.fr","telephone":"0565627287"},"horaires":"Le Lundi : de 08h30 à 12h00\nLe Jeudi : de 08h30 à 12h00","latitude":44.00152,"longitude":3.046735,"website":"https://www.labastidepradines.fr/","hasWebsite":true,"hasHoraires":true,"url":"https://lannuaire.service-public.gouv.fr/occitanie/aveyron/f93b07b7-95c1-4060-985f-113428524e94"}
{"nom":"La Bastide-Solages","nomNormalise":"labastidesolages","typeCollectivite":"Commune","region":"Occitanie","departement":"Aveyron","departementCode":"12","adresse":{"street":"44 Chemin de la Vierge","postalCode":"12550","city":"La Bastide-Solages","country":"France"},"contacts":{"email":"mairie@la-bastide-solages.fr","telephone":"0565997472"},"horaires":"Le Lundi : de 14h00 à 17h30\nLe Jeudi : de 09h00 à 12h00","latitude":43.9456,"longitude":2.525,"website":"","hasWebsite":false,"hasHoraires":true,"url":"https://lannuaire.service-public.gouv.fr/occitanie/aveyron/01753f06-624f-43ee-bab2-a79465bb2651"}
{"nom":"La Capelle-Balaguier","nomNormalise":"lacapellebalaguier","typeCollectivite":"Commune","region":"Occitanie","departement":"Aveyron","departementCode":"12","adresse":{"street":"29 place de la Tour","postalCode":"12260","city":"La Capelle-Balaguier","country":"France"},"contacts":{"email":"mairie.lacapelle.balaguier@wanadoo.fr","telephone":"0565816345"},"horaires":"Le Lundi : de 09h00 à 12h00\nDu Mardi au Jeudi : de 14h00 à 17h00\nLe Vendredi : de 09h00 à 12h00","latitude":44.436874,"longitude":1.9360467,"website":"https://www.la-capelle-balaguier.fr/","hasWebsite":true,"hasHoraires":true,"url":"https://lannuaire.service-public.gouv.fr/occitanie/aveyron/56c1f33a-97c7-4c2b-90c0-d019227eda46"}
{"nom":"La Capelle-Bleys","nomNormalise":"lacapellebleys","typeCollectivite":"Commune","region":"Occitanie","departement":"Aveyron","departementCode":"12","adresse":{"street":"Le Bourg","postalCode":"12240","city":"La Capelle-Bleys","country":"France"},"contacts":{"email":"mairie.lacapellebleys@orange.fr","telephone":"0565655866"},"horaires":"Le Lundi : de 09h00 à 12h00\nDu Mardi au Vendredi : de 09h00 à 12h00 de 14h00 à 17h00","latitude":44.29483,"longitude":2.18272,"website":"https://www.lacapellebleys.fr/","hasWebsite":true,"hasHoraires":true,"url":"https://lannuaire.service-public.gouv.fr/occitanie/aveyron/cdb50a58-eec6-46e3-99c0-bc8ed5ddb593"}
{"nom":"La Capelle-Bonance","nomNormalise":"lacapellebonance","typeCollectivite":"Commune","region":"Occitanie","departement":"Aveyron","departementCode":"12","adresse":{"street":"1070 route du Bourg","postalCode":"12130","city":"La Capelle-Bonance","country":"France"},"contacts":{"email":"mairie.la.capelle.bonance@wanadoo.fr","telephone":"0565475285"},"horaires":"Le Lundi : de 13h30 à 17h00","latitude":44.44146,"longitude":3.011975,"website":"","hasWebsite":false,"hasHoraires":true,"url":"https://lannuaire.service-public.gouv.fr/occitanie/aveyron/509b81cc-2933-41fc-86bd-4999e133c515"}
{"nom":"La Cavalerie","nomNormalise":"lacavalerie","typeCollectivite":"Commune","region":"Occitanie","departement":"Aveyron","departementCode":"12","adresse":{"street":"Place de la Mairie","postalCode":"12230","city":"La Cavalerie","country":"France"},"contacts":{"email":"mairie@lacavalerie.fr","telephone":"0565627011"},"horaires":"Du Lundi au Jeudi : de 09h00 à 12h00 de 14h00 à 17h00\nLe Vendredi : de 09h00 à 12h00 de 14h00 à 16h00","latitude":44.0087,"longitude":3.15842,"website":"https://www.lacavalerie.fr/","hasWebsite":true,"hasHoraires":true,"url":"https://lannuaire.service-public.gouv.fr/occitanie/aveyron/476154e3-f07c-4959-800d-6a9e28860599"}
{"nom":"La Couvertoirade","nomNormalise":"lacouvertoirade","typeCollectivite":"Commune","region":"Occitanie","departement":"Aveyron","departementCode":"12","adresse":{"street":"Le Bourg","postalCode":"12230","city":"La Couvertoirade","country":"France"},"contacts":{"email":"mairie@lacouvertoirade.com","telephone":"0565585555"},"horaires":"Du Lundi au Vendredi : de 09h00 à 12h00","latitude":43.91294,"longitude":3.316196,"website":"https://lacouvertoirade.com/","hasWebsite":true,"hasHoraires":true,"url":"https://lannuaire.service-public.gouv.fr/occitanie/aveyron/b2dd2bab-008c-4d70-bacf-f14a72a3d7fa"}
{"nom":"La Cresse","nomNormalise":"lacresse","typeCollectivite":"Commune","region":"Occitanie","departement":"Aveyron","departementCode":"12","adresse":{"street":"Grand'Rue","postalCode":"12640","city":"La Cresse","country":"France"},"contacts":{"email":"contact@mairiedelacresse.fr","telephone":"0565590149"},"horaires":"Le Mardi : de 14h00 à 18h00\nLe Jeudi : de 14h00 à 18h00","latitude":44.177505,"longitude":3.129336,"website":"https://www.lacresse.fr/","hasWebsite":true,"hasHoraires":true,"url":"https://lannuaire.service-public.gouv.fr/occitanie/aveyron/e58c1888-8266-472b-8459-8c514aa51e9d"}
{"nom":"Lacroix-Barrez","nomNormalise":"lacroixbarrez","typeCollectivite":"Commune","region":"Occitanie","departement":"Aveyron","departementCode":"12","adresse":{"street":"1 rue du Ribatel","postalCode":"12600","city":"Lacroix-Barrez","country":"France"},"contacts":{"email":"mairie@lacroix-barrezencarladez.fr","telephone":"0565660327"},"horaires":"Du Lundi au Jeudi : de 08h30 à 12h00 de 14h00 à 17h30\nLe Vendredi : de 09h00 à 11h30","latitude":44.77796,"longitude":2.636036,"website":"https://lacroix-barrezencarladez.fr/","hasWebsite":true,"hasHoraires":true,"url":"https://lannuaire.service-public.gouv.fr/occitanie/aveyron/02ac94d0-9337-4140-ac68-c9247bf67f30"}
{"nom":"La Fouillade","nomNormalise":"lafouillade","typeCollectivite":"Commune","region":"Occitanie","departement":"Aveyron","departementCode":"12","adresse":{"street":"Place de la Mairie","postalCode":"12270","city":"La Fouillade","country":"France"},"contacts":{"email":"contact@la-fouillade.fr","telephone":"0565657113"},"horaires":"Le Lundi : de 08h30 à 12h00 de 14h00 à 17h30\nLe Mardi : de 08h30 à 12h00\nDu Mercredi au Vendredi : de 08h30 à 12h00 de 14h00 à 17h30","latitude":44.231224,"longitude":2.040805,"website":"https://la-fouillade.fr/","hasWebsite":true,"hasHoraires":true,"url":"https://lannuaire.service-public.gouv.fr/occitanie/aveyron/e6bd9bf1-c2e5-4192-8b01-a5823df4db94"}
{"nom":"Laguiole","nomNormalise":"laguiole","typeCollectivite":"Commune","region":"Occitanie","departement":"Aveyron","departementCode":"12","adresse":{"street":"5 place de la Mairie","postalCode":"12210","city":"Laguiole","country":"France"},"contacts":{"email":"mairie@laguiole12.fr","telephone":"0565512630"},"horaires":"Du Lundi au Vendredi : de 09h00 à 12h00\n\nSur rendez-vous du lundi au jeudi de 14h à 17h30\nSur rendez-vous du lundi au jeudi de 14h à 17h30","latitude":44.684093,"longitude":2.845923,"website":"https://www.laguiole12.fr/","hasWebsite":true,"hasHoraires":true,"url":"https://lannuaire.service-public.gouv.fr/occitanie/aveyron/5652d77d-fe84-4fce-9869-c5b924e49e9a"}
{"nom":"Laissac-Sévérac l'Église","nomNormalise":"laissacseveracleglise","typeCollectivite":"Commune","region":"Occitanie","departement":"Aveyron","departementCode":"12","adresse":{"street":"Laissac","postalCode":"12310","city":"Laissac-Sévérac l'Église","country":"France"},"contacts":{"email":"contact@laissac-severacleglise.fr","telephone":"0565696045"},"horaires":"Du Lundi au Vendredi : de 08h30 à 12h00 de 13h30 à 17h00","latitude":44.381046,"longitude":2.822406,"website":"https://www.laissac-severacleglise.fr/","hasWebsite":true,"hasHoraires":true,"url":"https://lannuaire.service-public.gouv.fr/occitanie/aveyron/28717e39-df1a-4302-95ce-2577000cb5da"}
{"nom":"La Loubière","nomNormalise":"laloubiere","typeCollectivite":"Commune","region":"Occitanie","departement":"Aveyron","departementCode":"12","adresse":{"street":"Lioujas","postalCode":"12740","city":"La Loubière","country":"France"},"contacts":{"email":"mairie@laloubiere.fr","telephone":"0565749284"},"horaires":"Du Lundi au Jeudi : de 08h30 à 12h30 de 13h40 à 17h30\nLe Vendredi : de 08h30 à 12h30 de 13h40 à 16h30","latitude":44.406876,"longitude":2.630733,"website":"https://laloubiere.fr/","hasWebsite":true,"hasHoraires":true,"url":"https://lannuaire.service-public.gouv.fr/occitanie/aveyron/02411e35-4eab-4fc3-b3b0-2242fe65bb62"}
{"nom":"Lanuéjouls","nomNormalise":"lanuejouls","typeCollectivite":"Commune","region":"Occitanie","departement":"Aveyron","departementCode":"12","adresse":{"street":"20 route des Jonquilles","postalCode":"12350","city":"Lanuéjouls","country":"France"},"contacts":{"email":"mairie@lanuejouls.fr","telephone":"0565819509"},"horaires":"Du Mardi au Vendredi : de 09h00 à 13h00\nLe Samedi : de 09h00 à 12h00","latitude":44.424816,"longitude":2.16151,"website":"http://www.lanuejouls.fr/","hasWebsite":true,"hasHoraires":true,"url":"https://lannuaire.service-public.gouv.fr/occitanie/aveyron/fe259c8e-1c3f-4a70-9b3e-4096c22444d0"}
{"nom":"Lapanouse-de-Cernon","nomNormalise":"lapanousedecernon","typeCollectivite":"Commune","region":"Occitanie","departement":"Aveyron","departementCode":"12","adresse":{"street":"19 rue de la Mairie","postalCode":"12230","city":"Lapanouse-de-Cernon","country":"France"},"contacts":{"email":"mairie@lapanousedecernon.fr","telephone":"0565627620"},"horaires":"Du Jeudi au Vendredi : de 09h00 à 16h00","latitude":43.995625,"longitude":3.098039,"website":"","hasWebsite":false,"hasHoraires":true,"url":"https://lannuaire.service-public.gouv.fr/occitanie/aveyron/35af5e76-883f-4dd0-8487-7822352f90fb"}
{"nom":"La Roque-Sainte-Marguerite","nomNormalise":"laroquesaintemarguerite","typeCollectivite":"Commune","region":"Occitanie","departement":"Aveyron","departementCode":"12","adresse":{"street":"Le Bourg","postalCode":"12100","city":"La Roque-Sainte-Marguerite","country":"France"},"contacts":{"email":"mairie@laroquesaintemarguerite.fr","telephone":"0565628100"},"horaires":"Le Lundi : de 09h00 à 17h00","latitude":44.130245,"longitude":3.222343,"website":"https://laroquesaintemarguerite.fr/","hasWebsite":true,"hasHoraires":true,"url":"https://lannuaire.service-public.gouv.fr/occitanie/aveyron/3d85e5ca-02da-4e8d-86e6-f05de048912b"}
{"nom":"La Rouquette","nomNormalise":"larouquette","typeCollectivite":"Commune","region":"Occitanie","departement":"Aveyron","departementCode":"12","adresse":{"street":"106 place du Bourg","postalCode":"12200","city":"La Rouquette","country":"France"},"contacts":{"email":"contact@larouquette.fr","telephone":"0565296098"},"horaires":"Du Lundi au Mardi : de 13h30 à 17h30\nLe Mercredi : de 09h00 à 12h00\nLe Jeudi : de 13h30 à 17h30\nLe Vendredi : de 13h30 à 19h00","latitude":44.302982,"longitude":1.972709,"website":"https://www.larouquette.org/","hasWebsite":true,"hasHoraires":true,"url":"https://lannuaire.service-public.gouv.fr/occitanie/aveyron/3da01b4c-e663-45c3-8cad-2ec9e5b9e526"}
{"nom":"La Salvetat-Peyralès","nomNormalise":"lasalvetatpeyrales","typeCollectivite":"Commune","region":"Occitanie","departement":"Aveyron","departementCode":"12","adresse":{"street":"8 rue du Tour-de-Ville","postalCode":"12440","city":"La Salvetat-Peyralès","country":"France"},"contacts":{"email":"mairie-salvetat-peyrales@orange.fr","telephone":"0565818016"},"horaires":"Du Mardi au Samedi : de 09h00 à 12h00","latitude":44.219322,"longitude":2.2019048,"website":"https://www.la-salvetat-peyrales.fr/","hasWebsite":true,"hasHoraires":true,"url":"https://lannuaire.service-public.gouv.fr/occitanie/aveyron/4dd63107-5fa0-4d01-9403-bdf0fc4cb91c"}
{"nom":"La Selve","nomNormalise":"laselve","typeCollectivite":"Commune","region":"Occitanie","departement":"Aveyron","departementCode":"12","adresse":{"street":"40 place du Clauzou","postalCode":"12170","city":"La Selve","country":"France"},"contacts":{"email":"mairie@laselve-aveyron.fr","telephone":"0565467313"},"horaires":"Du Lundi au Vendredi : de 08h30 à 12h00","latitude":44.112213,"longitude":2.534306,"website":"https://www.laselve-aveyron.fr/","hasWebsite":true,"hasHoraires":true,"url":"https://lannuaire.service-public.gouv.fr/occitanie/aveyron/118fc1b8-ae4e-4681-a9c1-5f000ea69da2"}
{"nom":"La Serre","nomNormalise":"laserre","typeCollectivite":"Commune","region":"Occitanie","departement":"Aveyron","departementCode":"12","adresse":{"street":"Anglas","postalCode":"12380","city":"La Serre","country":"France"},"contacts":{"email":"mairielaserre@wanadoo.fr","telephone":"0565996888"},"horaires":"Le Lundi : de 10h00 à 12h00\nLe Jeudi : de 14h00 à 17h00","latitude":43.88478,"longitude":2.682558,"website":"","hasWebsite":false,"hasHoraires":true,"url":"https://lannuaire.service-public.gouv.fr/occitanie/aveyron/fc805f97-3ed6-45f2-95be-6351c6246ea8"}
{"nom":"Lassouts","nomNormalise":"lassouts","typeCollectivite":"Commune","region":"Occitanie","departement":"Aveyron","departementCode":"12","adresse":{"street":"17 rue de la Mairie","postalCode":"12500","city":"Lassouts","country":"France"},"contacts":{"email":"mairie@lassouts.fr","telephone":"0565489109"},"horaires":"Le Lundi : de 14h00 à 17h00\nDu Mercredi au Vendredi : de 09h00 à 12h00","latitude":44.487465,"longitude":2.862836,"website":"https://www.lassouts.fr/","hasWebsite":true,"hasHoraires":true,"url":"https://lannuaire.service-public.gouv.fr/occitanie/aveyron/098bf8ee-2fc3-4fb8-95e0-f649ea1c3f47"}
{"nom":"Laval-Roquecezière","nomNormalise":"lavalroqueceziere","typeCollectivite":"Commune","region":"Occitanie","departement":"Aveyron","departementCode":"12","adresse":{"street":"La Claparède","postalCode":"12380","city":"Laval-Roquecezière","country":"France"},"contacts":{"email":"mairie@laval-roqueceziere.fr","telephone":"0565996866"},"horaires":"Le Lundi : de 09h30 à 12h00 de 14h00 à 16h30\nLe Jeudi : de 14h00 à 16h30","latitude":43.8071,"longitude":2.64789,"website":"","hasWebsite":false,"hasHoraires":true,"url":"https://lannuaire.service-public.gouv.fr/occitanie/aveyron/b71489e5-d4ff-483b-a654-7e9ef885ddf7"}
{"nom":"Le Bas-Ségala","nomNormalise":"lebassegala","typeCollectivite":"Commune","region":"Occitanie","departement":"Aveyron","departementCode":"12","adresse":{"street":"La Bastide-l'Évêque","postalCode":"12200","city":"Le Bas-Ségala","country":"France"},"contacts":{"email":"mairie@bassegala.fr","telephone":"0565299301"},"horaires":"Du Lundi au Vendredi : de 09h00 à 12h00","latitude":44.34064,"longitude":2.133897,"website":"https://www.mairie-lebassegala.fr/","hasWebsite":true,"hasHoraires":true,"url":"https://lannuaire.service-public.gouv.fr/occitanie/aveyron/ef4410f6-e0b4-478b-86a6-e5b4b5a039c1"}
{"nom":"Le Cayrol","nomNormalise":"lecayrol","typeCollectivite":"Commune","region":"Occitanie","departement":"Aveyron","departementCode":"12","adresse":{"street":"6 route de l'Aubrac","postalCode":"12500","city":"Le Cayrol","country":"France"},"contacts":{"email":"mairie@lecayrol.fr","telephone":"0565440138"},"horaires":"Le Lundi : de 09h00 à 12h00 de 14h00 à 17h00\nLe Mardi : de 09h00 à 12h00\nLe Mercredi : de 13h00 à 17h00\nLe Jeudi : de 09h00 à 12h00 de 14h00 à 17h00\nLe Vendredi : de 09h00 à 12h00","latitude":44.585476,"longitude":2.791645,"website":"https://www.lecayrol.fr/","hasWebsite":true,"hasHoraires":true,"url":"https://lannuaire.service-public.gouv.fr/occitanie/aveyron/da725a22-6f64-4978-8fc8-5af3fdb2267e"}
{"nom":"Le Clapier","nomNormalise":"leclapier","typeCollectivite":"Commune","region":"Occitanie","departement":"Aveyron","departementCode":"12","adresse":{"street":"3 Grand'rue Louis-Payre","postalCode":"12540","city":"Le Clapier","country":"France"},"contacts":{"email":"mairieduclapier@wanadoo.fr","telephone":"0565993245"},"horaires":"Le Mercredi : de 15h00 à 19h00\nLe Vendredi : de 15h00 à 19h00","latitude":43.831177,"longitude":3.173393,"website":"","hasWebsite":false,"hasHoraires":true,"url":"https://lannuaire.service-public.gouv.fr/occitanie/aveyron/f7e8726e-3619-41ba-9a2e-79cd52f1dd90"}
{"nom":"Lédergues","nomNormalise":"ledergues","typeCollectivite":"Commune","region":"Occitanie","departement":"Aveyron","departementCode":"12","adresse":{"street":"5 place Georges-Boulouys","postalCode":"12170","city":"Lédergues","country":"France"},"contacts":{"email":"mairie@ledergues.fr","telephone":"0565740191"},"horaires":"Le Lundi : de 09h00 à 12h00\nLe Mardi : de 09h00 à 12h00 de 13h30 à 16h30\nDu Mercredi au Jeudi : de 09h00 à 12h00\nLe Vendredi : de 09h00 à 12h00 de 13h30 à 16h30","latitude":44.088642,"longitude":2.439933,"website":"https://www.ledergues.fr/","hasWebsite":true,"hasHoraires":true,"url":"https://lannuaire.service-public.gouv.fr/occitanie/aveyron/353a5321-092b-4f69-ad34-50e7e378be57"}
{"nom":"Le Fel","nomNormalise":"lefel","typeCollectivite":"Commune","region":"Occitanie","departement":"Aveyron","departementCode":"12","adresse":{"street":"37 route du Vignoble","postalCode":"12140","city":"Le Fel","country":"France"},"contacts":{"email":"mairiedufel@orange.fr","telephone":"0565445186"},"horaires":"Le Mardi : de 09h00 à 12h00\nLe Jeudi : de 09h00 à 12h00 de 13h30 à 16h00\nLe Vendredi : de 13h30 à 16h00","latitude":44.653442,"longitude":2.506541,"website":"https://www.lefel.fr/","hasWebsite":true,"hasHoraires":true,"url":"https://lannuaire.service-public.gouv.fr/occitanie/aveyron/0c77dec0-7fdc-42b2-9084-578cbe7dc5fa"}
{"nom":"Le Monastère","nomNormalise":"lemonastere","typeCollectivite":"Commune","region":"Occitanie","departement":"Aveyron","departementCode":"12","adresse":{"street":"Place de la République","postalCode":"12000","city":"Le Monastère","country":"France"},"contacts":{"email":"mairie@lemonastere.fr","telephone":"0565425077"},"horaires":"Le Lundi : de 08h00 à 12h00\nDu Mardi au Mercredi : de 08h00 à 12h00 de 13h30 à 17h30\nLe Jeudi : de 08h00 à 12h00\nLe Vendredi : de 08h00 à 12h00 de 13h30 à 17h30","latitude":44.343,"longitude":2.5806,"website":"https://www.lemonastere.fr/","hasWebsite":true,"hasHoraires":true,"url":"https://lannuaire.service-public.gouv.fr/occitanie/aveyron/bce0014d-c38d-4e24-99cc-fc30170bcfa0"}
{"nom":"Le Nayrac","nomNormalise":"lenayrac","typeCollectivite":"Commune","region":"Occitanie","departement":"Aveyron","departementCode":"12","adresse":{"street":"38 route de Laguiole","postalCode":"12190","city":"Le Nayrac","country":"France"},"contacts":{"email":"contact@mairie-le-nayrac.fr","telephone":"0565444005"},"horaires":"Du Lundi au Vendredi : de 09h15 à 12h15","latitude":44.61371,"longitude":2.664108,"website":"https://mairie-le-nayrac.fr/","hasWebsite":true,"hasHoraires":true,"url":"https://lannuaire.service-public.gouv.fr/occitanie/aveyron/76c617a1-a29c-4ca9-aa35-cad5a910a2b4"}
{"nom":"Les Albres","nomNormalise":"lesalbres","typeCollectivite":"Commune","region":"Occitanie","departement":"Aveyron","departementCode":"12","adresse":{"street":"45 rue de la Mairie","postalCode":"12220","city":"Les Albres","country":"France"},"contacts":{"email":"mairielesalbres-aveyron@neuf.fr","telephone":"0565804264"},"horaires":"Du Lundi au Vendredi : de 09h00 à 12h00\nPermanence du maire sur rendez-vous uniquement.","latitude":44.537384,"longitude":2.173346,"website":"https://www.lesalbres.fr/","hasWebsite":true,"hasHoraires":true,"url":"https://lannuaire.service-public.gouv.fr/occitanie/aveyron/5e8b5850-bb65-4174-9341-8f9c8eda295a"}
{"nom":"Les Costes-Gozon","nomNormalise":"lescostesgozon","typeCollectivite":"Commune","region":"Occitanie","departement":"Aveyron","departementCode":"12","adresse":{"street":"2 rue Dieudonné de Gozon","postalCode":"12400","city":"Les Costes-Gozon","country":"France"},"contacts":{"email":"mairie@costesgozon.fr","telephone":"0565494522"},"horaires":"Le Mardi : de 14h00 à 16h00\nLe Vendredi : de 14h00 à 16h00","latitude":44.017704,"longitude":2.802375,"website":"","hasWebsite":false,"hasHoraires":true,"url":"https://lannuaire.service-public.gouv.fr/occitanie/aveyron/da7384fc-a1e4-4636-aeb6-987e388fa1a2"}
{"nom":"Lescure-Jaoul","nomNormalise":"lescurejaoul","typeCollectivite":"Commune","region":"Occitanie","departement":"Aveyron","departementCode":"12","adresse":{"street":"298 route de Cadoulette","postalCode":"12440","city":"Lescure-Jaoul","country":"France"},"contacts":{"email":"mairie.lescure-jaoul@wanadoo.fr","telephone":"0565818210"},"horaires":"Le Lundi : de 10h00 à 11h00\nLe Mardi : de 14h00 à 16h00\nLe Vendredi : de 14h00 à 16h00","latitude":44.22747,"longitude":2.16196,"website":"","hasWebsite":false,"hasHoraires":true,"url":"https://lannuaire.service-public.gouv.fr/occitanie/aveyron/490cd566-609b-4a64-b4e0-f4a7db0b37d2"}
{"nom":"Lestrade-et-Thouels","nomNormalise":"lestradeetthouels","typeCollectivite":"Commune","region":"Occitanie","departement":"Aveyron","departementCode":"12","adresse":{"street":"14 avenue l'Estrada-Albigesa","postalCode":"12430","city":"Lestrade-et-Thouels","country":"France"},"contacts":{"email":"mairie.lestradethouels@orange.fr","telephone":"0565465891"},"horaires":"Du Lundi au Vendredi : de 09h00 à 12h00","latitude":44.059536,"longitude":2.659958,"website":"","hasWebsite":false,"hasHoraires":true,"url":"https://lannuaire.service-public.gouv.fr/occitanie/aveyron/157b32b3-b4e0-42a6-a854-b122c85c40c6"}
{"nom":"Le Truel","nomNormalise":"letruel","typeCollectivite":"Commune","region":"Occitanie","departement":"Aveyron","departementCode":"12","adresse":{"street":"Le Bourg","postalCode":"12430","city":"Le Truel","country":"France"},"contacts":{"email":"commune@letruel.fr","telephone":"0565465766"},"horaires":"Du Lundi au Jeudi : de 09h00 à 12h00\nLe Vendredi : de 09h00 à 12h00 de 14h00 à 17h00","latitude":44.2161,"longitude":3.15031,"website":"https://www.letruel.fr/","hasWebsite":true,"hasHoraires":true,"url":"https://lannuaire.service-public.gouv.fr/occitanie/aveyron/ba3c4657-5149-407e-8da1-8754319eea1e"}
{"nom":"Le Vibal","nomNormalise":"levibal","typeCollectivite":"Commune","region":"Occitanie","departement":"Aveyron","departementCode":"12","adresse":{"street":"1977 Route de Laissac","postalCode":"12290","city":"Le Vibal","country":"France"},"contacts":{"email":"mairie@le-vibal.fr","telephone":"0565468546"},"horaires":"Du Lundi au Mercredi : de 09h00 à 12h00\nLe Jeudi : de 14h00 à 17h00\nLe Vendredi : de 09h00 à 12h00","latitude":44.315327,"longitude":2.755444,"website":"https://www.le-vibal.fr/","hasWebsite":true,"hasHoraires":true,"url":"https://lannuaire.service-public.gouv.fr/occitanie/aveyron/c479cda0-5558-4df0-b798-a3d3e6247bf0"}
{"nom":"Livinhac-le-Haut","nomNormalise":"livinhaclehaut","typeCollectivite":"Commune","region":"Occitanie","departement":"Aveyron","departementCode":"12","adresse":{"street":"Place du 14-Juin","postalCode":"12300","city":"Livinhac-le-Haut","country":"France"},"contacts":{"email":"mairie.livinhac-le-haut@wanadoo.fr","telephone":"0565633384"},"horaires":"Le Lundi : de 14h00 à 18h00\nLe Mardi : de 09h00 à 12h00\nDu Mercredi au Vendredi : de 14h00 à 18h00","latitude":44.5913,"longitude":2.23148,"website":"https://www.livinhac-le-haut.fr/","hasWebsite":true,"hasHoraires":true,"url":"https://lannuaire.service-public.gouv.fr/occitanie/aveyron/5bb74211-668c-43a3-ac7f-813e917b6cab"}
{"nom":"Luc-la-Primaube","nomNormalise":"luclaprimaube","typeCollectivite":"Commune","region":"Occitanie","departement":"Aveyron","departementCode":"12","adresse":{"street":"6 place du Bourg","postalCode":"12450","city":"Luc-la-Primaube","country":"France"},"contacts":{"email":"mairie@luc-la-primaube.fr","telephone":"0565713420"},"horaires":"Du Lundi au Mercredi : de 09h00 à 12h00 de 13h30 à 17h30\nLe Vendredi : de 09h00 à 12h00 de 13h30 à 17h30","latitude":44.314,"longitude":2.53579,"website":"https://www.luc-la-primaube.fr/","hasWebsite":true,"hasHoraires":true,"url":"https://lannuaire.service-public.gouv.fr/occitanie/aveyron/c98fc730-2e54-4d91-9eae-cbae8019ad00"}
{"nom":"Lugan","nomNormalise":"lugan","typeCollectivite":"Commune","region":"Occitanie","departement":"Aveyron","departementCode":"12","adresse":{"street":"15 place des Hospitaliers","postalCode":"12220","city":"Lugan","country":"France"},"contacts":{"email":"mairie@lugan-aveyron.fr","telephone":"0565806572"},"horaires":"Le Mardi : de 14h00 à 17h30\nLe Mercredi : de 09h00 à 12h30\nLe Vendredi : de 09h00 à 12h30","latitude":44.48196,"longitude":2.25958,"website":"https://www.lugan-aveyron.fr/","hasWebsite":true,"hasHoraires":true,"url":"https://lannuaire.service-public.gouv.fr/occitanie/aveyron/328a3e7c-7d57-450a-9861-93b402043448"}
{"nom":"Lunac","nomNormalise":"lunac","typeCollectivite":"Commune","region":"Occitanie","departement":"Aveyron","departementCode":"12","adresse":{"street":"61 Place Saint Jean Baptiste","postalCode":"12270","city":"Lunac","country":"France"},"contacts":{"email":"contact@lunac.fr","telephone":"0565814016"},"horaires":"Du Lundi au Mercredi : de 08h00 à 12h00\nLe Vendredi : de 08h00 à 12h00","latitude":44.279613,"longitude":2.101046,"website":"https://lunac-aveyron-rouergue.fr/","hasWebsite":true,"hasHoraires":true,"url":"https://lannuaire.service-public.gouv.fr/occitanie/aveyron/60210734-3c7a-479f-be67-103dcf0bf8ff"}
{"nom":"Maleville","nomNormalise":"maleville","typeCollectivite":"Commune","region":"Occitanie","departement":"Aveyron","departementCode":"12","adresse":{"street":"15 Place de l'Eglise","postalCode":"12350","city":"Maleville","country":"France"},"contacts":{"email":"contact@maleville.fr","telephone":"0565293020"},"horaires":"Le Lundi : de 09h00 à 13h00\nLe Mardi : de 09h00 à 12h30 de 13h30 à 17h30\nLe Jeudi : de 09h00 à 13h00\nLe Vendredi : de 09h00 à 12h30 de 13h30 à 17h30","latitude":44.396587,"longitude":2.101744,"website":"http://www.maleville.fr/","hasWebsite":true,"hasHoraires":true,"url":"https://lannuaire.service-public.gouv.fr/occitanie/aveyron/45dab0e1-ef14-4d95-a268-46a1db538ab5"}
{"nom":"Manhac","nomNormalise":"manhac","typeCollectivite":"Commune","region":"Occitanie","departement":"Aveyron","departementCode":"12","adresse":{"street":"15 chemin de l'Estang","postalCode":"12160","city":"Manhac","country":"France"},"contacts":{"email":"mairie@manhac.fr","telephone":"0565690353"},"horaires":"Du Lundi au Mardi : de 08h45 à 12h30 de 13h30 à 17h15\nDu Jeudi au Vendredi : de 08h45 à 12h30","latitude":44.25501,"longitude":2.470324,"website":"https://www.manhac.fr/","hasWebsite":true,"hasHoraires":true,"url":"https://lannuaire.service-public.gouv.fr/occitanie/aveyron/10ea5b79-8639-420c-9bca-6b6a12d01bb4"}
{"nom":"Marcillac-Vallon","nomNormalise":"marcillacvallon","typeCollectivite":"Commune","region":"Occitanie","departement":"Aveyron","departementCode":"12","adresse":{"street":"Tour-de-Ville","postalCode":"12330","city":"Marcillac-Vallon","country":"France"},"contacts":{"email":"mairie@marcillacvallon.fr","telephone":"0565717225"},"horaires":"Le Lundi : de 08h30 à 12h30 de 13h30 à 18h30\nLe Mardi : de 08h30 à 12h30\nLe Mercredi : de 08h30 à 12h30 de 13h30 à 17h30\nLe Jeudi : de 08h30 à 12h30\nLe Vendredi : de 08h30 à 12h30 de 13h30 à 17h30","latitude":44.4743,"longitude":2.46436,"website":"https://www.marcillacvallon.fr/","hasWebsite":true,"hasHoraires":true,"url":"https://lannuaire.service-public.gouv.fr/occitanie/aveyron/27cf6379-b373-41dd-85bd-d3dc6052810e"}
{"nom":"Marnhagues-et-Latour","nomNormalise":"marnhaguesetlatour","typeCollectivite":"Commune","region":"Occitanie","departement":"Aveyron","departementCode":"12","adresse":{"street":"1 rue de la Mairie","postalCode":"12540","city":"Marnhagues-et-Latour","country":"France"},"contacts":{"email":"latour.mairie12@orange.fr","telephone":"0565993846"},"horaires":"Du Lundi au Mardi : de 09h00 à 12h00 de 14h00 à 17h00\nLe Mercredi : de 09h00 à 12h00\nDu Jeudi au Vendredi : de 09h00 à 12h00 de 14h00 à 17h00","latitude":43.88506,"longitude":3.05948,"website":"https://www.marnhagues-et-latour.fr/","hasWebsite":true,"hasHoraires":true,"url":"https://lannuaire.service-public.gouv.fr/occitanie/aveyron/b3fe8e7c-d849-4461-8c90-c4daf2d48ac1"}
{"nom":"Martiel","nomNormalise":"martiel","typeCollectivite":"Commune","region":"Occitanie","departement":"Aveyron","departementCode":"12","adresse":{"street":"41 rue de la Poste","postalCode":"12200","city":"Martiel","country":"France"},"contacts":{"email":"accueil@martiel.fr","telephone":"0565294120"},"horaires":"Du Lundi au Mardi : de 08h30 à 12h00 de 13h30 à 17h00\nLe Mercredi : de 08h30 à 12h00\nLe Vendredi : de 08h30 à 12h00 de 13h30 à 16h30","latitude":44.376778,"longitude":1.923258,"website":"https://www.martiel.fr/","hasWebsite":true,"hasHoraires":true,"url":"https://lannuaire.service-public.gouv.fr/occitanie/aveyron/26cf6387-9c79-4581-91fd-698f1f336594"}
{"nom":"Martrin","nomNormalise":"martrin","typeCollectivite":"Commune","region":"Occitanie","departement":"Aveyron","departementCode":"12","adresse":{"street":"Route de l'École","postalCode":"12550","city":"Martrin","country":"France"},"contacts":{"email":"mairie@martrin.fr","telephone":"0565997965"},"horaires":"Du Mardi au Jeudi : de 09h00 à 12h00","latitude":43.938442,"longitude":2.6187725,"website":"https://martrin.jimdo.com/","hasWebsite":true,"hasHoraires":true,"url":"https://lannuaire.service-public.gouv.fr/occitanie/aveyron/9e81fadb-126a-4298-b634-4207827b6632"}
{"nom":"Mayran","nomNormalise":"mayran","typeCollectivite":"Commune","region":"Occitanie","departement":"Aveyron","departementCode":"12","adresse":{"street":"1 place de la Mairie","postalCode":"12390","city":"Mayran","country":"France"},"contacts":{"email":"secretariat-mairie@mayran.fr","telephone":"0565645124"},"horaires":"Du Mardi au Samedi : de 08h00 à 12h00","latitude":44.388157,"longitude":2.363441,"website":"https://www.mayran.fr/","hasWebsite":true,"hasHoraires":true,"url":"https://lannuaire.service-public.gouv.fr/occitanie/aveyron/301fc87c-955c-4948-af21-976d06f615ac"}
{"nom":"Mélagues","nomNormalise":"melagues","typeCollectivite":"Commune","region":"Occitanie","departement":"Aveyron","departementCode":"12","adresse":{"street":"Le Bourg","postalCode":"12360","city":"Mélagues","country":"France"},"contacts":{"email":"mairie@melagues.fr","telephone":"0565995303"},"horaires":"Le Mardi : de 08h00 à 14h00\nLe Samedi : de 15h00 à 17h00\n\nPermanence du maire uniquement sur rendez-vous.","latitude":43.73874,"longitude":3.01824,"website":"https://melagues.fr/mairie/","hasWebsite":true,"hasHoraires":true,"url":"https://lannuaire.service-public.gouv.fr/occitanie/aveyron/97c07248-5ad1-46a6-90ce-ebc5e11680ef"}
{"nom":"Meljac","nomNormalise":"meljac","typeCollectivite":"Commune","region":"Occitanie","departement":"Aveyron","departementCode":"12","adresse":{"street":"Le Bourg","postalCode":"12120","city":"Meljac","country":"France"},"contacts":{"email":"mairie.meljac@wanadoo.fr","telephone":"0565467023"},"horaires":"Le Lundi : de 13h30 à 16h30\nLe Jeudi : de 13h30 à 16h30","latitude":44.13791,"longitude":2.435356,"website":"","hasWebsite":false,"hasHoraires":true,"url":"https://lannuaire.service-public.gouv.fr/occitanie/aveyron/440ddccc-25b4-4d0d-b27d-f6f091bd91b5"}
{"nom":"Millau","nomNormalise":"millau","typeCollectivite":"Commune","region":"Occitanie","departement":"Aveyron","departementCode":"12","adresse":{"street":"17 avenue de la République","postalCode":"12100","city":"Millau","country":"France"},"contacts":{"email":"contact@millau.fr","telephone":"0565595000"},"horaires":"Du Lundi au Vendredi : de 08h00 à 12h00 de 13h30 à 17h30","latitude":44.10071,"longitude":3.07787,"website":"https://www.millau.fr/","hasWebsite":true,"hasHoraires":true,"url":"https://lannuaire.service-public.gouv.fr/occitanie/aveyron/b6597652-a52b-4894-83e4-e8e8a2bb20ce"}
{"nom":"Montagnol","nomNormalise":"montagnol","typeCollectivite":"Commune","region":"Occitanie","departement":"Aveyron","departementCode":"12","adresse":{"street":"43 rue de la Mairie","postalCode":"12360","city":"Montagnol","country":"France"},"contacts":{"email":"mairie@montagnol.fr","telephone":"0565495919"},"horaires":"Le Mardi : de 09h30 à 11h30\nLe Mercredi : de 09h00 à 12h00\nLe Jeudi : de 09h30 à 11h30","latitude":43.837948,"longitude":3.013114,"website":"https://www.montagnol.fr/","hasWebsite":true,"hasHoraires":true,"url":"https://lannuaire.service-public.gouv.fr/occitanie/aveyron/5eb15175-680d-4f9b-b89c-6f7b58efc303"}
{"nom":"Montbazens","nomNormalise":"montbazens","typeCollectivite":"Commune","region":"Occitanie","departement":"Aveyron","departementCode":"12","adresse":{"street":"20 place de l'Église","postalCode":"12220","city":"Montbazens","country":"France"},"contacts":{"email":"mairie.montbazens@wanadoo.fr","telephone":"0565806006"},"horaires":"Du Lundi au Vendredi : de 09h00 à 12h00 de 14h00 à 17h30","latitude":44.477165,"longitude":2.229463,"website":"https://www.montbazens.fr/","hasWebsite":true,"hasHoraires":true,"url":"https://lannuaire.service-public.gouv.fr/occitanie/aveyron/8560b816-24ff-4725-a620-955e5f29ee9e"}
{"nom":"Montclar","nomNormalise":"montclar","typeCollectivite":"Commune","region":"Occitanie","departement":"Aveyron","departementCode":"12","adresse":{"street":"183 rue Bella Vista","postalCode":"12550","city":"Montclar","country":"France"},"contacts":{"email":"mairie@montclar12.fr","telephone":"0565997506"},"horaires":"Le Lundi : de 09h00 à 12h00 de 14h00 à 17h00\nLe Mardi : de 09h00 à 12h00\nLe Jeudi : de 09h00 à 12h00\nLe Vendredi : de 09h00 à 12h00 de 14h00 à 17h00","latitude":43.967587,"longitude":2.648125,"website":"","hasWebsite":false,"hasHoraires":true,"url":"https://lannuaire.service-public.gouv.fr/occitanie/aveyron/a7b93347-0684-48dd-bf64-341d212553c3"}
{"nom":"Monteils","nomNormalise":"monteils","typeCollectivite":"Commune","region":"Occitanie","departement":"Aveyron","departementCode":"12","adresse":{"street":"26 place de la Tour","postalCode":"12200","city":"Monteils","country":"France"},"contacts":{"email":"monteils@wanadoo.fr","telephone":"0565296348"},"horaires":"Du Lundi au Mardi : de 16h00 à 19h00\nDu Jeudi au Vendredi : de 16h00 à 19h00","latitude":44.264805,"longitude":1.9975088,"website":"http://www.monteils.fr/","hasWebsite":true,"hasHoraires":true,"url":"https://lannuaire.service-public.gouv.fr/occitanie/aveyron/b5de3bc1-6f60-4c96-a33c-a81fac232c27"}
{"nom":"Montézic","nomNormalise":"montezic","typeCollectivite":"Commune","region":"Occitanie","departement":"Aveyron","departementCode":"12","adresse":{"street":"2 Rue Principale","postalCode":"12460","city":"Montézic","country":"France"},"contacts":{"email":"mairie@montezic.fr","telephone":"0565448808"},"horaires":"Le Lundi : de 08h30 à 12h30 de 13h30 à 17h30\nLe Mardi : de 08h30 à 12h30\nDu Jeudi au Vendredi : de 08h30 à 12h30","latitude":44.70832,"longitude":2.640237,"website":"","hasWebsite":false,"hasHoraires":true,"url":"https://lannuaire.service-public.gouv.fr/occitanie/aveyron/40f4fe61-2900-4975-b89d-48717b9b5f04"}
{"nom":"Montfranc","nomNormalise":"montfranc","typeCollectivite":"Commune","region":"Occitanie","departement":"Aveyron","departementCode":"12","adresse":{"street":"Le Bourg","postalCode":"12380","city":"Montfranc","country":"France"},"contacts":{"email":"mairiemontfranc@orange.fr","telephone":"0565996624"},"horaires":"Le Jeudi : de 09h00 à 17h00","latitude":43.843643,"longitude":2.56764,"website":"","hasWebsite":false,"hasHoraires":true,"url":"https://lannuaire.service-public.gouv.fr/occitanie/aveyron/578e2443-5c38-4fdf-a1ed-adbb36e842e4"}
{"nom":"Montjaux","nomNormalise":"montjaux","typeCollectivite":"Commune","region":"Occitanie","departement":"Aveyron","departementCode":"12","adresse":{"street":"Rue de la Mairie","postalCode":"12490","city":"Montjaux","country":"France"},"contacts":{"email":"mairie.montjaux@wanadoo.fr","telephone":"0565625361"},"horaires":"Du Lundi au Mardi : de 09h00 à 12h00\nDu Jeudi au Vendredi : de 09h00 à 12h00","latitude":44.082863,"longitude":2.9607995,"website":"https://www.montjaux.fr/","hasWebsite":true,"hasHoraires":true,"url":"https://lannuaire.service-public.gouv.fr/occitanie/aveyron/6e0affd7-d030-49cc-b1a2-e0d403e0f6c3"}
{"nom":"Montlaur","nomNormalise":"montlaur","typeCollectivite":"Commune","region":"Occitanie","departement":"Aveyron","departementCode":"12","adresse":{"street":"29 Place de la Mairie","postalCode":"12400","city":"Montlaur","country":"France"},"contacts":{"email":"communedemontlaur@orange.fr","telephone":"0565998485"},"horaires":"Du Lundi au Vendredi : de 09h00 à 12h00","latitude":43.87907,"longitude":2.8340156,"website":"http://www.mairie-montlaur.com/","hasWebsite":true,"hasHoraires":true,"url":"https://lannuaire.service-public.gouv.fr/occitanie/aveyron/e226649c-2755-4846-81f7-170bc6e09a70"}
{"nom":"Montpeyroux","nomNormalise":"montpeyroux","typeCollectivite":"Commune","region":"Occitanie","departement":"Aveyron","departementCode":"12","adresse":{"street":"Saint-Rémy","postalCode":"12210","city":"Montpeyroux","country":"France"},"contacts":{"email":"mairie@montpeyroux12.fr","telephone":"0565443800"},"horaires":"Le Mardi : de 09h00 à 11h30 de 14h00 à 16h30\nDu Mercredi au Jeudi : de 09h00 à 11h30\nLe Samedi : de 09h00 à 11h30","latitude":44.6385,"longitude":2.81126,"website":"","hasWebsite":false,"hasHoraires":true,"url":"https://lannuaire.service-public.gouv.fr/occitanie/aveyron/fd1f6032-d3b2-4861-8169-fb8ced9b1377"}
{"nom":"Montrozier","nomNormalise":"montrozier","typeCollectivite":"Commune","region":"Occitanie","departement":"Aveyron","departementCode":"12","adresse":{"street":"Gages","postalCode":"12630","city":"Montrozier","country":"France"},"contacts":{"email":"mairie@gages-montrozier.fr","telephone":"0565422932"},"horaires":"Le Lundi : de 13h30 à 17h30\nLe Mardi : de 13h30 à 17h30\nLe Mercredi : de 08h00 à 12h00\nDu Jeudi au Vendredi : de 08h00 à 12h00 de 13h30 à 17h30\nLe Samedi : de 08h00 à 12h00","latitude":44.40606,"longitude":2.74682,"website":"https://www.gages-montrozier.fr/","hasWebsite":true,"hasHoraires":true,"url":"https://lannuaire.service-public.gouv.fr/occitanie/aveyron/03c622a8-2c1c-413b-b884-ec5ce8ff8013"}
{"nom":"Montsalès","nomNormalise":"montsales","typeCollectivite":"Commune","region":"Occitanie","departement":"Aveyron","departementCode":"12","adresse":{"street":"64 Place de la Mairie","postalCode":"12260","city":"Montsalès","country":"France"},"contacts":{"email":"mairie.montsales@gmail.com","telephone":"0565815603"},"horaires":"Le Mardi : de 14h00 à 17h30\nLe Jeudi : de 08h15 à 11h45\nLe Vendredi : de 13h30 à 17h30","latitude":44.491302,"longitude":1.961135,"website":"","hasWebsite":false,"hasHoraires":true,"url":"https://lannuaire.service-public.gouv.fr/occitanie/aveyron/02bb8270-aa03-4647-b269-44716f95d7d0"}
{"nom":"Morlhon-le-Haut","nomNormalise":"morlhonlehaut","typeCollectivite":"Commune","region":"Occitanie","departement":"Aveyron","departementCode":"12","adresse":{"street":"100 route des Charrons","postalCode":"12200","city":"Morlhon-le-Haut","country":"France"},"contacts":{"email":"mairie@morlhon.fr","telephone":"0565299489"},"horaires":"Du Lundi au Mardi : de 09h00 à 13h00\nLe Mercredi : de 09h00 à 12h30\nLe Vendredi : de 09h00 à 13h00","latitude":44.324833,"longitude":2.062366,"website":"https://www.morlhon.fr/","hasWebsite":true,"hasHoraires":true,"url":"https://lannuaire.service-public.gouv.fr/occitanie/aveyron/9925f8f2-dbdd-4e2d-b936-6a27022a9d23"}
{"nom":"Mostuéjouls","nomNormalise":"mostuejouls","typeCollectivite":"Commune","region":"Occitanie","departement":"Aveyron","departementCode":"12","adresse":{"street":"La Peyrouse","postalCode":"12720","city":"Mostuéjouls","country":"France"},"contacts":{"email":"contact@mostuejouls.fr","telephone":"0565626043"},"horaires":"Le Lundi : de 10h00 à 12h00\nLe Vendredi : de 14h00 à 16h00","latitude":44.202744,"longitude":3.1818,"website":"https://www.mostuejouls.fr/","hasWebsite":true,"hasHoraires":true,"url":"https://lannuaire.service-public.gouv.fr/occitanie/aveyron/f17fe5e5-f175-40d0-9384-2cb1897cf9b9"}
{"nom":"Mounes-Prohencoux","nomNormalise":"mounesprohencoux","typeCollectivite":"Commune","region":"Occitanie","departement":"Aveyron","departementCode":"12","adresse":{"street":"3 Route de Murasson","postalCode":"12370","city":"Mounes-Prohencoux","country":"France"},"contacts":{"email":"mairie@mounes.fr","telephone":"0565995212"},"horaires":"Du Lundi au Vendredi : de 09h00 à 12h00","latitude":43.8138,"longitude":2.7561,"website":"","hasWebsite":false,"hasHoraires":true,"url":"https://lannuaire.service-public.gouv.fr/occitanie/aveyron/f5125875-fa8c-43f1-923e-bff5e1be1a1e"}
{"nom":"Mouret","nomNormalise":"mouret","typeCollectivite":"Commune","region":"Occitanie","departement":"Aveyron","departementCode":"12","adresse":{"street":"2 place Jean-Costes","postalCode":"12330","city":"Mouret","country":"France"},"contacts":{"email":"mairie@mouret-aveyron.fr","telephone":"0565698286"},"horaires":"Le Lundi : de 09h00 à 12h00\nLe Mardi : de 13h30 à 17h30\nLe Mercredi : de 09h00 à 12h00\nLe Jeudi : de 13h30 à 17h30\nLe Vendredi : de 09h00 à 12h00","latitude":44.514423,"longitude":2.515522,"website":"https://mouret-aveyron.fr/","hasWebsite":true,"hasHoraires":true,"url":"https://lannuaire.service-public.gouv.fr/occitanie/aveyron/88f9dc21-09b5-4523-804b-2885a7ba7108"}
{"nom":"Moyrazès","nomNormalise":"moyrazes","typeCollectivite":"Commune","region":"Occitanie","departement":"Aveyron","departementCode":"12","adresse":{"street":"1 place Gilbert-Sérieys","postalCode":"12160","city":"Moyrazès","country":"France"},"contacts":{"email":"accueil.mairie@moyrazes.fr","telephone":"0565693550"},"horaires":"Du Lundi au Mardi : de 08h15 à 12h15 de 13h15 à 17h00\nLe Mercredi : de 08h15 à 12h15\nDu Jeudi au Vendredi : de 08h15 à 12h15 de 13h15 à 17h00","latitude":44.342293,"longitude":2.439478,"website":"https://www.moyrazes.fr/","hasWebsite":true,"hasHoraires":true,"url":"https://lannuaire.service-public.gouv.fr/occitanie/aveyron/2ac09d92-2c2c-4e8b-b6e2-71e2184ab0a9"}
{"nom":"Murasson","nomNormalise":"murasson","typeCollectivite":"Commune","region":"Occitanie","departement":"Aveyron","departementCode":"12","adresse":{"street":"2 place de la Mairie","postalCode":"12370","city":"Murasson","country":"France"},"contacts":{"email":"mairie@murasson.fr","telephone":"0565999065"},"horaires":"Du Lundi au Vendredi : de 09h00 à 12h00 de 13h00 à 16h00","latitude":43.76014,"longitude":2.764344,"website":"https://www.murasson.fr/","hasWebsite":true,"hasHoraires":true,"url":"https://lannuaire.service-public.gouv.fr/occitanie/aveyron/c02ff8f6-61d8-488f-9679-9c0a2f89ddd9"}
{"nom":"Mur-de-Barrez","nomNormalise":"murdebarrez","typeCollectivite":"Commune","region":"Occitanie","departement":"Aveyron","departementCode":"12","adresse":{"street":"16 Grande-Rue","postalCode":"12600","city":"Mur-de-Barrez","country":"France"},"contacts":{"email":"mairie@mur-de-barrez.fr","telephone":"0565660047"},"horaires":"Le Lundi : de 09h00 à 12h00\nLe Mardi : de 09h00 à 12h00 de 14h00 à 17h30\nLe Mercredi : de 09h00 à 12h00\nDu Jeudi au Vendredi : de 09h00 à 12h00 de 14h00 à 17h30\nLe Samedi : de 09h00 à 12h00","latitude":44.844643,"longitude":2.660244,"website":"https://www.mur-de-barrez.fr/","hasWebsite":true,"hasHoraires":true,"url":"https://lannuaire.service-public.gouv.fr/occitanie/aveyron/4311f86a-b223-43b8-be01-d4b3f48d859a"}
{"nom":"Muret-le-Château","nomNormalise":"muretlechateau","typeCollectivite":"Commune","region":"Occitanie","departement":"Aveyron","departementCode":"12","adresse":{"street":"Le Bourg","postalCode":"12330","city":"Muret-le-Château","country":"France"},"contacts":{"email":"mairie@muret-le-chateau.fr","telephone":"0565469384"},"horaires":"Du Lundi au Mardi : de 08h30 à 12h30\nLe Mercredi : de 08h30 à 12h30 de 14h00 à 17h00\nLe Vendredi : de 08h30 à 12h30","latitude":44.4942,"longitude":2.57431,"website":"","hasWebsite":false,"hasHoraires":true,"url":"https://lannuaire.service-public.gouv.fr/occitanie/aveyron/dfb89ac0-0fa4-452a-852e-f18a68bea17d"}
{"nom":"Murols","nomNormalise":"murols","typeCollectivite":"Commune","region":"Occitanie","departement":"Aveyron","departementCode":"12","adresse":{"street":"Le Bourg","postalCode":"12600","city":"Murols","country":"France"},"contacts":{"email":"commune-de-murols@orange.fr","telephone":"0565661796"},"horaires":"Le Mercredi : de 09h30 à 12h00\nLe Vendredi : de 15h00 à 17h30","latitude":44.75367,"longitude":2.576694,"website":"","hasWebsite":false,"hasHoraires":true,"url":"https://lannuaire.service-public.gouv.fr/occitanie/aveyron/b16bde8d-db67-4e70-bb0c-73f6bba273eb"}
{"nom":"Najac","nomNormalise":"najac","typeCollectivite":"Commune","region":"Occitanie","departement":"Aveyron","departementCode":"12","adresse":{"street":"9 rue du Bourguet","postalCode":"12270","city":"Najac","country":"France"},"contacts":{"email":"contact@najac.fr","telephone":"0565297134"},"horaires":"Du Lundi au Samedi : de 09h00 à 12h00","latitude":44.220123,"longitude":1.978965,"website":"https://najac.fr/","hasWebsite":true,"hasHoraires":true,"url":"https://lannuaire.service-public.gouv.fr/occitanie/aveyron/b36ba814-a2c2-4195-968f-fd3a988b14f9"}
{"nom":"Nant","nomNormalise":"nant","typeCollectivite":"Commune","region":"Occitanie","departement":"Aveyron","departementCode":"12","adresse":{"street":"31 place du Claux","postalCode":"12230","city":"Nant","country":"France"},"contacts":{"email":"contact@nant-mairie.fr","telephone":"0565622512"},"horaires":"Du Lundi au Vendredi : de 09h00 à 12h00","latitude":44.02206,"longitude":3.30259,"website":"https://www.nant-mairie.fr/","hasWebsite":true,"hasHoraires":true,"url":"https://lannuaire.service-public.gouv.fr/occitanie/aveyron/d67fdf3d-78ab-45a7-839b-206e2b30bada"}
{"nom":"Naucelle","nomNormalise":"naucelle","typeCollectivite":"Commune","region":"Occitanie","departement":"Aveyron","departementCode":"12","adresse":{"street":"1 place de l'Hôtel-de-Ville","postalCode":"12800","city":"Naucelle","country":"France"},"contacts":{"email":"mairie@naucelle.fr","telephone":"0565678290"},"horaires":"Le Lundi : de 09h00 à 12h15 de 13h45 à 16h30\nLe Mardi : de 09h00 à 12h15\nDu Mercredi au Jeudi : de 09h00 à 12h15 de 13h45 à 16h30\nDu Vendredi au Samedi : de 09h00 à 12h15","latitude":44.1981,"longitude":2.34192,"website":"http://www.villedenaucelle.fr/","hasWebsite":true,"hasHoraires":true,"url":"https://lannuaire.service-public.gouv.fr/occitanie/aveyron/985f7d8f-d492-4faa-8cd8-724d356105b2"}
{"nom":"Naussac","nomNormalise":"naussac","typeCollectivite":"Commune","region":"Occitanie","departement":"Aveyron","departementCode":"12","adresse":{"street":"15 route des Dolines","postalCode":"12700","city":"Naussac","country":"France"},"contacts":{"email":"mairie-naussac@wanadoo.fr","telephone":"0565646243"},"horaires":"Le Lundi : de 14h00 à 17h00\nLe Mardi : de 14h00 à 17h00\nLe Jeudi : de 14h00 à 17h00\nLe Vendredi : de 14h00 à 16h00\nLe Samedi : de 10h00 à 12h00\nAccueil ouvert le lundi uniquement sur rendez-vous.","latitude":44.522697,"longitude":2.099394,"website":"http://www.naussac12.fr/","hasWebsite":true,"hasHoraires":true,"url":"https://lannuaire.service-public.gouv.fr/occitanie/aveyron/085fa092-41f2-41a9-a7d3-f5da74962418"}
{"nom":"Nauviale","nomNormalise":"nauviale","typeCollectivite":"Commune","region":"Occitanie","departement":"Aveyron","departementCode":"12","adresse":{"street":"11 passage Gabriel-Panassié","postalCode":"12330","city":"Nauviale","country":"France"},"contacts":{"email":"mairie@nauviale.fr","telephone":"0565698525"},"horaires":"Du Mardi au Vendredi : de 13h30 à 17h30\nLe Samedi : de 09h00 à 12h00","latitude":44.520214,"longitude":2.4289172,"website":"https://www.nauviale.fr/","hasWebsite":true,"hasHoraires":true,"url":"https://lannuaire.service-public.gouv.fr/occitanie/aveyron/29f8a79b-336a-4f20-8595-c89a7dc1fed0"}
{"nom":"Olemps","nomNormalise":"olemps","typeCollectivite":"Commune","region":"Occitanie","departement":"Aveyron","departementCode":"12","adresse":{"street":"1 place de l'hôtel de ville","postalCode":"12510","city":"Olemps","country":"France"},"contacts":{"email":"mairie@olemps.fr","telephone":"0565755100"},"horaires":"Du Lundi au Vendredi : de 09h00 à 12h00 de 13h30 à 17h30","latitude":44.338253,"longitude":2.55412,"website":"https://www.olemps.fr/","hasWebsite":true,"hasHoraires":true,"url":"https://lannuaire.service-public.gouv.fr/occitanie/aveyron/a041c324-5db1-4e0c-b87b-4606a3c20a02"}
{"nom":"Ols-et-Rinhodes","nomNormalise":"olsetrinhodes","typeCollectivite":"Commune","region":"Occitanie","departement":"Aveyron","departementCode":"12","adresse":{"street":"21 rue de Guerin","postalCode":"12260","city":"Ols-et-Rinhodes","country":"France"},"contacts":{"email":"mairie.olsetrinhodes@orange.fr","telephone":"0565817789"},"horaires":"Le Lundi : de 13h00 à 17h00\nLe Mercredi : de 09h00 à 12h00\nLe Vendredi : de 13h00 à 17h00","latitude":44.466473,"longitude":1.9611504,"website":"https://www.ols-et-rinhodes.fr/","hasWebsite":true,"hasHoraires":true,"url":"https://lannuaire.service-public.gouv.fr/occitanie/aveyron/57c59ef1-4d12-4f77-a511-1a727c234e04"}
{"nom":"Onet-le-Château","nomNormalise":"onetlechateau","typeCollectivite":"Commune","region":"Occitanie","departement":"Aveyron","departementCode":"12","adresse":{"street":"12 rue des Coquelicots","postalCode":"12850","city":"Onet-le-Château","country":"France"},"contacts":{"email":"contact@onet-le-chateau.fr","telephone":"0565772500"},"horaires":"Le Lundi : de 09h00 à 12h00 de 13h30 à 17h30\nLe Mardi : de 08h00 à 12h00 de 13h30 à 17h30\nLe Mercredi : de 08h00 à 12h20 de 13h30 à 17h30\nDu Jeudi au Vendredi : de 08h00 à 12h00 de 13h30 à 17h30\nLe Samedi : de 09h00 à 12h00\n\nPermanences Etat Civil sur rendez-vous. 1 samedi sur 2","latitude":44.36606,"longitude":2.593783,"website":"https://www.onet-le-chateau.fr/","hasWebsite":true,"hasHoraires":true,"url":"https://lannuaire.service-public.gouv.fr/occitanie/aveyron/580ebd15-57fc-42d3-8c9c-a140718d0c89"}
{"nom":"Palmas-d'Aveyron","nomNormalise":"palmasdaveyron","typeCollectivite":"Commune","region":"Occitanie","departement":"Aveyron","departementCode":"12","adresse":{"street":"Coussergues","postalCode":"12310","city":"Palmas-d'Aveyron","country":"France"},"contacts":{"email":"accueil@palmasdaveyron.fr","telephone":"0565706715"},"horaires":"Le Lundi : de 09h00 à 12h00\nLe Mardi : de 09h00 à 12h00 de 14h00 à 17h00\nDu Mercredi au Vendredi : de 09h00 à 12h00","latitude":44.393948,"longitude":2.8418767,"website":"https://palmasdaveyron.fr/","hasWebsite":true,"hasHoraires":true,"url":"https://lannuaire.service-public.gouv.fr/occitanie/aveyron/d13540c1-4adf-414e-8468-e8b1011c0dbf"}
{"nom":"Paulhe","nomNormalise":"paulhe","typeCollectivite":"Commune","region":"Occitanie","departement":"Aveyron","departementCode":"12","adresse":{"street":"1 rue de la Mairie","postalCode":"12520","city":"Paulhe","country":"France"},"contacts":{"email":"contact@mairie-paulhe.fr","telephone":"0565598710"},"horaires":"Le Mardi : de 15h00 à 17h00\nLe Vendredi : de 16h00 à 18h00","latitude":44.15225,"longitude":3.102848,"website":"","hasWebsite":false,"hasHoraires":true,"url":"https://lannuaire.service-public.gouv.fr/occitanie/aveyron/f2e4f5a3-776e-422c-a82d-e3b90b13f2b0"}
{"nom":"Peux-et-Couffouleux","nomNormalise":"peuxetcouffouleux","typeCollectivite":"Commune","region":"Occitanie","departement":"Aveyron","departementCode":"12","adresse":{"street":"Couffouleux","postalCode":"12360","city":"Peux-et-Couffouleux","country":"France"},"contacts":{"email":"mairie@couffouleux12.fr","telephone":"0565495574"},"horaires":"Le Mardi : de 14h00 à 17h00\nLe Jeudi : de 14h00 à 17h00","latitude":43.771435,"longitude":2.875204,"website":"","hasWebsite":false,"hasHoraires":true,"url":"https://lannuaire.service-public.gouv.fr/occitanie/aveyron/3a03735b-0567-4d70-92c6-4740b62aca80"}
{"nom":"Peyreleau","nomNormalise":"peyreleau","typeCollectivite":"Commune","region":"Occitanie","departement":"Aveyron","departementCode":"12","adresse":{"street":"16 Rue du Valat","postalCode":"12720","city":"Peyreleau","country":"France"},"contacts":{"email":"mairie-de-peyreleau@9business.fr","telephone":"0565626133"},"horaires":"Le Lundi : de 08h00 à 12h30 de 13h30 à 17h00\nLe Vendredi : de 08h00 à 12h30 de 13h30 à 17h00","latitude":44.188457,"longitude":3.208748,"website":"https://peyreleau.fr/","hasWebsite":true,"hasHoraires":true,"url":"https://lannuaire.service-public.gouv.fr/occitanie/aveyron/c895a582-15bc-453f-8075-8f0231c10267"}
{"nom":"Peyrusse-le-Roc","nomNormalise":"peyrusseleroc","typeCollectivite":"Commune","region":"Occitanie","departement":"Aveyron","departementCode":"12","adresse":{"street":"15 place des Treize-Vents","postalCode":"12220","city":"Peyrusse-le-Roc","country":"France"},"contacts":{"email":"mairie@peyrusse-le-roc.fr","telephone":"0565804298"},"horaires":"Le Lundi : de 09h00 à 12h00\nLe Mercredi : de 09h30 à 12h30\nLe Vendredi : de 09h00 à 12h00","latitude":44.494946,"longitude":2.140746,"website":"https://www.peyrusse-le-roc.fr/","hasWebsite":true,"hasHoraires":true,"url":"https://lannuaire.service-public.gouv.fr/occitanie/aveyron/011dc7a3-cbd9-49de-968f-a476b8c6286e"}
{"nom":"Pierrefiche","nomNormalise":"pierrefiche","typeCollectivite":"Commune","region":"Occitanie","departement":"Aveyron","departementCode":"12","adresse":{"street":"9 place de la Mairie","postalCode":"12130","city":"Pierrefiche-d'Olt","country":"France"},"contacts":{"email":"mairie.pierrefichedolt@wanadoo.fr","telephone":"0565474315"},"horaires":"Du Lundi au Mardi : de 12h30 à 17h00\nLe Mercredi : de 09h00 à 12h00\nLe Jeudi : de 12h30 à 17h00","latitude":44.44355,"longitude":2.94854,"website":"","hasWebsite":false,"hasHoraires":true,"url":"https://lannuaire.service-public.gouv.fr/occitanie/aveyron/0cc3355d-57e0-473e-b213-370749d4bcc2"}
{"nom":"Plaisance","nomNormalise":"plaisance","typeCollectivite":"Commune","region":"Occitanie","departement":"Aveyron","departementCode":"12","adresse":{"street":"12 route de Coupiac","postalCode":"12550","city":"Plaisance","country":"France"},"contacts":{"email":"accueilmairie@plaisance12.fr","telephone":"0565997507"},"horaires":"Du Lundi au Jeudi : de 09h00 à 12h00\n\nLundi  mardi - mercredi sur rendez-vous uniquement de 14h à 17h\nLundi  mardi - mercredi sur rendez-vous uniquement de 14h à 17h","latitude":43.929836,"longitude":2.5435007,"website":"https://www.plaisance12.com/","hasWebsite":true,"hasHoraires":true,"url":"https://lannuaire.service-public.gouv.fr/occitanie/aveyron/ef6457c6-5e59-4bd8-87f5-9b76e974fdb6"}
{"nom":"Pomayrols","nomNormalise":"pomayrols","typeCollectivite":"Commune","region":"Occitanie","departement":"Aveyron","departementCode":"12","adresse":{"street":"8 place de la Fontaine-du-Consul","postalCode":"12130","city":"Pomayrols","country":"France"},"contacts":{"email":"mairie@pomayrols.fr","telephone":"0565474402"},"horaires":"Le Mercredi : de 14h00 à 17h30\nLe Vendredi : de 09h00 à 12h00","latitude":44.47107,"longitude":3.024235,"website":"","hasWebsite":false,"hasHoraires":true,"url":"https://lannuaire.service-public.gouv.fr/occitanie/aveyron/9af23b1d-70b1-4dea-8592-03e08d99b7d3"}
{"nom":"Pont-de-Salars","nomNormalise":"pontdesalars","typeCollectivite":"Commune","region":"Occitanie","departement":"Aveyron","departementCode":"12","adresse":{"street":"40 Place de l'Hôtel de Ville","postalCode":"12290","city":"Pont-de-Salars","country":"France"},"contacts":{"email":"mairie@pontdesalars.fr","telephone":"0565468427"},"horaires":"Du Lundi au Jeudi : de 09h00 à 12h00 de 14h00 à 17h00\nLe Vendredi : de 09h00 à 12h00 de 14h00 à 16h30","latitude":44.2784,"longitude":2.72928,"website":"http://www.pontdesalars.fr/","hasWebsite":true,"hasHoraires":true,"url":"https://lannuaire.service-public.gouv.fr/occitanie/aveyron/982a5765-fc67-4f8a-8b44-7f1404894def"}
{"nom":"Pousthomy","nomNormalise":"pousthomy","typeCollectivite":"Commune","region":"Occitanie","departement":"Aveyron","departementCode":"12","adresse":{"street":"1 place de la Mairie","postalCode":"12380","city":"Pousthomy","country":"France"},"contacts":{"email":"mairie.pousthomy@orange.fr","telephone":"0565996501"},"horaires":"Le Mardi : de 10h00 à 12h00 de 14h00 à 16h00\nLe Vendredi : de 14h00 à 16h00","latitude":43.85799,"longitude":2.612576,"website":"https://www.pousthomy.fr/","hasWebsite":true,"hasHoraires":true,"url":"https://lannuaire.service-public.gouv.fr/occitanie/aveyron/0331574f-7714-488f-841f-d6e584ae1dbd"}
{"nom":"Prades-d'Aubrac","nomNormalise":"pradesdaubrac","typeCollectivite":"Commune","region":"Occitanie","departement":"Aveyron","departementCode":"12","adresse":{"street":"9 rue de la Mairie","postalCode":"12470","city":"Prades-d'Aubrac","country":"France"},"contacts":{"email":"contact@pradesdaubrac.fr","telephone":"0565487181"},"horaires":"Le Mardi : de 08h30 à 12h30\nLe Jeudi : de 13h30 à 17h00\nLe Vendredi : de 08h30 à 12h30","latitude":44.533066,"longitude":2.938858,"website":"https://pradesdaubrac.fr/","hasWebsite":true,"hasHoraires":true,"url":"https://lannuaire.service-public.gouv.fr/occitanie/aveyron/2243e3c2-595e-4dbd-a912-626c1b505258"}
{"nom":"Prades-Salars","nomNormalise":"pradessalars","typeCollectivite":"Commune","region":"Occitanie","departement":"Aveyron","departementCode":"12","adresse":{"street":"5 avenue de la Sauveté","postalCode":"12290","city":"Prades-Salars","country":"France"},"contacts":{"email":"mairie@prades-de-salars.fr","telephone":"0565468390"},"horaires":"Le Mardi : de 14h00 à 16h00\nDu Jeudi au Vendredi : de 08h30 à 12h00","latitude":44.26381,"longitude":2.7849069,"website":"https://www.pradesdesalars.fr/","hasWebsite":true,"hasHoraires":true,"url":"https://lannuaire.service-public.gouv.fr/occitanie/aveyron/55da49c6-7a70-480b-988e-ce1d3f87e5bb"}
{"nom":"Pradinas","nomNormalise":"pradinas","typeCollectivite":"Commune","region":"Occitanie","departement":"Aveyron","departementCode":"12","adresse":{"street":"297 route de Pradinas","postalCode":"12240","city":"Pradinas","country":"France"},"contacts":{"email":"mairie@pradinas.fr","telephone":"0565699284"},"horaires":"Le Lundi : de 14h00 à 17h00\nLe Mardi : de 09h00 à 12h00\nLe Jeudi : de 09h00 à 12h00\nLe Samedi : de 09h00 à 12h00","latitude":44.240845,"longitude":2.26281,"website":"https://www.pradinas.fr/","hasWebsite":true,"hasHoraires":true,"url":"https://lannuaire.service-public.gouv.fr/occitanie/aveyron/c2bf6f17-d55c-48ed-a80d-7637360c2b4a"}
{"nom":"Prévinquières","nomNormalise":"previnquieres","typeCollectivite":"Commune","region":"Occitanie","departement":"Aveyron","departementCode":"12","adresse":{"street":"5 place de l'ancien Château","postalCode":"12350","city":"Prévinquières","country":"France"},"contacts":{"email":"contact@previnquieres.fr","telephone":"0565819498"},"horaires":"Le Lundi : de 10h00 à 12h00 de 14h00 à 16h30\nLe Jeudi : de 10h00 à 12h00 de 14h00 à 16h30","latitude":44.374565,"longitude":2.228856,"website":"https://www.previnquieres.fr/","hasWebsite":true,"hasHoraires":true,"url":"https://lannuaire.service-public.gouv.fr/occitanie/aveyron/d5e2362c-1e1b-4cec-aa21-5c437dd37dd6"}
{"nom":"Privezac","nomNormalise":"privezac","typeCollectivite":"Commune","region":"Occitanie","departement":"Aveyron","departementCode":"12","adresse":{"street":"2 la Combie","postalCode":"12350","city":"Privezac","country":"France"},"contacts":{"email":"mairie.privezac@wanadoo.fr","telephone":"0565819677"},"horaires":"Le Lundi : de 13h30 à 17h00\nLe Mardi : de 09h00 à 12h00","latitude":44.410583,"longitude":2.191884,"website":"","hasWebsite":false,"hasHoraires":true,"url":"https://lannuaire.service-public.gouv.fr/occitanie/aveyron/c2860f2c-3fb2-407d-86e7-67a351de5a84"}
{"nom":"Pruines","nomNormalise":"pruines","typeCollectivite":"Commune","region":"Occitanie","departement":"Aveyron","departementCode":"12","adresse":{"street":"22 rue du Pradal","postalCode":"12320","city":"Pruines","country":"France"},"contacts":{"email":"commune@pruines.fr","telephone":"0565698285"},"horaires":"Le Mardi : de 09h00 à 12h00\nDu Mercredi au Vendredi : de 09h00 à 12h00 de 13h30 à 16h30\nLe Samedi : de 09h00 à 12h00","latitude":44.52962,"longitude":2.504394,"website":"http://www.pruines.fr/","hasWebsite":true,"hasHoraires":true,"url":"https://lannuaire.service-public.gouv.fr/occitanie/aveyron/2584013f-36a7-4751-af2e-357fe3f2d42f"}
{"nom":"Quins","nomNormalise":"quins","typeCollectivite":"Commune","region":"Occitanie","departement":"Aveyron","departementCode":"12","adresse":{"street":"270 route de Naucelle","postalCode":"12800","city":"Quins","country":"France"},"contacts":{"email":"mairie@quins.fr","telephone":"0565690304"},"horaires":"Du Lundi au Samedi : de 09h00 à 12h00\n\nAccueil fermé le dernier samedi du mois.","latitude":44.54559,"longitude":2.144154,"website":"https://www.quins.fr/","hasWebsite":true,"hasHoraires":true,"url":"https://lannuaire.service-public.gouv.fr/occitanie/aveyron/25d79b69-fc51-4973-a3f2-026cfe0b12ce"}
{"nom":"Rebourguil","nomNormalise":"rebourguil","typeCollectivite":"Commune","region":"Occitanie","departement":"Aveyron","departementCode":"12","adresse":{"street":"2 place de l'Église","postalCode":"12400","city":"Rebourguil","country":"France"},"contacts":{"email":"mairie@rebourguil.fr","telephone":"0565998311"},"horaires":"Le Mardi : de 14h00 à 17h00\nLe Jeudi : de 14h00 à 17h00\nLe Vendredi : de 09h00 à 12h00","latitude":43.887814,"longitude":2.774922,"website":"https://www.rebourguil.fr/","hasWebsite":true,"hasHoraires":true,"url":"https://lannuaire.service-public.gouv.fr/occitanie/aveyron/9e908763-7e51-416a-a7d5-b35def851eec"}
{"nom":"Réquista","nomNormalise":"requista","typeCollectivite":"Commune","region":"Occitanie","departement":"Aveyron","departementCode":"12","adresse":{"street":"Cité administrative","postalCode":"12170","city":"Réquista","country":"France"},"contacts":{"email":"accueil@requista.fr","telephone":"0565740239"},"horaires":"Du Lundi au Vendredi : de 09h00 à 12h00 de 14h00 à 17h00","latitude":44.031616,"longitude":2.53892,"website":"https://www.requista.fr/","hasWebsite":true,"hasHoraires":true,"url":"https://lannuaire.service-public.gouv.fr/occitanie/aveyron/c165caf6-38ec-4b5a-adbf-46315299af57"}
{"nom":"Rieupeyroux","nomNormalise":"rieupeyroux","typeCollectivite":"Commune","region":"Occitanie","departement":"Aveyron","departementCode":"12","adresse":{"street":"22 rue de la Mairie","postalCode":"12240","city":"Rieupeyroux","country":"France"},"contacts":{"email":"mairie-accueil@rieupeyroux.fr","telephone":"0565655112"},"horaires":"Le Lundi : de 09h00 à 12h00\nDu Mardi au Vendredi : de 09h00 à 12h00 de 13h30 à 17h30\n\nAccueil sur rendez-vous uniquement pour les cartes d'identité et passeports.\nLe Samedi : de 09h00 à 12h00","latitude":44.30622,"longitude":2.236597,"website":"https://www.rieupeyroux.fr/","hasWebsite":true,"hasHoraires":true,"url":"https://lannuaire.service-public.gouv.fr/occitanie/aveyron/41de006b-253e-442c-ae18-f756284eb03d"}
{"nom":"Rignac","nomNormalise":"rignac","typeCollectivite":"Commune","region":"Occitanie","departement":"Aveyron","departementCode":"12","adresse":{"street":"17 place du Portail-Haut","postalCode":"12390","city":"Rignac","country":"France"},"contacts":{"email":"mairie@rignac.fr","telephone":"0565802600"},"horaires":"Du Lundi au Vendredi : de 09h00 à 12h00 de 13h30 à 17h30","latitude":44.4099,"longitude":2.2882,"website":"https://www.rignac.fr/","hasWebsite":true,"hasHoraires":true,"url":"https://lannuaire.service-public.gouv.fr/occitanie/aveyron/577401b9-becc-4859-9f64-57295f9e7ff7"}
{"nom":"Rivière-sur-Tarn","nomNormalise":"rivieresurtarn","typeCollectivite":"Commune","region":"Occitanie","departement":"Aveyron","departementCode":"12","adresse":{"street":"9 place de la Maison-des-Activités","postalCode":"12640","city":"Rivière-sur-Tarn","country":"France"},"contacts":{"email":"contact@rivieresurtarn.fr","telephone":"0565598074"},"horaires":"Du Lundi au Mercredi : de 08h30 à 12h30\nLe Vendredi : de 08h30 à 12h30","latitude":44.188538,"longitude":3.133015,"website":"https://www.rivieresurtarn.fr/","hasWebsite":true,"hasHoraires":true,"url":"https://lannuaire.service-public.gouv.fr/occitanie/aveyron/f0448b4c-151d-4c4d-95ee-a2c73b2a1018"}
{"nom":"Rodelle","nomNormalise":"rodelle","typeCollectivite":"Commune","region":"Occitanie","departement":"Aveyron","departementCode":"12","adresse":{"street":"Le Bourg","postalCode":"12340","city":"Rodelle","country":"France"},"contacts":{"email":"secretariat@rodelle.fr","telephone":"0565449217"},"horaires":"Du Mardi au Vendredi : de 09h00 à 12h00 de 13h30 à 17h30\nLe Samedi : de 08h00 à 11h30","latitude":44.494713,"longitude":2.624936,"website":"https://www.rodelle.fr/","hasWebsite":true,"hasHoraires":true,"url":"https://lannuaire.service-public.gouv.fr/occitanie/aveyron/97be65ab-aee5-42f3-beb7-bc55be5ac345"}
{"nom":"Rodez","nomNormalise":"rodez","typeCollectivite":"Commune","region":"Occitanie","departement":"Aveyron","departementCode":"12","adresse":{"street":"Place Eugène-Raynaldy","postalCode":"12000","city":"Rodez","country":"France"},"contacts":{"email":"contact@mairie-rodez.fr","telephone":"0565778800"},"horaires":"Du Lundi au Jeudi : de 08h30 à 12h00 de 13h30 à 17h30\nLe Vendredi : de 08h30 à 12h00 de 13h30 à 17h00\nLe Samedi : de 08h30 à 12h00\n\nAccueil ouvert le mardi jusqu'à 17h pour l'état civil.","latitude":44.34926,"longitude":2.576632,"website":"https://www.ville-rodez.fr/","hasWebsite":true,"hasHoraires":true,"url":"https://lannuaire.service-public.gouv.fr/occitanie/aveyron/c3b42f29-1234-439a-86aa-c6fdb8ebf1ba"}
{"nom":"Roquefort-sur-Soulzon","nomNormalise":"roquefortsursoulzon","typeCollectivite":"Commune","region":"Occitanie","departement":"Aveyron","departementCode":"12","adresse":{"street":"Avenue François-Galtier","postalCode":"12250","city":"Roquefort-sur-Soulzon","country":"France"},"contacts":{"email":"mairie@roquefortenaveyron.fr","telephone":"0565599195"},"horaires":"Le Lundi : de 08h30 à 12h00 de 13h30 à 17h30\nLe Mardi : de 08h00 à 12h00 de 13h00 à 17h30\nLe Mercredi : de 08h00 à 12h00\nLe Jeudi : de 08h00 à 12h00 de 13h30 à 17h30\nLe Vendredi : de 08h00 à 12h00","latitude":43.973614,"longitude":2.99818,"website":"","hasWebsite":false,"hasHoraires":true,"url":"https://lannuaire.service-public.gouv.fr/occitanie/aveyron/266d7a40-8668-4d9f-89d8-ff7bc55e8e6c"}
{"nom":"Roussennac","nomNormalise":"roussennac","typeCollectivite":"Commune","region":"Occitanie","departement":"Aveyron","departementCode":"12","adresse":{"street":"12 place Saint-Eutrope","postalCode":"12220","city":"Roussennac","country":"France"},"contacts":{"email":"contact@roussennac.fr","telephone":"0565637068"},"horaires":"Du Lundi au Jeudi : de 09h00 à 12h00 de 14h00 à 17h00\nLe Vendredi : de 09h00 à 12h00\nPermanence des élus le mercredi de 17h à 19h.","latitude":44.44347,"longitude":2.22388,"website":"https://www.roussennac.fr/","hasWebsite":true,"hasHoraires":true,"url":"https://lannuaire.service-public.gouv.fr/occitanie/aveyron/b1968d2a-2cba-492f-8b1a-336118d1291f"}
{"nom":"Rullac-Saint-Cirq","nomNormalise":"rullacsaintcirq","typeCollectivite":"Commune","region":"Occitanie","departement":"Aveyron","departementCode":"12","adresse":{"street":"100 Place de la Mairie","postalCode":"12120","city":"Rullac-Saint-Cirq","country":"France"},"contacts":{"email":"mairie@rullacsaintcirq.fr","telephone":"0565467516"},"horaires":"Du Lundi au Mardi : de 09h00 à 12h00\nDu Jeudi au Vendredi : de 09h00 à 12h00","latitude":44.12895,"longitude":2.490978,"website":"https://www.rullacsaintcirq.fr/","hasWebsite":true,"hasHoraires":true,"url":"https://lannuaire.service-public.gouv.fr/occitanie/aveyron/31849336-7fcc-4519-875a-5c2c02082df1"}
{"nom":"Saint-Affrique","nomNormalise":"saintaffrique","typeCollectivite":"Commune","region":"Occitanie","departement":"Aveyron","departementCode":"12","adresse":{"street":"1 place de l'Hôtel-de-Ville","postalCode":"12400","city":"Saint-Affrique","country":"France"},"contacts":{"email":"mairie@ville-saintaffrique.fr","telephone":"0565982900"},"horaires":"Du Lundi au Jeudi : de 08h00 à 12h00 de 13h30 à 17h30\nLe Vendredi : de 08h00 à 12h00 de 13h30 à 16h30","latitude":43.958057,"longitude":2.886876,"website":"https://ville-saintaffrique.fr/","hasWebsite":true,"hasHoraires":true,"url":"https://lannuaire.service-public.gouv.fr/occitanie/aveyron/cedb9f9b-801a-437a-b912-1027beee418f"}
{"nom":"Saint-Amans-des-Cots","nomNormalise":"saintamansdescots","typeCollectivite":"Commune","region":"Occitanie","departement":"Aveyron","departementCode":"12","adresse":{"street":"1 place de la Mairie","postalCode":"12460","city":"Saint-Amans-des-Cots","country":"France"},"contacts":{"email":"accueil@saintamansdescots.fr","telephone":"0565448619"},"horaires":"Du Lundi au Mardi : de 09h00 à 12h00 de 14h00 à 17h00\nLe Mercredi : de 09h00 à 12h00\nDu Jeudi au Vendredi : de 09h00 à 12h00 de 14h00 à 17h00","latitude":44.68951,"longitude":2.658182,"website":"https://saintamansdescots.fr/","hasWebsite":true,"hasHoraires":true,"url":"https://lannuaire.service-public.gouv.fr/occitanie/aveyron/cad0783f-ce21-4600-8060-021ebe3ec0d3"}
{"nom":"Saint-André-de-Najac","nomNormalise":"saintandredenajac","typeCollectivite":"Commune","region":"Occitanie","departement":"Aveyron","departementCode":"12","adresse":{"street":"54 place de la mairie","postalCode":"12270","city":"Saint-André-de-Najac","country":"France"},"contacts":{"email":"commune@saintandredenajac.fr","telephone":"0565657319"},"horaires":"Du Lundi au Mardi : de 14h00 à 17h00\nDu Jeudi au Vendredi : de 14h00 à 17h00","latitude":44.191673,"longitude":2.039227,"website":"https://www.saintandredenajac.fr/","hasWebsite":true,"hasHoraires":true,"url":"https://lannuaire.service-public.gouv.fr/occitanie/aveyron/46ef422d-d8dd-4357-97e1-850bba23e04c"}
{"nom":"Saint-André-de-Vézines","nomNormalise":"saintandredevezines","typeCollectivite":"Commune","region":"Occitanie","departement":"Aveyron","departementCode":"12","adresse":{"street":"119 Route Millau","postalCode":"12720","city":"Saint-André-de-Vézines","country":"France"},"contacts":{"email":"commune.st.andre.vezines@orange.fr","telephone":"0565612364"},"horaires":"Le Mardi : de 08h00 à 12h00 de 13h30 à 17h00\nLe Jeudi : de 08h00 à 12h00 de 13h30 à 17h00","latitude":44.151543,"longitude":3.259472,"website":"","hasWebsite":false,"hasHoraires":true,"url":"https://lannuaire.service-public.gouv.fr/occitanie/aveyron/f2bb6b03-c900-403e-9c97-0407e0185e7f"}
{"nom":"Saint-Beaulize","nomNormalise":"saintbeaulize","typeCollectivite":"Commune","region":"Occitanie","departement":"Aveyron","departementCode":"12","adresse":{"street":"6 rue de l'Eglise","postalCode":"12540","city":"Saint-Beaulize","country":"France"},"contacts":{"email":"commune.beaulize@wanadoo.fr","telephone":"0565993607"},"horaires":"Du Mercredi au Jeudi : de 10h00 à 12h00 de 14h00 à 17h00","latitude":43.89686,"longitude":3.109218,"website":"","hasWebsite":false,"hasHoraires":true,"url":"https://lannuaire.service-public.gouv.fr/occitanie/aveyron/39c14b8e-4fe1-4f42-a9b3-dcd9292e5d53"}
{"nom":"Saint-Beauzély","nomNormalise":"saintbeauzely","typeCollectivite":"Commune","region":"Occitanie","departement":"Aveyron","departementCode":"12","adresse":{"street":"170 avenue Julou-Merviel","postalCode":"12620","city":"Saint-Beauzély","country":"France"},"contacts":{"email":"mairie@saint-beauzely.fr","telephone":"0565620269"},"horaires":"Du Lundi au Mardi : de 13h00 à 16h15\nDu Jeudi au Vendredi : de 13h00 à 16h15","latitude":44.16342,"longitude":2.95847,"website":"https://www.saint-beauzely.fr/","hasWebsite":true,"hasHoraires":true,"url":"https://lannuaire.service-public.gouv.fr/occitanie/aveyron/078f29f8-ce44-49f4-b301-272714d296c1"}
{"nom":"Saint-Chély-d'Aubrac","nomNormalise":"saintchelydaubrac","typeCollectivite":"Commune","region":"Occitanie","departement":"Aveyron","departementCode":"12","adresse":{"street":"18 place de la Mairie","postalCode":"12470","city":"Saint-Chély-d'Aubrac","country":"France"},"contacts":{"email":"mairie@saintchelydaubrac.fr","telephone":"0565442708"},"horaires":"Du Lundi au Vendredi : de 09h00 à 12h00","latitude":44.590317,"longitude":2.921184,"website":"","hasWebsite":false,"hasHoraires":true,"url":"https://lannuaire.service-public.gouv.fr/occitanie/aveyron/b5c75f16-ecec-41ce-a551-003b156e3a5a"}
{"nom":"Saint-Christophe-Vallon","nomNormalise":"saintchristophevallon","typeCollectivite":"Commune","region":"Occitanie","departement":"Aveyron","departementCode":"12","adresse":{"street":"2 route du Cayla","postalCode":"12330","city":"Saint-Christophe-Vallon","country":"France"},"contacts":{"email":"contact@saintchristophevallon.fr","telephone":"0565727130"},"horaires":"Le Lundi : de 09h00 à 12h00 de 15h30 à 17h30\nLe Mardi : de 09h00 à 12h00\nLe Mercredi : de 09h00 à 12h00 de 15h30 à 17h30\nLe Jeudi : de 09h00 à 12h00\nLe Vendredi : de 09h00 à 12h00 de 15h00 à 17h00","latitude":44.470474,"longitude":2.412087,"website":"https://www.saintchristophevallon.fr/","hasWebsite":true,"hasHoraires":true,"url":"https://lannuaire.service-public.gouv.fr/occitanie/aveyron/2481d981-31fd-438f-8afa-75f4e1c19ac3"}
{"nom":"Saint-Côme-d'Olt","nomNormalise":"saintcomedolt","typeCollectivite":"Commune","region":"Occitanie","departement":"Aveyron","departementCode":"12","adresse":{"street":"6 rue Saint Damien","postalCode":"12500","city":"Saint-Côme-d'Olt","country":"France"},"contacts":{"email":"mairie@saint-come-olt.fr","telephone":"0565440709"},"horaires":"Le Lundi : de 08h00 à 12h00\nLe Mardi : de 08h00 à 12h00 de 13h30 à 17h30\nLe Mercredi : de 08h00 à 12h00\nLe Jeudi : de 08h00 à 12h00 de 13h30 à 17h30\nLe Vendredi : de 08h00 à 12h00 de 13h30 à 16h30","latitude":44.51527,"longitude":2.814872,"website":"https://www.saint-come-olt.com/","hasWebsite":true,"hasHoraires":true,"url":"https://lannuaire.service-public.gouv.fr/occitanie/aveyron/efebdfb5-7c55-4c9a-9483-d2d665fae1be"}
{"nom":"Sainte-Croix","nomNormalise":"saintecroix","typeCollectivite":"Commune","region":"Occitanie","departement":"Aveyron","departementCode":"12","adresse":{"street":"36 place du Clocher","postalCode":"12260","city":"Sainte-Croix","country":"France"},"contacts":{"email":"contact@sainte-croix-aveyron.fr","telephone":"0565816186"},"horaires":"Du Lundi au Mardi : de 09h00 à 12h00 de 13h30 à 17h00\nLe Mercredi : de 14h00 à 17h00\nLe Jeudi : de 09h00 à 12h00 de 14h00 à 17h00\nLe Vendredi : de 14h00 à 18h00","latitude":44.426434,"longitude":1.966535,"website":"https://www.sainte-croix-aveyron.fr/","hasWebsite":true,"hasHoraires":true,"url":"https://lannuaire.service-public.gouv.fr/occitanie/aveyron/b69f7563-b15b-49d8-8508-a69e5722c24e"}
{"nom":"Sainte-Eulalie-d'Olt","nomNormalise":"sainteeulaliedolt","typeCollectivite":"Commune","region":"Occitanie","departement":"Aveyron","departementCode":"12","adresse":{"street":"2 place de l'Église","postalCode":"12130","city":"Sainte-Eulalie-d'Olt","country":"France"},"contacts":{"email":"mairie@sainteeulaliedolt.fr","telephone":"0565474459"},"horaires":"Du Lundi au Mardi : de 08h45 à 12h30 de 15h00 à 17h15\nLe Mercredi : de 08h45 à 12h00\nLe Jeudi : de 08h45 à 12h30 de 15h00 à 17h15\nLe Vendredi : de 08h45 à 12h00","latitude":44.463913,"longitude":2.942471,"website":"https://www.sainteeulaliedolt.fr/","hasWebsite":true,"hasHoraires":true,"url":"https://lannuaire.service-public.gouv.fr/occitanie/aveyron/632313da-7b83-42ac-8f95-7d142417444f"}
{"nom":"Sainte-Eulalie-de-Cernon","nomNormalise":"sainteeulaliedecernon","typeCollectivite":"Commune","region":"Occitanie","departement":"Aveyron","departementCode":"12","adresse":{"street":"5 rue de la Mairie","postalCode":"12230","city":"Sainte-Eulalie-de-Cernon","country":"France"},"contacts":{"email":"mairie@sainte-eulalie.org","telephone":"0565627299"},"horaires":"Le Lundi : de 10h00 à 12h00 de 14h00 à 16h00\nLe Jeudi : de 10h00 à 12h00 de 14h00 à 16h00","latitude":43.982056,"longitude":3.133705,"website":"https://www.sainte-eulalie.org/","hasWebsite":true,"hasHoraires":true,"url":"https://lannuaire.service-public.gouv.fr/occitanie/aveyron/bb237d91-0e27-458a-a265-9a9ec18fe1e3"}
{"nom":"Sainte-Juliette-sur-Viaur","nomNormalise":"saintejuliettesurviaur","typeCollectivite":"Commune","region":"Occitanie","departement":"Aveyron","departementCode":"12","adresse":{"street":"167 rue de la poro","postalCode":"12120","city":"Sainte-Juliette-sur-Viaur","country":"France"},"contacts":{"email":"contact@saintejuliettesurviaur.fr","telephone":"0565694606"},"horaires":"Du Lundi au Mardi : de 09h00 à 12h00 de 13h30 à 17h00\nLe Jeudi : de 09h00 à 12h00 de 13h30 à 17h00\nLe Vendredi : de 09h00 à 12h00 de 13h30 à 16h00","latitude":44.214012,"longitude":2.521868,"website":"http://www.saintejuliettesurviaur.fr/","hasWebsite":true,"hasHoraires":true,"url":"https://lannuaire.service-public.gouv.fr/occitanie/aveyron/7050c33c-ed76-4581-9208-f511431c8841"}
{"nom":"Sainte-Radegonde","nomNormalise":"sainteradegonde","typeCollectivite":"Commune","region":"Occitanie","departement":"Aveyron","departementCode":"12","adresse":{"street":"1 place de la Mairie","postalCode":"12850","city":"Sainte-Radegonde","country":"France"},"contacts":{"email":"mairie@sainteradegonde.fr","telephone":"0565424600"},"horaires":"Du Lundi au Mardi : de 08h00 à 12h00 de 14h00 à 18h00\nDu Mercredi au Jeudi : de 08h00 à 12h00\nLe Vendredi : de 08h00 à 12h00 de 14h00 à 17h00","latitude":44.33985,"longitude":2.6256392,"website":"https://www.sainteradegonde.fr/","hasWebsite":true,"hasHoraires":true,"url":"https://lannuaire.service-public.gouv.fr/occitanie/aveyron/aec2dcb2-9ec8-4646-9f23-e9dc131d579c"}
{"nom":"Saint-Félix-de-Lunel","nomNormalise":"saintfelixdelunel","typeCollectivite":"Commune","region":"Occitanie","departement":"Aveyron","departementCode":"12","adresse":{"street":"387 rue du Renouveau","postalCode":"12320","city":"Saint-Félix-de-Lunel","country":"France"},"contacts":{"email":"mairie@saint-felix-de-lunel.fr","telephone":"0565446152"},"horaires":"Du Lundi au Vendredi : de 08h30 à 12h30","latitude":44.561676,"longitude":2.540139,"website":"https://www.saint-felix-de-lunel.fr/","hasWebsite":true,"hasHoraires":true,"url":"https://lannuaire.service-public.gouv.fr/occitanie/aveyron/6b3450cf-c18d-4b3b-a400-74cd9fdf9227"}
{"nom":"Saint-Félix-de-Sorgues","nomNormalise":"saintfelixdesorgues","typeCollectivite":"Commune","region":"Occitanie","departement":"Aveyron","departementCode":"12","adresse":{"street":"12 rue de la Ville","postalCode":"12400","city":"Saint-Félix-de-Sorgues","country":"France"},"contacts":{"email":"st.felix.mairie@wanadoo.fr","telephone":"0565991782"},"horaires":"Le Lundi : de 13h30 à 17h30\nLe Mardi : de 08h00 à 12h15 de 13h30 à 16h45\nLe Jeudi : de 08h00 à 12h15 de 13h30 à 16h45","latitude":43.88414,"longitude":2.984619,"website":"","hasWebsite":false,"hasHoraires":true,"url":"https://lannuaire.service-public.gouv.fr/occitanie/aveyron/34639b2a-010b-4733-b330-b7688f64821e"}
{"nom":"Saint-Geniez-d'Olt-et-d'Aubrac","nomNormalise":"saintgeniezdoltetdaubrac","typeCollectivite":"Commune","region":"Occitanie","departement":"Aveyron","departementCode":"12","adresse":{"street":"Place du Cours","postalCode":"12130","city":"Saint-Geniez-d'Olt-et-d'Aubrac","country":"France"},"contacts":{"email":"accueil@stgeniez.fr","telephone":"0565704001"},"horaires":"Du Lundi au Mercredi : de 09h00 à 12h00 de 13h30 à 17h00\nLe Jeudi : de 09h00 à 12h00\nLe Vendredi : de 09h00 à 12h00 de 13h30 à 17h00\nLe Samedi : de 09h00 à 12h00","latitude":44.464264,"longitude":2.973568,"website":"https://st-geniez-dolt.com/","hasWebsite":true,"hasHoraires":true,"url":"https://lannuaire.service-public.gouv.fr/occitanie/aveyron/f4bb4270-38c4-4a11-b0ca-e95305f65f66"}
{"nom":"Saint-Georges-de-Luzençon","nomNormalise":"saintgeorgesdeluzencon","typeCollectivite":"Commune","region":"Occitanie","departement":"Aveyron","departementCode":"12","adresse":{"street":"10 rue des Balses","postalCode":"12100","city":"Saint-Georges-de-Luzençon","country":"France"},"contacts":{"email":"mairie@saint-georges-de-luzencon.fr","telephone":"0565584100"},"horaires":"Du Lundi au Vendredi : de 08h30 à 12h00\n\nSur rendez-vous du lundi au jeudi de 14h à 17h.\nSur rendez-vous du lundi au jeudi de 14h à 17h.","latitude":44.063465,"longitude":2.984841,"website":"https://www.saint-georges-de-luzencon.fr/","hasWebsite":true,"hasHoraires":true,"url":"https://lannuaire.service-public.gouv.fr/occitanie/aveyron/a4bae797-c5b9-44d8-8524-cec0f42a7efa"}
{"nom":"Saint-Hippolyte","nomNormalise":"sainthippolyte","typeCollectivite":"Commune","region":"Occitanie","departement":"Aveyron","departementCode":"12","adresse":{"street":"Le Bourg","postalCode":"12140","city":"Saint-Hippolyte","country":"France"},"contacts":{"email":"contact@sainthippolyte.fr","telephone":"0565661450"},"horaires":"Du Lundi au Vendredi : de 08h30 à 12h00","latitude":44.711006,"longitude":2.5909588,"website":"http://www.sainthippolyte.fr/","hasWebsite":true,"hasHoraires":true,"url":"https://lannuaire.service-public.gouv.fr/occitanie/aveyron/3853f3eb-3e98-4e37-a385-1d9abfc9a48b"}
{"nom":"Saint-Igest","nomNormalise":"saintigest","typeCollectivite":"Commune","region":"Occitanie","departement":"Aveyron","departementCode":"12","adresse":{"street":"70 rue de la Mairie","postalCode":"12260","city":"Saint-Igest","country":"France"},"contacts":{"email":"mairie@saint-igest.fr","telephone":"0565816269"},"horaires":"Du Lundi au Jeudi : de 08h30 à 12h00\nLe Jeudi : de 13h00 à 17h00","latitude":44.43916,"longitude":2.084751,"website":"https://saint-igest.fr/","hasWebsite":true,"hasHoraires":true,"url":"https://lannuaire.service-public.gouv.fr/occitanie/aveyron/0b41ddff-0f4b-4a05-a293-b55131777924"}
{"nom":"Saint-Izaire","nomNormalise":"saintizaire","typeCollectivite":"Commune","region":"Occitanie","departement":"Aveyron","departementCode":"12","adresse":{"street":"1 rue du Château","postalCode":"12480","city":"Saint-Izaire","country":"France"},"contacts":{"email":"mairie.st-izaire@wanadoo.fr","telephone":"0565994031"},"horaires":"Du Lundi au Jeudi : de 14h00 à 17h00\nLe Vendredi : de 09h00 à 12h00","latitude":43.975285,"longitude":2.719696,"website":"https://www.saint-izaire.fr/","hasWebsite":true,"hasHoraires":true,"url":"https://lannuaire.service-public.gouv.fr/occitanie/aveyron/b17d254f-a718-4d5e-854a-e24fd3b6a2c6"}
{"nom":"Saint-Jean-d'Alcapiès","nomNormalise":"saintjeandalcapies","typeCollectivite":"Commune","region":"Occitanie","departement":"Aveyron","departementCode":"12","adresse":{"street":"103 place de la Rhode","postalCode":"12250","city":"Saint-Jean-d'Alcapiès","country":"France"},"contacts":{"email":"commune-jean-alcapies@orange.fr","telephone":"0565991599"},"horaires":"Le Lundi : de 08h30 à 12h00\nLe Jeudi : de 08h30 à 12h00","latitude":43.951427,"longitude":2.975414,"website":"","hasWebsite":false,"hasHoraires":true,"url":"https://lannuaire.service-public.gouv.fr/occitanie/aveyron/7dd2f5f3-a3f2-4cc4-b25a-c4ce53f8910e"}
{"nom":"Saint-Jean-Delnous","nomNormalise":"saintjeandelnous","typeCollectivite":"Commune","region":"Occitanie","departement":"Aveyron","departementCode":"12","adresse":{"street":"16 place de la Mairie","postalCode":"12170","city":"Saint-Jean-Delnous","country":"France"},"contacts":{"email":"contact@saintjeandelnous.fr","telephone":"0565740183"},"horaires":"Du Lundi au Mardi : de 10h00 à 12h00\nDu Jeudi au Vendredi : de 10h00 à 12h00","latitude":44.04369,"longitude":2.490841,"website":"","hasWebsite":false,"hasHoraires":true,"url":"https://lannuaire.service-public.gouv.fr/occitanie/aveyron/2706375c-f2ea-4833-be43-8fa50b7463c7"}
{"nom":"Saint-Jean-du-Bruel","nomNormalise":"saintjeandubruel","typeCollectivite":"Commune","region":"Occitanie","departement":"Aveyron","departementCode":"12","adresse":{"street":"1 allée du Parc","postalCode":"12230","city":"Saint-Jean-du-Bruel","country":"France"},"contacts":{"email":"contact@saintjeandubruel.fr","telephone":"0565622616"},"horaires":"Du Lundi au Vendredi : de 09h00 à 12h00","latitude":44.023125,"longitude":3.359378,"website":"https://www.saintjeandubruel.fr/","hasWebsite":true,"hasHoraires":true,"url":"https://lannuaire.service-public.gouv.fr/occitanie/aveyron/68fbbad4-357c-40c0-bc45-a4bcc53893c5"}
{"nom":"Saint-Jean-et-Saint-Paul","nomNormalise":"saintjeanetsaintpaul","typeCollectivite":"Commune","region":"Occitanie","departement":"Aveyron","departementCode":"12","adresse":{"street":"St Jean d'Alcas","postalCode":"12250","city":"Saint-Jean-et-Saint-Paul","country":"France"},"contacts":{"email":"mairie@saintjeanetsaintpaul.fr","telephone":"0565991479"},"horaires":"Le Lundi : de 08h30 à 11h30 de 13h00 à 16h30\nLe Mardi : de 13h00 à 16h30\nLe Jeudi : de 08h30 à 11h30 de 13h00 à 16h30","latitude":43.92808,"longitude":3.005113,"website":"https://www.saintjeanetsaintpaul.fr/","hasWebsite":true,"hasHoraires":true,"url":"https://lannuaire.service-public.gouv.fr/occitanie/aveyron/b02a2cf2-82ea-4f7c-81b4-4505d767014c"}
{"nom":"Saint-Juéry","nomNormalise":"saintjuery","typeCollectivite":"Commune","region":"Occitanie","departement":"Aveyron","departementCode":"12","adresse":{"street":"2 route du Château","postalCode":"12550","city":"Saint-Juéry","country":"France"},"contacts":{"email":"mairie@saint-juery.fr","telephone":"0565998082"},"horaires":"Du Lundi au Mardi : de 09h00 à 12h00\nDu Jeudi au Vendredi : de 09h00 à 12h00","latitude":43.90953,"longitude":2.69384,"website":"https://saint-juery.jimdofree.com/","hasWebsite":true,"hasHoraires":true,"url":"https://lannuaire.service-public.gouv.fr/occitanie/aveyron/bf007f54-7ac2-4732-a5f7-7961984da09e"}
{"nom":"Saint-Just-sur-Viaur","nomNormalise":"saintjustsurviaur","typeCollectivite":"Commune","region":"Occitanie","departement":"Aveyron","departementCode":"12","adresse":{"street":"Le Bourg","postalCode":"12800","city":"Saint-Just-sur-Viaur","country":"France"},"contacts":{"email":"mairie@saintjustsurviaur.fr","telephone":"0565692263"},"horaires":"Le Lundi : de 09h00 à 17h00\nLe Jeudi : de 09h00 à 17h00","latitude":44.12391,"longitude":2.378535,"website":"https://www.saintjustsurviaur.fr/","hasWebsite":true,"hasHoraires":true,"url":"https://lannuaire.service-public.gouv.fr/occitanie/aveyron/52e4305c-b9fb-44db-b5ae-cd106f7d77e1"}
{"nom":"Saint-Laurent-d'Olt","nomNormalise":"saintlaurentdolt","typeCollectivite":"Commune","region":"Occitanie","departement":"Aveyron","departementCode":"12","adresse":{"street":"1 place de la Mairie","postalCode":"12560","city":"Saint-Laurent-d'Olt","country":"France"},"contacts":{"email":"mairie@saintlaurentdolt.fr","telephone":"0565474526"},"horaires":"Le Lundi : de 14h00 à 18h00\nDu Mardi au Jeudi : de 09h00 à 12h00\nLe Vendredi : de 14h00 à 18h00\nLe Samedi : de 09h00 à 12h00","latitude":44.44603,"longitude":3.1110795,"website":"https://www.saintlaurentdolt.fr/","hasWebsite":true,"hasHoraires":true,"url":"https://lannuaire.service-public.gouv.fr/occitanie/aveyron/a11f4200-3d34-4261-99b5-9a87a9797e5d"}
{"nom":"Saint-Laurent-de-Lévézou","nomNormalise":"saintlaurentdelevezou","typeCollectivite":"Commune","region":"Occitanie","departement":"Aveyron","departementCode":"12","adresse":{"street":"1 place de la mairie","postalCode":"12620","city":"Saint-Laurent-de-Lévézou","country":"France"},"contacts":{"email":"mairie-stlaurentdelevezou@wanadoo.fr","telephone":"0565618760"},"horaires":"Le Mardi : de 08h30 à 13h00 de 14h00 à 18h00\nDu Jeudi au Vendredi : de 08h30 à 13h00","latitude":44.208603,"longitude":2.959535,"website":"https://www.levezou.fr/citoyen-du-levezou/les-19-communes/saint-laurent-de-levezou/","hasWebsite":true,"hasHoraires":true,"url":"https://lannuaire.service-public.gouv.fr/occitanie/aveyron/c2fa1e3e-7cdd-435b-b9bb-c1ae4b6b9087"}
{"nom":"Saint-Léons","nomNormalise":"saintleons","typeCollectivite":"Commune","region":"Occitanie","departement":"Aveyron","departementCode":"12","adresse":{"street":"3 rue du Château-Saint-Martin","postalCode":"12780","city":"Saint-Léons","country":"France"},"contacts":{"email":"mairie@saint-leons.fr","telephone":"0565618603"},"horaires":"Du Lundi au Mardi : de 08h30 à 12h00 de 13h00 à 17h00\nLe Mercredi : de 08h30 à 12h00\nDu Jeudi au Vendredi : de 08h30 à 12h00 de 13h00 à 17h00","latitude":44.216125,"longitude":2.986344,"website":"https://www.saint-leons.fr/","hasWebsite":true,"hasHoraires":true,"url":"https://lannuaire.service-public.gouv.fr/occitanie/aveyron/2034d999-d968-4389-8801-b3142e83a169"}
{"nom":"Saint-Martin-de-Lenne","nomNormalise":"saintmartindelenne","typeCollectivite":"Commune","region":"Occitanie","departement":"Aveyron","departementCode":"12","adresse":{"street":"10 rue de la Mairie","postalCode":"12130","city":"Saint-Martin-de-Lenne","country":"France"},"contacts":{"email":"mairie-stmartindelenne2@wanadoo.fr","telephone":"0565474539"},"horaires":"Du Lundi au Vendredi : de 08h30 à 12h00","latitude":44.4333,"longitude":2.961937,"website":"https://www.stmartindelenne.fr/","hasWebsite":true,"hasHoraires":true,"url":"https://lannuaire.service-public.gouv.fr/occitanie/aveyron/d42746b6-47f4-4dd0-a642-d1b5e2c8b7b8"}
{"nom":"Saint-Parthem","nomNormalise":"saintparthem","typeCollectivite":"Commune","region":"Occitanie","departement":"Aveyron","departementCode":"12","adresse":{"street":"78 rue Terra Olt","postalCode":"12300","city":"Saint-Parthem","country":"France"},"contacts":{"email":"mairie.saint.parthem@wanadoo.fr","telephone":"0565640569"},"horaires":"Du Mardi au Jeudi : de 09h00 à 12h00","latitude":44.625988,"longitude":2.315866,"website":"","hasWebsite":false,"hasHoraires":true,"url":"https://lannuaire.service-public.gouv.fr/occitanie/aveyron/c35b9a5f-6864-459f-9233-697f1b82449b"}
{"nom":"Saint-Rémy","nomNormalise":"saintremy","typeCollectivite":"Commune","region":"Occitanie","departement":"Aveyron","departementCode":"12","adresse":{"street":"3 rue de la Mairie","postalCode":"12200","city":"Saint-Rémy","country":"France"},"contacts":{"email":"saint.remy@wanadoo.fr","telephone":"0565817632"},"horaires":"Le Lundi : de 08h00 à 12h30 de 13h30 à 17h00\nLe Mardi : de 08h00 à 12h30\nLe Mercredi : de 08h00 à 12h00\nLe Jeudi : de 08h00 à 12h30\nLe Vendredi : de 08h00 à 12h30 de 13h30 à 16h00","latitude":44.399666,"longitude":2.037777,"website":"https://www.saintremy12.fr/","hasWebsite":true,"hasHoraires":true,"url":"https://lannuaire.service-public.gouv.fr/occitanie/aveyron/83c25247-29af-46f2-84d7-a041bdb9d813"}
{"nom":"Saint-Rome-de-Cernon","nomNormalise":"saintromedecernon","typeCollectivite":"Commune","region":"Occitanie","departement":"Aveyron","departementCode":"12","adresse":{"street":"8 avenue de la Liberté","postalCode":"12490","city":"Saint-Rome-de-Cernon","country":"France"},"contacts":{"email":"secretariat@saintromedecernon.fr","telephone":"0565623306"},"horaires":"Du Lundi au Vendredi : de 08h00 à 12h00","latitude":44.0108,"longitude":2.96333,"website":"https://saintromedecernon.fr/","hasWebsite":true,"hasHoraires":true,"url":"https://lannuaire.service-public.gouv.fr/occitanie/aveyron/6921d9d5-c2a3-43ce-b3bf-9324dfeaafe9"}
{"nom":"Saint-Rome-de-Tarn","nomNormalise":"saintromedetarn","typeCollectivite":"Commune","region":"Occitanie","departement":"Aveyron","departementCode":"12","adresse":{"street":"3 rue du Château","postalCode":"12490","city":"Saint-Rome-de-Tarn","country":"France"},"contacts":{"email":"commune.saintromedetarn@wanadoo.fr","telephone":"0565584400"},"horaires":"Du Lundi au Vendredi : de 08h30 à 12h30","latitude":44.048412,"longitude":2.897921,"website":"https://www.ville-saintromedetarn.fr/","hasWebsite":true,"hasHoraires":true,"url":"https://lannuaire.service-public.gouv.fr/occitanie/aveyron/bf044b40-5c39-43bc-a40f-d76a29e4b79a"}
{"nom":"Saint-Santin","nomNormalise":"saintsantin","typeCollectivite":"Commune","region":"Occitanie","departement":"Aveyron","departementCode":"12","adresse":{"street":"3 rue de la Bénéchie","postalCode":"12300","city":"Saint-Santin","country":"France"},"contacts":{"email":"mairie@saintsantin.fr","telephone":"0565640734"},"horaires":"Du Lundi au Vendredi : de 09h00 à 12h00 de 13h30 à 17h30","latitude":44.64897,"longitude":2.217946,"website":"https://www.saintsantin.fr/","hasWebsite":true,"hasHoraires":true,"url":"https://lannuaire.service-public.gouv.fr/occitanie/aveyron/9917bc1d-9e1c-472e-b063-104c0876beeb"}
{"nom":"Saint-Saturnin-de-Lenne","nomNormalise":"saintsaturnindelenne","typeCollectivite":"Commune","region":"Occitanie","departement":"Aveyron","departementCode":"12","adresse":{"street":"Avenue de la Gare","postalCode":"12560","city":"Saint-Saturnin-de-Lenne","country":"France"},"contacts":{"email":"mairie-stsaturnindelenne@wanadoo.fr","telephone":"0565704169"},"horaires":"Du Lundi au Vendredi : de 09h00 à 12h00","latitude":44.422306,"longitude":3.018611,"website":"https://www.saintsaturnindelenne.fr/","hasWebsite":true,"hasHoraires":true,"url":"https://lannuaire.service-public.gouv.fr/occitanie/aveyron/a935f05d-3691-4f89-a247-e2c5c38b4f4a"}
{"nom":"Saint-Sernin-sur-Rance","nomNormalise":"saintserninsurrance","typeCollectivite":"Commune","region":"Occitanie","departement":"Aveyron","departementCode":"12","adresse":{"street":"1 place Bourguebus","postalCode":"12380","city":"Saint-Sernin-sur-Rance","country":"France"},"contacts":{"email":"mairie@st-sernin.fr","telephone":"0565996284"},"horaires":"Du Lundi au Vendredi : de 08h00 à 12h00","latitude":43.885258,"longitude":2.604109,"website":"https://www.st-sernin.fr/","hasWebsite":true,"hasHoraires":true,"url":"https://lannuaire.service-public.gouv.fr/occitanie/aveyron/59114bc2-a905-4fa1-aba7-fbf90232e25d"}
{"nom":"Saint-Sever-du-Moustier","nomNormalise":"saintseverdumoustier","typeCollectivite":"Commune","region":"Occitanie","departement":"Aveyron","departementCode":"12","adresse":{"street":"33 place de la buffatière","postalCode":"12370","city":"Saint-Sever-du-Moustier","country":"France"},"contacts":{"email":"mairie@saintseverdumoustier.fr","telephone":"0565999198"},"horaires":"Du Lundi au Mardi : de 09h00 à 12h00 de 14h00 à 16h00\nLe Vendredi : de 09h00 à 12h00 de 14h00 à 16h00","latitude":43.776356,"longitude":2.699092,"website":"","hasWebsite":false,"hasHoraires":true,"url":"https://lannuaire.service-public.gouv.fr/occitanie/aveyron/b0a742c7-396d-4181-b24c-de3da684f9de"}
{"nom":"Saint-Symphorien-de-Thénières","nomNormalise":"saintsymphoriendethenieres","typeCollectivite":"Commune","region":"Occitanie","departement":"Aveyron","departementCode":"12","adresse":{"street":"2 rue des Fontaines","postalCode":"12460","city":"Saint-Symphorien-de-Thénières","country":"France"},"contacts":{"email":"mairie@saint-symphorien-de-thenieres.fr","telephone":"0565443020"},"horaires":"Du Lundi au Mardi : de 09h00 à 11h45\nDu Jeudi au Vendredi : de 09h00 à 11h45","latitude":44.737167,"longitude":2.729389,"website":"https://www.saint-symphorien-de-thenieres.fr/","hasWebsite":true,"hasHoraires":true,"url":"https://lannuaire.service-public.gouv.fr/occitanie/aveyron/570dcbd4-8403-4240-bcca-303da24c7b5e"}
{"nom":"Saint-Victor-et-Melvieu","nomNormalise":"saintvictoretmelvieu","typeCollectivite":"Commune","region":"Occitanie","departement":"Aveyron","departementCode":"12","adresse":{"street":"Saint-Victor","postalCode":"12400","city":"Saint-Victor-et-Melvieu","country":"France"},"contacts":{"email":"mairie@saint-victor-et-melvieu.fr","telephone":"0565625105"},"horaires":"Le Lundi : de 10h00 à 12h00 de 15h00 à 17h00\nLe Mardi : de 14h00 à 17h00\nDu Jeudi au Vendredi : de 14h00 à 17h00","latitude":44.05067,"longitude":2.824571,"website":"https://www.mairiesaintvictoretmelvieu.fr/","hasWebsite":true,"hasHoraires":true,"url":"https://lannuaire.service-public.gouv.fr/occitanie/aveyron/cdda49bc-da9e-47a9-b84a-af159963d4ce"}
{"nom":"Salles-Courbatiès","nomNormalise":"sallescourbaties","typeCollectivite":"Commune","region":"Occitanie","departement":"Aveyron","departementCode":"12","adresse":{"street":"1095 Route de la Diège","postalCode":"12260","city":"Salles-Courbatiès","country":"France"},"contacts":{"email":"mairie@sallescourbaties.fr","telephone":"0565816393"},"horaires":"Du Lundi au Mardi : de 09h00 à 12h00 de 14h00 à 17h00\nLe Mercredi : de 09h00 à 12h00\nDu Jeudi au Vendredi : de 09h00 à 12h00 de 14h00 à 17h00","latitude":44.4718,"longitude":2.07691,"website":"https://sallescourbaties.fr/","hasWebsite":true,"hasHoraires":true,"url":"https://lannuaire.service-public.gouv.fr/occitanie/aveyron/19c7c02a-b7be-4a2d-baaf-01db69419b52"}
{"nom":"Salles-Curan","nomNormalise":"sallescuran","typeCollectivite":"Commune","region":"Occitanie","departement":"Aveyron","departementCode":"12","adresse":{"street":"1 Place de la Mairie","postalCode":"12410","city":"Salles-Curan","country":"France"},"contacts":{"email":"contact@salles-curan.fr","telephone":"0565463521"},"horaires":"Du Lundi au Jeudi : de 08h30 à 12h00 de 13h30 à 17h00\nDu Vendredi au Samedi : de 08h30 à 12h00","latitude":44.1819,"longitude":2.78937,"website":"http://www.salles-curan.fr/","hasWebsite":true,"hasHoraires":true,"url":"https://lannuaire.service-public.gouv.fr/occitanie/aveyron/fe76a309-0d14-4064-8ab2-026d7f153acf"}
{"nom":"Salles-la-Source","nomNormalise":"salleslasource","typeCollectivite":"Commune","region":"Occitanie","departement":"Aveyron","departementCode":"12","adresse":{"street":"31 cour de la Filature","postalCode":"12330","city":"Salles-la-Source","country":"France"},"contacts":{"email":"mairie@salleslasource.fr","telephone":"0565672552"},"horaires":"Du Lundi au Vendredi : de 08h00 à 12h00 de 14h00 à 17h00","latitude":44.3904,"longitude":2.54041,"website":"http://www.salleslasource.fr/","hasWebsite":true,"hasHoraires":true,"url":"https://lannuaire.service-public.gouv.fr/occitanie/aveyron/58e0929d-1706-4ef1-adb4-768cdbd6ee90"}
{"nom":"Salmiech","nomNormalise":"salmiech","typeCollectivite":"Commune","region":"Occitanie","departement":"Aveyron","departementCode":"12","adresse":{"street":"116 place Brenguier-de-Landorre","postalCode":"12120","city":"Salmiech","country":"France"},"contacts":{"email":"mairiesalmiech@orange.fr","telephone":"0565467239"},"horaires":"Le Mardi : de 09h00 à 12h00\nLe Mercredi : de 09h00 à 12h00 de 14h00 à 17h00\nLe Jeudi : de 09h00 à 12h00\nLe Vendredi : de 09h00 à 12h00 de 14h00 à 17h00\nLe Samedi : de 09h00 à 12h00","latitude":44.18044,"longitude":2.571161,"website":"https://www.salmiech.fr/","hasWebsite":true,"hasHoraires":true,"url":"https://lannuaire.service-public.gouv.fr/occitanie/aveyron/938acdbb-c71d-47b9-ad64-a6cf08f1ed67"}
{"nom":"Salvagnac-Cajarc","nomNormalise":"salvagnaccajarc","typeCollectivite":"Commune","region":"Occitanie","departement":"Aveyron","departementCode":"12","adresse":{"street":"273 route du Château","postalCode":"12260","city":"Salvagnac-Cajarc","country":"France"},"contacts":{"email":"mairie@salvagnac-cajarc.fr","telephone":"0565407069"},"horaires":"Le Mardi : de 08h30 à 12h00\nLe Vendredi : de 08h30 à 12h00 de 14h00 à 17h00","latitude":44.475533,"longitude":1.847613,"website":"","hasWebsite":false,"hasHoraires":true,"url":"https://lannuaire.service-public.gouv.fr/occitanie/aveyron/cca01137-4cdd-43a2-b613-987058e84805"}
{"nom":"Sanvensa","nomNormalise":"sanvensa","typeCollectivite":"Commune","region":"Occitanie","departement":"Aveyron","departementCode":"12","adresse":{"street":"21 route de la Fouillade","postalCode":"12200","city":"Sanvensa","country":"France"},"contacts":{"email":"contact@sanvensa.fr","telephone":"0565298065"},"horaires":"Du Lundi au Mardi : de 09h00 à 12h30\nDu Jeudi au Vendredi : de 09h00 à 12h30","latitude":44.291904,"longitude":2.049543,"website":"https://www.sanvensa.fr/","hasWebsite":true,"hasHoraires":true,"url":"https://lannuaire.service-public.gouv.fr/occitanie/aveyron/33cb3ada-9377-496a-a6f4-99a48dda22d1"}
{"nom":"Sauclières","nomNormalise":"sauclieres","typeCollectivite":"Commune","region":"Occitanie","departement":"Aveyron","departementCode":"12","adresse":{"street":"42 rue Daniel Atcher","postalCode":"12230","city":"Sauclières","country":"France"},"contacts":{"email":"mairie@sauclieres.fr","telephone":"0565622677"},"horaires":"Du Mardi au Vendredi : de 09h00 à 12h00","latitude":43.976913,"longitude":3.367143,"website":"https://www.sauclieres.fr/","hasWebsite":true,"hasHoraires":true,"url":"https://lannuaire.service-public.gouv.fr/occitanie/aveyron/a00aeac7-3556-4530-b657-d0949eb0d630"}
{"nom":"Saujac","nomNormalise":"saujac","typeCollectivite":"Commune","region":"Occitanie","departement":"Aveyron","departementCode":"12","adresse":{"street":"16 route de Cajarc","postalCode":"12260","city":"Saujac","country":"France"},"contacts":{"email":"commune-saujac@orange.fr","telephone":"0565817594"},"horaires":"Le Mardi : de 09h00 à 12h00\nLe Vendredi : de 09h00 à 12h00","latitude":44.495945,"longitude":1.891411,"website":"","hasWebsite":false,"hasHoraires":true,"url":"https://lannuaire.service-public.gouv.fr/occitanie/aveyron/e68322a0-0c8a-4236-b458-e864997dc30b"}
{"nom":"Sauveterre-de-Rouergue","nomNormalise":"sauveterrederouergue","typeCollectivite":"Commune","region":"Occitanie","departement":"Aveyron","departementCode":"12","adresse":{"street":"3 Place des Arcades","postalCode":"12800","city":"Sauveterre-de-Rouergue","country":"France"},"contacts":{"email":"mairie@sauveterre-de-rouergue.fr","telephone":"0565470532"},"horaires":"Du Mardi au Samedi : de 09h00 à 12h30\n1 samedi sur 2","latitude":44.2211,"longitude":2.317693,"website":"https://www.sauveterre-de-rouergue.fr/","hasWebsite":true,"hasHoraires":true,"url":"https://lannuaire.service-public.gouv.fr/occitanie/aveyron/f2c1aa18-fb95-4bd4-83b0-4877e244fc27"}
{"nom":"Savignac","nomNormalise":"savignac","typeCollectivite":"Commune","region":"Occitanie","departement":"Aveyron","departementCode":"12","adresse":{"street":"Salle polyvalente","postalCode":"12200","city":"Savignac","country":"France"},"contacts":{"email":"mairie-savignac@orange.fr","telephone":"0665452734"},"horaires":"Du Lundi au Vendredi : de 09h00 à 12h00","latitude":44.359264,"longitude":1.9645755,"website":"https://savignac-aveyron.com/","hasWebsite":true,"hasHoraires":true,"url":"https://lannuaire.service-public.gouv.fr/occitanie/aveyron/4d2cc91b-2332-4422-a4f2-032e1697c188"}
{"nom":"Sébazac-Concourès","nomNormalise":"sebazacconcoures","typeCollectivite":"Commune","region":"Occitanie","departement":"Aveyron","departementCode":"12","adresse":{"street":"2 Rue du Salès","postalCode":"12740","city":"Sébazac-Concourès","country":"France"},"contacts":{"email":"mairie@sebazac-concoures.fr","telephone":"0565749042"},"horaires":"Du Lundi au Vendredi : de 08h00 à 12h00 de 13h30 à 17h30","latitude":44.4049,"longitude":2.59142,"website":"https://sebazac-concoures.fr/","hasWebsite":true,"hasHoraires":true,"url":"https://lannuaire.service-public.gouv.fr/occitanie/aveyron/c1c5f4f9-0ab1-4dd4-832c-b5ca177f94ca"}
{"nom":"Sébrazac","nomNormalise":"sebrazac","typeCollectivite":"Commune","region":"Occitanie","departement":"Aveyron","departementCode":"12","adresse":{"street":"1 place de la Mairie","postalCode":"12190","city":"Sébrazac","country":"France"},"contacts":{"email":"mairie@sebrazac.fr","telephone":"0565447104"},"horaires":"Du Lundi au Vendredi : de 10h00 à 12h00 de 14h00 à 16h30","latitude":44.525524,"longitude":2.657032,"website":"","hasWebsite":false,"hasHoraires":true,"url":"https://lannuaire.service-public.gouv.fr/occitanie/aveyron/fe509354-5f36-4da1-93b5-064377ec91b9"}
{"nom":"Ségur","nomNormalise":"segur","typeCollectivite":"Commune","region":"Occitanie","departement":"Aveyron","departementCode":"12","adresse":{"street":"14 rue du Stade","postalCode":"12290","city":"Ségur","country":"France"},"contacts":{"email":"contact@segur-aveyron.fr","telephone":"0565696509"},"horaires":"Du Lundi au Mardi : de 09h00 à 12h00 de 14h00 à 17h30\nDu Jeudi au Vendredi : de 09h00 à 12h00 de 14h00 à 17h30\nLe Samedi : de 09h00 à 12h00","latitude":44.29133,"longitude":2.834599,"website":"https://www.segur-aveyron.fr/","hasWebsite":true,"hasHoraires":true,"url":"https://lannuaire.service-public.gouv.fr/occitanie/aveyron/e6d487d0-be23-47b1-bc84-4b1260f46cfa"}
{"nom":"Sénergues","nomNormalise":"senergues","typeCollectivite":"Commune","region":"Occitanie","departement":"Aveyron","departementCode":"12","adresse":{"street":"54 rue des Écoles","postalCode":"12320","city":"Sénergues","country":"France"},"contacts":{"email":"mairie@senergues.fr","telephone":"0565698572"},"horaires":"Du Lundi au Vendredi : de 09h00 à 12h00","latitude":44.60467,"longitude":2.485054,"website":"https://www.senergues.fr/","hasWebsite":true,"hasHoraires":true,"url":"https://lannuaire.service-public.gouv.fr/occitanie/aveyron/c0d831fe-cfd5-4ad1-b3be-e10a98700ada"}
{"nom":"Sévérac-d'Aveyron","nomNormalise":"severacdaveyron","typeCollectivite":"Commune","region":"Occitanie","departement":"Aveyron","departementCode":"12","adresse":{"street":"9 rue Serge-Duhourquet","postalCode":"12150","city":"Sévérac-d'Aveyron","country":"France"},"contacts":{"email":"contact@severacdaveyron.fr","telephone":"0565716684"},"horaires":"Du Lundi au Vendredi : de 09h00 à 12h00 de 13h30 à 17h00","latitude":44.322166,"longitude":3.070889,"website":"https://www.severacdaveyron.fr/","hasWebsite":true,"hasHoraires":true,"url":"https://lannuaire.service-public.gouv.fr/occitanie/aveyron/17f4d2e6-15c1-4f65-bd29-98ca776be680"}
{"nom":"Sonnac","nomNormalise":"sonnac","typeCollectivite":"Commune","region":"Occitanie","departement":"Aveyron","departementCode":"12","adresse":{"street":"Le Bourg","postalCode":"12700","city":"Sonnac","country":"France"},"contacts":{"email":"mairiesonnac@wanadoo.fr","telephone":"0565647322"},"horaires":"Le Lundi : de 14h00 à 17h00\nLe Mardi : de 08h30 à 11h30\nDu Jeudi au Vendredi : de 08h30 à 11h30 de 14h00 à 17h00\nLe Samedi : de 09h00 à 12h00\nLe matin sur rendez-vous.","latitude":44.4972,"longitude":2.14011,"website":"http://www.sonnac.fr/","hasWebsite":true,"hasHoraires":true,"url":"https://lannuaire.service-public.gouv.fr/occitanie/aveyron/165b1763-0372-4362-879a-f4498c450104"}
{"nom":"Soulages-Bonneval","nomNormalise":"soulagesbonneval","typeCollectivite":"Commune","region":"Occitanie","departement":"Aveyron","departementCode":"12","adresse":{"street":"4 place de la Mairie","postalCode":"12210","city":"Soulages-Bonneval","country":"France"},"contacts":{"email":"mairie@soulages-bonneval.fr","telephone":"0565443342"},"horaires":"Le Lundi : de 14h00 à 17h00\nLe Jeudi : de 14h00 à 17h00","latitude":44.677364,"longitude":2.78876,"website":"","hasWebsite":false,"hasHoraires":true,"url":"https://lannuaire.service-public.gouv.fr/occitanie/aveyron/315b36e3-4227-418a-b7a8-a1bfa3c6ee1a"}
{"nom":"Sylvanès","nomNormalise":"sylvanes","typeCollectivite":"Commune","region":"Occitanie","departement":"Aveyron","departementCode":"12","adresse":{"street":"Le Bourg","postalCode":"12360","city":"Sylvanès","country":"France"},"contacts":{"email":"mairie@sylvanes.fr","telephone":"0565495809"},"horaires":"Le Mardi : de 09h00 à 12h00 de 14h00 à 17h00\nLe Vendredi : de 09h00 à 12h00 de 14h00 à 17h00","latitude":43.83382,"longitude":2.959288,"website":"","hasWebsite":false,"hasHoraires":true,"url":"https://lannuaire.service-public.gouv.fr/occitanie/aveyron/844b9252-4a96-4f6d-b50e-f07bbb9bc218"}
{"nom":"Tauriac-de-Camarès","nomNormalise":"tauriacdecamares","typeCollectivite":"Commune","region":"Occitanie","departement":"Aveyron","departementCode":"12","adresse":{"street":"4 route de Cenomes","postalCode":"12360","city":"Tauriac-de-Camarès","country":"France"},"contacts":{"email":"mairie@tauriac-de-camares.fr","telephone":"0565495472"},"horaires":"Le Lundi : de 08h30 à 11h30","latitude":43.779682,"longitude":3.03053,"website":"","hasWebsite":false,"hasHoraires":true,"url":"https://lannuaire.service-public.gouv.fr/occitanie/aveyron/14c9f4dd-6a7b-43fc-a9a6-1692619c9097"}
{"nom":"Tauriac-de-Naucelle","nomNormalise":"tauriacdenaucelle","typeCollectivite":"Commune","region":"Occitanie","departement":"Aveyron","departementCode":"12","adresse":{"street":"Saint-Martial","postalCode":"12800","city":"Tauriac-de-Naucelle","country":"France"},"contacts":{"email":"mairie@tauriacdenaucelle.fr","telephone":"0565470626"},"horaires":"Du Mardi au Samedi : de 08h30 à 12h00","latitude":44.15456,"longitude":2.336961,"website":"https://www.tauriacdenaucelle.fr/","hasWebsite":true,"hasHoraires":true,"url":"https://lannuaire.service-public.gouv.fr/occitanie/aveyron/a6713380-8c00-4a19-adbd-31a1742f641c"}
{"nom":"Taussac","nomNormalise":"taussac","typeCollectivite":"Commune","region":"Occitanie","departement":"Aveyron","departementCode":"12","adresse":{"street":"241 rue de l'église de Taussac","postalCode":"12600","city":"Taussac","country":"France"},"contacts":{"email":"mairie@taussac.fr","telephone":"0565660245"},"horaires":"Le Lundi : de 09h00 à 12h15 de 13h30 à 17h00\nDu Mardi au Jeudi : de 09h00 à 12h15\nLe Vendredi : de 09h00 à 12h15 de 13h30 à 17h00","latitude":44.828762,"longitude":2.641599,"website":"https://www.taussac.fr/","hasWebsite":true,"hasHoraires":true,"url":"https://lannuaire.service-public.gouv.fr/occitanie/aveyron/4be4fe15-1ddc-4132-9986-e9fb195b2d1a"}
{"nom":"Tayrac","nomNormalise":"tayrac","typeCollectivite":"Commune","region":"Occitanie","departement":"Aveyron","departementCode":"12","adresse":{"street":"Le Bourg","postalCode":"12440","city":"Tayrac","country":"France"},"contacts":{"email":"tayrac.mairie@wanadoo.fr","telephone":"0565818462"},"horaires":"Le Mardi : de 09h00 à 12h00 de 14h00 à 18h00\nLe Mercredi : de 09h00 à 12h00 de 15h00 à 19h00\nLe Vendredi : de 09h00 à 12h00 de 14h00 à 16h00\nLe Samedi : de 09h00 à 12h00","latitude":44.201805,"longitude":2.233181,"website":"https://www.tayrac.fr/","hasWebsite":true,"hasHoraires":true,"url":"https://lannuaire.service-public.gouv.fr/occitanie/aveyron/a16c1c09-50f0-4912-8126-80a9c27c1d98"}
{"nom":"Thérondels","nomNormalise":"therondels","typeCollectivite":"Commune","region":"Occitanie","departement":"Aveyron","departementCode":"12","adresse":{"street":"5 rue de la Mairie","postalCode":"12600","city":"Thérondels","country":"France"},"contacts":{"email":"accueil-mairie@therondels.fr","telephone":"0565660262"},"horaires":"Du Lundi au Vendredi : de 09h00 à 12h00","latitude":44.082863,"longitude":2.9607995,"website":"https://www.therondelsencarladez.fr/","hasWebsite":true,"hasHoraires":true,"url":"https://lannuaire.service-public.gouv.fr/occitanie/aveyron/3e0b33b7-06fd-45f7-9324-e2fc35dc3416"}
{"nom":"Toulonjac","nomNormalise":"toulonjac","typeCollectivite":"Commune","region":"Occitanie","departement":"Aveyron","departementCode":"12","adresse":{"street":"10 rue du Mas-Viel","postalCode":"12200","city":"Toulonjac","country":"France"},"contacts":{"email":"mairie@toulonjac.fr","telephone":"0565451197"},"horaires":"Du Mardi au Vendredi : de 08h00 à 12h00 de 13h30 à 17h30","latitude":44.38084,"longitude":2.000051,"website":"https://www.toulonjac.fr/","hasWebsite":true,"hasHoraires":true,"url":"https://lannuaire.service-public.gouv.fr/occitanie/aveyron/1d16df86-a544-49ce-9681-bad40dff53c4"}
{"nom":"Tournemire","nomNormalise":"tournemire","typeCollectivite":"Commune","region":"Occitanie","departement":"Aveyron","departementCode":"12","adresse":{"street":"Place de la Mairie","postalCode":"12250","city":"Tournemire","country":"France"},"contacts":{"email":"mairie@tournemire-aveyron.fr","telephone":"0565599086"},"horaires":"Le Lundi : de 09h00 à 12h00 de 14h00 à 16h30\nLe Jeudi : de 09h00 à 12h00 de 14h00 à 16h30","latitude":43.97076,"longitude":3.01756,"website":"https://www.tournemire-aveyron.fr/","hasWebsite":true,"hasHoraires":true,"url":"https://lannuaire.service-public.gouv.fr/occitanie/aveyron/ba597aaf-c6cd-4800-82d4-25d2ec9df20b"}
{"nom":"Trémouilles","nomNormalise":"tremouilles","typeCollectivite":"Commune","region":"Occitanie","departement":"Aveyron","departementCode":"12","adresse":{"street":"8 rue de l'Église-Saint-Amans","postalCode":"12290","city":"Trémouilles","country":"France"},"contacts":{"email":"mairie@tremouilles.fr","telephone":"0565741076"},"horaires":"Le Mardi : de 09h00 à 12h00 de 14h00 à 16h00\nLe Jeudi : de 09h00 à 12h00 de 14h00 à 16h00\nDu Vendredi au Samedi : de 09h00 à 12h00","latitude":44.24566,"longitude":2.645131,"website":"","hasWebsite":false,"hasHoraires":true,"url":"https://lannuaire.service-public.gouv.fr/occitanie/aveyron/34ad7425-7ecc-4249-bc63-63f3f9fdda0b"}
{"nom":"Vabres-l'Abbaye","nomNormalise":"vabreslabbaye","typeCollectivite":"Commune","region":"Occitanie","departement":"Aveyron","departementCode":"12","adresse":{"street":"3 place de l'Hôtel-de-ville","postalCode":"12400","city":"Vabres-l'Abbaye","country":"France"},"contacts":{"email":"mairie@vabreslabbaye.fr","telephone":"0565990857"},"horaires":"Du Lundi au Mardi : de 08h30 à 12h30 de 13h30 à 17h30\nLe Mercredi : de 08h30 à 12h15\nDu Jeudi au Vendredi : de 08h30 à 12h30 de 13h30 à 17h30","latitude":43.944675,"longitude":2.836228,"website":"https://www.vabreslabbaye.fr/","hasWebsite":true,"hasHoraires":true,"url":"https://lannuaire.service-public.gouv.fr/occitanie/aveyron/74cae540-8ea8-4d4a-8721-3de6fb87e11d"}
{"nom":"Vailhourles","nomNormalise":"vailhourles","typeCollectivite":"Commune","region":"Occitanie","departement":"Aveyron","departementCode":"12","adresse":{"street":"92 route de Tourron","postalCode":"12200","city":"Vailhourles","country":"France"},"contacts":{"email":"mairie.vailhourles@wanadoo.fr","telephone":"0565295409"},"horaires":"Du Lundi au Mardi : de 13h30 à 18h00\nLe Mercredi : de 08h30 à 12h00\nLe Jeudi : de 13h30 à 18h00\nLe Vendredi : de 08h30 à 12h00","latitude":44.304966,"longitude":1.906332,"website":"https://www.vailhourles.fr/","hasWebsite":true,"hasHoraires":true,"url":"https://lannuaire.service-public.gouv.fr/occitanie/aveyron/cf7c9dba-319c-410e-872a-7caa0cddb67d"}
{"nom":"Valady","nomNormalise":"valady","typeCollectivite":"Commune","region":"Occitanie","departement":"Aveyron","departementCode":"12","adresse":{"street":"1 Grand'rue","postalCode":"12330","city":"Valady","country":"France"},"contacts":{"email":"mairie@valady.fr","telephone":"0565727148"},"horaires":"Du Lundi au Jeudi : de 08h00 à 12h00 de 15h30 à 17h30\nLe Vendredi : de 08h00 à 12h00","latitude":44.4542,"longitude":2.42811,"website":"","hasWebsite":false,"hasHoraires":true,"url":"https://lannuaire.service-public.gouv.fr/occitanie/aveyron/e661345b-cbfe-44cf-8ffc-8425ac0cc506"}
{"nom":"Valzergues","nomNormalise":"valzergues","typeCollectivite":"Commune","region":"Occitanie","departement":"Aveyron","departementCode":"12","adresse":{"street":"52 place Saint-Roch","postalCode":"12220","city":"Valzergues","country":"France"},"contacts":{"email":"mairievalzergues@orange.fr","telephone":"0565649080"},"horaires":"Le Mardi : de 08h00 à 12h00 de 13h00 à 17h15\nLe Vendredi : de 08h00 à 12h00 de 13h00 à 17h45","latitude":44.49911,"longitude":2.222909,"website":"https://www.valzergues.fr/","hasWebsite":true,"hasHoraires":true,"url":"https://lannuaire.service-public.gouv.fr/occitanie/aveyron/10e05a4c-7ccf-4d7e-92ce-761e77de1400"}
{"nom":"Vaureilles","nomNormalise":"vaureilles","typeCollectivite":"Commune","region":"Occitanie","departement":"Aveyron","departementCode":"12","adresse":{"street":"16 rue de la Mairie","postalCode":"12220","city":"Vaureilles","country":"France"},"contacts":{"email":"mairie@vaureilles.fr","telephone":"0565806118"},"horaires":"Du Lundi au Mardi : de 14h00 à 17h00\nLe Mercredi : de 10h00 à 12h00\nDu Jeudi au Vendredi : de 14h00 à 17h00","latitude":44.453163,"longitude":2.196876,"website":"https://www.vaureilles.fr/","hasWebsite":true,"hasHoraires":true,"url":"https://lannuaire.service-public.gouv.fr/occitanie/aveyron/d0e1d119-6f2b-445d-974e-2d4926383234"}
{"nom":"Verrières","nomNormalise":"verrieres","typeCollectivite":"Commune","region":"Occitanie","departement":"Aveyron","departementCode":"12","adresse":{"street":"8 avenue du Lumensonesque","postalCode":"12520","city":"Verrières","country":"France"},"contacts":{"email":"mairie-verrieres12@orange.fr","telephone":"0565597152"},"horaires":"Du Lundi au Mardi : de 08h30 à 13h00\nLe Jeudi : de 08h30 à 15h30","latitude":44.20161,"longitude":3.058164,"website":"https://www.verrieres12.fr/","hasWebsite":true,"hasHoraires":true,"url":"https://lannuaire.service-public.gouv.fr/occitanie/aveyron/86c50826-b817-4b3a-825d-824a5257da35"}
{"nom":"Versols-et-Lapeyre","nomNormalise":"versolsetlapeyre","typeCollectivite":"Commune","region":"Occitanie","departement":"Aveyron","departementCode":"12","adresse":{"street":"69 rue du Champs de Ramonde","postalCode":"12400","city":"Versols-et-Lapeyre","country":"France"},"contacts":{"email":"mairie@versolsetlapeyre.fr.fr","telephone":"0565492202"},"horaires":"Du Lundi au Mardi : de 08h45 à 11h45 de 14h15 à 17h15\nLe Jeudi : de 08h45 à 11h45 de 14h15 à 17h15\nLe Vendredi : de 08h45 à 11h45","latitude":43.894802,"longitude":2.943718,"website":"http://www.versolsetlapeyre.fr/","hasWebsite":true,"hasHoraires":true,"url":"https://lannuaire.service-public.gouv.fr/occitanie/aveyron/475e5592-1c17-44ed-8a1e-f326f0119023"}
{"nom":"Veyreau","nomNormalise":"veyreau","typeCollectivite":"Commune","region":"Occitanie","departement":"Aveyron","departementCode":"12","adresse":{"street":"Place Agnes-Calas","postalCode":"12720","city":"Veyreau","country":"France"},"contacts":{"email":"mairie@veyreau.fr","telephone":"0565628378"},"horaires":"Le Lundi : de 09h00 à 12h00 de 14h00 à 17h30\nLe Jeudi : de 09h00 à 12h30","latitude":44.185497,"longitude":3.299724,"website":"","hasWebsite":false,"hasHoraires":true,"url":"https://lannuaire.service-public.gouv.fr/occitanie/aveyron/158b06d9-2654-485b-9adf-a2e25a10db58"}
{"nom":"Vézins-de-Lévézou","nomNormalise":"vezinsdelevezou","typeCollectivite":"Commune","region":"Occitanie","departement":"Aveyron","departementCode":"12","adresse":{"street":"3 route du Claux","postalCode":"12780","city":"Vézins-de-Lévézou","country":"France"},"contacts":{"email":"mairie@vezinsdelevezou.fr","telephone":"0565618709"},"horaires":"Le Lundi : de 08h30 à 17h30\nLe Mardi : de 08h30 à 12h30\nLe Mercredi : de 09h00 à 12h00\nLe Jeudi : de 08h30 à 17h30\nLe Vendredi : de 08h30 à 12h30","latitude":44.278645,"longitude":2.951966,"website":"https://www.vezins-de-levezou.fr/","hasWebsite":true,"hasHoraires":true,"url":"https://lannuaire.service-public.gouv.fr/occitanie/aveyron/581ebd79-06a1-430e-9ab1-cd5f4572a948"}
{"nom":"Viala-du-Pas-de-Jaux","nomNormalise":"vialadupasdejaux","typeCollectivite":"Commune","region":"Occitanie","departement":"Aveyron","departementCode":"12","adresse":{"street":"74 rue du Calvaire","postalCode":"12250","city":"Viala-du-Pas-de-Jaux","country":"France"},"contacts":{"email":"mairie@vialapasdejaux.fr","telephone":"0565599583"},"horaires":"Du Mardi au Mercredi : de 08h00 à 16h00","latitude":43.957027,"longitude":3.0552,"website":"","hasWebsite":false,"hasHoraires":true,"url":"https://lannuaire.service-public.gouv.fr/occitanie/aveyron/6ef5cae1-0ce9-4fff-9a91-5ee467e1570d"}
{"nom":"Viala-du-Tarn","nomNormalise":"vialadutarn","typeCollectivite":"Commune","region":"Occitanie","departement":"Aveyron","departementCode":"12","adresse":{"street":"Rue de la Mairie","postalCode":"12490","city":"Viala-du-Tarn","country":"France"},"contacts":{"email":"mairieaccueil@vialadutarn.fr","telephone":"0565625237"},"horaires":"Du Lundi au Mercredi : de 14h00 à 17h00\nLe Vendredi : de 14h00 à 17h00","latitude":44.0719,"longitude":2.87802,"website":"http://www.vialadutarn.fr/","hasWebsite":true,"hasHoraires":true,"url":"https://lannuaire.service-public.gouv.fr/occitanie/aveyron/4737e3aa-1d50-4104-b1ca-929154e77653"}
{"nom":"Villecomtal","nomNormalise":"villecomtal","typeCollectivite":"Commune","region":"Occitanie","departement":"Aveyron","departementCode":"12","adresse":{"street":"1 place Jean-XXIII","postalCode":"12580","city":"Villecomtal","country":"France"},"contacts":{"email":"mairie@villecomtal.fr","telephone":"0565446021"},"horaires":"Du Lundi au Mardi : de 08h00 à 12h15 de 13h00 à 16h30\nLe Mercredi : de 08h00 à 12h00\nDu Jeudi au Vendredi : de 08h00 à 12h15 de 13h00 à 16h30","latitude":44.53923,"longitude":2.564584,"website":"http://www.villecomtal.fr/","hasWebsite":true,"hasHoraires":true,"url":"https://lannuaire.service-public.gouv.fr/occitanie/aveyron/d1928eb2-cf16-4cd2-8753-12135e2d6508"}
{"nom":"Villefranche-de-Panat","nomNormalise":"villefranchedepanat","typeCollectivite":"Commune","region":"Occitanie","departement":"Aveyron","departementCode":"12","adresse":{"street":"1 avenue du Lévézou","postalCode":"12430","city":"Villefranche-de-Panat","country":"France"},"contacts":{"email":"mairie@villefranche-de-panat.fr","telephone":"0565465808"},"horaires":"Du Mardi au Vendredi : de 09h00 à 13h00\nLe Samedi : de 09h00 à 12h00\nAccueil sur rendez-vous les après-midis.","latitude":44.0896,"longitude":2.70454,"website":"https://www.villefranche-de-panat.fr/","hasWebsite":true,"hasHoraires":true,"url":"https://lannuaire.service-public.gouv.fr/occitanie/aveyron/8e04ad6d-1371-4514-8fba-c0dba329d705"}
{"nom":"Villefranche-de-Rouergue","nomNormalise":"villefranchederouergue","typeCollectivite":"Commune","region":"Occitanie","departement":"Aveyron","departementCode":"12","adresse":{"street":"Promenade du Guiraudet","postalCode":"12200","city":"Villefranche-de-Rouergue","country":"France"},"contacts":{"email":"mairie@villefranchederouergue.fr","telephone":"0565651620"},"horaires":"Du Lundi au Vendredi : de 08h00 à 12h00 de 13h30 à 17h30\nLe jeudi après-midi, le service état civil est réservé aux déclarations de naissance et de décès.","latitude":44.34937,"longitude":2.0364356,"website":"https://villefranche-de-rouergue.fr/","hasWebsite":true,"hasHoraires":true,"url":"https://lannuaire.service-public.gouv.fr/occitanie/aveyron/ea6aa1c2-f120-4a42-8e06-ebdaff6c9c69"}
{"nom":"Villeneuve","nomNormalise":"villeneuve","typeCollectivite":"Commune","region":"Occitanie","departement":"Aveyron","departementCode":"12","adresse":{"street":"1 place des Conques","postalCode":"12260","city":"Villeneuve","country":"France"},"contacts":{"email":"mairie@villeneuvedaveyron.fr","telephone":"0565816038"},"horaires":"Le Lundi : de 09h00 à 12h00 de 15h00 à 17h30\nLe Mardi : de 09h00 à 12h00 de 15h00 à 17h30\nLe Mercredi : de 09h00 à 12h00 de 15h00 à 17h30\nLe Jeudi : de 09h00 à 12h00\nLe Vendredi : de 09h00 à 12h00 de 15h00 à 17h30","latitude":44.437344,"longitude":2.0332057,"website":"http://www.villeneuvedaveyron.fr/","hasWebsite":true,"hasHoraires":true,"url":"https://lannuaire.service-public.gouv.fr/occitanie/aveyron/0b8b1a5a-218d-43e5-99d8-553bee2229a2"}
{"nom":"Vimenet","nomNormalise":"vimenet","typeCollectivite":"Commune","region":"Occitanie","departement":"Aveyron","departementCode":"12","adresse":{"street":"1 place Pierre Costy","postalCode":"12310","city":"Vimenet","country":"France"},"contacts":{"email":"mairie@vimenet.fr","telephone":"0565696591"},"horaires":"Du Lundi au Mardi : de 09h00 à 12h00\nDu Jeudi au Vendredi : de 09h00 à 12h00\nAccueil sur rendez-vous l'après-midi.","latitude":44.3986,"longitude":2.928999,"website":"","hasWebsite":false,"hasHoraires":true,"url":"https://lannuaire.service-public.gouv.fr/occitanie/aveyron/219e7ed2-e901-4a81-95fa-3495a199d50a"}
{"nom":"Viviez","nomNormalise":"viviez","typeCollectivite":"Commune","region":"Occitanie","departement":"Aveyron","departementCode":"12","adresse":{"street":"Avenue Paul-Ramadier","postalCode":"12110","city":"Viviez","country":"France"},"contacts":{"email":"mairie@viviez.fr","telephone":"0565431206"},"horaires":"Du Lundi au Mardi : de 08h30 à 12h00 de 13h30 à 18h00\nDu Mercredi au Vendredi : de 08h30 à 12h00 de 13h30 à 17h00","latitude":44.554,"longitude":2.21804,"website":"https://www.viviez.fr/","hasWebsite":true,"hasHoraires":true,"url":"https://lannuaire.service-public.gouv.fr/occitanie/aveyron/4301e1b1-5fe5-42cd-8714-7c192c5115a0"}
