{"nom":"Albepierre-Bredons","nomNormalise":"albepierrebredons","typeCollectivite":"Commune","region":"Auvergne-Rhône-Alpes","departement":"Cantal","departementCode":"15","adresse":{"street":"7 rue de la Bargeade","postalCode":"15300","city":"Albepierre-Bredons","country":"France"},"contacts":{"email":"mairie.albepierre@wanadoo.fr","telephone":"0471200280"},"horaires":"Le Lundi : de 09h00 à 12h00\nLe Mardi : de 13h15 à 18h00\n\nAccueil uniquement par téléphone :Mardi de 9h à 12h30\nLe Vendredi : de 09h00 à 12h30 de 13h15 à 18h00","latitude":45.077938,"longitude":2.832805,"website":"","hasWebsite":false,"hasHoraires":true,"url":"https://lannuaire.service-public.gouv.fr/auvergne-rhone-alpes/cantal/2aec2d3e-ee3d-4b74-9342-edd285297789"}
{"nom":"Allanche","nomNormalise":"allanche","typeCollectivite":"Commune","region":"Auvergne-Rhône-Alpes","departement":"Cantal","departementCode":"15","adresse":{"street":"28 Grande-Rue-de-l'Abbé-de-Pradt","postalCode":"15160","city":"Allanche","country":"France"},"contacts":{"email":"accueilmairie@allanche15.fr","telephone":"0471204159"},"horaires":"Du Lundi au Vendredi : de 09h00 à 12h00","latitude":45.228977,"longitude":2.934496,"website":"https://allanche.fr/","hasWebsite":true,"hasHoraires":true,"url":"https://lannuaire.service-public.gouv.fr/auvergne-rhone-alpes/cantal/4c8106f0-7ac8-4863-b868-e3e1066c7006"}
{"nom":"Alleuze","nomNormalise":"alleuze","typeCollectivite":"Commune","region":"Auvergne-Rhône-Alpes","departement":"Cantal","departementCode":"15","adresse":{"street":"La Barge","postalCode":"15100","city":"Alleuze","country":"France"},"contacts":{"email":"mairie@alleuze.com","telephone":"0471730487"},"horaires":"Le Lundi : de 14h00 à 17h00\nLe Mercredi : de 14h00 à 17h00\nLe Jeudi : de 09h00 à 12h00","latitude":44.961914,"longitude":3.086164,"website":"","hasWebsite":false,"hasHoraires":true,"url":"https://lannuaire.service-public.gouv.fr/auvergne-rhone-alpes/cantal/ed191d6f-e1c8-4984-b2df-105e70d4a14e"}
{"nom":"Ally","nomNormalise":"ally","typeCollectivite":"Commune","region":"Auvergne-Rhône-Alpes","departement":"Cantal","departementCode":"15","adresse":{"street":"16 rue de la Minoterie","postalCode":"15700","city":"Ally","country":"France"},"contacts":{"email":"mairiedally@orange.fr","telephone":"0471690069"},"horaires":"Du Lundi au Vendredi : de 09h00 à 12h00","latitude":45.17377,"longitude":2.317515,"website":"","hasWebsite":false,"hasHoraires":true,"url":"https://lannuaire.service-public.gouv.fr/auvergne-rhone-alpes/cantal/0d2f3ff1-9e77-4bd6-b50b-cb2c3601a7d5"}
{"nom":"Andelat","nomNormalise":"andelat","typeCollectivite":"Commune","region":"Auvergne-Rhône-Alpes","departement":"Cantal","departementCode":"15","adresse":{"street":"3 rue de la Mairie","postalCode":"15100","city":"Andelat","country":"France"},"contacts":{"email":"mairie-andelat@wanadoo.fr","telephone":"0471600408"},"horaires":"Le Mardi : de 14h00 à 17h00\nLe Jeudi : de 14h00 à 17h00","latitude":45.060837,"longitude":3.061651,"website":"https://www.andelat.fr/","hasWebsite":true,"hasHoraires":true,"url":"https://lannuaire.service-public.gouv.fr/auvergne-rhone-alpes/cantal/5aa23fad-a955-4d41-aa66-16183de97994"}
{"nom":"Anglards-de-Saint-Flour","nomNormalise":"anglardsdesaintflour","typeCollectivite":"Commune","region":"Auvergne-Rhône-Alpes","departement":"Cantal","departementCode":"15","adresse":{"street":"Le Bourg","postalCode":"15100","city":"Anglards-de-Saint-Flour","country":"France"},"contacts":{"email":"mairie.anglards0641@orange.fr","telephone":"0471234782"},"horaires":"Le Mardi : de 08h30 à 10h30\nLe Jeudi : de 09h30 à 11h30\nLe Samedi : de 09h30 à 11h30","latitude":45.020435,"longitude":3.1256433,"website":"","hasWebsite":false,"hasHoraires":true,"url":"https://lannuaire.service-public.gouv.fr/auvergne-rhone-alpes/cantal/9cadafa0-da72-4d07-8779-9e2741c9d2fd"}
{"nom":"Anglards-de-Salers","nomNormalise":"anglardsdesalers","typeCollectivite":"Commune","region":"Auvergne-Rhône-Alpes","departement":"Cantal","departementCode":"15","adresse":{"street":"4 Rue des Marionniers","postalCode":"15380","city":"Anglards-de-Salers","country":"France"},"contacts":{"email":"mairie@anglards-de-salers.fr","telephone":"0471400002"},"horaires":"Du Lundi au Vendredi : de 08h00 à 12h30","latitude":45.202667,"longitude":2.439476,"website":"https://anglards-de-salers.fr/","hasWebsite":true,"hasHoraires":true,"url":"https://lannuaire.service-public.gouv.fr/auvergne-rhone-alpes/cantal/b617b709-4e88-4d73-9a90-e6bc0cb79f90"}
{"nom":"Mairie annexe de Montchamp","nomNormalise":"mairieannexedemontchamp","typeCollectivite":"Commune","region":"Auvergne-Rhône-Alpes","departement":"Cantal","departementCode":"15","adresse":{"street":"Le Bourg","postalCode":"15100","city":"Montchamp","country":"France"},"contacts":{"email":"mairie.montchamp@wanadoo.fr","telephone":"0471735259"},"horaires":"Le Mardi : de 10h00 à 12h00\nLe Samedi : de 14h00 à 15h00","latitude":45.07031,"longitude":3.20296,"website":"","hasWebsite":false,"hasHoraires":true,"url":"https://lannuaire.service-public.gouv.fr/auvergne-rhone-alpes/cantal/9a637460-662d-4c5e-ac1b-c55ec489797e"}
{"nom":"Anterrieux","nomNormalise":"anterrieux","typeCollectivite":"Commune","region":"Auvergne-Rhône-Alpes","departement":"Cantal","departementCode":"15","adresse":{"street":"Le Bourg","postalCode":"15110","city":"Anterrieux","country":"France"},"contacts":{"email":"mairie.anterrieux@orange.fr","telephone":"0471235491"},"horaires":"Le Mardi : de 09h00 à 12h00\nLe Mercredi : de 14h00 à 16h00","latitude":44.836372,"longitude":3.044007,"website":"","hasWebsite":false,"hasHoraires":true,"url":"https://lannuaire.service-public.gouv.fr/auvergne-rhone-alpes/cantal/fc721815-794c-4858-94c1-f434bc063566"}
{"nom":"Antignac","nomNormalise":"antignac","typeCollectivite":"Commune","region":"Auvergne-Rhône-Alpes","departement":"Cantal","departementCode":"15","adresse":{"street":"19 rue Paul-Antoine-Mirande","postalCode":"15240","city":"Antignac","country":"France"},"contacts":{"email":"mairie.antignac@orange.fr","telephone":"0471402116"},"horaires":"Le Lundi : de 08h45 à 12h15 de 13h45 à 17h30\nLe Mardi : de 08h45 à 12h15\nLe Mercredi : de 13h45 à 17h30\nDu Jeudi au Vendredi : de 08h45 à 12h15","latitude":45.341003,"longitude":2.541908,"website":"https://www.mairie-antignac.fr/","hasWebsite":true,"hasHoraires":true,"url":"https://lannuaire.service-public.gouv.fr/auvergne-rhone-alpes/cantal/73415221-6c2e-4abe-a24e-1bd8d24e1aba"}
{"nom":"Apchon","nomNormalise":"apchon","typeCollectivite":"Commune","region":"Auvergne-Rhône-Alpes","departement":"Cantal","departementCode":"15","adresse":{"street":"1 les Écoles","postalCode":"15400","city":"Apchon","country":"France"},"contacts":{"email":"mairie.apchon@wanadoo.fr","telephone":"0471780398"},"horaires":"Le Lundi : de 08h30 à 12h30\nLe Vendredi : de 08h30 à 12h30","latitude":45.28242,"longitude":2.659684,"website":"","hasWebsite":false,"hasHoraires":true,"url":"https://lannuaire.service-public.gouv.fr/auvergne-rhone-alpes/cantal/8f1fc1f0-9792-4657-b756-03d5aab534a1"}
{"nom":"Arches","nomNormalise":"arches","typeCollectivite":"Commune","region":"Auvergne-Rhône-Alpes","departement":"Cantal","departementCode":"15","adresse":{"street":"1 place de la Tour","postalCode":"15200","city":"Arches","country":"France"},"contacts":{"email":"mairie.arches@wanadoo.fr","telephone":"0471697064"},"horaires":"Du Lundi au Mardi : de 09h00 à 12h00 de 13h00 à 15h30\nLe Mercredi : de 09h00 à 11h30\nDu Jeudi au Vendredi : de 09h00 à 12h00 de 13h00 à 15h30\nLe Samedi : de 09h00 à 11h30","latitude":45.30588,"longitude":2.328089,"website":"https://www.arches.fr/","hasWebsite":true,"hasHoraires":true,"url":"https://lannuaire.service-public.gouv.fr/auvergne-rhone-alpes/cantal/82fe74f7-882f-4425-9149-644207d4f9d1"}
{"nom":"Arnac","nomNormalise":"arnac","typeCollectivite":"Commune","region":"Auvergne-Rhône-Alpes","departement":"Cantal","departementCode":"15","adresse":{"street":"40 rue Saint-Laurent","postalCode":"15150","city":"Arnac","country":"France"},"contacts":{"email":"mairiearnac@wanadoo.fr","telephone":"0471629057"},"horaires":"Le Mardi : de 08h00 à 12h00 de 14h00 à 18h00\nDu Mercredi au Jeudi : de 08h00 à 12h00\nLe Samedi : de 08h00 à 12h00","latitude":45.059902,"longitude":2.234077,"website":"https://www.arnac.fr/","hasWebsite":true,"hasHoraires":true,"url":"https://lannuaire.service-public.gouv.fr/auvergne-rhone-alpes/cantal/3b723422-53a9-4868-8af8-a920d731b9f3"}
{"nom":"Arpajon-sur-Cère","nomNormalise":"arpajonsurcere","typeCollectivite":"Commune","region":"Auvergne-Rhône-Alpes","departement":"Cantal","departementCode":"15","adresse":{"street":"Place de la République","postalCode":"15130","city":"Arpajon-sur-Cère","country":"France"},"contacts":{"email":"mairie@arpajonsurcere.com","telephone":"0471636783"},"horaires":"Le Lundi : de 13h30 à 17h00\nDu Mardi au Vendredi : de 08h00 à 12h00 de 13h30 à 17h00\nLe Samedi : de 08h00 à 12h00","latitude":44.9011,"longitude":2.45878,"website":"https://www.arpajonsurcere.com/fr/","hasWebsite":true,"hasHoraires":true,"url":"https://lannuaire.service-public.gouv.fr/auvergne-rhone-alpes/cantal/2bd0c3b4-d780-4f62-8921-ec01f6bba443"}
{"nom":"Auriac-l'Église","nomNormalise":"auriacleglise","typeCollectivite":"Commune","region":"Auvergne-Rhône-Alpes","departement":"Cantal","departementCode":"15","adresse":{"street":"Le Bourg","postalCode":"15500","city":"Auriac-l'Église","country":"France"},"contacts":{"email":"mairie.auriac.leglise@wanadoo.fr","telephone":"0471739128"},"horaires":"Le Mardi : de 09h00 à 12h00 de 13h00 à 17h00\nLe Mercredi : de 08h30 à 12h30\n\nAccueil fermé le mercredi précédent le 1er samedi du mois.\nLe Jeudi : de 09h00 à 12h00 de 13h00 à 17h00\nLe Samedi : de 08h30 à 12h30\n\nAccueil ouvert uniquement le 1er samedi du mois.","latitude":45.26345,"longitude":3.125423,"website":"https://www.auriacleglise.fr/","hasWebsite":true,"hasHoraires":true,"url":"https://lannuaire.service-public.gouv.fr/auvergne-rhone-alpes/cantal/459dac00-fa84-4544-afcd-90757fce8204"}
{"nom":"Aurillac","nomNormalise":"aurillac","typeCollectivite":"Commune","region":"Auvergne-Rhône-Alpes","departement":"Cantal","departementCode":"15","adresse":{"street":"Place de l'Hôtel-de-Ville","postalCode":"15000","city":"Aurillac","country":"France"},"contacts":{"email":"administration@aurillac.fr","telephone":"0471454646"},"horaires":"Le Lundi : de 09h00 à 17h00\nDu Mardi au Vendredi : de 09h00 à 12h00 de 13h30 à 17h00\nLe Samedi : de 09h00 à 12h00\nUniquement pour l'accueil et l'état civil. Accueil fermé en juillet et août.","latitude":44.930317,"longitude":2.444953,"website":"https://www.aurillac.fr/","hasWebsite":true,"hasHoraires":true,"url":"https://lannuaire.service-public.gouv.fr/auvergne-rhone-alpes/cantal/36cb4285-18ee-45f8-b781-2bfe3b352986"}
{"nom":"Auzers","nomNormalise":"auzers","typeCollectivite":"Commune","region":"Auvergne-Rhône-Alpes","departement":"Cantal","departementCode":"15","adresse":{"street":"Le Bourg","postalCode":"15240","city":"Auzers","country":"France"},"contacts":{"email":"auzers.mairie@orange.fr","telephone":"0471786256"},"horaires":"Du Lundi au Mardi : de 14h30 à 16h30\nDu Jeudi au Vendredi : de 14h30 à 16h30","latitude":45.26529,"longitude":2.460773,"website":"","hasWebsite":false,"hasHoraires":true,"url":"https://lannuaire.service-public.gouv.fr/auvergne-rhone-alpes/cantal/5b452f18-b065-497a-9c50-aa1923d7ff66"}
{"nom":"Ayrens","nomNormalise":"ayrens","typeCollectivite":"Commune","region":"Auvergne-Rhône-Alpes","departement":"Cantal","departementCode":"15","adresse":{"street":"Le Bourg","postalCode":"15250","city":"Ayrens","country":"France"},"contacts":{"email":"contact@mairieayrens.fr","telephone":"0471463070"},"horaires":"Du Lundi au Mardi : de 09h00 à 12h00\nDu Jeudi au Vendredi : de 09h00 à 12h00","latitude":44.98481,"longitude":2.326353,"website":"","hasWebsite":false,"hasHoraires":true,"url":"https://lannuaire.service-public.gouv.fr/auvergne-rhone-alpes/cantal/f7f1de22-89e2-491e-ac26-c86c0f465f2c"}
{"nom":"Badailhac","nomNormalise":"badailhac","typeCollectivite":"Commune","region":"Auvergne-Rhône-Alpes","departement":"Cantal","departementCode":"15","adresse":{"street":"20 rue de la Fraternité","postalCode":"15800","city":"Badailhac","country":"France"},"contacts":{"email":"badailhac.mairie@wanadoo.fr","telephone":"0471474073"},"horaires":"Le Lundi : de 14h00 à 16h00\nLe Jeudi : de 14h00 à 16h00\nLe Vendredi : de 09h00 à 12h00","latitude":44.92067,"longitude":2.623138,"website":"https://www.mairiedebadailhac.fr/","hasWebsite":true,"hasHoraires":true,"url":"https://lannuaire.service-public.gouv.fr/auvergne-rhone-alpes/cantal/a920e62a-140e-4b35-aafc-c9856cb136bb"}
{"nom":"Barriac-les-Bosquets","nomNormalise":"barriaclesbosquets","typeCollectivite":"Commune","region":"Auvergne-Rhône-Alpes","departement":"Cantal","departementCode":"15","adresse":{"street":"2 rue Saint-Louis","postalCode":"15700","city":"Barriac-les-Bosquets","country":"France"},"contacts":{"email":"mairie.barriac@orange.fr","telephone":"0471404038"},"horaires":"Le Lundi : de 13h30 à 17h00\nDu Mercredi au Jeudi : de 08h30 à 12h00","latitude":45.14516,"longitude":2.2678647,"website":"","hasWebsite":false,"hasHoraires":true,"url":"https://lannuaire.service-public.gouv.fr/auvergne-rhone-alpes/cantal/123bf5f7-8fd5-4adb-87d7-0c7eaaf29bf5"}
{"nom":"Bassignac","nomNormalise":"bassignac","typeCollectivite":"Commune","region":"Auvergne-Rhône-Alpes","departement":"Cantal","departementCode":"15","adresse":{"street":"18 rue de la Rongiaire","postalCode":"15240","city":"Bassignac","country":"France"},"contacts":{"email":"mairie.bassignac@laposte.net","telephone":"0471408233"},"horaires":"Le Mardi : de 13h30 à 17h00\nLe Mercredi : de 10h00 à 12h00\nLe Samedi : de 10h00 à 12h00","latitude":45.316383,"longitude":2.407572,"website":"","hasWebsite":false,"hasHoraires":true,"url":"https://lannuaire.service-public.gouv.fr/auvergne-rhone-alpes/cantal/7fbf91f6-f5e0-4484-b1e6-c9d3cd763fe2"}
{"nom":"Beaulieu","nomNormalise":"beaulieu","typeCollectivite":"Commune","region":"Auvergne-Rhône-Alpes","departement":"Cantal","departementCode":"15","adresse":{"street":"2 rue des Gabariers","postalCode":"15270","city":"Beaulieu","country":"France"},"contacts":{"email":"mairie-beaulieu3@wanadoo.fr","telephone":"0471403436"},"horaires":"Du Mardi au Jeudi : de 10h00 à 12h00 de 14h00 à 17h00","latitude":44.980946,"longitude":1.836774,"website":"https://www.beaulieu15.fr/","hasWebsite":true,"hasHoraires":true,"url":"https://lannuaire.service-public.gouv.fr/auvergne-rhone-alpes/cantal/05822487-221b-457a-8753-77a06257e065"}
{"nom":"Besse","nomNormalise":"besse","typeCollectivite":"Commune","region":"Auvergne-Rhône-Alpes","departement":"Cantal","departementCode":"15","adresse":{"street":"2 route de Roche-Buchée","postalCode":"15140","city":"Besse","country":"France"},"contacts":{"email":"mairie.besse15@wanadoo.fr","telephone":"0471446098"},"horaires":"Du Mercredi au Jeudi : de 09h00 à 12h00","latitude":45.096523,"longitude":2.351084,"website":"","hasWebsite":false,"hasHoraires":true,"url":"https://lannuaire.service-public.gouv.fr/auvergne-rhone-alpes/cantal/e7bf1fb8-c6d9-4cd8-9ac5-0a21011ebb5e"}
{"nom":"Boisset","nomNormalise":"boisset","typeCollectivite":"Commune","region":"Auvergne-Rhône-Alpes","departement":"Cantal","departementCode":"15","adresse":{"street":"Le Bourg","postalCode":"15600","city":"Boisset","country":"France"},"contacts":{"email":"communeboisset@wanadoo.fr","telephone":"0471622097"},"horaires":"Le Lundi : de 08h00 à 12h00 de 13h30 à 17h30\nLe Mardi : de 08h00 à 12h00\nLe Jeudi : de 08h00 à 12h00 de 13h30 à 17h30\nLe Vendredi : de 08h00 à 12h00","latitude":44.78278,"longitude":2.254066,"website":"https://commune-boisset-cantal.fr/","hasWebsite":true,"hasHoraires":true,"url":"https://lannuaire.service-public.gouv.fr/auvergne-rhone-alpes/cantal/dfe9797f-6fc7-4c63-a475-b2291ac7e577"}
{"nom":"Bonnac","nomNormalise":"bonnac","typeCollectivite":"Commune","region":"Auvergne-Rhône-Alpes","departement":"Cantal","departementCode":"15","adresse":{"street":"Le Bourg","postalCode":"15500","city":"Bonnac","country":"France"},"contacts":{"email":"mairie.bonnac.commune@wanadoo.fr","telephone":"0471230767"},"horaires":"Le Mardi : de 14h00 à 17h00\nLe Vendredi : de 09h30 à 12h00","latitude":45.207912,"longitude":3.158789,"website":"","hasWebsite":false,"hasHoraires":true,"url":"https://lannuaire.service-public.gouv.fr/auvergne-rhone-alpes/cantal/44eb5af9-7bd3-4223-a07b-c096f401ab20"}
{"nom":"Brageac","nomNormalise":"brageac","typeCollectivite":"Commune","region":"Auvergne-Rhône-Alpes","departement":"Cantal","departementCode":"15","adresse":{"street":"15 rue Marcel-Mazar","postalCode":"15700","city":"Brageac","country":"France"},"contacts":{"email":"mairie.brageac@wanadoo.fr","telephone":"0471690430"},"horaires":"Le Lundi : de 13h30 à 17h00\nLe Jeudi : de 13h30 à 17h00","latitude":45.205322,"longitude":2.289639,"website":"https://brageac.fr/","hasWebsite":true,"hasHoraires":true,"url":"https://lannuaire.service-public.gouv.fr/auvergne-rhone-alpes/cantal/33fc3efc-6fe7-4b67-ab72-612fd92c8f35"}
{"nom":"Brezons","nomNormalise":"brezons","typeCollectivite":"Commune","region":"Auvergne-Rhône-Alpes","departement":"Cantal","departementCode":"15","adresse":{"street":"2 Rue Louis-Manhes","postalCode":"15230","city":"Brezons","country":"France"},"contacts":{"email":"mairie.brezons@wanadoo.fr","telephone":"0471734168"},"horaires":"Le Mardi : de 13h30 à 16h45\nLe Jeudi : de 13h30 à 16h45","latitude":44.969543,"longitude":2.807748,"website":"","hasWebsite":false,"hasHoraires":true,"url":"https://lannuaire.service-public.gouv.fr/auvergne-rhone-alpes/cantal/310475d1-20b6-45a4-8eae-00ceab8fd4c2"}
{"nom":"Carlat","nomNormalise":"carlat","typeCollectivite":"Commune","region":"Auvergne-Rhône-Alpes","departement":"Cantal","departementCode":"15","adresse":{"street":"Le Bourg","postalCode":"15130","city":"Carlat","country":"France"},"contacts":{"email":"mairie.carlat@wanadoo.fr","telephone":"0971488040"},"horaires":"Du Lundi au Mardi : de 14h30 à 17h00\nLe Jeudi : de 08h30 à 11h30\nLe Samedi : de 10h00 à 12h00","latitude":44.88909,"longitude":2.565069,"website":"","hasWebsite":false,"hasHoraires":true,"url":"https://lannuaire.service-public.gouv.fr/auvergne-rhone-alpes/cantal/5de4de45-679a-4e02-9915-2e586afea7d0"}
{"nom":"Cassaniouze","nomNormalise":"cassaniouze","typeCollectivite":"Commune","region":"Auvergne-Rhône-Alpes","departement":"Cantal","departementCode":"15","adresse":{"street":"7 place Sainte-Croix","postalCode":"15340","city":"Cassaniouze","country":"France"},"contacts":{"email":"mairie.cassaniouze@wanadoo.fr","telephone":"0471499003"},"horaires":"Du Lundi au Jeudi : de 09h00 à 12h00\nLe Vendredi : de 09h00 à 12h00 de 14h00 à 17h00","latitude":44.69006,"longitude":2.3826306,"website":"http://www.cassaniouze.fr/","hasWebsite":true,"hasHoraires":true,"url":"https://lannuaire.service-public.gouv.fr/auvergne-rhone-alpes/cantal/263ce233-57f8-451d-9bdb-5d568e8e5143"}
{"nom":"Cayrols","nomNormalise":"cayrols","typeCollectivite":"Commune","region":"Auvergne-Rhône-Alpes","departement":"Cantal","departementCode":"15","adresse":{"street":"1 place du 19-Mars-1962","postalCode":"15290","city":"Cayrols","country":"France"},"contacts":{"email":"mairiecayrols@wanadoo.fr","telephone":"0471461920"},"horaires":"Du Lundi au Mardi : de 09h00 à 12h00 de 14h00 à 17h00\nLe Mercredi : de 14h00 à 17h00\nLe Jeudi : de 09h00 à 12h00 de 15h00 à 17h00\nLe Samedi : de 09h00 à 12h00","latitude":44.831165,"longitude":2.2330759,"website":"https://www.cayrols.fr/","hasWebsite":true,"hasHoraires":true,"url":"https://lannuaire.service-public.gouv.fr/auvergne-rhone-alpes/cantal/1f98b26a-8655-4998-93e9-562955944137"}
{"nom":"Celles","nomNormalise":"celles","typeCollectivite":"Commune","region":"Auvergne-Rhône-Alpes","departement":"Cantal","departementCode":"15","adresse":{"street":"Ribbes","postalCode":"15170","city":"celles","country":"France"},"contacts":{"email":"mairie@celles15.fr","telephone":"0471205121"},"horaires":"Le Mercredi : de 08h30 à 12h30 de 13h30 à 16h30\nLe Jeudi : de 13h30 à 16h30","latitude":45.11463,"longitude":2.954376,"website":"","hasWebsite":false,"hasHoraires":true,"url":"https://lannuaire.service-public.gouv.fr/auvergne-rhone-alpes/cantal/db753b5e-5a95-4eca-ab5e-f8b102d4c03b"}
{"nom":"Celoux","nomNormalise":"celoux","typeCollectivite":"Commune","region":"Auvergne-Rhône-Alpes","departement":"Cantal","departementCode":"15","adresse":{"street":"Le Bourg","postalCode":"15500","city":"Celoux","country":"France"},"contacts":{"email":"mairie.celoux@orange.fr","telephone":"0471731561"},"horaires":"Le Lundi : de 09h00 à 12h00\nLe Jeudi : de 09h00 à 17h00","latitude":45.145638,"longitude":3.263774,"website":"","hasWebsite":false,"hasHoraires":true,"url":"https://lannuaire.service-public.gouv.fr/auvergne-rhone-alpes/cantal/e6a78461-ba98-4bdf-a19d-d920d0bbce2e"}
{"nom":"Cézens","nomNormalise":"cezens","typeCollectivite":"Commune","region":"Auvergne-Rhône-Alpes","departement":"Cantal","departementCode":"15","adresse":{"street":"11 rue de la Mairie","postalCode":"15230","city":"Cézens","country":"France"},"contacts":{"email":"mairie.cezens@orange.fr","telephone":"0471733171"},"horaires":"Le Mardi : de 14h00 à 18h00\nLe Jeudi : de 14h00 à 18h00","latitude":44.984592,"longitude":2.855661,"website":"","hasWebsite":false,"hasHoraires":true,"url":"https://lannuaire.service-public.gouv.fr/auvergne-rhone-alpes/cantal/bbf25fb5-5ca0-447b-a6c9-9072bc4ad843"}
{"nom":"Chaliers","nomNormalise":"chaliers","typeCollectivite":"Commune","region":"Auvergne-Rhône-Alpes","departement":"Cantal","departementCode":"15","adresse":{"street":"3 rue Saint-Martin","postalCode":"15320","city":"Chaliers","country":"France"},"contacts":{"email":"mairiede.chaliers@wanadoo.fr","telephone":"0471234464"},"horaires":"Le Mercredi : de 09h00 à 12h00\nLe Vendredi : de 14h00 à 18h00","latitude":44.95603,"longitude":3.223064,"website":"","hasWebsite":false,"hasHoraires":true,"url":"https://lannuaire.service-public.gouv.fr/auvergne-rhone-alpes/cantal/7dac9172-539d-46cc-bce7-a0b01ecabe25"}
{"nom":"Chalinargues","nomNormalise":"chalinargues","typeCollectivite":"Commune","region":"Auvergne-Rhône-Alpes","departement":"Cantal","departementCode":"15","adresse":{"street":"Le bourg de Chalinargues","postalCode":"15170","city":"Neussargues-en-Pinatelle","country":"France"},"contacts":{"email":"chalinargues.mairie@wanadoo.fr","telephone":"0471200760"},"horaires":"Du Lundi au Mardi : de 12h30 à 17h00\nLe Mercredi : de 09h00 à 12h00\nLe Jeudi : de 12h30 à 17h00","latitude":45.15472,"longitude":2.93434,"website":"","hasWebsite":false,"hasHoraires":true,"url":"https://lannuaire.service-public.gouv.fr/auvergne-rhone-alpes/cantal/3b941474-5efc-4cac-ade9-c837d5b66afb"}
{"nom":"Chalvignac","nomNormalise":"chalvignac","typeCollectivite":"Commune","region":"Auvergne-Rhône-Alpes","departement":"Cantal","departementCode":"15","adresse":{"street":"Le Bourg","postalCode":"15200","city":"Chalvignac","country":"France"},"contacts":{"email":"mairie.chalvignac@wanadoo.fr","telephone":"0471681119"},"horaires":"Du Lundi au Vendredi : de 09h00 à 12h00","latitude":45.27578,"longitude":2.340508,"website":"","hasWebsite":false,"hasHoraires":true,"url":"https://lannuaire.service-public.gouv.fr/auvergne-rhone-alpes/cantal/7e580f40-781c-4129-8ac1-1c8be1b7c531"}
{"nom":"Champagnac","nomNormalise":"champagnac","typeCollectivite":"Commune","region":"Auvergne-Rhône-Alpes","departement":"Cantal","departementCode":"15","adresse":{"street":"Le Bourg","postalCode":"15350","city":"Champagnac","country":"France"},"contacts":{"email":"mairie@champagnac.fr","telephone":"0471696155"},"horaires":"Du Lundi au Vendredi : de 09h00 à 12h00 de 13h30 à 17h30","latitude":45.35705,"longitude":2.399482,"website":"http://www.champagnac.org/","hasWebsite":true,"hasHoraires":true,"url":"https://lannuaire.service-public.gouv.fr/auvergne-rhone-alpes/cantal/6548a0fe-29d4-4092-b24c-ceaa0c6738fa"}
{"nom":"Champs-sur-Tarentaine-Marchal","nomNormalise":"champssurtarentainemarchal","typeCollectivite":"Commune","region":"Auvergne-Rhône-Alpes","departement":"Cantal","departementCode":"15","adresse":{"street":"23 bis place de l'Église","postalCode":"15270","city":"Champs-sur-Tarentaine-Marchal","country":"France"},"contacts":{"email":"contact@champs-marchal.org","telephone":"0471787275"},"horaires":"Le Lundi : de 09h00 à 12h00\nLe Mardi : de 09h00 à 12h00 de 13h30 à 17h30\nLe Mercredi : de 09h00 à 12h00\nDu Jeudi au Vendredi : de 09h00 à 12h00 de 13h30 à 17h30\nLe Samedi : de 09h00 à 12h00","latitude":45.39561,"longitude":2.560976,"website":"https://www.champs-marchal.org/","hasWebsite":true,"hasHoraires":true,"url":"https://lannuaire.service-public.gouv.fr/auvergne-rhone-alpes/cantal/02358418-93b4-4e30-97ec-847b1acd3fe0"}
{"nom":"Chanterelle","nomNormalise":"chanterelle","typeCollectivite":"Commune","region":"Auvergne-Rhône-Alpes","departement":"Cantal","departementCode":"15","adresse":{"street":"1 route de Condat","postalCode":"15190","city":"Chanterelle","country":"France"},"contacts":{"email":"mairie-chanterelle@wanadoo.fr","telephone":"0471785790"},"horaires":"Le Mercredi : de 09h00 à 17h00","latitude":45.378975,"longitude":2.813458,"website":"http://www.chanterelle-cantal.fr/","hasWebsite":true,"hasHoraires":true,"url":"https://lannuaire.service-public.gouv.fr/auvergne-rhone-alpes/cantal/2bef2411-e83e-4c8f-a23a-eb5cf55171b0"}
{"nom":"Charmensac","nomNormalise":"charmensac","typeCollectivite":"Commune","region":"Auvergne-Rhône-Alpes","departement":"Cantal","departementCode":"15","adresse":{"street":"Le Bourg","postalCode":"15500","city":"Charmensac","country":"France"},"contacts":{"email":"mairiecharmensac@wanadoo.fr","telephone":"0471736156"},"horaires":"Le Mardi : de 13h30 à 17h00","latitude":45.216476,"longitude":3.087783,"website":"","hasWebsite":false,"hasHoraires":true,"url":"https://lannuaire.service-public.gouv.fr/auvergne-rhone-alpes/cantal/e222784d-e5f0-449a-ac73-443f617687e6"}
{"nom":"Chaudes-Aigues","nomNormalise":"chaudesaigues","typeCollectivite":"Commune","region":"Auvergne-Rhône-Alpes","departement":"Cantal","departementCode":"15","adresse":{"street":"3 place de la Mairie","postalCode":"15110","city":"Chaudes-Aigues","country":"France"},"contacts":{"email":"contact@chaudes-aigues.fr","telephone":"0471235247"},"horaires":"Du Lundi au Jeudi : de 08h00 à 12h00 de 13h30 à 17h30\nLe Vendredi : de 08h00 à 12h00 de 13h30 à 16h30","latitude":44.8551,"longitude":3.00366,"website":"https://www.chaudes-aigues.fr/","hasWebsite":true,"hasHoraires":true,"url":"https://lannuaire.service-public.gouv.fr/auvergne-rhone-alpes/cantal/73bbc6b6-a13c-4ce9-b019-fc77cbf21c93"}
{"nom":"Chaussenac","nomNormalise":"chaussenac","typeCollectivite":"Commune","region":"Auvergne-Rhône-Alpes","departement":"Cantal","departementCode":"15","adresse":{"street":"4 rue de la Mairie","postalCode":"15700","city":"Chaussenac","country":"France"},"contacts":{"email":"mairie@chaussenac.fr","telephone":"0471690201"},"horaires":"Le Mardi : de 09h00 à 12h00\nLe Mercredi : de 09h00 à 12h00 de 14h00 à 17h00\nLe Vendredi : de 09h00 à 12h00 de 14h00 à 17h00","latitude":45.177433,"longitude":2.277741,"website":"https://www.chaussenac.fr/","hasWebsite":true,"hasHoraires":true,"url":"https://lannuaire.service-public.gouv.fr/auvergne-rhone-alpes/cantal/c3b1e8cc-d49a-4b97-a025-6dae7b58f71e"}
{"nom":"Chavagnac","nomNormalise":"chavagnac","typeCollectivite":"Commune","region":"Auvergne-Rhône-Alpes","departement":"Cantal","departementCode":"15","adresse":{"street":"1 rue de la Mairie","postalCode":"15300","city":"Chavagnac","country":"France"},"contacts":{"email":"mairie@chavagnac.fr","telephone":"0471201019"},"horaires":"Le Mardi : de 08h30 à 12h30 de 13h30 à 16h30\nLe Jeudi : de 08h30 à 12h30","latitude":45.153065,"longitude":2.883194,"website":"","hasWebsite":false,"hasHoraires":true,"url":"https://lannuaire.service-public.gouv.fr/auvergne-rhone-alpes/cantal/1417b847-ae65-422f-8153-00773094bd5e"}
{"nom":"Chazelles","nomNormalise":"chazelles","typeCollectivite":"Commune","region":"Auvergne-Rhône-Alpes","departement":"Cantal","departementCode":"15","adresse":{"street":"6 route de la Croix-de-Cronce","postalCode":"15500","city":"Chazelles","country":"France"},"contacts":{"email":"commune-chazelles@orange.fr","telephone":"0471735269"},"horaires":"Le Mardi : de 10h00 à 17h00","latitude":45.104153,"longitude":3.336023,"website":"","hasWebsite":false,"hasHoraires":true,"url":"https://lannuaire.service-public.gouv.fr/auvergne-rhone-alpes/cantal/377ebd4e-5800-4e66-b402-a3b83c447d56"}
{"nom":"Cheylade","nomNormalise":"cheylade","typeCollectivite":"Commune","region":"Auvergne-Rhône-Alpes","departement":"Cantal","departementCode":"15","adresse":{"street":"2 rue de la Lettre","postalCode":"15400","city":"Cheylade","country":"France"},"contacts":{"email":"mairie.cheylade@wanadoo.fr","telephone":"0471789067"},"horaires":"Du Lundi au Mardi : de 08h00 à 11h30\nDu Jeudi au Vendredi : de 08h00 à 11h30","latitude":45.20903,"longitude":2.716344,"website":"http://www.cheylade.fr/","hasWebsite":true,"hasHoraires":true,"url":"https://lannuaire.service-public.gouv.fr/auvergne-rhone-alpes/cantal/9b14779f-8225-4c05-9e58-18fec254aa1a"}
{"nom":"Clavières","nomNormalise":"clavieres","typeCollectivite":"Commune","region":"Auvergne-Rhône-Alpes","departement":"Cantal","departementCode":"15","adresse":{"street":"Le Bourg","postalCode":"15320","city":"Clavières","country":"France"},"contacts":{"email":"mairie.clavieres15@wanadoo.fr","telephone":"0471234316"},"horaires":"Le Mardi : de 14h00 à 16h00\nLe Jeudi : de 10h00 à 12h00\nLe Samedi : de 10h00 à 12h00\n\nAccueil semaines impaires uniquement.","latitude":44.985596,"longitude":3.27785,"website":"","hasWebsite":false,"hasHoraires":true,"url":"https://lannuaire.service-public.gouv.fr/auvergne-rhone-alpes/cantal/638f4d7d-ed9b-4204-beb8-cbd611423e92"}
{"nom":"Collandres","nomNormalise":"collandres","typeCollectivite":"Commune","region":"Auvergne-Rhône-Alpes","departement":"Cantal","departementCode":"15","adresse":{"street":"Le Bourg","postalCode":"15400","city":"Collandres","country":"France"},"contacts":{"email":"mairie.collandres@wanadoo.fr","telephone":"0471780354"},"horaires":"Le Mardi : de 13h30 à 17h30\nLe Mercredi : de 08h30 à 12h30 de 13h30 à 17h30","latitude":45.236073,"longitude":2.658052,"website":"","hasWebsite":false,"hasHoraires":true,"url":"https://lannuaire.service-public.gouv.fr/auvergne-rhone-alpes/cantal/4e453510-5cf3-4480-af64-ac01788eeb1e"}
{"nom":"Coltines","nomNormalise":"coltines","typeCollectivite":"Commune","region":"Auvergne-Rhône-Alpes","departement":"Cantal","departementCode":"15","adresse":{"street":"21 rue Charreire-de-la-Font","postalCode":"15170","city":"Coltines","country":"France"},"contacts":{"email":"coltines@wanadoo.fr","telephone":"0471732135"},"horaires":"Le Lundi : de 08h30 à 12h00 de 13h30 à 16h30\nLe Mercredi : de 08h30 à 11h30\nLe Vendredi : de 08h30 à 12h00 de 13h30 à 15h00","latitude":45.091633,"longitude":2.986954,"website":"https://www.coltines.com/","hasWebsite":true,"hasHoraires":true,"url":"https://lannuaire.service-public.gouv.fr/auvergne-rhone-alpes/cantal/d737413d-a6d0-4329-b6da-1c4aaff0ef06"}
{"nom":"Condat","nomNormalise":"condat","typeCollectivite":"Commune","region":"Auvergne-Rhône-Alpes","departement":"Cantal","departementCode":"15","adresse":{"street":"2 place de la Mairie","postalCode":"15190","city":"Condat","country":"France"},"contacts":{"email":"condat.mairie@wanadoo.fr","telephone":"0471785206"},"horaires":"Du Lundi au Vendredi : de 08h00 à 12h00 de 13h30 à 17h30","latitude":45.34182,"longitude":2.7575223,"website":"http://www.condat15.fr/","hasWebsite":true,"hasHoraires":true,"url":"https://lannuaire.service-public.gouv.fr/auvergne-rhone-alpes/cantal/4b7ac004-660c-4293-a4da-dbf2c088dcc1"}
{"nom":"Coren","nomNormalise":"coren","typeCollectivite":"Commune","region":"Auvergne-Rhône-Alpes","departement":"Cantal","departementCode":"15","adresse":{"street":"1 place de la Fontaine","postalCode":"15100","city":"Coren","country":"France"},"contacts":{"email":"mairie.coren@orange.fr","telephone":"0471600687"},"horaires":"Le Lundi : de 13h30 à 16h30\nLe Mardi : de 09h00 à 12h00\nDu Jeudi au Samedi : de 09h00 à 12h00\n\nSamedi (semaine paire) : de 09h00 à 12h00","latitude":45.077614,"longitude":3.106879,"website":"","hasWebsite":false,"hasHoraires":true,"url":"https://lannuaire.service-public.gouv.fr/auvergne-rhone-alpes/cantal/9c5ebc10-04b4-449e-b3a5-66ad3ebcdc5f"}
{"nom":"Crandelles","nomNormalise":"crandelles","typeCollectivite":"Commune","region":"Auvergne-Rhône-Alpes","departement":"Cantal","departementCode":"15","adresse":{"street":"2 place de la Liberté","postalCode":"15250","city":"Crandelles","country":"France"},"contacts":{"email":"mairie.crandelles@wanadoo.fr","telephone":"0471463084"},"horaires":"Le Lundi : de 09h00 à 12h00\nLe Mercredi : de 09h00 à 12h00\nLe Vendredi : de 14h00 à 18h00\nLe Samedi : de 09h00 à 12h00","latitude":44.960217,"longitude":2.34667,"website":"https://www.crandelles.fr/","hasWebsite":true,"hasHoraires":true,"url":"https://lannuaire.service-public.gouv.fr/auvergne-rhone-alpes/cantal/8dbcea9e-9f24-48aa-bb0e-0b0ef49940ee"}
{"nom":"Cros-de-Montvert","nomNormalise":"crosdemontvert","typeCollectivite":"Commune","region":"Auvergne-Rhône-Alpes","departement":"Cantal","departementCode":"15","adresse":{"street":"1 rue de Lavoir","postalCode":"15150","city":"Cros-de-Montvert","country":"France"},"contacts":{"email":"mairie.crosdemontvert@wanadoo.fr","telephone":"0471450875"},"horaires":"Le Lundi : de 13h30 à 17h30\nLe Mercredi : de 09h00 à 12h00\nLe Vendredi : de 09h00 à 12h00","latitude":45.05266,"longitude":2.148107,"website":"https://www.cros-de-montvert.fr/","hasWebsite":true,"hasHoraires":true,"url":"https://lannuaire.service-public.gouv.fr/auvergne-rhone-alpes/cantal/2ad559ed-c98d-4092-998e-7e5154e01286"}
{"nom":"Cros-de-Ronesque","nomNormalise":"crosderonesque","typeCollectivite":"Commune","region":"Auvergne-Rhône-Alpes","departement":"Cantal","departementCode":"15","adresse":{"street":"6 place de Couderc","postalCode":"15130","city":"Cros-de-Ronesque","country":"France"},"contacts":{"email":"mairie-cros@orange.fr","telephone":"0471624884"},"horaires":"Le Lundi : de 09h00 à 11h00\nLe Jeudi : de 09h00 à 11h00\nLe Vendredi : de 14h00 à 16h00","latitude":44.871967,"longitude":2.610217,"website":"http://www.crosderonesque.fr/","hasWebsite":true,"hasHoraires":true,"url":"https://lannuaire.service-public.gouv.fr/auvergne-rhone-alpes/cantal/de305615-36e6-420b-8789-fee24fb1f67e"}
{"nom":"Cussac","nomNormalise":"cussac","typeCollectivite":"Commune","region":"Auvergne-Rhône-Alpes","departement":"Cantal","departementCode":"15","adresse":{"street":"Le Bourg","postalCode":"15430","city":"Cussac","country":"France"},"contacts":{"email":"mairie.cussac@orange.fr","telephone":"0471733105"},"horaires":"Le Mercredi : de 14h00 à 17h00\nLe Vendredi : de 09h00 à 12h00","latitude":44.983196,"longitude":2.9332242,"website":"","hasWebsite":false,"hasHoraires":true,"url":"https://lannuaire.service-public.gouv.fr/auvergne-rhone-alpes/cantal/ace28cff-6c47-4298-a7e0-21e57ce9a423"}
{"nom":"Deux-Verges","nomNormalise":"deuxverges","typeCollectivite":"Commune","region":"Auvergne-Rhône-Alpes","departement":"Cantal","departementCode":"15","adresse":{"street":"Le Bourg","postalCode":"15110","city":"Deux-Verges","country":"France"},"contacts":{"email":"mairie.deux-verges@wanadoo.fr","telephone":"0471235270"},"horaires":"Le Lundi : de 09h00 à 12h00\nLe Jeudi : de 13h30 à 15h30","latitude":44.806496,"longitude":3.023502,"website":"","hasWebsite":false,"hasHoraires":true,"url":"https://lannuaire.service-public.gouv.fr/auvergne-rhone-alpes/cantal/7128ab5b-3e1d-4da0-afa5-debf2dbd28ca"}
{"nom":"Dienne","nomNormalise":"dienne","typeCollectivite":"Commune","region":"Auvergne-Rhône-Alpes","departement":"Cantal","departementCode":"15","adresse":{"street":"Le Bourg","postalCode":"15300","city":"Dienne","country":"France"},"contacts":{"email":"mairie.dienne@wanadoo.fr","telephone":"0471208084"},"horaires":"Du Lundi au Mardi : de 08h30 à 12h00 de 13h30 à 17h00\nLe Mercredi : de 08h30 à 12h00\nDu Jeudi au Vendredi : de 08h30 à 12h00 de 13h30 à 17h00","latitude":45.1306,"longitude":2.843178,"website":"","hasWebsite":false,"hasHoraires":true,"url":"https://lannuaire.service-public.gouv.fr/auvergne-rhone-alpes/cantal/d844e962-4e79-4a47-927b-a2313b40efde"}
{"nom":"Drugeac","nomNormalise":"drugeac","typeCollectivite":"Commune","region":"Auvergne-Rhône-Alpes","departement":"Cantal","departementCode":"15","adresse":{"street":"15 place Jean-Brun","postalCode":"15140","city":"Drugeac","country":"France"},"contacts":{"email":"mairie.drugeac@wanadoo.fr","telephone":"0471691011"},"horaires":"Du Lundi au Vendredi : de 13h30 à 17h30","latitude":45.166996,"longitude":2.385556,"website":"","hasWebsite":false,"hasHoraires":true,"url":"https://lannuaire.service-public.gouv.fr/auvergne-rhone-alpes/cantal/dbae1de0-4e18-4474-b5df-897efa8316ae"}
{"nom":"Escorailles","nomNormalise":"escorailles","typeCollectivite":"Commune","region":"Auvergne-Rhône-Alpes","departement":"Cantal","departementCode":"15","adresse":{"street":"Le Bourg","postalCode":"15700","city":"Escorailles","country":"France"},"contacts":{"email":"mairie.escorailles@wanadoo.fr","telephone":"0471690033"},"horaires":"Le Mardi : de 13h30 à 16h30\nLe Vendredi : de 08h30 à 12h00","latitude":45.173855,"longitude":2.328849,"website":"","hasWebsite":false,"hasHoraires":true,"url":"https://lannuaire.service-public.gouv.fr/auvergne-rhone-alpes/cantal/6fd9bb4e-4ad5-4ec1-ab99-f8dfa54407e9"}
{"nom":"Espinasse","nomNormalise":"espinasse","typeCollectivite":"Commune","region":"Auvergne-Rhône-Alpes","departement":"Cantal","departementCode":"15","adresse":{"street":"Le Bourg","postalCode":"15110","city":"Espinasse","country":"France"},"contacts":{"email":"espinasse.mairie@wanadoo.fr","telephone":"0471235511"},"horaires":"Le Mardi : de 09h00 à 18h00\nLe Jeudi : de 14h00 à 18h00","latitude":44.87143,"longitude":2.941267,"website":"","hasWebsite":false,"hasHoraires":true,"url":"https://lannuaire.service-public.gouv.fr/auvergne-rhone-alpes/cantal/afda0fdf-18c3-4c12-83a4-d6075b6dbb70"}
{"nom":"Ferrières-Saint-Mary","nomNormalise":"ferrieressaintmary","typeCollectivite":"Commune","region":"Auvergne-Rhône-Alpes","departement":"Cantal","departementCode":"15","adresse":{"street":"52 grande-rue","postalCode":"15170","city":"Ferrières-Saint-Mary","country":"France"},"contacts":{"email":"commune.ferrieresstmary@orange.fr","telephone":"0471206188"},"horaires":"Le Lundi : de 08h30 à 12h30 de 13h00 à 16h00\nLe Mardi : de 08h30 à 12h30 de 13h00 à 15h30\nLe Mercredi : de 08h30 à 12h30\nLe Jeudi : de 08h30 à 12h30 de 13h00 à 15h30\nLe Vendredi : de 08h30 à 12h30 de 13h00 à 16h00","latitude":45.183258,"longitude":3.059169,"website":"https://www.ferrieres-st-mary.com/","hasWebsite":true,"hasHoraires":true,"url":"https://lannuaire.service-public.gouv.fr/auvergne-rhone-alpes/cantal/d3af547d-f289-4af0-b253-da7558cbe21f"}
{"nom":"Fontanges","nomNormalise":"fontanges","typeCollectivite":"Commune","region":"Auvergne-Rhône-Alpes","departement":"Cantal","departementCode":"15","adresse":{"street":"Le Bourg","postalCode":"15140","city":"Fontanges","country":"France"},"contacts":{"email":"mairie.fontanges2@wanadoo.fr","telephone":"0471407149"},"horaires":"Le Mardi : de 13h30 à 16h30\nDu Jeudi au Vendredi : de 13h30 à 16h30","latitude":45.113766,"longitude":2.503434,"website":"https://www.fontanges.fr/","hasWebsite":true,"hasHoraires":true,"url":"https://lannuaire.service-public.gouv.fr/auvergne-rhone-alpes/cantal/85d40d76-e3bf-4825-a5e4-9263015e532e"}
{"nom":"Freix-Anglards","nomNormalise":"freixanglards","typeCollectivite":"Commune","region":"Auvergne-Rhône-Alpes","departement":"Cantal","departementCode":"15","adresse":{"street":"8 rue des forges","postalCode":"15310","city":"Freix-Anglards","country":"France"},"contacts":{"email":"freixanglards.mairie@wanadoo.fr","telephone":"0471466653"},"horaires":"Le Lundi : de 13h30 à 18h30\nLe Mercredi : de 08h30 à 17h30\nLe Jeudi : de 13h30 à 19h30","latitude":45.020687,"longitude":2.387339,"website":"","hasWebsite":false,"hasHoraires":true,"url":"https://lannuaire.service-public.gouv.fr/auvergne-rhone-alpes/cantal/1134818c-e55d-4aae-8349-89ba44d99a00"}
{"nom":"Fridefont","nomNormalise":"fridefont","typeCollectivite":"Commune","region":"Auvergne-Rhône-Alpes","departement":"Cantal","departementCode":"15","adresse":{"street":"3 route du Barrage","postalCode":"15110","city":"Fridefont","country":"France"},"contacts":{"email":"mairie.fridefont@wanadoo.fr","telephone":"0471235901"},"horaires":"Le Mardi : de 14h30 à 17h30\nLe Jeudi : de 10h00 à 12h00","latitude":44.901985,"longitude":3.085932,"website":"https://www.fridefont.fr/","hasWebsite":true,"hasHoraires":true,"url":"https://lannuaire.service-public.gouv.fr/auvergne-rhone-alpes/cantal/c2538fcc-267d-4eec-9663-a46ec9629301"}
{"nom":"Giou-de-Mamou","nomNormalise":"gioudemamou","typeCollectivite":"Commune","region":"Auvergne-Rhône-Alpes","departement":"Cantal","departementCode":"15","adresse":{"street":"26 route Pastorale","postalCode":"15130","city":"Giou-de-Mamou","country":"France"},"contacts":{"email":"mairiegiou@orange.fr","telephone":"0471478595"},"horaires":"Du Lundi au Mardi : de 08h30 à 12h00\nLe Mercredi : de 13h30 à 15h30\nLe Jeudi : de 08h30 à 12h00","latitude":44.93136,"longitude":2.512919,"website":"http://www.mairie-gioudemamou.fr/","hasWebsite":true,"hasHoraires":true,"url":"https://lannuaire.service-public.gouv.fr/auvergne-rhone-alpes/cantal/32d47f42-9d12-4054-a07a-2e3e29ece8e1"}
{"nom":"Girgols","nomNormalise":"girgols","typeCollectivite":"Commune","region":"Auvergne-Rhône-Alpes","departement":"Cantal","departementCode":"15","adresse":{"street":"8 rue des Esquives","postalCode":"15310","city":"Girgols","country":"France"},"contacts":{"email":"girgols@wanadoo.fr","telephone":"0471476425"},"horaires":"Le Lundi : de 11h00 à 12h00","latitude":45.038857,"longitude":2.480731,"website":"","hasWebsite":false,"hasHoraires":true,"url":"https://lannuaire.service-public.gouv.fr/auvergne-rhone-alpes/cantal/3f6f1911-f493-4559-9376-8679889a60c9"}
{"nom":"Glénat","nomNormalise":"glenat","typeCollectivite":"Commune","region":"Auvergne-Rhône-Alpes","departement":"Cantal","departementCode":"15","adresse":{"street":"1 place Raymond-Four","postalCode":"15150","city":"Glénat","country":"France"},"contacts":{"email":"mairie.glenat@wanadoo.fr","telephone":"0471622758"},"horaires":"Du Lundi au Mardi : de 09h00 à 16h30\nDu Jeudi au Vendredi : de 09h00 à 16h30","latitude":44.9016,"longitude":2.18128,"website":"","hasWebsite":false,"hasHoraires":true,"url":"https://lannuaire.service-public.gouv.fr/auvergne-rhone-alpes/cantal/ab991e53-847a-4a17-a90a-61b0faeabd59"}
{"nom":"Gourdièges","nomNormalise":"gourdieges","typeCollectivite":"Commune","region":"Auvergne-Rhône-Alpes","departement":"Cantal","departementCode":"15","adresse":{"street":"10 rue du 19-Mars-1962","postalCode":"15230","city":"Gourdièges","country":"France"},"contacts":{"email":"gourdieges.commune@orange.fr","telephone":"0471233793"},"horaires":"Le Jeudi : de 14h00 à 16h30","latitude":44.937096,"longitude":2.881198,"website":"","hasWebsite":false,"hasHoraires":true,"url":"https://lannuaire.service-public.gouv.fr/auvergne-rhone-alpes/cantal/ec4808c4-db98-43ea-b054-1106979cbfc3"}
{"nom":"Jabrun","nomNormalise":"jabrun","typeCollectivite":"Commune","region":"Auvergne-Rhône-Alpes","departement":"Cantal","departementCode":"15","adresse":{"street":"10 rue du Saint-Roch","postalCode":"15110","city":"Jabrun","country":"France"},"contacts":{"email":"mairie.jabrun@wanadoo.fr","telephone":"0471738279"},"horaires":"Le Lundi : de 09h00 à 12h00\nLe Jeudi : de 09h00 à 12h00","latitude":44.80821,"longitude":2.960615,"website":"","hasWebsite":false,"hasHoraires":true,"url":"https://lannuaire.service-public.gouv.fr/auvergne-rhone-alpes/cantal/aa0df93d-d1a2-4f21-be4c-b6528d7382c0"}
{"nom":"Jaleyrac","nomNormalise":"jaleyrac","typeCollectivite":"Commune","region":"Auvergne-Rhône-Alpes","departement":"Cantal","departementCode":"15","adresse":{"street":"Le Bourg","postalCode":"15200","city":"Jaleyrac","country":"France"},"contacts":{"email":"mairie.jaleyrac@wanadoo.fr","telephone":"0471697012"},"horaires":"Du Lundi au Mardi : de 13h00 à 17h00\nLe Jeudi : de 08h30 à 12h00 de 13h00 à 17h00\nLe Vendredi : de 08h30 à 12h00","latitude":45.264057,"longitude":2.370731,"website":"https://www.jaleyrac.fr/","hasWebsite":true,"hasHoraires":true,"url":"https://lannuaire.service-public.gouv.fr/auvergne-rhone-alpes/cantal/642168ad-3a20-4ecb-9b6f-ce2bba7d00dd"}
{"nom":"Joursac","nomNormalise":"joursac","typeCollectivite":"Commune","region":"Auvergne-Rhône-Alpes","departement":"Cantal","departementCode":"15","adresse":{"street":"Le Bourg","postalCode":"15170","city":"Joursac","country":"France"},"contacts":{"email":"mairie.joursac@wanadoo.fr","telephone":"0471205247"},"horaires":"Le Mardi : de 08h00 à 12h00\nLe Vendredi : de 08h00 à 12h00","latitude":45.143147,"longitude":3.007473,"website":"","hasWebsite":false,"hasHoraires":true,"url":"https://lannuaire.service-public.gouv.fr/auvergne-rhone-alpes/cantal/576ac12f-bb16-4970-a45a-437c7c2f181d"}
{"nom":"Jou-sous-Monjou","nomNormalise":"jousousmonjou","typeCollectivite":"Commune","region":"Auvergne-Rhône-Alpes","departement":"Cantal","departementCode":"15","adresse":{"street":"Le Bourg","postalCode":"15800","city":"Jou-sous-Monjou","country":"France"},"contacts":{"email":"ecole.jou-sous-monjou@wanadoo.fr","telephone":"0471495778"},"horaires":"Le Mardi : de 08h30 à 12h30 de 13h15 à 16h15\nLe Vendredi : de 08h30 à 12h30 de 13h15 à 16h15","latitude":44.9386,"longitude":2.66424,"website":"","hasWebsite":false,"hasHoraires":true,"url":"https://lannuaire.service-public.gouv.fr/auvergne-rhone-alpes/cantal/daf42db1-0477-4ca0-98d9-672c11672306"}
{"nom":"Junhac","nomNormalise":"junhac","typeCollectivite":"Commune","region":"Auvergne-Rhône-Alpes","departement":"Cantal","departementCode":"15","adresse":{"street":"7 rue des Écoliers","postalCode":"15120","city":"Junhac","country":"France"},"contacts":{"email":"mairiejunhac@wanadoo.fr","telephone":"0471492368"},"horaires":"Le Lundi : de 09h00 à 12h00\n\nUniquement sur rendez-vous l'après-midi.\nLe Mercredi : de 09h00 à 12h00\n\nUniquement sur rendez-vous l'après-midi.\nLe Vendredi : de 09h00 à 12h00\n\nUniquement sur rendez-vous l'après-midi.","latitude":44.71463,"longitude":2.453361,"website":"","hasWebsite":false,"hasHoraires":true,"url":"https://lannuaire.service-public.gouv.fr/auvergne-rhone-alpes/cantal/3d0b7984-e7c1-463a-a01a-09d9b92b6f42"}
{"nom":"Jussac","nomNormalise":"jussac","typeCollectivite":"Commune","region":"Auvergne-Rhône-Alpes","departement":"Cantal","departementCode":"15","adresse":{"street":"1 allée des Pavillons","postalCode":"15250","city":"Jussac","country":"France"},"contacts":{"email":"mairie.jussac@orange.fr","telephone":"0471466544"},"horaires":"Du Lundi au Mercredi : de 09h00 à 18h00\nLe Jeudi : de 09h00 à 12h00\nLe Vendredi : de 09h00 à 16h00","latitude":44.988052,"longitude":2.425776,"website":"https://www.jussac.fr/","hasWebsite":true,"hasHoraires":true,"url":"https://lannuaire.service-public.gouv.fr/auvergne-rhone-alpes/cantal/3c8a4a9f-74a4-499d-ae4e-2c98f2705777"}
{"nom":"Labesserette","nomNormalise":"labesserette","typeCollectivite":"Commune","region":"Auvergne-Rhône-Alpes","departement":"Cantal","departementCode":"15","adresse":{"street":"8 route de la Croix","postalCode":"15120","city":"Labesserette","country":"France"},"contacts":{"email":"mairie.labesserette@wanadoo.fr","telephone":"0471492207"},"horaires":"Le Mardi : de 09h30 à 12h00\nLe Jeudi : de 09h30 à 12h00","latitude":44.74315,"longitude":2.460919,"website":"http://www.labesserette.fr/","hasWebsite":true,"hasHoraires":true,"url":"https://lannuaire.service-public.gouv.fr/auvergne-rhone-alpes/cantal/244d84d7-71ac-4272-a168-20c649a0f506"}
{"nom":"Labrousse","nomNormalise":"labrousse","typeCollectivite":"Commune","region":"Auvergne-Rhône-Alpes","departement":"Cantal","departementCode":"15","adresse":{"street":"Le Bourg","postalCode":"15130","city":"Labrousse","country":"France"},"contacts":{"email":"mairie.labrousse15@orange.fr","telephone":"0471494214"},"horaires":"Du Lundi au Mercredi : de 08h00 à 12h00\nLe Jeudi : de 08h00 à 12h00 de 13h30 à 17h30\nLe Vendredi : de 13h30 à 16h30","latitude":44.85612,"longitude":2.541679,"website":"https://www.mairie-labrousse.fr/fr/","hasWebsite":true,"hasHoraires":true,"url":"https://lannuaire.service-public.gouv.fr/auvergne-rhone-alpes/cantal/3f7e1a94-cf18-4ad2-a65d-e2ac2f262223"}
{"nom":"Lacapelle-Barrès","nomNormalise":"lacapellebarres","typeCollectivite":"Commune","region":"Auvergne-Rhône-Alpes","departement":"Cantal","departementCode":"15","adresse":{"street":"8 rue de la Veze","postalCode":"15230","city":"Lacapelle-Barrès","country":"France"},"contacts":{"email":"mairie.lacapelle.barrez@wanadoo.fr","telephone":"0471734345"},"horaires":"Le Mardi : de 09h00 à 12h00 de 13h00 à 16h00","latitude":44.934555,"longitude":2.723504,"website":"","hasWebsite":false,"hasHoraires":true,"url":"https://lannuaire.service-public.gouv.fr/auvergne-rhone-alpes/cantal/c9ff38b9-3950-4eb7-92ca-3bb1434cd62b"}
{"nom":"Lacapelle-del-Fraisse","nomNormalise":"lacapelledelfraisse","typeCollectivite":"Commune","region":"Auvergne-Rhône-Alpes","departement":"Cantal","departementCode":"15","adresse":{"street":"18 rue des Frênes","postalCode":"15120","city":"Lacapelle-del-Fraisse","country":"France"},"contacts":{"email":"mairie.lacapelle-del-fraisse@wanadoo.fr","telephone":"0471625765"},"horaires":"Le Lundi : de 13h00 à 16h00\nLe Mardi : de 08h30 à 12h00 de 13h00 à 16h00\nDu Jeudi au Vendredi : de 08h30 à 12h00 de 13h00 à 16h00","latitude":44.78057,"longitude":2.436854,"website":"https://www.lacapelledelfraisse.fr/","hasWebsite":true,"hasHoraires":true,"url":"https://lannuaire.service-public.gouv.fr/auvergne-rhone-alpes/cantal/26333578-9383-4abd-bec2-789396a2b970"}
{"nom":"Lacapelle-Viescamp","nomNormalise":"lacapelleviescamp","typeCollectivite":"Commune","region":"Auvergne-Rhône-Alpes","departement":"Cantal","departementCode":"15","adresse":{"street":"1 rue de la Forge","postalCode":"15150","city":"Lacapelle-Viescamp","country":"France"},"contacts":{"email":"mairie.lacapelle.viescamp@orange.fr","telephone":"0471463171"},"horaires":"Le Lundi : de 14h00 à 17h00\nLe Mardi : de 09h30 à 12h30\nLe Jeudi : de 09h30 à 12h30","latitude":44.92378,"longitude":2.2624,"website":"https://www.lacapelle-viescamp.fr/","hasWebsite":true,"hasHoraires":true,"url":"https://lannuaire.service-public.gouv.fr/auvergne-rhone-alpes/cantal/6a316066-5a36-45dc-a1d3-04e92ce1776c"}
{"nom":"La Chapelle-d'Alagnon","nomNormalise":"lachapelledalagnon","typeCollectivite":"Commune","region":"Auvergne-Rhône-Alpes","departement":"Cantal","departementCode":"15","adresse":{"street":"6 rue de l'Ancienne-École","postalCode":"15300","city":"La Chapelle-d'Alagnon","country":"France"},"contacts":{"email":"chapellealagnon.mairie@orange.fr","telephone":"0471200837"},"horaires":"Le Mardi : de 09h00 à 12h00\nLe Jeudi : de 13h30 à 17h30","latitude":45.10755,"longitude":2.895129,"website":"","hasWebsite":false,"hasHoraires":true,"url":"https://lannuaire.service-public.gouv.fr/auvergne-rhone-alpes/cantal/38435c6c-071e-4658-b090-117efb3e066c"}
{"nom":"La Chapelle-Laurent","nomNormalise":"lachapellelaurent","typeCollectivite":"Commune","region":"Auvergne-Rhône-Alpes","departement":"Cantal","departementCode":"15","adresse":{"street":"Le Bourg","postalCode":"15500","city":"La Chapelle-Laurent","country":"France"},"contacts":{"email":"chapelle-laurent.mairie@wanadoo.fr","telephone":"0471731235"},"horaires":"Le Mardi : de 14h00 à 17h00\nLe Jeudi : de 09h00 à 12h00","latitude":45.177517,"longitude":3.242685,"website":"","hasWebsite":false,"hasHoraires":true,"url":"https://lannuaire.service-public.gouv.fr/auvergne-rhone-alpes/cantal/c97def38-b05f-4399-866f-ed5c10bbd551"}
{"nom":"Ladinhac","nomNormalise":"ladinhac","typeCollectivite":"Commune","region":"Auvergne-Rhône-Alpes","departement":"Cantal","departementCode":"15","adresse":{"street":"1 place Celina-Esquirou","postalCode":"15120","city":"Ladinhac","country":"France"},"contacts":{"email":"ladinhac.mairie@orange.fr","telephone":"0471478190"},"horaires":"Du Lundi au Vendredi : de 08h30 à 11h30","latitude":44.75502,"longitude":2.50893,"website":"http://www.ladinhac.fr/","hasWebsite":true,"hasHoraires":true,"url":"https://lannuaire.service-public.gouv.fr/auvergne-rhone-alpes/cantal/8536539c-09ac-465f-9185-2a7e7d057c99"}
{"nom":"Lafeuillade-en-Vézie","nomNormalise":"lafeuilladeenvezie","typeCollectivite":"Commune","region":"Auvergne-Rhône-Alpes","departement":"Cantal","departementCode":"15","adresse":{"street":"1 espace Géraud-Canis","postalCode":"15130","city":"Lafeuillade-en-Vézie","country":"France"},"contacts":{"email":"mairie@lafeuilladeenvezie.fr","telephone":"0471625512"},"horaires":"Le Lundi : de 14h00 à 17h00\nLe Mardi : de 09h00 à 12h00\nDu Jeudi au Vendredi : de 14h00 à 17h00","latitude":44.78991,"longitude":2.460716,"website":"http://www.lafeuillade-en-vezie.fr/","hasWebsite":true,"hasHoraires":true,"url":"https://lannuaire.service-public.gouv.fr/auvergne-rhone-alpes/cantal/7a962ea4-788d-48fe-a316-058c684b5c34"}
{"nom":"La Monselie","nomNormalise":"lamonselie","typeCollectivite":"Commune","region":"Auvergne-Rhône-Alpes","departement":"Cantal","departementCode":"15","adresse":{"street":"12 place Saint-Jean-Baptiste","postalCode":"15240","city":"La Monselie","country":"France"},"contacts":{"email":"monselie.mairie@wanadoo.fr","telephone":"0471783303"},"horaires":"Le Mardi : de 08h00 à 12h00 de 13h30 à 17h30\nLe Jeudi : de 08h00 à 12h00 de 13h30 à 17h30","latitude":45.3229,"longitude":2.554976,"website":"","hasWebsite":false,"hasHoraires":true,"url":"https://lannuaire.service-public.gouv.fr/auvergne-rhone-alpes/cantal/4d1fd1bb-51a4-458a-a1df-377f94acc3d2"}
{"nom":"Landeyrat","nomNormalise":"landeyrat","typeCollectivite":"Commune","region":"Auvergne-Rhône-Alpes","departement":"Cantal","departementCode":"15","adresse":{"street":"Le Bourg","postalCode":"15160","city":"Landeyrat","country":"France"},"contacts":{"email":"landeyrat.mairie@wanadoo.fr","telephone":"0471204864"},"horaires":"Le Jeudi : de 14h00 à 16h00\nLe Samedi : de 10h00 à 12h00","latitude":45.27345,"longitude":2.864479,"website":"","hasWebsite":false,"hasHoraires":true,"url":"https://lannuaire.service-public.gouv.fr/auvergne-rhone-alpes/cantal/c1dae4c8-81ff-4c54-bbb0-38db5a13c6c0"}
{"nom":"Lanobre","nomNormalise":"lanobre","typeCollectivite":"Commune","region":"Auvergne-Rhône-Alpes","departement":"Cantal","departementCode":"15","adresse":{"street":"Place de l'Église","postalCode":"15270","city":"Lanobre","country":"France"},"contacts":{"email":"mairie.lanobre.15@orange.fr","telephone":"0471403175"},"horaires":"Le Lundi : de 09h15 à 12h15 de 14h00 à 16h00\nLe Mardi : de 09h15 à 12h15\nLe Mercredi : de 09h15 à 12h15 de 14h00 à 16h00\nLe Jeudi : de 09h15 à 12h15\nLe Vendredi : de 09h15 à 12h15 de 14h00 à 16h00","latitude":45.436497,"longitude":2.534193,"website":"https://www.lanobre.fr/","hasWebsite":true,"hasHoraires":true,"url":"https://lannuaire.service-public.gouv.fr/auvergne-rhone-alpes/cantal/2bea1423-f475-4787-8a27-19de117700e8"}
{"nom":"Lapeyrugue","nomNormalise":"lapeyrugue","typeCollectivite":"Commune","region":"Auvergne-Rhône-Alpes","departement":"Cantal","departementCode":"15","adresse":{"street":"2 rue du 19-Mars-1962","postalCode":"15120","city":"Lapeyrugue","country":"France"},"contacts":{"email":"mairie.lapeyrugue@orange.fr","telephone":"0471492951"},"horaires":"Le Lundi : de 14h00 à 16h00\nLe Jeudi : de 10h00 à 12h00","latitude":44.728237,"longitude":2.543841,"website":"https://www.lapeyrugue.fr/","hasWebsite":true,"hasHoraires":true,"url":"https://lannuaire.service-public.gouv.fr/auvergne-rhone-alpes/cantal/d18d111e-509c-40a4-af33-9daa6da06d2c"}
{"nom":"Laroquebrou","nomNormalise":"laroquebrou","typeCollectivite":"Commune","region":"Auvergne-Rhône-Alpes","departement":"Cantal","departementCode":"15","adresse":{"street":"23 rue de la Trémolière","postalCode":"15150","city":"Laroquebrou","country":"France"},"contacts":{"email":"mairie@laroquebrou.fr","telephone":"0471460048"},"horaires":"Du Lundi au Vendredi : de 08h30 à 12h30 de 13h30 à 17h00","latitude":44.967926,"longitude":2.1901,"website":"http://www.laroquebrou.fr/","hasWebsite":true,"hasHoraires":true,"url":"https://lannuaire.service-public.gouv.fr/auvergne-rhone-alpes/cantal/ac7f8f1f-2790-4e4b-97bb-d83b1c098704"}
{"nom":"Laroquevieille","nomNormalise":"laroquevieille","typeCollectivite":"Commune","region":"Auvergne-Rhône-Alpes","departement":"Cantal","departementCode":"15","adresse":{"street":"4 route de l'Authre","postalCode":"15250","city":"Laroquevieille","country":"France"},"contacts":{"email":"mairie@laroquevieille.fr","telephone":"0471473191"},"horaires":"Du Lundi au Vendredi : de 09h00 à 12h00","latitude":45.01568,"longitude":2.511375,"website":"","hasWebsite":false,"hasHoraires":true,"url":"https://lannuaire.service-public.gouv.fr/auvergne-rhone-alpes/cantal/e99f5731-3b75-4641-b987-a5229707b57d"}
{"nom":"Lascelle","nomNormalise":"lascelle","typeCollectivite":"Commune","region":"Auvergne-Rhône-Alpes","departement":"Cantal","departementCode":"15","adresse":{"street":"61 route du Volcan","postalCode":"15590","city":"Lascelle","country":"France"},"contacts":{"email":"mairielascelle@wanadoo.fr","telephone":"0471479207"},"horaires":"Le Lundi : de 13h30 à 18h00\nLe Mardi : de 08h30 à 12h00\nLe Jeudi : de 08h30 à 12h00\nLe Vendredi : de 13h00 à 16h00","latitude":49.021908,"longitude":2.575035,"website":"https://www.mairie-lascelles.fr/","hasWebsite":true,"hasHoraires":true,"url":"https://lannuaire.service-public.gouv.fr/auvergne-rhone-alpes/cantal/76df6647-10fa-4ae2-ab98-77865f5b9064"}
{"nom":"La Ségalassière","nomNormalise":"lasegalassiere","typeCollectivite":"Commune","region":"Auvergne-Rhône-Alpes","departement":"Cantal","departementCode":"15","adresse":{"street":"Le Bourg","postalCode":"15290","city":"La Ségalassière","country":"France"},"contacts":{"email":"communedelasegalassiere@wanadoo.fr","telephone":"0471622586"},"horaires":"Le Lundi : de 10h00 à 18h00\nLe Mercredi : de 12h00 à 16h00\nLe Jeudi : de 11h00 à 19h00","latitude":44.893135,"longitude":2.2077494,"website":"https://www.lasegalassiere.fr/","hasWebsite":true,"hasHoraires":true,"url":"https://lannuaire.service-public.gouv.fr/auvergne-rhone-alpes/cantal/e85e86db-669c-4c6f-b0da-6911473c3a01"}
{"nom":"Lastic","nomNormalise":"lastic","typeCollectivite":"Commune","region":"Auvergne-Rhône-Alpes","departement":"Cantal","departementCode":"15","adresse":{"street":"2 rue de la Fontaine","postalCode":"15500","city":"Lastic","country":"France"},"contacts":{"email":"mairielastic@orange.fr","telephone":"0471731127"},"horaires":"Le Mardi : de 09h00 à 12h00\nLe Jeudi : de 14h00 à 17h00","latitude":45.11265,"longitude":3.21018,"website":"","hasWebsite":false,"hasHoraires":true,"url":"https://lannuaire.service-public.gouv.fr/auvergne-rhone-alpes/cantal/22658548-349b-4f18-a8a2-d78f8358cdd1"}
{"nom":"La Trinitat","nomNormalise":"latrinitat","typeCollectivite":"Commune","region":"Auvergne-Rhône-Alpes","departement":"Cantal","departementCode":"15","adresse":{"street":"Le Bourg","postalCode":"15110","city":"La Trinitat","country":"France"},"contacts":{"email":"mairie.la.trinitat@wanadoo.fr","telephone":"0471738283"},"horaires":"Le Vendredi : de 08h30 à 12h00 de 13h30 à 15h00","latitude":44.747673,"longitude":2.940282,"website":"","hasWebsite":false,"hasHoraires":true,"url":"https://lannuaire.service-public.gouv.fr/auvergne-rhone-alpes/cantal/0b6f3067-0f26-4d51-b76d-58322f1f5897"}
{"nom":"Laurie","nomNormalise":"laurie","typeCollectivite":"Commune","region":"Auvergne-Rhône-Alpes","departement":"Cantal","departementCode":"15","adresse":{"street":"Le Bourg","postalCode":"15500","city":"Laurie","country":"France"},"contacts":{"email":"laurie36@orange.fr","telephone":"0471739124"},"horaires":"Le Lundi : de 09h00 à 12h00 de 14h00 à 16h00\nLe Jeudi : de 09h00 à 12h00 de 14h00 à 16h00","latitude":45.276344,"longitude":3.10034,"website":"","hasWebsite":false,"hasHoraires":true,"url":"https://lannuaire.service-public.gouv.fr/auvergne-rhone-alpes/cantal/f2208568-0365-4194-90c6-76139eb87300"}
{"nom":"Laveissenet","nomNormalise":"laveissenet","typeCollectivite":"Commune","region":"Auvergne-Rhône-Alpes","departement":"Cantal","departementCode":"15","adresse":{"street":"1 rue du 19 mars 1962","postalCode":"15300","city":"Laveissenet","country":"France"},"contacts":{"email":"mairie@laveissenet.fr","telephone":"0471732569"},"horaires":"Le Lundi : de 13h00 à 17h00\nLe Jeudi : de 09h00 à 12h30 de 13h30 à 17h00","latitude":45.08188,"longitude":2.890379,"website":"","hasWebsite":false,"hasHoraires":true,"url":"https://lannuaire.service-public.gouv.fr/auvergne-rhone-alpes/cantal/7c91b58b-4ff6-487c-99ee-a91e6895a003"}
{"nom":"Laveissière","nomNormalise":"laveissiere","typeCollectivite":"Commune","region":"Auvergne-Rhône-Alpes","departement":"Cantal","departementCode":"15","adresse":{"street":"38 rue de Peyre-Arse","postalCode":"15300","city":"Laveissière","country":"France"},"contacts":{"email":"secretariat@laveissiere.fr","telephone":"0471200442"},"horaires":"Le Lundi : de 08h30 à 12h00 de 13h30 à 17h30\nLe Mardi : de 08h30 à 12h00\nLe Mercredi : de 08h30 à 12h00 de 13h30 à 17h30\nLe Jeudi : de 08h30 à 12h00\nLe Vendredi : de 08h30 à 12h00 de 13h30 à 16h30","latitude":45.116295,"longitude":2.807448,"website":"https://www.laveissiere.fr/","hasWebsite":true,"hasHoraires":true,"url":"https://lannuaire.service-public.gouv.fr/auvergne-rhone-alpes/cantal/b078ffa1-c50e-40f1-ab7e-52883c8b2975"}
{"nom":"Lavigerie","nomNormalise":"lavigerie","typeCollectivite":"Commune","region":"Auvergne-Rhône-Alpes","departement":"Cantal","departementCode":"15","adresse":{"street":"La Chapelle","postalCode":"15300","city":"Lavigerie","country":"France"},"contacts":{"email":"mairie.lavigerie@wanadoo.fr","telephone":"0471208061"},"horaires":"Le Lundi : de 14h00 à 16h30\nLe Vendredi : de 10h00 à 12h00","latitude":45.138832,"longitude":2.748403,"website":"","hasWebsite":false,"hasHoraires":true,"url":"https://lannuaire.service-public.gouv.fr/auvergne-rhone-alpes/cantal/49fe998a-c868-4e66-8ff0-082bb5eaadef"}
{"nom":"Le Claux","nomNormalise":"leclaux","typeCollectivite":"Commune","region":"Auvergne-Rhône-Alpes","departement":"Cantal","departementCode":"15","adresse":{"street":"40 route du Puy-Mary","postalCode":"15400","city":"Le Claux","country":"France"},"contacts":{"email":"mairie.leclaux@wanadoo.fr","telephone":"0471789311"},"horaires":"Du Lundi au Mardi : de 10h00 à 12h00\nDu Jeudi au Vendredi : de 10h00 à 12h00","latitude":45.159733,"longitude":2.705767,"website":"https://leclauxpuymary.com/","hasWebsite":true,"hasHoraires":true,"url":"https://lannuaire.service-public.gouv.fr/auvergne-rhone-alpes/cantal/1ef8b48e-b0dd-472a-80be-6c4a98199a60"}
{"nom":"Le Falgoux","nomNormalise":"lefalgoux","typeCollectivite":"Commune","region":"Auvergne-Rhône-Alpes","departement":"Cantal","departementCode":"15","adresse":{"street":"Le Bourg","postalCode":"15380","city":"Le Falgoux","country":"France"},"contacts":{"email":"mairie.lefalgoux@wanadoo.fr","telephone":"0471695128"},"horaires":"Du Lundi au Mardi : de 09h00 à 12h00 de 13h00 à 16h30\nLe Mercredi : de 09h00 à 12h00\nDu Jeudi au Vendredi : de 09h00 à 12h00 de 13h00 à 16h30","latitude":45.154846,"longitude":2.623351,"website":"https://www.lefalgoux.fr/","hasWebsite":true,"hasHoraires":true,"url":"https://lannuaire.service-public.gouv.fr/auvergne-rhone-alpes/cantal/ec36aaca-70fc-464f-8b3a-84ad782cc43b"}
{"nom":"Le Fau","nomNormalise":"lefau","typeCollectivite":"Commune","region":"Auvergne-Rhône-Alpes","departement":"Cantal","departementCode":"15","adresse":{"street":"Le Bourg","postalCode":"15140","city":"Le Fau","country":"France"},"contacts":{"email":"mairie.lefau@wanadoo.fr","telephone":"0471407311"},"horaires":"Le Mardi : de 13h30 à 16h30\nLe Vendredi : de 13h30 à 16h30","latitude":45.101776,"longitude":2.5839472,"website":"","hasWebsite":false,"hasHoraires":true,"url":"https://lannuaire.service-public.gouv.fr/auvergne-rhone-alpes/cantal/6528e1d0-c543-4241-8241-c36044ae79ce"}
{"nom":"Le Monteil","nomNormalise":"lemonteil","typeCollectivite":"Commune","region":"Auvergne-Rhône-Alpes","departement":"Cantal","departementCode":"15","adresse":{"street":"8 route de Saignes","postalCode":"15240","city":"Le Monteil","country":"France"},"contacts":{"email":"mairie.lemonteil2@wanadoo.fr","telephone":"0471406402"},"horaires":"Du Lundi au Mardi : de 13h30 à 18h00\nDu Jeudi au Vendredi : de 13h30 à 18h00","latitude":45.3342,"longitude":2.48156,"website":"","hasWebsite":false,"hasHoraires":true,"url":"https://lannuaire.service-public.gouv.fr/auvergne-rhone-alpes/cantal/42c4e8fb-9313-40dd-ae58-1e97a72cf45b"}
{"nom":"Le Rouget-Pers","nomNormalise":"lerougetpers","typeCollectivite":"Commune","region":"Auvergne-Rhône-Alpes","departement":"Cantal","departementCode":"15","adresse":{"street":"1 place de la Mairie","postalCode":"15290","city":"Le Rouget-Pers","country":"France"},"contacts":{"email":"mairie@lerouget-pers.fr","telephone":"0471461029"},"horaires":"Du Mardi au Jeudi : de 08h30 à 12h00 de 13h30 à 17h30\nLe Vendredi : de 08h30 à 12h00\n\n(après-midi permanence téléphonique)\nLe Samedi : de 08h30 à 12h00","latitude":44.85505,"longitude":2.232646,"website":"https://www.lerouget-pers.fr/","hasWebsite":true,"hasHoraires":true,"url":"https://lannuaire.service-public.gouv.fr/auvergne-rhone-alpes/cantal/955910fe-34be-4a52-a55e-f1e6c4318deb"}
{"nom":"Les Ternes","nomNormalise":"lesternes","typeCollectivite":"Commune","region":"Auvergne-Rhône-Alpes","departement":"Cantal","departementCode":"15","adresse":{"street":"2 place du 19-mars-1962","postalCode":"15100","city":"Les Ternes","country":"France"},"contacts":{"email":"mairie.lesternes@wanadoo.fr","telephone":"0471730060"},"horaires":"Le Lundi : de 09h00 à 12h00\nLe Jeudi : de 09h00 à 12h00\n\nAccueil possible le samedi sur rendez-vous uniquement.","latitude":44.996185,"longitude":3.012985,"website":"","hasWebsite":false,"hasHoraires":true,"url":"https://lannuaire.service-public.gouv.fr/auvergne-rhone-alpes/cantal/8c30fff9-dfc0-45b5-9caa-e61b3bfd3f05"}
{"nom":"Le Trioulou","nomNormalise":"letrioulou","typeCollectivite":"Commune","region":"Auvergne-Rhône-Alpes","departement":"Cantal","departementCode":"15","adresse":{"street":"Le Bourg","postalCode":"15600","city":"Le Trioulou","country":"France"},"contacts":{"email":"trioulou.mairie@wanadoo.fr","telephone":"0471491515"},"horaires":"Le Mardi : de 09h00 à 12h00\nLe Vendredi : de 09h00 à 12h00","latitude":44.67055,"longitude":2.186363,"website":"https://www.le-trioulou.fr/","hasWebsite":true,"hasHoraires":true,"url":"https://lannuaire.service-public.gouv.fr/auvergne-rhone-alpes/cantal/b8ec91c8-2cf4-40ff-a188-924013e38a6f"}
{"nom":"Leucamp","nomNormalise":"leucamp","typeCollectivite":"Commune","region":"Auvergne-Rhône-Alpes","departement":"Cantal","departementCode":"15","adresse":{"street":"Le Bourg","postalCode":"15120","city":"Leucamp","country":"France"},"contacts":{"email":"mairie.leucamp@wanadoo.fr","telephone":"0471478104"},"horaires":"Le Lundi : de 09h00 à 12h00\nLe Mardi : de 14h00 à 17h00\nLe Jeudi : de 09h00 à 12h00\nLe Vendredi : de 14h00 à 17h00","latitude":44.779476,"longitude":2.533591,"website":"http://www.leucamp.fr/","hasWebsite":true,"hasHoraires":true,"url":"https://lannuaire.service-public.gouv.fr/auvergne-rhone-alpes/cantal/ae68616f-2605-4922-b875-ee24acbf4241"}
{"nom":"Le Vaulmier","nomNormalise":"levaulmier","typeCollectivite":"Commune","region":"Auvergne-Rhône-Alpes","departement":"Cantal","departementCode":"15","adresse":{"street":"Le Bourg","postalCode":"15380","city":"Le Vaulmier","country":"France"},"contacts":{"email":"mairie.levaulmier@wanadoo.fr","telephone":"0471695213"},"horaires":"Du Mardi au Jeudi : de 13h30 à 17h30","latitude":45.18912,"longitude":2.567626,"website":"https://www.levaulmier.com/","hasWebsite":true,"hasHoraires":true,"url":"https://lannuaire.service-public.gouv.fr/auvergne-rhone-alpes/cantal/7df622ff-67a7-4c18-aacf-26adfe3cd294"}
{"nom":"Le Vigean","nomNormalise":"levigean","typeCollectivite":"Commune","region":"Auvergne-Rhône-Alpes","departement":"Cantal","departementCode":"15","adresse":{"street":"7 rue de la Mairie","postalCode":"15200","city":"Le Vigean","country":"France"},"contacts":{"email":"mairie.levigean@wanadoo.fr","telephone":"0471680437"},"horaires":"Le Lundi : de 08h30 à 12h00 de 13h30 à 17h00\nLe Mardi : de 08h30 à 12h00\nLe Mercredi : de 08h30 à 12h00 de 13h30 à 17h00\nLe Jeudi : de 08h30 à 12h00\nLe Vendredi : de 08h30 à 12h00 de 13h30 à 17h00","latitude":45.226387,"longitude":2.353525,"website":"https://www.le-vigean.fr/","hasWebsite":true,"hasHoraires":true,"url":"https://lannuaire.service-public.gouv.fr/auvergne-rhone-alpes/cantal/c2f23d9a-ae0a-437d-9efb-cbcead2dded6"}
{"nom":"Leynhac","nomNormalise":"leynhac","typeCollectivite":"Commune","region":"Auvergne-Rhône-Alpes","departement":"Cantal","departementCode":"15","adresse":{"street":"1 Rue de la Chataigneraie","postalCode":"15600","city":"Leynhac","country":"France"},"contacts":{"email":"leynhac.mairie@wanadoo.fr","telephone":"0471490492"},"horaires":"Du Lundi au Vendredi : de 09h00 à 12h00","latitude":44.748302,"longitude":2.3529162,"website":"http://www.leynhac.fr/","hasWebsite":true,"hasHoraires":true,"url":"https://lannuaire.service-public.gouv.fr/auvergne-rhone-alpes/cantal/e343a3fb-4516-4e7b-b735-5d42a412cf57"}
{"nom":"Leyvaux","nomNormalise":"leyvaux","typeCollectivite":"Commune","region":"Auvergne-Rhône-Alpes","departement":"Cantal","departementCode":"15","adresse":{"street":"Lieu-dit- Marzun","postalCode":"43450","city":"Leyvaux","country":"France"},"contacts":{"email":"leyvaux@orange.fr","telephone":"0471762506"},"horaires":"Le Lundi : de 13h30 à 17h30\nLe Jeudi : de 13h30 à 17h30","latitude":45.312607,"longitude":3.072705,"website":"","hasWebsite":false,"hasHoraires":true,"url":"https://lannuaire.service-public.gouv.fr/auvergne-rhone-alpes/cantal/54bce81f-4bd9-4bfd-9190-dcc0e7d973cb"}
{"nom":"Lieutadès","nomNormalise":"lieutades","typeCollectivite":"Commune","region":"Auvergne-Rhône-Alpes","departement":"Cantal","departementCode":"15","adresse":{"street":"10 place du Bourg","postalCode":"15110","city":"Lieutadès","country":"France"},"contacts":{"email":"mairie.lieutades@wanadoo.fr","telephone":"0471738062"},"horaires":"Le Lundi : de 09h00 à 12h00 de 14h00 à 17h00\nLe Mercredi : de 09h00 à 12h00\nLe Vendredi : de 09h00 à 12h00 de 14h00 à 17h00","latitude":44.84003,"longitude":2.898176,"website":"https://www.lieutades.fr/","hasWebsite":true,"hasHoraires":true,"url":"https://lannuaire.service-public.gouv.fr/auvergne-rhone-alpes/cantal/ca0b7963-a747-4a53-88e8-8e646b181aba"}
{"nom":"Lorcières","nomNormalise":"lorcieres","typeCollectivite":"Commune","region":"Auvergne-Rhône-Alpes","departement":"Cantal","departementCode":"15","adresse":{"street":"5 Rue de la Roche-des-Bois","postalCode":"15320","city":"Lorcières","country":"France"},"contacts":{"email":"mairie.lorcieres15@wanadoo.fr","telephone":"0471234209"},"horaires":"Le Mardi : de 10h00 à 12h00\nLe Jeudi : de 14h00 à 16h00\nLe Samedi : de 10h00 à 12h00\n\nSeulement les samedis les semaines paires.","latitude":44.9577,"longitude":3.275495,"website":"","hasWebsite":false,"hasHoraires":true,"url":"https://lannuaire.service-public.gouv.fr/auvergne-rhone-alpes/cantal/09c094cc-96cf-468a-a25a-7a14172b1aae"}
{"nom":"Lugarde","nomNormalise":"lugarde","typeCollectivite":"Commune","region":"Auvergne-Rhône-Alpes","departement":"Cantal","departementCode":"15","adresse":{"street":"2 rue des Écoles","postalCode":"15190","city":"Lugarde","country":"France"},"contacts":{"email":"mairie.lugarde@wanadoo.fr","telephone":"0471784015"},"horaires":"Le Lundi : de 10h00 à 12h00\nLe Vendredi : de 10h00 à 12h00","latitude":45.291145,"longitude":2.765086,"website":"http://www.lugarde.fr/","hasWebsite":true,"hasHoraires":true,"url":"https://lannuaire.service-public.gouv.fr/auvergne-rhone-alpes/cantal/a26ef4c2-2381-4d3d-b03e-37d6fd7f6b4e"}
{"nom":"Madic","nomNormalise":"madic","typeCollectivite":"Commune","region":"Auvergne-Rhône-Alpes","departement":"Cantal","departementCode":"15","adresse":{"street":"4 place de l'École","postalCode":"15210","city":"Madic","country":"France"},"contacts":{"email":"mairie@madic.fr","telephone":"0471408216"},"horaires":"Du Mardi au Vendredi : de 08h30 à 12h30 de 13h15 à 16h15","latitude":45.379128,"longitude":2.455672,"website":"https://www.madic.fr/","hasWebsite":true,"hasHoraires":true,"url":"https://lannuaire.service-public.gouv.fr/auvergne-rhone-alpes/cantal/c5f8b96a-b2e8-4d0d-a376-7e850b23cd7f"}
{"nom":"Malbo","nomNormalise":"malbo","typeCollectivite":"Commune","region":"Auvergne-Rhône-Alpes","departement":"Cantal","departementCode":"15","adresse":{"street":"4 rue des Cassalouts","postalCode":"15230","city":"Malbo","country":"France"},"contacts":{"email":"mairie-malbo@wanadoo.fr","telephone":"0471734039"},"horaires":"Le Lundi : de 09h00 à 12h00","latitude":44.973244,"longitude":2.7567499,"website":"","hasWebsite":false,"hasHoraires":true,"url":"https://lannuaire.service-public.gouv.fr/auvergne-rhone-alpes/cantal/914d3bd3-2867-4199-a960-f324d0c291fb"}
{"nom":"Mandailles-Saint-Julien","nomNormalise":"mandaillessaintjulien","typeCollectivite":"Commune","region":"Auvergne-Rhône-Alpes","departement":"Cantal","departementCode":"15","adresse":{"street":"44 route des Volcans","postalCode":"15590","city":"Mandailles-Saint-Julien","country":"France"},"contacts":{"email":"mairie.mandailles-stjulien@orange.fr","telephone":"0471479352"},"horaires":"Le Mardi : de 10h00 à 12h00 de 14h00 à 16h00\nLe Vendredi : de 10h00 à 12h00","latitude":45.069397,"longitude":2.657803,"website":"http://www.mandailles-stjulien.fr/","hasWebsite":true,"hasHoraires":true,"url":"https://lannuaire.service-public.gouv.fr/auvergne-rhone-alpes/cantal/1eacba01-61de-4022-90b5-17ed5d61f275"}
{"nom":"Marcenat","nomNormalise":"marcenat","typeCollectivite":"Commune","region":"Auvergne-Rhône-Alpes","departement":"Cantal","departementCode":"15","adresse":{"street":"3 place de la Mairie","postalCode":"15190","city":"Marcenat","country":"France"},"contacts":{"email":"marcenat.mairie@wanadoo.fr","telephone":"0471788253"},"horaires":"Le Lundi : de 09h00 à 12h00 de 13h30 à 16h30\nLe Mardi : de 09h00 à 12h00\nLe Mercredi : de 09h00 à 12h00 de 13h30 à 16h30\nLe Jeudi : de 09h00 à 12h00\nLe Vendredi : de 09h00 à 12h00 de 13h30 à 16h30","latitude":45.30608,"longitude":2.8269236,"website":"http://www.marcenat15.fr/","hasWebsite":true,"hasHoraires":true,"url":"https://lannuaire.service-public.gouv.fr/auvergne-rhone-alpes/cantal/0e742d0b-e63e-4be0-a08b-deb448b8e2b1"}
{"nom":"Marchastel","nomNormalise":"marchastel","typeCollectivite":"Commune","region":"Auvergne-Rhône-Alpes","departement":"Cantal","departementCode":"15","adresse":{"street":"Le Bourg","postalCode":"15400","city":"Marchastel","country":"France"},"contacts":{"email":"marchastel.mairie@wanadoo.fr","telephone":"0471784022"},"horaires":"Le Mardi : de 13h30 à 17h00\nLe Vendredi : de 13h30 à 17h00","latitude":45.282852,"longitude":2.724792,"website":"https://marchastel.fr/","hasWebsite":true,"hasHoraires":true,"url":"https://lannuaire.service-public.gouv.fr/auvergne-rhone-alpes/cantal/eefb53a9-de95-45ce-bdf0-51cbcdca20c3"}
{"nom":"Marcolès","nomNormalise":"marcoles","typeCollectivite":"Commune","region":"Auvergne-Rhône-Alpes","departement":"Cantal","departementCode":"15","adresse":{"street":"2 rue de la Mairie","postalCode":"15220","city":"Marcolès","country":"France"},"contacts":{"email":"mairie-marcoles@wanadoo.fr","telephone":"0471469898"},"horaires":"Du Lundi au Jeudi : de 09h00 à 12h00 de 13h30 à 17h00\nLe Vendredi : de 09h00 à 12h00 de 13h30 à 16h00","latitude":44.7483,"longitude":2.35292,"website":"https://marcoles.fr/","hasWebsite":true,"hasHoraires":true,"url":"https://lannuaire.service-public.gouv.fr/auvergne-rhone-alpes/cantal/2add48d9-9ae7-47fe-bf52-28a2f874edb4"}
{"nom":"Marmanhac","nomNormalise":"marmanhac","typeCollectivite":"Commune","region":"Auvergne-Rhône-Alpes","departement":"Cantal","departementCode":"15","adresse":{"street":"2 place du Monument-des-Anciens-Combattants","postalCode":"15250","city":"Marmanhac","country":"France"},"contacts":{"email":"mairie.marmanhac@orange.fr","telephone":"0471473043"},"horaires":"Du Lundi au Vendredi : de 09h00 à 14h00","latitude":45.003796,"longitude":2.481635,"website":"https://www.marmanhac.fr/fr/","hasWebsite":true,"hasHoraires":true,"url":"https://lannuaire.service-public.gouv.fr/auvergne-rhone-alpes/cantal/9dc1a8c1-eceb-4153-8a67-b482daf90d8e"}
{"nom":"Massiac","nomNormalise":"massiac","typeCollectivite":"Commune","region":"Auvergne-Rhône-Alpes","departement":"Cantal","departementCode":"15","adresse":{"street":"1 rue Albert-Chalvet","postalCode":"15500","city":"Massiac","country":"France"},"contacts":{"email":"accueil@mairiedemassiac.fr","telephone":"0471230261"},"horaires":"Du Lundi au Mercredi : de 09h30 à 12h00 de 14h00 à 17h00\nLe Jeudi : de 13h30 à 17h00\n\nLe Jeudi de 9h30 à 12h00 permanence Téléphonique uniquement.\nLe Vendredi : de 09h30 à 12h00 de 14h00 à 17h00","latitude":45.250324,"longitude":3.199588,"website":"https://www.massiac.fr/","hasWebsite":true,"hasHoraires":true,"url":"https://lannuaire.service-public.gouv.fr/auvergne-rhone-alpes/cantal/9556e7fb-c58c-4020-a0dd-11c15820c583"}
{"nom":"Mauriac","nomNormalise":"mauriac","typeCollectivite":"Commune","region":"Auvergne-Rhône-Alpes","departement":"Cantal","departementCode":"15","adresse":{"street":"20 place Georges-Pompidou","postalCode":"15200","city":"Mauriac","country":"France"},"contacts":{"email":"mairie@mauriac.fr","telephone":"0471680185"},"horaires":"Du Lundi au Jeudi : de 08h30 à 12h00 de 13h30 à 17h00\nLe Vendredi : de 08h30 à 16h30\nLe Samedi : de 10h00 à 12h00","latitude":45.21804,"longitude":2.331502,"website":"http://www.mauriac.fr/","hasWebsite":true,"hasHoraires":true,"url":"https://lannuaire.service-public.gouv.fr/auvergne-rhone-alpes/cantal/aa45109a-3ad8-41ab-8bf7-65d3be123fb3"}
{"nom":"Maurines","nomNormalise":"maurines","typeCollectivite":"Commune","region":"Auvergne-Rhône-Alpes","departement":"Cantal","departementCode":"15","adresse":{"street":"Le Bourg","postalCode":"15110","city":"Maurines","country":"France"},"contacts":{"email":"mairie.maurines@wanadoo.fr","telephone":"0471235604"},"horaires":"Le Mardi : de 09h00 à 12h00\nLe Jeudi : de 14h00 à 17h00","latitude":44.870823,"longitude":3.085733,"website":"","hasWebsite":false,"hasHoraires":true,"url":"https://lannuaire.service-public.gouv.fr/auvergne-rhone-alpes/cantal/7e2e8a80-98e5-493e-a081-a96f3a0fdf80"}
{"nom":"Maurs","nomNormalise":"maurs","typeCollectivite":"Commune","region":"Auvergne-Rhône-Alpes","departement":"Cantal","departementCode":"15","adresse":{"street":"69 Tour-de-Ville","postalCode":"15600","city":"Maurs","country":"France"},"contacts":{"email":"mairie@ville-maurs.fr","telephone":"0471490032"},"horaires":"Le Lundi : de 09h00 à 12h00 de 13h30 à 17h00\nLe Mardi : de 09h00 à 12h00\nLe Mercredi : de 09h00 à 12h00 de 13h30 à 17h00\nLe Jeudi : de 08h30 à 12h00 de 14h00 à 17h00\nDu Vendredi au Samedi : de 09h00 à 12h00\n\n(ouverture le 1er et 3ème samedi de chaque mois)","latitude":44.711136,"longitude":2.1982765,"website":"https://www.ville-maurs.fr/","hasWebsite":true,"hasHoraires":true,"url":"https://lannuaire.service-public.gouv.fr/auvergne-rhone-alpes/cantal/081e97f0-d853-4008-8797-198cd6dd5ac4"}
{"nom":"Méallet","nomNormalise":"meallet","typeCollectivite":"Commune","region":"Auvergne-Rhône-Alpes","departement":"Cantal","departementCode":"15","adresse":{"street":"15 rue Saint-Georges","postalCode":"15200","city":"Méallet","country":"France"},"contacts":{"email":"mairie-de-meallet@wanadoo.fr","telephone":"0471400810"},"horaires":"Le Mardi : de 10h00 à 12h00\nLe Mercredi : de 08h30 à 10h30\nLe Samedi : de 10h00 à 12h00","latitude":45.25481,"longitude":2.430186,"website":"https://www.meallet.fr/","hasWebsite":true,"hasHoraires":true,"url":"https://lannuaire.service-public.gouv.fr/auvergne-rhone-alpes/cantal/3f8e409e-7d40-44d9-9236-b7e05369e865"}
{"nom":"Menet","nomNormalise":"menet","typeCollectivite":"Commune","region":"Auvergne-Rhône-Alpes","departement":"Cantal","departementCode":"15","adresse":{"street":"1 rue des Écoles","postalCode":"15400","city":"Menet","country":"France"},"contacts":{"email":"mairie.menet@orange.fr","telephone":"0471783069"},"horaires":"Le Lundi : de 09h00 à 12h00 de 14h30 à 16h30\nDu Mardi au Jeudi : de 09h00 à 12h00\nLe Vendredi : de 09h00 à 12h00 de 14h30 à 16h30","latitude":45.295914,"longitude":2.585996,"website":"https://www.menet.fr/","hasWebsite":true,"hasHoraires":true,"url":"https://lannuaire.service-public.gouv.fr/auvergne-rhone-alpes/cantal/31897056-28d9-4e5a-8611-efd3c74b0859"}
{"nom":"Mentières","nomNormalise":"mentieres","typeCollectivite":"Commune","region":"Auvergne-Rhône-Alpes","departement":"Cantal","departementCode":"15","adresse":{"street":"Le Bourg","postalCode":"15100","city":"Mentières","country":"France"},"contacts":{"email":"mairie.mentieres@wanadoo.fr","telephone":"0471603291"},"horaires":"Le Lundi : de 09h00 à 12h00\nLe Mercredi : de 09h00 à 12h00\n\nAccueil ouvert uniquement en semaine impaire.\nLe Jeudi : de 14h00 à 17h00","latitude":45.069782,"longitude":3.1375,"website":"","hasWebsite":false,"hasHoraires":true,"url":"https://lannuaire.service-public.gouv.fr/auvergne-rhone-alpes/cantal/c55e2979-36ae-4a63-b467-6662b7c55a14"}
{"nom":"Molèdes","nomNormalise":"moledes","typeCollectivite":"Commune","region":"Auvergne-Rhône-Alpes","departement":"Cantal","departementCode":"15","adresse":{"street":"Le Bourg","postalCode":"15500","city":"Molèdes","country":"France"},"contacts":{"email":"moledes.mairie@wanadoo.fr","telephone":"0471739095"},"horaires":"Le Lundi : de 09h00 à 12h00 de 13h30 à 17h00\nLe Vendredi : de 09h00 à 12h00 de 13h30 à 17h00","latitude":45.262707,"longitude":3.039698,"website":"","hasWebsite":false,"hasHoraires":true,"url":"https://lannuaire.service-public.gouv.fr/auvergne-rhone-alpes/cantal/19d33324-7e43-49ec-9969-a6ed151b21bf"}
{"nom":"Molompize","nomNormalise":"molompize","typeCollectivite":"Commune","region":"Auvergne-Rhône-Alpes","departement":"Cantal","departementCode":"15","adresse":{"street":"4 Place du Général-de-Gaulle","postalCode":"15500","city":"Molompize","country":"France"},"contacts":{"email":"mairie.molompize@orange.fr","telephone":"0471736006"},"horaires":"Le Lundi : de 13h30 à 17h30\nLe Mardi : de 13h30 à 16h30\nLe Mercredi : de 08h00 à 12h00 de 13h30 à 17h30\nLe Jeudi : de 08h30 à 11h30 de 13h30 à 16h30\nLe Vendredi : de 08h00 à 12h00","latitude":45.2564,"longitude":3.19877,"website":"https://www.molompize.fr/","hasWebsite":true,"hasHoraires":true,"url":"https://lannuaire.service-public.gouv.fr/auvergne-rhone-alpes/cantal/e700e51f-6842-4db1-a2ca-808841146a99"}
{"nom":"Montboudif","nomNormalise":"montboudif","typeCollectivite":"Commune","region":"Auvergne-Rhône-Alpes","departement":"Cantal","departementCode":"15","adresse":{"street":"Le Bourg","postalCode":"15190","city":"Montboudif","country":"France"},"contacts":{"email":"mairie-montboudif@orange.fr","telephone":"0471785388"},"horaires":"Le Mardi : de 08h00 à 12h00\nLe Vendredi : de 08h00 à 12h00 de 13h00 à 17h00","latitude":45.37107,"longitude":2.731516,"website":"","hasWebsite":false,"hasHoraires":true,"url":"https://lannuaire.service-public.gouv.fr/auvergne-rhone-alpes/cantal/74da15e9-c42d-4145-9f67-02f7623b0b80"}
{"nom":"Montgreleix","nomNormalise":"montgreleix","typeCollectivite":"Commune","region":"Auvergne-Rhône-Alpes","departement":"Cantal","departementCode":"15","adresse":{"street":"Le Bourg","postalCode":"15190","city":"Montgreleix","country":"France"},"contacts":{"email":"mairie.montgreleix@wanadoo.fr","telephone":"0471788362"},"horaires":"Le Lundi : de 14h00 à 17h30\nLe Jeudi : de 08h30 à 12h00","latitude":45.34432,"longitude":2.870129,"website":"","hasWebsite":false,"hasHoraires":true,"url":"https://lannuaire.service-public.gouv.fr/auvergne-rhone-alpes/cantal/a9bdf133-7d48-4fb0-aae2-b3670f34d586"}
{"nom":"Montmurat","nomNormalise":"montmurat","typeCollectivite":"Commune","region":"Auvergne-Rhône-Alpes","departement":"Cantal","departementCode":"15","adresse":{"street":"Lieu-dit Le Bourg","postalCode":"15600","city":"Montmurat","country":"France"},"contacts":{"email":"mairie.montmurat@wanadoo.fr","telephone":"0471491430"},"horaires":"Le Mardi : de 14h00 à 17h00\nLe Jeudi : de 09h00 à 12h00\nLe Vendredi : de 14h00 à 17h00","latitude":44.628723,"longitude":2.200942,"website":"https://mairiemontmurat.wixsite.com/montmurat","hasWebsite":true,"hasHoraires":true,"url":"https://lannuaire.service-public.gouv.fr/auvergne-rhone-alpes/cantal/6b716120-cc40-47ee-8ec6-afd81a5f7b66"}
{"nom":"Montsalvy","nomNormalise":"montsalvy","typeCollectivite":"Commune","region":"Auvergne-Rhône-Alpes","departement":"Cantal","departementCode":"15","adresse":{"street":"11 rue Marcellin-Boule","postalCode":"15120","city":"Montsalvy","country":"France"},"contacts":{"email":"mairie-montsalvy@wanadoo.fr","telephone":"0471492010"},"horaires":"Du Lundi au Vendredi : de 08h30 à 12h00","latitude":44.707287,"longitude":2.500339,"website":"http://www.montsalvy.fr/","hasWebsite":true,"hasHoraires":true,"url":"https://lannuaire.service-public.gouv.fr/auvergne-rhone-alpes/cantal/fb544046-234b-41e3-8e2a-5433070f0f90"}
{"nom":"Montvert","nomNormalise":"montvert","typeCollectivite":"Commune","region":"Auvergne-Rhône-Alpes","departement":"Cantal","departementCode":"15","adresse":{"street":"3 route de la Mairie","postalCode":"15150","city":"Montvert","country":"France"},"contacts":{"email":"mairiemontvert@wanadoo.fr","telephone":"0471450653"},"horaires":"Le Lundi : de 13h30 à 16h30\nLe Jeudi : de 13h30 à 16h30","latitude":44.996178,"longitude":2.161126,"website":"","hasWebsite":false,"hasHoraires":true,"url":"https://lannuaire.service-public.gouv.fr/auvergne-rhone-alpes/cantal/1a01775b-62f6-49c0-841f-5322bdc5cf3b"}
{"nom":"Mairie déléguée - Mourjou","nomNormalise":"mairiedelegueemourjou","typeCollectivite":"Commune","region":"Auvergne-Rhône-Alpes","departement":"Cantal","departementCode":"15","adresse":{"street":"Calvinet","postalCode":"15340","city":"Puycapel","country":"France"},"contacts":{"email":"mairie@puycapel.fr","telephone":"0471499432"},"horaires":"Le Mardi : de 09h00 à 12h00\nDu Jeudi au Vendredi : de 09h00 à 12h00","latitude":44.7173,"longitude":2.35795,"website":"https://puycapel.fr/","hasWebsite":true,"hasHoraires":true,"url":"https://lannuaire.service-public.gouv.fr/auvergne-rhone-alpes/cantal/792c23c5-b822-4683-85a9-81f5991dbd5d"}
{"nom":"Moussages","nomNormalise":"moussages","typeCollectivite":"Commune","region":"Auvergne-Rhône-Alpes","departement":"Cantal","departementCode":"15","adresse":{"street":"19 rue Saint-Barthélémy","postalCode":"15380","city":"Moussages","country":"France"},"contacts":{"email":"mairie-moussages@wanadoo.fr","telephone":"0471400768"},"horaires":"Du Lundi au Vendredi : de 13h30 à 17h00","latitude":45.234894,"longitude":2.469771,"website":"http://www.moussages.com/","hasWebsite":true,"hasHoraires":true,"url":"https://lannuaire.service-public.gouv.fr/auvergne-rhone-alpes/cantal/bd857b0c-7164-4047-8a18-7084971c207a"}
{"nom":"Murat","nomNormalise":"murat","typeCollectivite":"Commune","region":"Auvergne-Rhône-Alpes","departement":"Cantal","departementCode":"15","adresse":{"street":"Place de l'Hôtel-de-Ville","postalCode":"15300","city":"Murat","country":"France"},"contacts":{"email":"administration@mairiedemurat.fr","telephone":"0471200380"},"horaires":"Du Lundi au Vendredi : de 08h30 à 12h00 de 13h30 à 17h00\nLe Samedi : de 09h00 à 12h00","latitude":45.110573,"longitude":2.8692899,"website":"https://www.murat.fr/","hasWebsite":true,"hasHoraires":true,"url":"https://lannuaire.service-public.gouv.fr/auvergne-rhone-alpes/cantal/6fa0f312-7df9-427c-8fa7-7bdd22c319a8"}
{"nom":"Narnhac","nomNormalise":"narnhac","typeCollectivite":"Commune","region":"Auvergne-Rhône-Alpes","departement":"Cantal","departementCode":"15","adresse":{"street":"8 rue Principale","postalCode":"15230","city":"Narnhac","country":"France"},"contacts":{"email":"mairie.narnhac@wanadoo.fr","telephone":"0471734351"},"horaires":"Le Mercredi : de 09h30 à 11h30","latitude":44.928055,"longitude":2.778443,"website":"","hasWebsite":false,"hasHoraires":true,"url":"https://lannuaire.service-public.gouv.fr/auvergne-rhone-alpes/cantal/de64ee5e-4d33-4325-b18c-10615f49311f"}
{"nom":"Naucelles","nomNormalise":"naucelles","typeCollectivite":"Commune","region":"Auvergne-Rhône-Alpes","departement":"Cantal","departementCode":"15","adresse":{"street":"4 place des Anciens-Combattants","postalCode":"15250","city":"Naucelles","country":"France"},"contacts":{"email":"mairie-naucelles@orange.fr","telephone":"0471472103"},"horaires":"Du Lundi au Mercredi : de 09h00 à 12h00 de 13h00 à 17h00\nLe Jeudi : de 09h00 à 12h00\nLe Vendredi : de 09h00 à 12h00 de 13h00 à 17h00","latitude":44.96015,"longitude":2.417093,"website":"https://www.naucelles.fr/","hasWebsite":true,"hasHoraires":true,"url":"https://lannuaire.service-public.gouv.fr/auvergne-rhone-alpes/cantal/9e837600-9d75-41d3-9f52-4fb51ef3a300"}
{"nom":"Mairie déléguée - Neussargues","nomNormalise":"mairiedelegueeneussargues","typeCollectivite":"Commune","region":"Auvergne-Rhône-Alpes","departement":"Cantal","departementCode":"15","adresse":{"street":"4 place Administrative","postalCode":"15170","city":"Neussargues en Pinatelle","country":"France"},"contacts":{"email":"mairie@neussarguesenpinatelle.fr","telephone":"0471205082"},"horaires":"Du Lundi au Vendredi : de 10h00 à 12h00","latitude":45.1262,"longitude":2.978626,"website":"https://www.neussarguesenpinatelle.fr/","hasWebsite":true,"hasHoraires":true,"url":"https://lannuaire.service-public.gouv.fr/auvergne-rhone-alpes/cantal/f01870e5-2fc0-474b-929c-a62728ace6c4"}
{"nom":"Neussargues-Moissac","nomNormalise":"neussarguesmoissac","typeCollectivite":"Commune","region":"Auvergne-Rhône-Alpes","departement":"Cantal","departementCode":"15","adresse":{"street":"4 place Administrative","postalCode":"15170","city":"Neussargues-Moissac","country":"France"},"contacts":{"email":"mairie@neussarguesmoissac.fr","telephone":"0471205082"},"horaires":"Du Lundi au Vendredi : de 09h30 à 12h00","latitude":45.12631,"longitude":2.978357,"website":"https://www.neussarguesmoissac.fr/","hasWebsite":true,"hasHoraires":true,"url":"https://lannuaire.service-public.gouv.fr/auvergne-rhone-alpes/cantal/4670a165-c0c1-4b8b-8d0e-70af17dc0070"}
{"nom":"Neuvéglise-sur-Truyère","nomNormalise":"neuveglisesurtruyere","typeCollectivite":"Commune","region":"Auvergne-Rhône-Alpes","departement":"Cantal","departementCode":"15","adresse":{"street":"1 place Albert","postalCode":"15260","city":"Neuvéglise-sur-Truyère","country":"France"},"contacts":{"email":"contact@neuveglisesurtruyere.fr","telephone":"0471238168"},"horaires":"Le Lundi : de 08h30 à 12h00 de 13h30 à 17h00\nLe Mardi : de 08h30 à 12h00\nLe Mercredi : de 08h30 à 12h00 de 13h30 à 17h00\nLe Jeudi : de 08h30 à 12h00\nLe Vendredi : de 08h30 à 12h00 de 13h30 à 17h00","latitude":44.930325,"longitude":2.981859,"website":"https://www.neuveglisesurtruyere.fr/","hasWebsite":true,"hasHoraires":true,"url":"https://lannuaire.service-public.gouv.fr/auvergne-rhone-alpes/cantal/fc0f2b49-a987-48e9-b936-a1be704a1ee4"}
{"nom":"Nieudan","nomNormalise":"nieudan","typeCollectivite":"Commune","region":"Auvergne-Rhône-Alpes","departement":"Cantal","departementCode":"15","adresse":{"street":"7 rue de la Chapelle","postalCode":"15150","city":"Nieudan","country":"France"},"contacts":{"email":"mairie.nieudan@wanadoo.fr","telephone":"0471629015"},"horaires":"Le Mardi : de 13h30 à 16h30\nLe Vendredi : de 09h00 à 12h00","latitude":44.983063,"longitude":2.243278,"website":"","hasWebsite":false,"hasHoraires":true,"url":"https://lannuaire.service-public.gouv.fr/auvergne-rhone-alpes/cantal/285c396b-8369-41e3-a3e8-9ad16e797ce5"}
{"nom":"Omps","nomNormalise":"omps","typeCollectivite":"Commune","region":"Auvergne-Rhône-Alpes","departement":"Cantal","departementCode":"15","adresse":{"street":"22 rue Pierre-trémouliere","postalCode":"15290","city":"Omps","country":"France"},"contacts":{"email":"mairie@omps.fr","telephone":"0471647634"},"horaires":"Le Lundi : de 09h00 à 12h00\nLe Mardi : de 09h00 à 12h00 de 14h00 à 17h00\nLe Jeudi : de 09h00 à 12h00 de 14h00 à 17h00","latitude":44.87801,"longitude":2.276866,"website":"https://www.omps.fr/Accueil/b0l/Tous","hasWebsite":true,"hasHoraires":true,"url":"https://lannuaire.service-public.gouv.fr/auvergne-rhone-alpes/cantal/d8e1aea3-eb9a-4590-82bc-617c492f0358"}
{"nom":"Pailherols","nomNormalise":"pailherols","typeCollectivite":"Commune","region":"Auvergne-Rhône-Alpes","departement":"Cantal","departementCode":"15","adresse":{"street":"4 Chemin des Miracles","postalCode":"15800","city":"Pailherols","country":"France"},"contacts":{"email":"pailherols.mairie@orange.fr","telephone":"0471475772"},"horaires":"Du Lundi au Mardi : de 09h30 à 12h30 de 14h00 à 16h00\nDu Jeudi au Vendredi : de 09h30 à 12h30 de 14h00 à 16h00","latitude":44.95069,"longitude":2.684049,"website":"","hasWebsite":false,"hasHoraires":true,"url":"https://lannuaire.service-public.gouv.fr/auvergne-rhone-alpes/cantal/48f51be5-7bc6-43dc-8d93-ad95ec9aee59"}
{"nom":"Parlan","nomNormalise":"parlan","typeCollectivite":"Commune","region":"Auvergne-Rhône-Alpes","departement":"Cantal","departementCode":"15","adresse":{"street":"1 place de la Mairie","postalCode":"15290","city":"Parlan","country":"France"},"contacts":{"email":"mairiedeparlan@orange.fr","telephone":"0471461270"},"horaires":"Du Lundi au Vendredi : de 08h30 à 12h00","latitude":44.828976,"longitude":2.172467,"website":"http://www.parlan.fr/","hasWebsite":true,"hasHoraires":true,"url":"https://lannuaire.service-public.gouv.fr/auvergne-rhone-alpes/cantal/e62f922b-78a5-407a-bab2-6d3162448064"}
{"nom":"Paulhac","nomNormalise":"paulhac","typeCollectivite":"Commune","region":"Auvergne-Rhône-Alpes","departement":"Cantal","departementCode":"15","adresse":{"street":"18 route du Col de Prat-de-Bouc","postalCode":"15430","city":"Paulhac","country":"France"},"contacts":{"email":"communepaulhac@orange.fr","telephone":"0471733235"},"horaires":"Du Lundi au Vendredi : de 10h00 à 12h00","latitude":45.006077,"longitude":2.905104,"website":"","hasWebsite":false,"hasHoraires":true,"url":"https://lannuaire.service-public.gouv.fr/auvergne-rhone-alpes/cantal/6f32f0a2-3791-4914-914a-69109c8a3c22"}
{"nom":"Paulhenc","nomNormalise":"paulhenc","typeCollectivite":"Commune","region":"Auvergne-Rhône-Alpes","departement":"Cantal","departementCode":"15","adresse":{"street":"21 rue du 19-Mars-1962","postalCode":"15230","city":"Paulhenc","country":"France"},"contacts":{"email":"paulhenc.mairie@wanadoo.fr","telephone":"0471233135"},"horaires":"Le Lundi : de 14h00 à 17h00\nLe Vendredi : de 14h00 à 17h00","latitude":44.888336,"longitude":2.814798,"website":"","hasWebsite":false,"hasHoraires":true,"url":"https://lannuaire.service-public.gouv.fr/auvergne-rhone-alpes/cantal/90c79f3e-adcc-45e9-bc28-61a4884f1b6f"}
{"nom":"Peyrusse","nomNormalise":"peyrusse","typeCollectivite":"Commune","region":"Auvergne-Rhône-Alpes","departement":"Cantal","departementCode":"15","adresse":{"street":"4 rue de la Mairie","postalCode":"15170","city":"Peyrusse","country":"France"},"contacts":{"email":"mairie.peyrusse@orange.fr","telephone":"0471206131"},"horaires":"Le Mardi : de 08h30 à 12h00\nLe Jeudi : de 08h30 à 12h00","latitude":45.20235,"longitude":3.0282822,"website":"","hasWebsite":false,"hasHoraires":true,"url":"https://lannuaire.service-public.gouv.fr/auvergne-rhone-alpes/cantal/30b35a48-1611-4279-8b72-19ecf8026603"}
{"nom":"Pierrefort","nomNormalise":"pierrefort","typeCollectivite":"Commune","region":"Auvergne-Rhône-Alpes","departement":"Cantal","departementCode":"15","adresse":{"street":"1 bis rue du Plomb-du-Cantal","postalCode":"15230","city":"Pierrefort","country":"France"},"contacts":{"email":"mairie@pierrefort.fr","telephone":"0471233116"},"horaires":"Du Lundi au Vendredi : de 09h00 à 12h00","latitude":44.921814,"longitude":2.838753,"website":"https://www.pierrefort.fr/","hasWebsite":true,"hasHoraires":true,"url":"https://lannuaire.service-public.gouv.fr/auvergne-rhone-alpes/cantal/528259f1-47a9-43fc-a462-ca2d6b0b48c6"}
{"nom":"Pleaux","nomNormalise":"pleaux","typeCollectivite":"Commune","region":"Auvergne-Rhône-Alpes","departement":"Cantal","departementCode":"15","adresse":{"street":"2 place Georges-Pompidou","postalCode":"15700","city":"Pleaux","country":"France"},"contacts":{"email":"contact@pleaux.fr","telephone":"0471404118"},"horaires":"Du Lundi au Vendredi : de 09h00 à 12h00 de 13h30 à 16h30","latitude":45.133877,"longitude":2.226143,"website":"https://www.pleaux.fr/","hasWebsite":true,"hasHoraires":true,"url":"https://lannuaire.service-public.gouv.fr/auvergne-rhone-alpes/cantal/835a3699-2d7c-4cc0-b817-9f51a79ea69b"}
{"nom":"Polminhac","nomNormalise":"polminhac","typeCollectivite":"Commune","region":"Auvergne-Rhône-Alpes","departement":"Cantal","departementCode":"15","adresse":{"street":"42 route Nationale","postalCode":"15800","city":"Polminhac","country":"France"},"contacts":{"email":"mairiepolminhac@wanadoo.fr","telephone":"0471474007"},"horaires":"Le Lundi : de 13h00 à 16h30\nDu Mardi au Vendredi : de 08h30 à 12h00 de 13h00 à 16h30","latitude":44.95238,"longitude":2.577544,"website":"https://www.polminhac.fr/","hasWebsite":true,"hasHoraires":true,"url":"https://lannuaire.service-public.gouv.fr/auvergne-rhone-alpes/cantal/0289334a-a9c4-4d57-b28b-581175e37148"}
{"nom":"Pradiers","nomNormalise":"pradiers","typeCollectivite":"Commune","region":"Auvergne-Rhône-Alpes","departement":"Cantal","departementCode":"15","adresse":{"street":"Le Bourg","postalCode":"15160","city":"Pradiers","country":"France"},"contacts":{"email":"mairie.pradiers@wanadoo.fr","telephone":"0471204405"},"horaires":"Le Mardi : de 14h00 à 16h00\nLe Vendredi : de 14h00 à 16h00","latitude":45.269833,"longitude":2.924487,"website":"","hasWebsite":false,"hasHoraires":true,"url":"https://lannuaire.service-public.gouv.fr/auvergne-rhone-alpes/cantal/f15fdaf3-b69c-4f63-91b8-a7933c193f69"}
{"nom":"Prunet","nomNormalise":"prunet","typeCollectivite":"Commune","region":"Auvergne-Rhône-Alpes","departement":"Cantal","departementCode":"15","adresse":{"street":"1 place de la Fontaine","postalCode":"15130","city":"Prunet","country":"France"},"contacts":{"email":"mairie@prunet15.fr","telephone":"0471626056"},"horaires":"Le Lundi : de 09h00 à 12h00\nLe Mardi : de 14h00 à 17h00\nDu Jeudi au Vendredi : de 09h00 à 12h00","latitude":44.82034,"longitude":2.464343,"website":"https://www.communedeprunet15.fr/","hasWebsite":true,"hasHoraires":true,"url":"https://lannuaire.service-public.gouv.fr/auvergne-rhone-alpes/cantal/facc003c-0353-442d-bd05-53d72f86c083"}
{"nom":"Puycapel","nomNormalise":"puycapel","typeCollectivite":"Commune","region":"Auvergne-Rhône-Alpes","departement":"Cantal","departementCode":"15","adresse":{"street":"Calvinet","postalCode":"15340","city":"Puycapel","country":"France"},"contacts":{"email":"mairie@puycapel.fr","telephone":"0471499432"},"horaires":"Le Mardi : de 13h30 à 16h30\nDu Jeudi au Vendredi : de 13h30 à 16h30","latitude":44.71727,"longitude":2.357288,"website":"https://puycapel.fr/","hasWebsite":true,"hasHoraires":true,"url":"https://lannuaire.service-public.gouv.fr/auvergne-rhone-alpes/cantal/98eda4f1-7cb7-4fd2-a1d3-4c4592d23c7d"}
{"nom":"Quézac","nomNormalise":"quezac","typeCollectivite":"Commune","region":"Auvergne-Rhône-Alpes","departement":"Cantal","departementCode":"15","adresse":{"street":"4 rue Paul-Doumer","postalCode":"15600","city":"Quézac","country":"France"},"contacts":{"email":"quezac.mairie@wanadoo.fr","telephone":"0471490451"},"horaires":"Le Lundi : de 08h00 à 12h00\nLe Mercredi : de 08h00 à 12h00\nLe Jeudi : de 08h00 à 12h00 de 13h00 à 17h00","latitude":44.747635,"longitude":2.18693,"website":"https://ecovillagequezac.fr/","hasWebsite":true,"hasHoraires":true,"url":"https://lannuaire.service-public.gouv.fr/auvergne-rhone-alpes/cantal/1d80a27a-5465-4ecf-a65f-d5f13eb01efc"}
{"nom":"Rageade","nomNormalise":"rageade","typeCollectivite":"Commune","region":"Auvergne-Rhône-Alpes","departement":"Cantal","departementCode":"15","adresse":{"street":"Le Bourg","postalCode":"15500","city":"Rageade","country":"France"},"contacts":{"email":"commune.rageade@orange.fr","telephone":"0471735103"},"horaires":"Le Lundi : de 14h00 à 17h00\nLe Mercredi : de 14h00 à 17h00\nLe Vendredi : de 14h00 à 17h00","latitude":45.104248,"longitude":3.276911,"website":"","hasWebsite":false,"hasHoraires":true,"url":"https://lannuaire.service-public.gouv.fr/auvergne-rhone-alpes/cantal/e29b71ce-6e2b-4abc-a887-5e39b1a47368"}
{"nom":"Raulhac","nomNormalise":"raulhac","typeCollectivite":"Commune","region":"Auvergne-Rhône-Alpes","departement":"Cantal","departementCode":"15","adresse":{"street":"2 Place du Foirail","postalCode":"15800","city":"Raulhac","country":"France"},"contacts":{"email":"commune-de-raulhac@wanadoo.fr","telephone":"0471495521"},"horaires":"Le Mardi : de 13h00 à 17h00\nLe Mercredi : de 08h00 à 12h00\nLe Jeudi : de 13h00 à 17h00\nLe Vendredi : de 08h30 à 12h30 de 13h00 à 17h00","latitude":45.208023,"longitude":2.717197,"website":"https://www.raulhac.fr/","hasWebsite":true,"hasHoraires":true,"url":"https://lannuaire.service-public.gouv.fr/auvergne-rhone-alpes/cantal/4ebab5b7-9a84-4d46-bc5c-89a6f0348ec5"}
{"nom":"Reilhac","nomNormalise":"reilhac","typeCollectivite":"Commune","region":"Auvergne-Rhône-Alpes","departement":"Cantal","departementCode":"15","adresse":{"street":"1 place de la Mairie","postalCode":"15250","city":"Reilhac","country":"France"},"contacts":{"email":"mairie@reilhac.fr","telephone":"0471630063"},"horaires":"Le Mardi : de 08h30 à 12h00 de 13h30 à 16h00\nLe Mercredi : de 08h30 à 12h00\nDu Jeudi au Vendredi : de 08h30 à 12h00 de 13h30 à 16h00\nLe Samedi : de 08h30 à 12h00","latitude":44.97344,"longitude":2.421194,"website":"https://www.reilhac.fr/fr/","hasWebsite":true,"hasHoraires":true,"url":"https://lannuaire.service-public.gouv.fr/auvergne-rhone-alpes/cantal/643dec2a-e86c-4dc9-8ed1-33717149613d"}
{"nom":"Rézentières","nomNormalise":"rezentieres","typeCollectivite":"Commune","region":"Auvergne-Rhône-Alpes","departement":"Cantal","departementCode":"15","adresse":{"street":"Le Bourg","postalCode":"15170","city":"Rézentières","country":"France"},"contacts":{"email":"rezentieres.mairie@wanadoo.fr","telephone":"0471237302"},"horaires":"Le Mardi : de 09h00 à 12h00\nLe Jeudi : de 08h30 à 12h00 de 13h30 à 17h00","latitude":45.1336,"longitude":3.103352,"website":"","hasWebsite":false,"hasHoraires":true,"url":"https://lannuaire.service-public.gouv.fr/auvergne-rhone-alpes/cantal/8ce769c2-1458-449b-b652-21e231dab72e"}
{"nom":"Riom-ès-Montagnes","nomNormalise":"riomesmontagnes","typeCollectivite":"Commune","region":"Auvergne-Rhône-Alpes","departement":"Cantal","departementCode":"15","adresse":{"street":"Place Charles-de-Gaulle","postalCode":"15400","city":"Riom-ès-Montagnes","country":"France"},"contacts":{"email":"mairie@riomesmontagnes.fr","telephone":"0471780482"},"horaires":"Du Lundi au Mardi : de 08h30 à 12h00 de 13h00 à 17h00\nLe Mercredi : de 08h00 à 12h00 de 13h00 à 17h00\nDu Jeudi au Vendredi : de 08h30 à 12h00 de 13h00 à 17h00","latitude":45.2812,"longitude":2.66031,"website":"https://www.ville-riom-es-montagnes.fr/","hasWebsite":true,"hasHoraires":true,"url":"https://lannuaire.service-public.gouv.fr/auvergne-rhone-alpes/cantal/043b68a6-8f6a-42fc-910d-d574d4d61f68"}
{"nom":"Roannes-Saint-Mary","nomNormalise":"roannessaintmary","typeCollectivite":"Commune","region":"Auvergne-Rhône-Alpes","departement":"Cantal","departementCode":"15","adresse":{"street":"1 place de la Mairie","postalCode":"15220","city":"Roannes-Saint-Mary","country":"France"},"contacts":{"email":"mairie@roannes-saint-mary.fr","telephone":"0471628032"},"horaires":"Le Mardi : de 09h00 à 12h00 de 13h30 à 17h30\nDu Mercredi au Jeudi : de 09h00 à 12h00\nLe Vendredi : de 09h00 à 12h00 de 13h30 à 17h30\nLe Samedi : de 09h00 à 12h00","latitude":44.780422,"longitude":2.436706,"website":"https://www.roannes-saint-mary.fr/","hasWebsite":true,"hasHoraires":true,"url":"https://lannuaire.service-public.gouv.fr/auvergne-rhone-alpes/cantal/7c9da82d-4d7f-4d70-9409-3a763c203aac"}
{"nom":"Roffiac","nomNormalise":"roffiac","typeCollectivite":"Commune","region":"Auvergne-Rhône-Alpes","departement":"Cantal","departementCode":"15","adresse":{"street":"Le Bourg","postalCode":"15100","city":"Roffiac","country":"France"},"contacts":{"email":"commune-roffiac@orange.fr","telephone":"0471600098"},"horaires":"Le Lundi : de 08h00 à 12h00\nLe Mardi : de 08h00 à 12h00 de 14h00 à 17h00\nDu Jeudi au Vendredi : de 08h00 à 12h00","latitude":45.052357,"longitude":3.0367424,"website":"https://www.roffiac.fr/","hasWebsite":true,"hasHoraires":true,"url":"https://lannuaire.service-public.gouv.fr/auvergne-rhone-alpes/cantal/565bc40d-7cee-4398-a941-02e089b7ad27"}
{"nom":"Rouffiac","nomNormalise":"rouffiac","typeCollectivite":"Commune","region":"Auvergne-Rhône-Alpes","departement":"Cantal","departementCode":"15","adresse":{"street":"11 route des écoles","postalCode":"15150","city":"Rouffiac","country":"France"},"contacts":{"email":"mairie.rouffiac@wanadoo.fr","telephone":"0471450750"},"horaires":"Du Lundi au Mardi : de 09h00 à 12h30 de 13h15 à 16h45\nLe Mercredi : de 10h00 à 12h30 de 13h15 à 17h15\nLe Vendredi : de 08h30 à 12h30 de 13h00 à 15h00","latitude":45.022724,"longitude":2.137166,"website":"","hasWebsite":false,"hasHoraires":true,"url":"https://lannuaire.service-public.gouv.fr/auvergne-rhone-alpes/cantal/b61d9e0f-5950-4e5e-a5cc-31012913ce5a"}
{"nom":"Roumégoux","nomNormalise":"roumegoux","typeCollectivite":"Commune","region":"Auvergne-Rhône-Alpes","departement":"Cantal","departementCode":"15","adresse":{"street":"5 rue de la Goutte-Longue","postalCode":"15290","city":"Roumégoux","country":"France"},"contacts":{"email":"mairie.roumegoux0599@orange.fr","telephone":"0471461443"},"horaires":"Le Mercredi : de 09h00 à 12h00\nLe Vendredi : de 14h30 à 18h30","latitude":44.85656,"longitude":2.199312,"website":"https://www.roumegoux.fr/","hasWebsite":true,"hasHoraires":true,"url":"https://lannuaire.service-public.gouv.fr/auvergne-rhone-alpes/cantal/7f10d183-a0e3-42cc-b56c-601b966e989c"}
{"nom":"Rouziers","nomNormalise":"rouziers","typeCollectivite":"Commune","region":"Auvergne-Rhône-Alpes","departement":"Cantal","departementCode":"15","adresse":{"street":"1 Le Bourg","postalCode":"15600","city":"Rouziers","country":"France"},"contacts":{"email":"mairie-rouziers@orange.fr","telephone":"0471461937"},"horaires":"Le Mardi : de 08h00 à 12h00\nLe Vendredi : de 08h00 à 12h00 de 13h00 à 16h00","latitude":44.793396,"longitude":2.208604,"website":"https://www.rouziers.fr/","hasWebsite":true,"hasHoraires":true,"url":"https://lannuaire.service-public.gouv.fr/auvergne-rhone-alpes/cantal/32c95952-fffd-4cd8-8388-6b4b7ecc94e2"}
{"nom":"Ruynes-en-Margeride","nomNormalise":"ruynesenmargeride","typeCollectivite":"Commune","region":"Auvergne-Rhône-Alpes","departement":"Cantal","departementCode":"15","adresse":{"street":"2 place du 10 juin-1944","postalCode":"15320","city":"Ruynes-en-Margeride","country":"France"},"contacts":{"email":"accueil@ruynes-margeride.fr","telephone":"0471234159"},"horaires":"Du Lundi au Mercredi : de 09h00 à 12h00\nLe Jeudi : de 09h00 à 12h00 de 14h00 à 17h00\nLe Vendredi : de 09h00 à 12h00","latitude":45.00247,"longitude":3.2233474,"website":"","hasWebsite":false,"hasHoraires":true,"url":"https://lannuaire.service-public.gouv.fr/auvergne-rhone-alpes/cantal/c8359aa3-8e23-4ba5-b3a5-b124f7ba6458"}
{"nom":"Saignes","nomNormalise":"saignes","typeCollectivite":"Commune","region":"Auvergne-Rhône-Alpes","departement":"Cantal","departementCode":"15","adresse":{"street":"15 rue de l'Hôtel-de-Ville","postalCode":"15240","city":"Saignes","country":"France"},"contacts":{"email":"saignes.mairie@wanadoo.fr","telephone":"0471406280"},"horaires":"Du Lundi au Vendredi : de 08h30 à 12h30 de 13h30 à 17h30","latitude":45.337,"longitude":2.47934,"website":"http://www.saignes15.fr/","hasWebsite":true,"hasHoraires":true,"url":"https://lannuaire.service-public.gouv.fr/auvergne-rhone-alpes/cantal/f058ce8b-8990-4d27-ae4d-73386a4a4305"}
{"nom":"Saint-Amandin","nomNormalise":"saintamandin","typeCollectivite":"Commune","region":"Auvergne-Rhône-Alpes","departement":"Cantal","departementCode":"15","adresse":{"street":"10 rue des Écoles","postalCode":"15190","city":"Saint-Amandin","country":"France"},"contacts":{"email":"mairie.saintamandin@orange.fr","telephone":"0471785351"},"horaires":"Le Lundi : de 14h00 à 17h30\nDu Jeudi au Vendredi : de 14h00 à 17h30","latitude":45.343475,"longitude":2.694908,"website":"https://www.saintamandin.fr/","hasWebsite":true,"hasHoraires":true,"url":"https://lannuaire.service-public.gouv.fr/auvergne-rhone-alpes/cantal/12fa9f76-a0d1-49f4-84f3-6076bb1bd2a1"}
{"nom":"Saint-Antoine","nomNormalise":"saintantoine","typeCollectivite":"Commune","region":"Auvergne-Rhône-Alpes","departement":"Cantal","departementCode":"15","adresse":{"street":"4 rue de la Mairie","postalCode":"15220","city":"Saint-Antoine","country":"France"},"contacts":{"email":"mairie.saint.antoine@orange.fr","telephone":"0471490542"},"horaires":"Le Lundi : de 09h00 à 12h00\nLe Jeudi : de 09h00 à 12h00 de 13h30 à 17h00","latitude":44.751205,"longitude":2.336882,"website":"","hasWebsite":false,"hasHoraires":true,"url":"https://lannuaire.service-public.gouv.fr/auvergne-rhone-alpes/cantal/473c4e80-785e-40c0-aebd-625e23283c64"}
{"nom":"Saint-Bonnet-de-Condat","nomNormalise":"saintbonnetdecondat","typeCollectivite":"Commune","region":"Auvergne-Rhône-Alpes","departement":"Cantal","departementCode":"15","adresse":{"street":"2 Rue de la Fontoire","postalCode":"15190","city":"Saint-Bonnet-de-Condat","country":"France"},"contacts":{"email":"mairie.stbonnetdecondat@orange.fr","telephone":"0471784164"},"horaires":"Du Lundi au Vendredi : de 09h00 à 12h00","latitude":45.27889,"longitude":2.788458,"website":"","hasWebsite":false,"hasHoraires":true,"url":"https://lannuaire.service-public.gouv.fr/auvergne-rhone-alpes/cantal/4b3c3c57-5c4d-4884-a0bb-de26ade47aa8"}
{"nom":"Saint-Bonnet-de-Salers","nomNormalise":"saintbonnetdesalers","typeCollectivite":"Commune","region":"Auvergne-Rhône-Alpes","departement":"Cantal","departementCode":"15","adresse":{"street":"2 place de la Plaine","postalCode":"15140","city":"Saint-Bonnet-de-Salers","country":"France"},"contacts":{"email":"mairie.saintbonnetdesalers@wanadoo.fr","telephone":"0471691256"},"horaires":"Du Lundi au Vendredi : de 10h30 à 12h00","latitude":45.15931,"longitude":2.453102,"website":"https://www.saintbonnetdesalers.fr/","hasWebsite":true,"hasHoraires":true,"url":"https://lannuaire.service-public.gouv.fr/auvergne-rhone-alpes/cantal/14748c7a-db5d-4978-b9c3-c34985bfea96"}
{"nom":"Saint-Cernin","nomNormalise":"saintcernin","typeCollectivite":"Commune","region":"Auvergne-Rhône-Alpes","departement":"Cantal","departementCode":"15","adresse":{"street":"10 rue de la Mairie","postalCode":"15310","city":"Saint-Cernin","country":"France"},"contacts":{"email":"mairie@saint-cernin.fr","telephone":"0471476009"},"horaires":"Du Lundi au Vendredi : de 09h00 à 12h00 de 14h00 à 17h00","latitude":45.050163,"longitude":2.423592,"website":"https://www.saint-cernin.fr/","hasWebsite":true,"hasHoraires":true,"url":"https://lannuaire.service-public.gouv.fr/auvergne-rhone-alpes/cantal/1fa79eb6-992c-4387-9d1f-b8d7bf4fba4e"}
{"nom":"Saint-Chamant","nomNormalise":"saintchamant","typeCollectivite":"Commune","region":"Auvergne-Rhône-Alpes","departement":"Cantal","departementCode":"15","adresse":{"street":"3 place Roger-Rigaudière","postalCode":"15140","city":"Saint-Chamant","country":"France"},"contacts":{"email":"mairie.saintchamant@wanadoo.fr","telephone":"0471692220"},"horaires":"Le Mardi : de 09h00 à 12h00\nDu Jeudi au Vendredi : de 09h00 à 12h00","latitude":45.09125,"longitude":2.436127,"website":"http://saint-chamant-cantal.fr/","hasWebsite":true,"hasHoraires":true,"url":"https://lannuaire.service-public.gouv.fr/auvergne-rhone-alpes/cantal/76dfbfb0-d955-498a-a9f6-abc9ca44e087"}
{"nom":"Saint-Cirgues-de-Jordanne","nomNormalise":"saintcirguesdejordanne","typeCollectivite":"Commune","region":"Auvergne-Rhône-Alpes","departement":"Cantal","departementCode":"15","adresse":{"street":"9 rue du Rocher","postalCode":"15590","city":"Saint-Cirgues-de-Jordanne","country":"France"},"contacts":{"email":"mairiestcirguesjordanne@wanadoo.fr","telephone":"0471479210"},"horaires":"Le Lundi : de 08h00 à 12h00\nLe Mardi : de 13h00 à 16h30\nLe Jeudi : de 13h00 à 16h30\nLe Vendredi : de 08h00 à 12h00","latitude":45.02795,"longitude":2.580879,"website":"","hasWebsite":false,"hasHoraires":true,"url":"https://lannuaire.service-public.gouv.fr/auvergne-rhone-alpes/cantal/43b300c1-e3b6-46bf-b850-65adb7cf63ee"}
{"nom":"Saint-Cirgues-de-Malbert","nomNormalise":"saintcirguesdemalbert","typeCollectivite":"Commune","region":"Auvergne-Rhône-Alpes","departement":"Cantal","departementCode":"15","adresse":{"street":"L'Hôpital","postalCode":"15140","city":"Saint-Cirgues-de-Malbert","country":"France"},"contacts":{"email":"mairie.stcirguesdemalbert@wanadoo.fr","telephone":"0471446142"},"horaires":"Du Lundi au Mardi : de 08h00 à 12h00 de 13h00 à 17h00\nLe Vendredi : de 08h00 à 12h00","latitude":45.099056,"longitude":2.386372,"website":"","hasWebsite":false,"hasHoraires":true,"url":"https://lannuaire.service-public.gouv.fr/auvergne-rhone-alpes/cantal/833913bc-8a46-470b-91e7-a8113662aef3"}
{"nom":"Saint-Clément","nomNormalise":"saintclement","typeCollectivite":"Commune","region":"Auvergne-Rhône-Alpes","departement":"Cantal","departementCode":"15","adresse":{"street":"Le Bourg","postalCode":"15800","city":"Saint-Clément","country":"France"},"contacts":{"email":"mairie-saintclement@wanadoo.fr","telephone":"0471475751"},"horaires":"Le Lundi : de 10h30 à 12h30 de 14h00 à 16h00\nLe Jeudi : de 10h30 à 12h30 de 14h00 à 16h00","latitude":44.97486,"longitude":2.661541,"website":"","hasWebsite":false,"hasHoraires":true,"url":"https://lannuaire.service-public.gouv.fr/auvergne-rhone-alpes/cantal/eecf119d-122f-48d3-a071-126592df4af1"}
{"nom":"Saint-Constant-Fournoulès","nomNormalise":"saintconstantfournoules","typeCollectivite":"Commune","region":"Auvergne-Rhône-Alpes","departement":"Cantal","departementCode":"15","adresse":{"street":"2 place de l'Église","postalCode":"15600","city":"Saint-Constant-Fournoulès","country":"France"},"contacts":{"email":"mairie.saintconstant@orange.fr","telephone":"0471491030"},"horaires":"Du Lundi au Mardi : de 08h15 à 12h15 de 12h45 à 17h00\nLe Mercredi : de 08h00 à 13h00\n\nSur rendez-vous.\nLe Jeudi : de 08h15 à 12h15 de 12h45 à 17h00\nLe Vendredi : de 08h15 à 12h15 de 12h45 à 16h00","latitude":44.684917,"longitude":2.230255,"website":"https://saintconstant-fournoules.fr/","hasWebsite":true,"hasHoraires":true,"url":"https://lannuaire.service-public.gouv.fr/auvergne-rhone-alpes/cantal/497f3d37-015d-4fd7-a4b3-04d0881c77b0"}
{"nom":"Sainte-Anastasie","nomNormalise":"sainteanastasie","typeCollectivite":"Commune","region":"Auvergne-Rhône-Alpes","departement":"Cantal","departementCode":"15","adresse":{"street":"1 place L delcuzi","postalCode":"15170","city":"Sainte-Anastasie","country":"France"},"contacts":{"email":"mairie@sainteanastasie.fr","telephone":"0471205343"},"horaires":"Le Lundi : de 08h30 à 12h30 de 14h00 à 16h30\nLe Vendredi : de 08h30 à 12h30 de 14h00 à 16h30","latitude":45.17252,"longitude":2.970315,"website":"","hasWebsite":false,"hasHoraires":true,"url":"https://lannuaire.service-public.gouv.fr/auvergne-rhone-alpes/cantal/6b449dd1-a12a-4082-af68-6a88bc15682c"}
{"nom":"Sainte-Eulalie","nomNormalise":"sainteeulalie","typeCollectivite":"Commune","region":"Auvergne-Rhône-Alpes","departement":"Cantal","departementCode":"15","adresse":{"street":"6 cour des Écoles","postalCode":"15140","city":"Sainte-Eulalie","country":"France"},"contacts":{"email":"m.eulalie@wanadoo.fr","telephone":"0471692103"},"horaires":"Le Lundi : de 09h00 à 12h00\nDu Mardi au Mercredi : de 08h00 à 12h00 de 13h00 à 17h00\nLe Jeudi : de 09h00 à 12h00","latitude":45.11913,"longitude":2.37575,"website":"","hasWebsite":false,"hasHoraires":true,"url":"https://lannuaire.service-public.gouv.fr/auvergne-rhone-alpes/cantal/10075bf6-5e8a-407d-869c-c7eb935472ff"}
{"nom":"Sainte-Marie","nomNormalise":"saintemarie","typeCollectivite":"Commune","region":"Auvergne-Rhône-Alpes","departement":"Cantal","departementCode":"15","adresse":{"street":"Le Bourg","postalCode":"15230","city":"Sainte-Marie","country":"France"},"contacts":{"email":"mairie.sainte-marie@wanadoo.fr","telephone":"0471233282"},"horaires":"Le Mercredi : de 14h00 à 17h30","latitude":44.877605,"longitude":2.886493,"website":"","hasWebsite":false,"hasHoraires":true,"url":"https://lannuaire.service-public.gouv.fr/auvergne-rhone-alpes/cantal/40c78fd3-be6b-44d6-9d1c-87e13347c6b7"}
{"nom":"Saint-Étienne-Cantalès","nomNormalise":"saintetiennecantales","typeCollectivite":"Commune","region":"Auvergne-Rhône-Alpes","departement":"Cantal","departementCode":"15","adresse":{"street":"15 rue Terre-de-Saint-Étienne","postalCode":"15150","city":"Saint-Étienne-Cantalès","country":"France"},"contacts":{"email":"mairie@saint-etienne-cantales.fr","telephone":"0471463140"},"horaires":"Le Mardi : de 08h30 à 12h00 de 13h30 à 18h00\nLe Jeudi : de 08h30 à 12h00 de 13h30 à 17h00","latitude":44.94901,"longitude":2.225551,"website":"https://www.saint-etienne-cantales.fr/","hasWebsite":true,"hasHoraires":true,"url":"https://lannuaire.service-public.gouv.fr/auvergne-rhone-alpes/cantal/1c3be573-c40a-45c0-9d6b-8e791dd72724"}
{"nom":"Saint-Étienne-de-Carlat","nomNormalise":"saintetiennedecarlat","typeCollectivite":"Commune","region":"Auvergne-Rhône-Alpes","departement":"Cantal","departementCode":"15","adresse":{"street":"1 place du 19 mars 1962","postalCode":"15130","city":"Saint-Étienne-de-Carlat","country":"France"},"contacts":{"email":"mairie.st-etienne-de-carlat@wanadoo.fr","telephone":"0471624192"},"horaires":"Le Mardi : de 09h00 à 12h00 de 13h00 à 17h00\nLe Jeudi : de 09h00 à 12h00 de 13h00 à 17h00","latitude":44.904354,"longitude":2.574783,"website":"","hasWebsite":false,"hasHoraires":true,"url":"https://lannuaire.service-public.gouv.fr/auvergne-rhone-alpes/cantal/7f45fbc9-57e2-4821-89e3-8853050bb558"}
{"nom":"Saint-Étienne-de-Chomeil","nomNormalise":"saintetiennedechomeil","typeCollectivite":"Commune","region":"Auvergne-Rhône-Alpes","departement":"Cantal","departementCode":"15","adresse":{"street":"18 route des Trois-Tilleuls","postalCode":"15400","city":"Saint-Étienne-de-Chomeil","country":"France"},"contacts":{"email":"stetiennechomeil.mairie@orange.fr","telephone":"0471783215"},"horaires":"Du Lundi au Vendredi : de 13h30 à 17h00","latitude":45.342655,"longitude":2.602153,"website":"https://www.saint-etienne-de-chomeil.fr/","hasWebsite":true,"hasHoraires":true,"url":"https://lannuaire.service-public.gouv.fr/auvergne-rhone-alpes/cantal/52246323-1cd5-4c10-92ab-98db00888577"}
{"nom":"Saint-Étienne-de-Maurs","nomNormalise":"saintetiennedemaurs","typeCollectivite":"Commune","region":"Auvergne-Rhône-Alpes","departement":"Cantal","departementCode":"15","adresse":{"street":"4 rue de la Mairie","postalCode":"15600","city":"Saint-Étienne-de-Maurs","country":"France"},"contacts":{"email":"mairie-st-etienne@wanadoo.fr","telephone":"0471490403"},"horaires":"Le Lundi : de 08h00 à 12h30\nLe Mardi : de 08h00 à 12h30 de 13h30 à 17h00\nLe Mercredi : de 08h00 à 12h00\nLe Jeudi : de 08h00 à 12h30 de 13h30 à 17h00\nLe Vendredi : de 08h00 à 12h30 de 13h30 à 16h00","latitude":44.717358,"longitude":2.208712,"website":"https://www.saint-etienne-de-maurs.fr/","hasWebsite":true,"hasHoraires":true,"url":"https://lannuaire.service-public.gouv.fr/auvergne-rhone-alpes/cantal/546b5c5e-c57c-40d8-ac8d-b4be16bbebfd"}
{"nom":"Saint-Flour","nomNormalise":"saintflour","typeCollectivite":"Commune","region":"Auvergne-Rhône-Alpes","departement":"Cantal","departementCode":"15","adresse":{"street":"1 place d'Armes","postalCode":"15100","city":"Saint-Flour","country":"France"},"contacts":{"email":"web.info@saint-flour.fr","telephone":"0471606120"},"horaires":"Du Lundi au Jeudi : de 08h00 à 12h00 de 13h30 à 17h30\nLe Vendredi : de 08h00 à 12h00 de 13h30 à 16h30","latitude":45.03314,"longitude":3.094858,"website":"https://www.saint-flour.net/","hasWebsite":true,"hasHoraires":true,"url":"https://lannuaire.service-public.gouv.fr/auvergne-rhone-alpes/cantal/52154d13-79d3-435f-a3f4-32d3c8b39ead"}
{"nom":"Saint-Georges","nomNormalise":"saintgeorges","typeCollectivite":"Commune","region":"Auvergne-Rhône-Alpes","departement":"Cantal","departementCode":"15","adresse":{"street":"2 place de l'Église","postalCode":"15100","city":"Saint-Georges","country":"France"},"contacts":{"email":"mairie-stgeorges@orange.fr","telephone":"0471600991"},"horaires":"Le Lundi : de 09h00 à 12h30 de 13h30 à 18h00\nDu Mardi au Mercredi : de 09h00 à 12h30\nLe Jeudi : de 09h00 à 12h30 de 13h30 à 17h00\nDu Vendredi au Samedi : de 09h00 à 12h00","latitude":45.077686,"longitude":3.1073356,"website":"http://www.saintgeorges15.fr/","hasWebsite":true,"hasHoraires":true,"url":"https://lannuaire.service-public.gouv.fr/auvergne-rhone-alpes/cantal/ab1cde43-6074-4199-9f7a-9c311981dfaa"}
{"nom":"Saint-Gérons","nomNormalise":"saintgerons","typeCollectivite":"Commune","region":"Auvergne-Rhône-Alpes","departement":"Cantal","departementCode":"15","adresse":{"street":"Le Bourg","postalCode":"15150","city":"Saint-Gérons","country":"France"},"contacts":{"email":"mairie@saint-gerons.fr","telephone":"0471460450"},"horaires":"Le Mardi : de 09h00 à 12h30\nLe Mercredi : de 09h00 à 12h30 de 14h30 à 16h30\nLe Jeudi : de 09h00 à 12h30\nLe Vendredi : de 09h00 à 12h30 de 14h30 à 16h30","latitude":44.95121,"longitude":2.216216,"website":"https://www.saint-gerons.fr/","hasWebsite":true,"hasHoraires":true,"url":"https://lannuaire.service-public.gouv.fr/auvergne-rhone-alpes/cantal/b7beb6a8-0169-4fbb-8689-0a5cd660eff6"}
{"nom":"Saint-Hippolyte","nomNormalise":"sainthippolyte","typeCollectivite":"Commune","region":"Auvergne-Rhône-Alpes","departement":"Cantal","departementCode":"15","adresse":{"street":"Le Bourg","postalCode":"15400","city":"Saint-Hippolyte","country":"France"},"contacts":{"email":"mairie.sthippolyte@wanadoo.fr","telephone":"0471789348"},"horaires":"Le Mardi : de 08h30 à 12h30\nLe Jeudi : de 08h30 à 12h30 de 13h30 à 17h30","latitude":45.22428,"longitude":2.704421,"website":"","hasWebsite":false,"hasHoraires":true,"url":"https://lannuaire.service-public.gouv.fr/auvergne-rhone-alpes/cantal/9a15a401-69fb-4bb2-b1da-22cda5059e43"}
{"nom":"Saint-Illide","nomNormalise":"saintillide","typeCollectivite":"Commune","region":"Auvergne-Rhône-Alpes","departement":"Cantal","departementCode":"15","adresse":{"street":"1 place de l'Église","postalCode":"15310","city":"Saint-Illide","country":"France"},"contacts":{"email":"mairie@saint-illide.fr","telephone":"0471497080"},"horaires":"Du Lundi au Vendredi : de 08h30 à 12h30","latitude":45.062912,"longitude":2.311653,"website":"https://www.saint-illide.fr/","hasWebsite":true,"hasHoraires":true,"url":"https://lannuaire.service-public.gouv.fr/auvergne-rhone-alpes/cantal/9d4677df-6a70-40af-a5fb-bb197803d600"}
{"nom":"Saint-Jacques-des-Blats","nomNormalise":"saintjacquesdesblats","typeCollectivite":"Commune","region":"Auvergne-Rhône-Alpes","departement":"Cantal","departementCode":"15","adresse":{"street":"36 avenue Adrien Ruelle","postalCode":"15800","city":"Saint-Jacques-des-Blats","country":"France"},"contacts":{"email":"mairie-st-jacques-des-blats@orange.fr","telephone":"0471470590"},"horaires":"Du Lundi au Vendredi : de 09h00 à 12h30","latitude":45.052814,"longitude":2.711291,"website":"http://www.saint-jacques-des-blats.fr/","hasWebsite":true,"hasHoraires":true,"url":"https://lannuaire.service-public.gouv.fr/auvergne-rhone-alpes/cantal/6fa0b22f-a857-467c-ac83-a429fd0fd579"}
{"nom":"Saint-Julien-de-Toursac","nomNormalise":"saintjuliendetoursac","typeCollectivite":"Commune","region":"Auvergne-Rhône-Alpes","departement":"Cantal","departementCode":"15","adresse":{"street":"12 Route des Estresses","postalCode":"15600","city":"Saint-Julien-de-Toursac","country":"France"},"contacts":{"email":"mairie@saintjuliendetoursac.fr","telephone":"0471461228"},"horaires":"Le Lundi : de 13h30 à 17h30\nLe Mercredi : de 09h00 à 12h00\nLe Vendredi : de 09h00 à 12h00","latitude":44.77399,"longitude":2.20935,"website":"","hasWebsite":false,"hasHoraires":true,"url":"https://lannuaire.service-public.gouv.fr/auvergne-rhone-alpes/cantal/1236d86a-0c7c-483d-858e-3d21b77a73d7"}
{"nom":"Saint-Mamet-la-Salvetat","nomNormalise":"saintmametlasalvetat","typeCollectivite":"Commune","region":"Auvergne-Rhône-Alpes","departement":"Cantal","departementCode":"15","adresse":{"street":"1 rue Arsène-Lacarrière-Latour","postalCode":"15220","city":"Saint-Mamet-la-Salvetat","country":"France"},"contacts":{"email":"courrier@stmamet-lasalvetat.com","telephone":"0471647107"},"horaires":"Le Lundi : de 08h30 à 12h00 de 14h00 à 17h00\nLe Mardi : de 08h30 à 12h00 de 16h00 à 17h00\nLe Mercredi : de 08h30 à 12h00\nLe Jeudi : de 08h30 à 12h00 de 16h00 à 17h00\nLe Vendredi : de 08h30 à 12h00\n\nPermanence téléphonique les après-midis\nLe Samedi : de 09h00 à 12h00","latitude":44.8573,"longitude":2.3047,"website":"http://www.stmamet-lasalvetat.com/","hasWebsite":true,"hasHoraires":true,"url":"https://lannuaire.service-public.gouv.fr/auvergne-rhone-alpes/cantal/a0ce3f8b-3205-44a9-9878-e31288e389aa"}
{"nom":"Saint-Martial","nomNormalise":"saintmartial","typeCollectivite":"Commune","region":"Auvergne-Rhône-Alpes","departement":"Cantal","departementCode":"15","adresse":{"street":"2 rue du 4 Avril 1944","postalCode":"15110","city":"Saint-Martial","country":"France"},"contacts":{"email":"saint-martial.mairie@wanadoo.fr","telephone":"0471235995"},"horaires":"Le Lundi : de 09h30 à 13h00\nLe Jeudi : de 09h30 à 13h00","latitude":44.873276,"longitude":3.045365,"website":"","hasWebsite":false,"hasHoraires":true,"url":"https://lannuaire.service-public.gouv.fr/auvergne-rhone-alpes/cantal/66f3d036-9c7a-48d3-ab3d-6299198331a8"}
{"nom":"Saint-Martin-Cantalès","nomNormalise":"saintmartincantales","typeCollectivite":"Commune","region":"Auvergne-Rhône-Alpes","departement":"Cantal","departementCode":"15","adresse":{"street":"Le Bourg","postalCode":"15140","city":"Saint-Martin-Cantalès","country":"France"},"contacts":{"email":"mairie.stmartincantales@wanadoo.fr","telephone":"0471694055"},"horaires":"Du Lundi au Mardi : de 09h00 à 12h00 de 13h30 à 15h30\nDu Jeudi au Vendredi : de 09h00 à 12h00 de 13h30 à 15h30","latitude":45.091854,"longitude":2.302703,"website":"https://www.saint-martin-cantales.fr/","hasWebsite":true,"hasHoraires":true,"url":"https://lannuaire.service-public.gouv.fr/auvergne-rhone-alpes/cantal/f10f9cb8-2808-41ee-9618-9d39d3423e27"}
{"nom":"Saint-Martin-sous-Vigouroux","nomNormalise":"saintmartinsousvigouroux","typeCollectivite":"Commune","region":"Auvergne-Rhône-Alpes","departement":"Cantal","departementCode":"15","adresse":{"street":"8 rue du 19-Mars-1962","postalCode":"15230","city":"Saint-Martin-sous-Vigouroux","country":"France"},"contacts":{"email":"mairie.stmartinvigouroux@orange.fr","telephone":"0471233316"},"horaires":"Le Lundi : de 14h00 à 17h30\nLe Jeudi : de 08h30 à 12h00","latitude":44.923233,"longitude":2.802928,"website":"","hasWebsite":false,"hasHoraires":true,"url":"https://lannuaire.service-public.gouv.fr/auvergne-rhone-alpes/cantal/694d9a4c-f041-42f1-9614-cc2008464a31"}
{"nom":"Saint-Martin-Valmeroux","nomNormalise":"saintmartinvalmeroux","typeCollectivite":"Commune","region":"Auvergne-Rhône-Alpes","departement":"Cantal","departementCode":"15","adresse":{"street":"13 rue du Bailliage","postalCode":"15140","city":"Saint-Martin-Valmeroux","country":"France"},"contacts":{"email":"mairie.saint-martin-valmeroux@wanadoo.fr","telephone":"0471692032"},"horaires":"Du Lundi au Mardi : de 08h30 à 12h00 de 13h30 à 16h30\nLe Mercredi : de 08h30 à 12h00\nDu Jeudi au Vendredi : de 08h30 à 12h00 de 13h30 à 16h30","latitude":45.116604,"longitude":2.427515,"website":"https://www.saint-martin-valmeroux.fr/","hasWebsite":true,"hasHoraires":true,"url":"https://lannuaire.service-public.gouv.fr/auvergne-rhone-alpes/cantal/b15554e7-cc67-4a18-a3a7-d000a392e3a1"}
{"nom":"Saint-Mary-le-Plain","nomNormalise":"saintmaryleplain","typeCollectivite":"Commune","region":"Auvergne-Rhône-Alpes","departement":"Cantal","departementCode":"15","adresse":{"street":"Le Bourg","postalCode":"15500","city":"Saint-Mary-le-Plain","country":"France"},"contacts":{"email":"mairie.stmary@orange.fr","telephone":"0471230786"},"horaires":"Le Lundi : de 14h00 à 17h00\nLe Jeudi : de 14h00 à 17h00","latitude":45.18625,"longitude":3.16331,"website":"","hasWebsite":false,"hasHoraires":true,"url":"https://lannuaire.service-public.gouv.fr/auvergne-rhone-alpes/cantal/dc60b4ea-6e57-4170-9a04-a06575d5f2f8"}
{"nom":"Saint-Paul-de-Salers","nomNormalise":"saintpauldesalers","typeCollectivite":"Commune","region":"Auvergne-Rhône-Alpes","departement":"Cantal","departementCode":"15","adresse":{"street":"Le Bourg","postalCode":"15140","city":"Saint-Paul-de-Salers","country":"France"},"contacts":{"email":"saintpauldesalers@wanadoo.fr","telephone":"0471407166"},"horaires":"Le Lundi : de 09h00 à 12h00\nLe Mercredi : de 09h00 à 12h00\nLe Vendredi : de 09h00 à 12h00","latitude":45.143127,"longitude":2.595448,"website":"https://www.saintpauldesalers.fr/","hasWebsite":true,"hasHoraires":true,"url":"https://lannuaire.service-public.gouv.fr/auvergne-rhone-alpes/cantal/4bad4a56-1bfd-4edb-b7dc-93b8fc148f28"}
{"nom":"Saint-Paul-des-Landes","nomNormalise":"saintpauldeslandes","typeCollectivite":"Commune","region":"Auvergne-Rhône-Alpes","departement":"Cantal","departementCode":"15","adresse":{"street":"16 grande-Rue","postalCode":"15250","city":"Saint-Paul-des-Landes","country":"France"},"contacts":{"email":"mairie-st-paul-des-landes@orange.fr","telephone":"0471463024"},"horaires":"Du Lundi au Mardi : de 13h30 à 17h00\nLe Jeudi : de 08h00 à 12h30 de 13h30 à 17h00\nLe Vendredi : de 08h00 à 12h00","latitude":44.943134,"longitude":2.314357,"website":"https://www.saint-paul-des-landes.fr/fr/","hasWebsite":true,"hasHoraires":true,"url":"https://lannuaire.service-public.gouv.fr/auvergne-rhone-alpes/cantal/cdf40cd4-e92a-4594-aec5-9588c15012c4"}
{"nom":"Saint-Pierre","nomNormalise":"saintpierre","typeCollectivite":"Commune","region":"Auvergne-Rhône-Alpes","departement":"Cantal","departementCode":"15","adresse":{"street":"3 Place du 23-Avril-1961","postalCode":"15350","city":"Saint-Pierre","country":"France"},"contacts":{"email":"mairie.stpierre@wanadoo.fr","telephone":"0471696214"},"horaires":"Le Lundi : de 08h00 à 12h00 de 14h00 à 17h00\nLe Mardi : de 08h00 à 15h00\nLe Mercredi : de 08h00 à 12h00 de 14h00 à 17h00\nLe Jeudi : de 08h00 à 15h00\nLe Vendredi : de 08h00 à 12h00 de 14h00 à 17h00","latitude":45.388023,"longitude":2.3889403,"website":"https://www.mairie-saint-pierre.fr/","hasWebsite":true,"hasHoraires":true,"url":"https://lannuaire.service-public.gouv.fr/auvergne-rhone-alpes/cantal/b4de1f1b-7106-4182-b11d-b8cc4b7ce4e0"}
{"nom":"Saint-Poncy","nomNormalise":"saintponcy","typeCollectivite":"Commune","region":"Auvergne-Rhône-Alpes","departement":"Cantal","departementCode":"15","adresse":{"street":"Le Bourg","postalCode":"15500","city":"Saint-Poncy","country":"France"},"contacts":{"email":"mairiedestponcy@wanadoo.fr","telephone":"0471731031"},"horaires":"Le Lundi : de 09h00 à 12h00\nLe Jeudi : de 09h00 à 12h00\nLe Vendredi : de 15h00 à 19h00","latitude":45.163673,"longitude":3.187348,"website":"","hasWebsite":false,"hasHoraires":true,"url":"https://lannuaire.service-public.gouv.fr/auvergne-rhone-alpes/cantal/cdc45379-dba3-4a88-b43c-9875c6d581f3"}
{"nom":"Saint-Projet-de-Salers","nomNormalise":"saintprojetdesalers","typeCollectivite":"Commune","region":"Auvergne-Rhône-Alpes","departement":"Cantal","departementCode":"15","adresse":{"street":"4 route des Estives","postalCode":"15140","city":"Saint-Projet-de-Salers","country":"France"},"contacts":{"email":"mairie.stprojetdesalers@orange.fr","telephone":"0471692357"},"horaires":"Le Mardi : de 14h00 à 16h00\nLe Jeudi : de 14h00 à 16h00","latitude":45.085217,"longitude":2.527599,"website":"https://www.st-projet-de-salers.fr/","hasWebsite":true,"hasHoraires":true,"url":"https://lannuaire.service-public.gouv.fr/auvergne-rhone-alpes/cantal/4adc74cd-d9d4-4766-abd3-1278c705aed3"}
{"nom":"Saint-Rémy-de-Chaudes-Aigues","nomNormalise":"saintremydechaudesaigues","typeCollectivite":"Commune","region":"Auvergne-Rhône-Alpes","departement":"Cantal","departementCode":"15","adresse":{"street":"Le Bourg","postalCode":"15110","city":"Saint-Rémy-de-Chaudes-Aigues","country":"France"},"contacts":{"email":"mairie.st-remy-de-chaudes-aigues@wanadoo.fr","telephone":"0471235745"},"horaires":"Le Mardi : de 08h30 à 16h00\nLe Vendredi : de 08h30 à 12h30 de 14h00 à 18h00","latitude":44.775684,"longitude":3.031089,"website":"","hasWebsite":false,"hasHoraires":true,"url":"https://lannuaire.service-public.gouv.fr/auvergne-rhone-alpes/cantal/c040dd07-07f5-4bfe-bac7-bb0b885a4cd8"}
{"nom":"Saint-Santin-Cantalès","nomNormalise":"saintsantincantales","typeCollectivite":"Commune","region":"Auvergne-Rhône-Alpes","departement":"Cantal","departementCode":"15","adresse":{"street":"8 route d'Aurillac","postalCode":"15150","city":"Saint-Santin-Cantalès","country":"France"},"contacts":{"email":"mairie.saint-santin-cantales@wanadoo.fr","telephone":"0471629104"},"horaires":"Le Lundi : de 08h00 à 12h00 de 13h00 à 17h00\nLe Mercredi : de 08h00 à 12h00\nLe Vendredi : de 08h00 à 12h00 de 13h00 à 17h00","latitude":45.02732,"longitude":2.256071,"website":"https://www.saint-santin-cantales.fr/","hasWebsite":true,"hasHoraires":true,"url":"https://lannuaire.service-public.gouv.fr/auvergne-rhone-alpes/cantal/28908c1e-1b96-4646-89fe-586b7284725d"}
{"nom":"Saint-Santin-de-Maurs","nomNormalise":"saintsantindemaurs","typeCollectivite":"Commune","region":"Auvergne-Rhône-Alpes","departement":"Cantal","departementCode":"15","adresse":{"street":"4 Rue de la Mairie","postalCode":"15600","city":"Saint-Santin-de-Maurs","country":"France"},"contacts":{"email":"mairie.stsantindemaurs@wanadoo.fr","telephone":"0471491209"},"horaires":"Du Lundi au Mardi : de 14h00 à 16h30\nDu Jeudi au Vendredi : de 14h00 à 16h30","latitude":44.65093,"longitude":2.215318,"website":"http://www.saint-santin-de-maurs.fr/","hasWebsite":true,"hasHoraires":true,"url":"https://lannuaire.service-public.gouv.fr/auvergne-rhone-alpes/cantal/b736ac8f-3e72-4647-ac2f-0834b5837a91"}
{"nom":"Saint-Saturnin","nomNormalise":"saintsaturnin","typeCollectivite":"Commune","region":"Auvergne-Rhône-Alpes","departement":"Cantal","departementCode":"15","adresse":{"street":"Le Bourg","postalCode":"15190","city":"Saint-Saturnin","country":"France"},"contacts":{"email":"mairie.saint-saturnin15@wanadoo.fr","telephone":"0471207322"},"horaires":"Le Lundi : de 09h00 à 12h30 de 13h30 à 17h00\nLe Mercredi : de 09h00 à 12h30 de 13h30 à 17h00\nLe Vendredi : de 09h00 à 12h30 de 13h30 à 17h00","latitude":45.2552,"longitude":2.7950664,"website":"","hasWebsite":false,"hasHoraires":true,"url":"https://lannuaire.service-public.gouv.fr/auvergne-rhone-alpes/cantal/20c6189c-9fe8-48df-b2f6-5ae30e98ef8f"}
{"nom":"Saint-Saury","nomNormalise":"saintsaury","typeCollectivite":"Commune","region":"Auvergne-Rhône-Alpes","departement":"Cantal","departementCode":"15","adresse":{"street":"1 rue de la Mairie","postalCode":"15290","city":"Saint-Saury","country":"France"},"contacts":{"email":"saint-saury.mairie@wanadoo.fr","telephone":"0471461251"},"horaires":"Le Mardi : de 08h30 à 12h00\nLe Vendredi : de 08h30 à 12h00","latitude":44.86736,"longitude":2.137148,"website":"https://www.saint-saury.fr/","hasWebsite":true,"hasHoraires":true,"url":"https://lannuaire.service-public.gouv.fr/auvergne-rhone-alpes/cantal/33b82261-d887-4bbc-84ea-419c7727f25c"}
{"nom":"Saint-Simon","nomNormalise":"saintsimon","typeCollectivite":"Commune","region":"Auvergne-Rhône-Alpes","departement":"Cantal","departementCode":"15","adresse":{"street":"6 place de l'Église","postalCode":"15130","city":"Saint-Simon","country":"France"},"contacts":{"email":"stsimon.cantal@orange.fr","telephone":"0471471010"},"horaires":"Le Lundi : de 08h30 à 12h00\nLe Mardi : de 08h30 à 12h00 de 13h00 à 17h00\nLe Mercredi : de 14h00 à 17h30\nLe Jeudi : de 08h30 à 12h00 de 13h00 à 17h00\nLe Vendredi : de 13h00 à 15h00","latitude":44.988323,"longitude":2.4254792,"website":"https://www.saintsimon15.fr/","hasWebsite":true,"hasHoraires":true,"url":"https://lannuaire.service-public.gouv.fr/auvergne-rhone-alpes/cantal/018bc9ff-2272-4ae2-b9e6-77bf961713e5"}
{"nom":"Saint-Urcize","nomNormalise":"sainturcize","typeCollectivite":"Commune","region":"Auvergne-Rhône-Alpes","departement":"Cantal","departementCode":"15","adresse":{"street":"1 place Sur-Saint-Jean-de-la-Croix","postalCode":"15110","city":"Saint-Urcize","country":"France"},"contacts":{"email":"mairiesturcize@orange.fr","telephone":"0471232139"},"horaires":"Du Lundi au Vendredi : de 09h00 à 12h00","latitude":44.697723,"longitude":3.004955,"website":"","hasWebsite":false,"hasHoraires":true,"url":"https://lannuaire.service-public.gouv.fr/auvergne-rhone-alpes/cantal/f5d84a5f-6444-4a7e-b088-7621673ad2f0"}
{"nom":"Saint-Victor","nomNormalise":"saintvictor","typeCollectivite":"Commune","region":"Auvergne-Rhône-Alpes","departement":"Cantal","departementCode":"15","adresse":{"street":"Aleix","postalCode":"15150","city":"Saint-Victor","country":"France"},"contacts":{"email":"mairie.stvictorcantal@orange.fr","telephone":"0471629246"},"horaires":"Le Lundi : de 09h00 à 12h00\nLe Mardi : de 13h30 à 16h00\nLe Jeudi : de 09h00 à 12h00\nLe Vendredi : de 14h00 à 17h30","latitude":45.01017,"longitude":2.289092,"website":"","hasWebsite":false,"hasHoraires":true,"url":"https://lannuaire.service-public.gouv.fr/auvergne-rhone-alpes/cantal/0deb7092-926a-4104-a51b-25588b3a323d"}
{"nom":"Saint-Vincent-de-Salers","nomNormalise":"saintvincentdesalers","typeCollectivite":"Commune","region":"Auvergne-Rhône-Alpes","departement":"Cantal","departementCode":"15","adresse":{"street":"Le Bourg","postalCode":"15380","city":"Saint-Vincent-de-Salers","country":"France"},"contacts":{"email":"mairie-stvincent@orange.fr","telephone":"0471695239"},"horaires":"Le Lundi : de 13h30 à 17h00\nLe Vendredi : de 13h30 à 17h00","latitude":45.20345,"longitude":2.5320482,"website":"","hasWebsite":false,"hasHoraires":true,"url":"https://lannuaire.service-public.gouv.fr/auvergne-rhone-alpes/cantal/8d3becab-1d3e-4b31-b6c8-ea03b6ad1488"}
{"nom":"Salers","nomNormalise":"salers","typeCollectivite":"Commune","region":"Auvergne-Rhône-Alpes","departement":"Cantal","departementCode":"15","adresse":{"street":"1 Place Pyssandier-d'Escous","postalCode":"15140","city":"Salers","country":"France"},"contacts":{"email":"contact@mairiesalers.fr","telephone":"0471407233"},"horaires":"Du Lundi au Vendredi : de 09h00 à 12h00","latitude":45.137604,"longitude":2.4937537,"website":"https://www.salers.fr/","hasWebsite":true,"hasHoraires":true,"url":"https://lannuaire.service-public.gouv.fr/auvergne-rhone-alpes/cantal/644a9521-080b-4e8f-959e-480c0a9d6508"}
{"nom":"Salins","nomNormalise":"salins","typeCollectivite":"Commune","region":"Auvergne-Rhône-Alpes","departement":"Cantal","departementCode":"15","adresse":{"street":"Le Bourg","postalCode":"15200","city":"Salins","country":"France"},"contacts":{"email":"communedesalins@orange.fr","telephone":"0471691133"},"horaires":"Le Lundi : de 13h30 à 17h00\nLe Mardi : de 14h30 à 18h00\nLe Jeudi : de 13h30 à 17h00","latitude":45.19108,"longitude":2.393051,"website":"","hasWebsite":false,"hasHoraires":true,"url":"https://lannuaire.service-public.gouv.fr/auvergne-rhone-alpes/cantal/dbde99e2-f2bc-4dd4-9c8d-56c7e5a396b8"}
{"nom":"Sansac-de-Marmiesse","nomNormalise":"sansacdemarmiesse","typeCollectivite":"Commune","region":"Auvergne-Rhône-Alpes","departement":"Cantal","departementCode":"15","adresse":{"street":"2 chemin de Veyrières","postalCode":"15130","city":"Sansac-de-Marmiesse","country":"France"},"contacts":{"email":"mairie.sansac-de-marmiesse@wanadoo.fr","telephone":"0471477475"},"horaires":"Le Lundi : de 08h30 à 12h00\nLe Mardi : de 08h30 à 12h00 de 13h30 à 17h30\nLe Mercredi : de 08h30 à 12h00\nLe Jeudi : de 08h30 à 12h00 de 13h30 à 17h30\nLe Vendredi : de 08h30 à 12h00 de 13h30 à 16h30","latitude":44.8825,"longitude":2.34632,"website":"http://www.sansacdemarmiesse.fr/","hasWebsite":true,"hasHoraires":true,"url":"https://lannuaire.service-public.gouv.fr/auvergne-rhone-alpes/cantal/d2359c51-7996-4941-bb86-6195f24730eb"}
{"nom":"Sansac-Veinazès","nomNormalise":"sansacveinazes","typeCollectivite":"Commune","region":"Auvergne-Rhône-Alpes","departement":"Cantal","departementCode":"15","adresse":{"street":"Le Bourg","postalCode":"15120","city":"Sansac-Veinazès","country":"France"},"contacts":{"email":"mairie.sansac-veinazes@orange.fr","telephone":"0471492223"},"horaires":"Le Lundi : de 08h30 à 12h00\nLe Mercredi : de 08h30 à 12h00\nLe Vendredi : de 08h30 à 12h00","latitude":44.780422,"longitude":2.436706,"website":"","hasWebsite":false,"hasHoraires":true,"url":"https://lannuaire.service-public.gouv.fr/auvergne-rhone-alpes/cantal/5d777674-1531-4098-bc43-6b3287ec9cd6"}
{"nom":"Sauvat","nomNormalise":"sauvat","typeCollectivite":"Commune","region":"Auvergne-Rhône-Alpes","departement":"Cantal","departementCode":"15","adresse":{"street":"11 rue du Puy l'Abbé","postalCode":"15240","city":"Sauvat","country":"France"},"contacts":{"email":"commune-de-sauvat@orange.fr","telephone":"0471406480"},"horaires":"Du Lundi au Mardi : de 08h30 à 12h00\nDu Jeudi au Vendredi : de 08h30 à 12h00","latitude":45.315296,"longitude":2.443202,"website":"","hasWebsite":false,"hasHoraires":true,"url":"https://lannuaire.service-public.gouv.fr/auvergne-rhone-alpes/cantal/a48bcf69-7f65-4e11-8df6-cae3463eaaf0"}
{"nom":"Ségur-les-Villas","nomNormalise":"segurlesvillas","typeCollectivite":"Commune","region":"Auvergne-Rhône-Alpes","departement":"Cantal","departementCode":"15","adresse":{"street":"19 rue de la Porte-du-Cézallier","postalCode":"15300","city":"Ségur-les-Villas","country":"France"},"contacts":{"email":"mairie.segur@wanadoo.fr","telephone":"0471207006"},"horaires":"Le Lundi : de 09h00 à 12h00\nLe Mercredi : de 09h00 à 12h00\nLe Vendredi : de 09h00 à 12h00","latitude":45.22512,"longitude":2.817273,"website":"","hasWebsite":false,"hasHoraires":true,"url":"https://lannuaire.service-public.gouv.fr/auvergne-rhone-alpes/cantal/4dd6ccc8-08f2-4f09-acd2-22b64263d260"}
{"nom":"Sénezergues","nomNormalise":"senezergues","typeCollectivite":"Commune","region":"Auvergne-Rhône-Alpes","departement":"Cantal","departementCode":"15","adresse":{"street":"6 route du cordonniers","postalCode":"15340","city":"Sénezergues","country":"France"},"contacts":{"email":"mairiesenezergues@orange.fr","telephone":"0471499543"},"horaires":"Le Mardi : de 13h30 à 17h30\nLe Jeudi : de 13h30 à 17h30\nLe Vendredi : de 13h00 à 17h00","latitude":44.71153,"longitude":2.40331,"website":"https://www.senezergues.fr/","hasWebsite":true,"hasHoraires":true,"url":"https://lannuaire.service-public.gouv.fr/auvergne-rhone-alpes/cantal/4be3085b-6744-4dfb-adc1-e9f7279c07b2"}
{"nom":"Siran","nomNormalise":"siran","typeCollectivite":"Commune","region":"Auvergne-Rhône-Alpes","departement":"Cantal","departementCode":"15","adresse":{"street":"1 place de l'Église","postalCode":"15150","city":"Siran","country":"France"},"contacts":{"email":"mairie-siran@orange.fr","telephone":"0471460164"},"horaires":"Du Lundi au Mardi : de 08h00 à 12h00 de 14h00 à 16h30\nLe Mercredi : de 08h00 à 12h00\nLe Vendredi : de 08h00 à 12h00 de 14h00 à 16h30\nLe Samedi : de 08h00 à 12h00","latitude":44.954502,"longitude":2.127052,"website":"","hasWebsite":false,"hasHoraires":true,"url":"https://lannuaire.service-public.gouv.fr/auvergne-rhone-alpes/cantal/5337176f-932f-415f-848a-9430a8fbafb7"}
{"nom":"Soulages","nomNormalise":"soulages","typeCollectivite":"Commune","region":"Auvergne-Rhône-Alpes","departement":"Cantal","departementCode":"15","adresse":{"street":"7 rue du 19-mars-1962","postalCode":"15100","city":"Soulages","country":"France"},"contacts":{"email":"mairie.soulages15@orange.fr","telephone":"0471735150"},"horaires":"Le Samedi : de 10h00 à 12h00","latitude":45.088005,"longitude":3.273335,"website":"","hasWebsite":false,"hasHoraires":true,"url":"https://lannuaire.service-public.gouv.fr/auvergne-rhone-alpes/cantal/894116b6-9744-4188-bdca-0599f5e29f4a"}
{"nom":"Sourniac","nomNormalise":"sourniac","typeCollectivite":"Commune","region":"Auvergne-Rhône-Alpes","departement":"Cantal","departementCode":"15","adresse":{"street":"Le Bourg","postalCode":"15200","city":"Sourniac","country":"France"},"contacts":{"email":"mairie-sourniac@orange.fr","telephone":"0471697145"},"horaires":"Du Lundi au Mardi : de 09h00 à 12h00\nLe Mercredi : de 09h00 à 12h00 de 13h00 à 17h00\nLe Vendredi : de 13h00 à 16h00","latitude":45.27578,"longitude":2.340508,"website":"","hasWebsite":false,"hasHoraires":true,"url":"https://lannuaire.service-public.gouv.fr/auvergne-rhone-alpes/cantal/15b28163-503d-4df4-8549-1d5808030a7b"}
{"nom":"Talizat","nomNormalise":"talizat","typeCollectivite":"Commune","region":"Auvergne-Rhône-Alpes","departement":"Cantal","departementCode":"15","adresse":{"street":"1 place du 19-Mars-1962","postalCode":"15170","city":"Talizat","country":"France"},"contacts":{"email":"mairietalizat@orange.fr","telephone":"0471237022"},"horaires":"Le Lundi : de 08h00 à 12h30 de 13h30 à 17h15\nDu Mardi au Jeudi : de 08h30 à 12h30\nLe Vendredi : de 08h30 à 12h30 de 13h30 à 17h00","latitude":45.114204,"longitude":3.046383,"website":"https://talizat.fr/","hasWebsite":true,"hasHoraires":true,"url":"https://lannuaire.service-public.gouv.fr/auvergne-rhone-alpes/cantal/39985fe8-2034-4d67-8ae3-d410309815ef"}
{"nom":"Tanavelle","nomNormalise":"tanavelle","typeCollectivite":"Commune","region":"Auvergne-Rhône-Alpes","departement":"Cantal","departementCode":"15","adresse":{"street":"1 place de la Mairie","postalCode":"15100","city":"Tanavelle","country":"France"},"contacts":{"email":"mairie-tanavelle@orange.fr","telephone":"0471730337"},"horaires":"Le Mardi : de 17h30 à 18h30\nLe Mercredi : de 15h00 à 17h00\nLe Jeudi : de 13h30 à 17h00","latitude":45.022564,"longitude":2.999551,"website":"","hasWebsite":false,"hasHoraires":true,"url":"https://lannuaire.service-public.gouv.fr/auvergne-rhone-alpes/cantal/dee4261e-66d0-4738-8ad3-1f9e0e7c02df"}
{"nom":"Teissières-de-Cornet","nomNormalise":"teissieresdecornet","typeCollectivite":"Commune","region":"Auvergne-Rhône-Alpes","departement":"Cantal","departementCode":"15","adresse":{"street":"1 route du Meyrou","postalCode":"15250","city":"Teissières-de-Cornet","country":"France"},"contacts":{"email":"teissieresdecornet@orange.fr","telephone":"0471472457"},"horaires":"Le Mercredi : de 10h00 à 13h00\nLe Samedi : de 10h00 à 12h00","latitude":44.969887,"longitude":2.356109,"website":"https://www.teissieresdecornet.fr/","hasWebsite":true,"hasHoraires":true,"url":"https://lannuaire.service-public.gouv.fr/auvergne-rhone-alpes/cantal/c175748c-2fdb-4e0a-b7cb-a910bf5d2f30"}
{"nom":"Teissières-lès-Bouliès","nomNormalise":"teissiereslesboulies","typeCollectivite":"Commune","region":"Auvergne-Rhône-Alpes","departement":"Cantal","departementCode":"15","adresse":{"street":"4 route des Sources","postalCode":"15130","city":"Teissières-lès-Bouliès","country":"France"},"contacts":{"email":"mairie.teissieres@wanadoo.fr","telephone":"0471626047"},"horaires":"Le Lundi : de 14h00 à 17h00\nLe Mardi : de 09h00 à 12h00\nLe Jeudi : de 14h00 à 17h00\nLe Vendredi : de 09h00 à 12h00","latitude":44.82301,"longitude":2.543228,"website":"https://www.teissieres-les-boulies.fr/","hasWebsite":true,"hasHoraires":true,"url":"https://lannuaire.service-public.gouv.fr/auvergne-rhone-alpes/cantal/1667a594-c349-4ee8-8d46-11b353b04efe"}
{"nom":"Thiézac","nomNormalise":"thiezac","typeCollectivite":"Commune","region":"Auvergne-Rhône-Alpes","departement":"Cantal","departementCode":"15","adresse":{"street":"10 Grand'rue","postalCode":"15800","city":"Thiézac","country":"France"},"contacts":{"email":"mairie@thiezac.fr","telephone":"0471470121"},"horaires":"Du Lundi au Mardi : de 08h30 à 12h30\nDu Jeudi au Vendredi : de 08h30 à 12h30","latitude":45.015285,"longitude":2.668201,"website":"https://www.thiezac.fr/","hasWebsite":true,"hasHoraires":true,"url":"https://lannuaire.service-public.gouv.fr/auvergne-rhone-alpes/cantal/b4adaa00-9b93-42a5-819d-ab9d1b4ed13b"}
{"nom":"Tiviers","nomNormalise":"tiviers","typeCollectivite":"Commune","region":"Auvergne-Rhône-Alpes","departement":"Cantal","departementCode":"15","adresse":{"street":"1 Route Saint-Laurent","postalCode":"15100","city":"Tiviers","country":"France"},"contacts":{"email":"commune-de-tiviers@orange.fr","telephone":"0471609540"},"horaires":"Le Lundi : de 09h00 à 12h00 de 14h00 à 16h00","latitude":45.06049,"longitude":3.159018,"website":"","hasWebsite":false,"hasHoraires":true,"url":"https://lannuaire.service-public.gouv.fr/auvergne-rhone-alpes/cantal/150dd383-29e0-45dc-87aa-ecb1b13e43b4"}
{"nom":"Tournemire","nomNormalise":"tournemire","typeCollectivite":"Commune","region":"Auvergne-Rhône-Alpes","departement":"Cantal","departementCode":"15","adresse":{"street":"1 rue Édouard-Marty","postalCode":"15310","city":"Tournemire","country":"France"},"contacts":{"email":"tournemire3@wanadoo.fr","telephone":"0471476134"},"horaires":"Le Lundi : de 08h00 à 10h30\nLe Mardi : de 08h00 à 12h00 de 14h00 à 17h00\nDu Mercredi au Vendredi : de 08h00 à 12h00","latitude":45.05327,"longitude":2.483846,"website":"https://www.tournemirecantal.fr/vie-municipale","hasWebsite":true,"hasHoraires":true,"url":"https://lannuaire.service-public.gouv.fr/auvergne-rhone-alpes/cantal/55c57d7d-7d6b-4cea-b9c8-c16d1313b376"}
{"nom":"Trémouille","nomNormalise":"tremouille","typeCollectivite":"Commune","region":"Auvergne-Rhône-Alpes","departement":"Cantal","departementCode":"15","adresse":{"street":"Le Bourg","postalCode":"15270","city":"Trémouille","country":"France"},"contacts":{"email":"mairie@tremouille.fr","telephone":"0471785076"},"horaires":"Le Mardi : de 13h00 à 16h00\nLe Jeudi : de 13h00 à 16h00","latitude":45.372032,"longitude":2.6768353,"website":"https://www.tremouille.fr/","hasWebsite":true,"hasHoraires":true,"url":"https://lannuaire.service-public.gouv.fr/auvergne-rhone-alpes/cantal/7dcbe42f-dc23-47bc-a3fd-e50f2d0385e5"}
{"nom":"Trizac","nomNormalise":"trizac","typeCollectivite":"Commune","region":"Auvergne-Rhône-Alpes","departement":"Cantal","departementCode":"15","adresse":{"street":"1 place de la Mairie","postalCode":"15400","city":"Trizac","country":"France"},"contacts":{"email":"mairie@trizac.fr","telephone":"0471786037"},"horaires":"Du Lundi au Vendredi : de 09h00 à 12h00","latitude":45.25334,"longitude":2.537966,"website":"https://www.trizac.fr/","hasWebsite":true,"hasHoraires":true,"url":"https://lannuaire.service-public.gouv.fr/auvergne-rhone-alpes/cantal/a8791072-6662-4537-9820-68a655cd6f2b"}
{"nom":"Ussel","nomNormalise":"ussel","typeCollectivite":"Commune","region":"Auvergne-Rhône-Alpes","departement":"Cantal","departementCode":"15","adresse":{"street":"3 rue des Écoles","postalCode":"15300","city":"Ussel","country":"France"},"contacts":{"email":"mairie@ussel.fr","telephone":"0471732184"},"horaires":"Le Lundi : de 08h00 à 12h00 de 13h00 à 17h00\nLe Mardi : de 10h00 à 12h00 de 13h00 à 17h00\nLe Jeudi : de 08h00 à 12h00 de 13h00 à 17h00","latitude":45.08196,"longitude":2.9359324,"website":"https://www.ussel.fr/","hasWebsite":true,"hasHoraires":true,"url":"https://lannuaire.service-public.gouv.fr/auvergne-rhone-alpes/cantal/a5080817-ad94-44f4-8f48-02d1821094c5"}
{"nom":"Vabres","nomNormalise":"vabres","typeCollectivite":"Commune","region":"Auvergne-Rhône-Alpes","departement":"Cantal","departementCode":"15","adresse":{"street":"1 place des anciens maires","postalCode":"15100","city":"Vabres","country":"France"},"contacts":{"email":"mairie-vabres@wanadoo.fr","telephone":"0471239003"},"horaires":"Le Mardi : de 10h00 à 12h00\nLe Jeudi : de 10h00 à 12h00","latitude":44.03218,"longitude":3.887877,"website":"","hasWebsite":false,"hasHoraires":true,"url":"https://lannuaire.service-public.gouv.fr/auvergne-rhone-alpes/cantal/f6833785-7c24-43dd-96eb-489372271ea3"}
{"nom":"Val-d'Arcomie","nomNormalise":"valdarcomie","typeCollectivite":"Commune","region":"Auvergne-Rhône-Alpes","departement":"Cantal","departementCode":"15","adresse":{"street":"Le Bourg de Loubaresse","postalCode":"15320","city":"Val-d'Arcomie","country":"France"},"contacts":{"email":"mairie@valdarcomie.fr","telephone":"0471737011"},"horaires":"Du Lundi au Vendredi : de 09h00 à 12h00 de 13h30 à 16h30","latitude":44.933723,"longitude":3.211669,"website":"https://www.valdarcomie.fr/","hasWebsite":true,"hasHoraires":true,"url":"https://lannuaire.service-public.gouv.fr/auvergne-rhone-alpes/cantal/4636bb0e-bd22-47a1-985f-9cff94481088"}
{"nom":"Valette","nomNormalise":"valette","typeCollectivite":"Commune","region":"Auvergne-Rhône-Alpes","departement":"Cantal","departementCode":"15","adresse":{"street":"Rue des écoliers","postalCode":"15400","city":"Valette","country":"France"},"contacts":{"email":"mairievalette@orange.fr","telephone":"0471780041"},"horaires":"Du Lundi au Mardi : de 09h00 à 12h00\nDu Jeudi au Vendredi : de 09h00 à 12h00","latitude":45.268574,"longitude":2.602031,"website":"","hasWebsite":false,"hasHoraires":true,"url":"https://lannuaire.service-public.gouv.fr/auvergne-rhone-alpes/cantal/2c5c562b-6c15-4447-af15-186aec5d208e"}
{"nom":"Valjouze","nomNormalise":"valjouze","typeCollectivite":"Commune","region":"Auvergne-Rhône-Alpes","departement":"Cantal","departementCode":"15","adresse":{"street":"Le Bourg","postalCode":"15170","city":"Valjouze","country":"France"},"contacts":{"email":"commune.valjouze@orange.fr","telephone":"0471206167"},"horaires":"Le Mardi : de 13h30 à 16h30\nLe Jeudi : de 13h30 à 16h30","latitude":45.202217,"longitude":3.0293856,"website":"","hasWebsite":false,"hasHoraires":true,"url":"https://lannuaire.service-public.gouv.fr/auvergne-rhone-alpes/cantal/76ecd6c5-375d-4639-a41a-3dd2885a214e"}
{"nom":"Valuéjols","nomNormalise":"valuejols","typeCollectivite":"Commune","region":"Auvergne-Rhône-Alpes","departement":"Cantal","departementCode":"15","adresse":{"street":"1 place de la Mairie","postalCode":"15300","city":"Valuéjols","country":"France"},"contacts":{"email":"mairie.valuejols@orange.fr","telephone":"0471732371"},"horaires":"Du Lundi au Mardi : de 09h00 à 12h00\nLe Mercredi : de 09h00 à 11h30\nLe Vendredi : de 09h00 à 12h00","latitude":45.05337,"longitude":2.933517,"website":"https://valuejols.fr/","hasWebsite":true,"hasHoraires":true,"url":"https://lannuaire.service-public.gouv.fr/auvergne-rhone-alpes/cantal/6beaafb4-4189-42e1-a615-5ad5ba4f310c"}
{"nom":"Vebret","nomNormalise":"vebret","typeCollectivite":"Commune","region":"Auvergne-Rhône-Alpes","departement":"Cantal","departementCode":"15","adresse":{"street":"5 place de la Forge","postalCode":"15240","city":"Vebret","country":"France"},"contacts":{"email":"mairie.vebret@orange.fr","telephone":"0471402086"},"horaires":"Du Lundi au Mardi : de 09h00 à 12h30 de 13h30 à 17h00\nDu Jeudi au Vendredi : de 09h00 à 12h30 de 13h30 à 17h00","latitude":45.33929,"longitude":2.520107,"website":"https://vebret-mairie.jimdo.com/","hasWebsite":true,"hasHoraires":true,"url":"https://lannuaire.service-public.gouv.fr/auvergne-rhone-alpes/cantal/18c8f5c7-3eaa-4eeb-a1a8-77cccb0aa029"}
{"nom":"Védrines-Saint-Loup","nomNormalise":"vedrinessaintloup","typeCollectivite":"Commune","region":"Auvergne-Rhône-Alpes","departement":"Cantal","departementCode":"15","adresse":{"street":"12 Grand'rue Maurice-Vaillant","postalCode":"15100","city":"Védrines-Saint-Loup","country":"France"},"contacts":{"email":"mairie.vedrines15@orange.fr","telephone":"0471735055"},"horaires":"Le Mardi : de 14h00 à 18h00\nLe Jeudi : de 14h00 à 18h00\nD'autres horaires possibles sur rendez-vous.","latitude":45.06836,"longitude":3.281455,"website":"https://www.vedrinessaintloup.com/","hasWebsite":true,"hasHoraires":true,"url":"https://lannuaire.service-public.gouv.fr/auvergne-rhone-alpes/cantal/639c1502-8ef8-47ff-a1b9-1a0fb5cb5b51"}
{"nom":"Velzic","nomNormalise":"velzic","typeCollectivite":"Commune","region":"Auvergne-Rhône-Alpes","departement":"Cantal","departementCode":"15","adresse":{"street":"10 rue du Lavoir","postalCode":"15590","city":"Velzic","country":"France"},"contacts":{"email":"mairie@velzic.fr","telephone":"0471479304"},"horaires":"Du Lundi au Vendredi : de 09h00 à 12h00 de 13h00 à 17h00","latitude":45.000484,"longitude":2.552979,"website":"http://www.velzic.fr/","hasWebsite":true,"hasHoraires":true,"url":"https://lannuaire.service-public.gouv.fr/auvergne-rhone-alpes/cantal/f05e0ee4-dc1b-44e3-863f-7a222ce0e10a"}
{"nom":"Vernols","nomNormalise":"vernols","typeCollectivite":"Commune","region":"Auvergne-Rhône-Alpes","departement":"Cantal","departementCode":"15","adresse":{"street":"Le Bourg","postalCode":"15160","city":"Vernols","country":"France"},"contacts":{"email":"commune-de-vernols@wanadoo.fr","telephone":"0471204198"},"horaires":"Le Mardi : de 10h00 à 12h00\nLe Jeudi : de 10h00 à 12h00","latitude":45.22514,"longitude":2.891096,"website":"","hasWebsite":false,"hasHoraires":true,"url":"https://lannuaire.service-public.gouv.fr/auvergne-rhone-alpes/cantal/9e1a1703-b806-433d-abeb-1e9e4942c653"}
{"nom":"Veyrières","nomNormalise":"veyrieres","typeCollectivite":"Commune","region":"Auvergne-Rhône-Alpes","departement":"Cantal","departementCode":"15","adresse":{"street":"3 place de la Mairie","postalCode":"15350","city":"Veyrières","country":"France"},"contacts":{"email":"mairie-veyrieres@wanadoo.fr","telephone":"0471696302"},"horaires":"Le Lundi : de 08h00 à 12h00 de 13h00 à 16h30\nLe Mercredi : de 08h00 à 12h00\nLe Jeudi : de 08h00 à 12h00 de 13h00 à 16h30","latitude":45.329018,"longitude":2.375756,"website":"https://www.veyrieres.fr/","hasWebsite":true,"hasHoraires":true,"url":"https://lannuaire.service-public.gouv.fr/auvergne-rhone-alpes/cantal/0b71000c-669e-4bc0-826d-86d309a917c8"}
{"nom":"Vézac","nomNormalise":"vezac","typeCollectivite":"Commune","region":"Auvergne-Rhône-Alpes","departement":"Cantal","departementCode":"15","adresse":{"street":"1 place Alfred-Chardon","postalCode":"15130","city":"Vézac","country":"France"},"contacts":{"email":"mairie@vezac.fr","telephone":"0471624009"},"horaires":"Le Lundi : de 08h30 à 12h30 de 13h30 à 17h30\nLe Mardi : de 08h30 à 12h30\nDu Mercredi au Jeudi : de 08h30 à 12h30 de 13h30 à 17h30\nLe Vendredi : de 08h30 à 12h30\nHoraires Juillet/Août : Du lundi au vendredi de 8h30 à 12h30.","latitude":44.892082,"longitude":2.519104,"website":"https://www.vezac.fr/fr/","hasWebsite":true,"hasHoraires":true,"url":"https://lannuaire.service-public.gouv.fr/auvergne-rhone-alpes/cantal/e508198a-fe51-43d2-bb36-a9f953f7dfc0"}
{"nom":"Vèze","nomNormalise":"veze","typeCollectivite":"Commune","region":"Auvergne-Rhône-Alpes","departement":"Cantal","departementCode":"15","adresse":{"street":"Le Bourg","postalCode":"15160","city":"Vèze","country":"France"},"contacts":{"email":"mairie.veze@wanadoo.fr","telephone":"0471204118"},"horaires":"Le Mercredi : de 09h00 à 12h00 de 14h00 à 17h00\nLe Samedi : de 10h00 à 12h00","latitude":45.265926,"longitude":2.924985,"website":"","hasWebsite":false,"hasHoraires":true,"url":"https://lannuaire.service-public.gouv.fr/auvergne-rhone-alpes/cantal/ffd912d5-8cb0-482a-92c1-fa89f29c77ff"}
{"nom":"Vezels-Roussy","nomNormalise":"vezelsroussy","typeCollectivite":"Commune","region":"Auvergne-Rhône-Alpes","departement":"Cantal","departementCode":"15","adresse":{"street":"20 route des Vallées","postalCode":"15130","city":"Vezels-Roussy","country":"France"},"contacts":{"email":"mairie.vezelsroussy@wanadoo.fr","telephone":"0471494347"},"horaires":"Du Lundi au Mardi : de 13h30 à 17h30\nLe Vendredi : de 08h00 à 12h00","latitude":44.809464,"longitude":2.586506,"website":"https://www.vezelsroussy.fr/","hasWebsite":true,"hasHoraires":true,"url":"https://lannuaire.service-public.gouv.fr/auvergne-rhone-alpes/cantal/1ba97a82-0fa7-463d-8d9c-17477efc8c7b"}
{"nom":"Vic-sur-Cère","nomNormalise":"vicsurcere","typeCollectivite":"Commune","region":"Auvergne-Rhône-Alpes","departement":"Cantal","departementCode":"15","adresse":{"street":"Place du Carladès","postalCode":"15800","city":"Vic-sur-Cère","country":"France"},"contacts":{"email":"mairie@vicsurcere.fr","telephone":"0471475175"},"horaires":"Du Lundi au Mardi : de 08h00 à 12h00 de 13h30 à 17h00\nDu Mercredi au Vendredi : de 08h00 à 12h00 de 15h00 à 17h00","latitude":44.97934,"longitude":2.6250331,"website":"https://www.vicsurcere.fr/","hasWebsite":true,"hasHoraires":true,"url":"https://lannuaire.service-public.gouv.fr/auvergne-rhone-alpes/cantal/471c08c5-fa6e-4e8c-bca3-f1d0f5297603"}
{"nom":"Vieillespesse","nomNormalise":"vieillespesse","typeCollectivite":"Commune","region":"Auvergne-Rhône-Alpes","departement":"Cantal","departementCode":"15","adresse":{"street":"5 allée des Tilleuls","postalCode":"15500","city":"Vieillespesse","country":"France"},"contacts":{"email":"mairiedevieillespesse@orange.fr","telephone":"0471731469"},"horaires":"Le Lundi : de 08h30 à 12h00\nLe Vendredi : de 15h00 à 18h00","latitude":45.126602,"longitude":3.152028,"website":"http://www.vieillespesse.fr/","hasWebsite":true,"hasHoraires":true,"url":"https://lannuaire.service-public.gouv.fr/auvergne-rhone-alpes/cantal/49c1c965-d391-4cd8-b409-a110fbf1482a"}
{"nom":"Vieillevie","nomNormalise":"vieillevie","typeCollectivite":"Commune","region":"Auvergne-Rhône-Alpes","departement":"Cantal","departementCode":"15","adresse":{"street":"Le Bourg","postalCode":"15120","city":"Vieillevie","country":"France"},"contacts":{"email":"mairievieillevie@wanadoo.fr","telephone":"0471499706"},"horaires":"Le Mardi : de 09h00 à 12h00\nLe Jeudi : de 09h00 à 12h00\nL'après-midi sur rendez-vous uniquement.","latitude":44.644714,"longitude":2.418754,"website":"https://www.vieillevie.com/","hasWebsite":true,"hasHoraires":true,"url":"https://lannuaire.service-public.gouv.fr/auvergne-rhone-alpes/cantal/f90d5886-f201-4b98-8f16-84c02f21a3fe"}
{"nom":"Villedieu","nomNormalise":"villedieu","typeCollectivite":"Commune","region":"Auvergne-Rhône-Alpes","departement":"Cantal","departementCode":"15","adresse":{"street":"10 rue des Écoles","postalCode":"15100","city":"Villedieu","country":"France"},"contacts":{"email":"15villedieu.mairie@orange.fr","telephone":"0471730453"},"horaires":"Le Mardi : de 09h00 à 12h00 de 14h00 à 17h00\nLe Mercredi : de 14h00 à 17h00","latitude":45.00006,"longitude":3.063154,"website":"","hasWebsite":false,"hasHoraires":true,"url":"https://lannuaire.service-public.gouv.fr/auvergne-rhone-alpes/cantal/2250647f-f1c3-4dba-a511-3fd6313d288d"}
{"nom":"Virargues","nomNormalise":"virargues","typeCollectivite":"Commune","region":"Auvergne-Rhône-Alpes","departement":"Cantal","departementCode":"15","adresse":{"street":"Le Bourg","postalCode":"15300","city":"Virargues","country":"France"},"contacts":{"email":"mairie.virargues@sfr.fr","telephone":"0471200098"},"horaires":"Le Vendredi : de 13h30 à 17h30","latitude":45.12417,"longitude":2.910229,"website":"","hasWebsite":false,"hasHoraires":true,"url":"https://lannuaire.service-public.gouv.fr/auvergne-rhone-alpes/cantal/f89ee9c0-e2e1-427d-b3e9-924c81b6daeb"}
{"nom":"Vitrac","nomNormalise":"vitrac","typeCollectivite":"Commune","region":"Auvergne-Rhône-Alpes","departement":"Cantal","departementCode":"15","adresse":{"street":"25 route 66","postalCode":"15220","city":"Vitrac","country":"France"},"contacts":{"email":"commune.vitrac@wanadoo.fr","telephone":"0471647010"},"horaires":"Le Mardi : de 08h00 à 12h00 de 13h00 à 17h00\nLe Mercredi : de 09h30 à 12h00\n\nPermanence du maire uniquement.\nLe Jeudi : de 08h00 à 12h00 de 13h00 à 17h00\nLe Vendredi : de 08h00 à 12h00\nLe Samedi : de 09h30 à 12h00\n\nPermanence du maire uniquement.","latitude":44.815147,"longitude":2.314677,"website":"https://www.commune-vitrac-cantal.fr/","hasWebsite":true,"hasHoraires":true,"url":"https://lannuaire.service-public.gouv.fr/auvergne-rhone-alpes/cantal/ad26ff7b-5f5e-4a18-a204-8942b5992db9"}
{"nom":"Ydes","nomNormalise":"ydes","typeCollectivite":"Commune","region":"Auvergne-Rhône-Alpes","departement":"Cantal","departementCode":"15","adresse":{"street":"10 place Georges-Pompidou","postalCode":"15210","city":"Ydes","country":"France"},"contacts":{"email":"mairie@ydes.fr","telephone":"0471408251"},"horaires":"Le Lundi : de 09h00 à 12h00 de 14h00 à 17h30\nLe Mardi : de 09h00 à 12h00\nDu Mercredi au Vendredi : de 09h00 à 12h00 de 14h00 à 17h30\nLe Samedi : de 09h00 à 12h00","latitude":45.3461,"longitude":2.43612,"website":"http://www.ydes.fr/","hasWebsite":true,"hasHoraires":true,"url":"https://lannuaire.service-public.gouv.fr/auvergne-rhone-alpes/cantal/66f6683f-28f4-4356-8b6b-5f3d72214ae9"}
{"nom":"Yolet","nomNormalise":"yolet","typeCollectivite":"Commune","region":"Auvergne-Rhône-Alpes","departement":"Cantal","departementCode":"15","adresse":{"street":"2 place de la Mairie","postalCode":"15130","city":"Yolet","country":"France"},"contacts":{"email":"yolet.mairie@wanadoo.fr","telephone":"0471474150"},"horaires":"Du Mardi au Jeudi : de 08h30 à 12h30\nLe Samedi : de 08h30 à 12h30","latitude":44.92811,"longitude":2.532282,"website":"","hasWebsite":false,"hasHoraires":true,"url":"https://lannuaire.service-public.gouv.fr/auvergne-rhone-alpes/cantal/1eb6573d-c00f-41aa-94b9-e1698b5ee94c"}
{"nom":"Ytrac","nomNormalise":"ytrac","typeCollectivite":"Commune","region":"Auvergne-Rhône-Alpes","departement":"Cantal","departementCode":"15","adresse":{"street":"4 avenue de la République","postalCode":"15130","city":"Ytrac","country":"France"},"contacts":{"email":"accueil@mairie-ytrac.fr","telephone":"0471477079"},"horaires":"Du Lundi au Mardi : de 08h00 à 12h00 de 13h00 à 17h00\nLe Mercredi : de 09h00 à 12h00 de 13h00 à 17h00\nLe Jeudi : de 08h00 à 12h00 de 13h00 à 17h00\nDu Vendredi au Samedi : de 08h00 à 12h00","latitude":44.92506,"longitude":2.43857,"website":"https://www.ytrac.fr/","hasWebsite":true,"hasHoraires":true,"url":"https://lannuaire.service-public.gouv.fr/auvergne-rhone-alpes/cantal/1d76f1ed-d7f1-4b98-9403-9e752d961c68"}
