{"nom":"Achères","nomNormalise":"acheres","typeCollectivite":"Commune","region":"Centre-Val de Loire","departement":"Cher","departementCode":"18","adresse":{"street":"2 route d'Henrichemont","postalCode":"18250","city":"Achères","country":"France"},"contacts":{"email":"mairie.acheres@wanadoo.fr","telephone":"0248267210"},"horaires":"Le Mardi : de 14h00 à 18h00\nDu Jeudi au Vendredi : de 14h00 à 18h00","latitude":47.277794,"longitude":2.447866,"website":"https://www.acheres18.fr/","hasWebsite":true,"hasHoraires":true,"url":"https://lannuaire.service-public.gouv.fr/centre-val-de-loire/cher/770c1a45-3fbc-4bb4-96be-2f96c53f6064"}
{"nom":"Ainay-le-Vieil","nomNormalise":"ainaylevieil","typeCollectivite":"Commune","region":"Centre-Val de Loire","departement":"Cher","departementCode":"18","adresse":{"street":"23 rue Jean-Valette","postalCode":"18200","city":"Ainay-le-Vieil","country":"France"},"contacts":{"email":"mairie.ainaylevieil@orange.fr","telephone":"0248635096"},"horaires":"Du Lundi au Mardi : de 08h00 à 17h30\nLe Jeudi : de 08h00 à 17h30\nLe Vendredi : de 08h00 à 13h00","latitude":46.66496,"longitude":2.552475,"website":"","hasWebsite":false,"hasHoraires":true,"url":"https://lannuaire.service-public.gouv.fr/centre-val-de-loire/cher/90e15192-75ff-452b-ba7d-95e9930672e4"}
{"nom":"Allogny","nomNormalise":"allogny","typeCollectivite":"Commune","region":"Centre-Val de Loire","departement":"Cher","departementCode":"18","adresse":{"street":"Place de la Mairie","postalCode":"18110","city":"Allogny","country":"France"},"contacts":{"email":"mairie@allogny.fr","telephone":"0248640079"},"horaires":"Du Lundi au Samedi : de 08h30 à 12h00","latitude":47.22577,"longitude":2.3191738,"website":"https://www.allogny.fr/","hasWebsite":true,"hasHoraires":true,"url":"https://lannuaire.service-public.gouv.fr/centre-val-de-loire/cher/67fc34d2-7aee-4dd9-85ea-864573a64539"}
{"nom":"Allouis","nomNormalise":"allouis","typeCollectivite":"Commune","region":"Centre-Val de Loire","departement":"Cher","departementCode":"18","adresse":{"street":"6 place de la Mairie","postalCode":"18500","city":"Allouis","country":"France"},"contacts":{"email":"accueil@mairie-allouis.fr","telephone":"0248573081"},"horaires":"Le Lundi : de 10h00 à 12h00 de 15h00 à 18h00\nDu Mardi au Jeudi : de 15h00 à 18h00\nLe Vendredi : de 10h00 à 12h00 de 15h00 à 18h00","latitude":47.22577,"longitude":2.319174,"website":"http://www.mairie-allouis.fr/","hasWebsite":true,"hasHoraires":true,"url":"https://lannuaire.service-public.gouv.fr/centre-val-de-loire/cher/34c969ef-45b9-4e5c-9717-cc097e22c50b"}
{"nom":"Annoix","nomNormalise":"annoix","typeCollectivite":"Commune","region":"Centre-Val de Loire","departement":"Cher","departementCode":"18","adresse":{"street":"1 place de l'Église","postalCode":"18340","city":"Annoix","country":"France"},"contacts":{"email":"mairie.annoix@wanadoo.fr","telephone":"0248595500"},"horaires":"Du Lundi au Mardi : de 14h00 à 17h30\nLe Jeudi : de 14h00 à 16h30\nLe Vendredi : de 09h00 à 12h00 de 15h00 à 18h30","latitude":46.960247,"longitude":2.532719,"website":"","hasWebsite":false,"hasHoraires":true,"url":"https://lannuaire.service-public.gouv.fr/centre-val-de-loire/cher/3dd86002-d476-49e0-854d-a51caf6e65d1"}
{"nom":"Apremont-sur-Allier","nomNormalise":"apremontsurallier","typeCollectivite":"Commune","region":"Centre-Val de Loire","departement":"Cher","departementCode":"18","adresse":{"street":"26 rue Madame Eugène-Schneider","postalCode":"18150","city":"Apremont-sur-Allier","country":"France"},"contacts":{"email":"secretariat@mairieapremontsurallier.fr","telephone":"0248804017"},"horaires":"Le Lundi : de 13h30 à 16h30\nLe Vendredi : de 13h30 à 16h30","latitude":46.90646,"longitude":3.047533,"website":"https://www.mairieapremontsurallier.fr/","hasWebsite":true,"hasHoraires":true,"url":"https://lannuaire.service-public.gouv.fr/centre-val-de-loire/cher/ca47099a-755c-43ad-873e-0be6b335a5ce"}
{"nom":"Arçay","nomNormalise":"arcay","typeCollectivite":"Commune","region":"Centre-Val de Loire","departement":"Cher","departementCode":"18","adresse":{"street":"10 Grande rue","postalCode":"18340","city":"Arçay","country":"France"},"contacts":{"email":"mairie.arcay@orange.fr","telephone":"0248253177"},"horaires":"Du Lundi au Mardi : de 09h00 à 12h30\nLe Jeudi : de 09h00 à 12h30\nLe Vendredi : de 09h00 à 12h30 de 13h30 à 18h30","latitude":46.949776,"longitude":2.341448,"website":"https://www.arcay-cher.fr/","hasWebsite":true,"hasHoraires":true,"url":"https://lannuaire.service-public.gouv.fr/centre-val-de-loire/cher/864b590e-392c-4697-a9f2-15b380b09164"}
{"nom":"Arcomps","nomNormalise":"arcomps","typeCollectivite":"Commune","region":"Centre-Val de Loire","departement":"Cher","departementCode":"18","adresse":{"street":"1 la Cure","postalCode":"18200","city":"Arcomps","country":"France"},"contacts":{"email":"arcomps@wanadoo.fr","telephone":"0248961264"},"horaires":"Le Mardi : de 14h00 à 18h00\nLe Jeudi : de 08h00 à 11h00\nLe Vendredi : de 14h00 à 18h00","latitude":46.676716,"longitude":2.423694,"website":"","hasWebsite":false,"hasHoraires":true,"url":"https://lannuaire.service-public.gouv.fr/centre-val-de-loire/cher/391d8549-8e33-45fc-8558-626c95b294aa"}
{"nom":"Ardenais","nomNormalise":"ardenais","typeCollectivite":"Commune","region":"Centre-Val de Loire","departement":"Cher","departementCode":"18","adresse":{"street":"1 la Font-Yon","postalCode":"18170","city":"Ardenais","country":"France"},"contacts":{"email":"ardenaismairie@orange.fr","telephone":"0248961324"},"horaires":"Le Lundi : de 13h30 à 18h00\nLe Vendredi : de 13h30 à 18h00","latitude":46.647327,"longitude":2.3593502,"website":"https://www.intramuros.org/ardenais","hasWebsite":true,"hasHoraires":true,"url":"https://lannuaire.service-public.gouv.fr/centre-val-de-loire/cher/aa6eb8da-03c0-4051-b106-0846afdd676a"}
{"nom":"Argent-sur-Sauldre","nomNormalise":"argentsursauldre","typeCollectivite":"Commune","region":"Centre-Val de Loire","departement":"Cher","departementCode":"18","adresse":{"street":"Place de l'Hôtel-de-Ville","postalCode":"18410","city":"Argent-sur-Sauldre","country":"France"},"contacts":{"email":"mairie@argentsursauldre.fr","telephone":"0248815060"},"horaires":"Du Lundi au Mercredi : de 09h00 à 12h00 de 14h00 à 17h30\nLe Jeudi : de 09h00 à 12h00\nLe Vendredi : de 09h00 à 12h00 de 14h00 à 17h00","latitude":47.559227,"longitude":2.444344,"website":"https://www.argentsursauldre.fr/","hasWebsite":true,"hasHoraires":true,"url":"https://lannuaire.service-public.gouv.fr/centre-val-de-loire/cher/2dff25a3-cf6e-459c-b028-f5359243eaf4"}
{"nom":"Argenvières","nomNormalise":"argenvieres","typeCollectivite":"Commune","region":"Centre-Val de Loire","departement":"Cher","departementCode":"18","adresse":{"street":"2 place de la Mairie","postalCode":"18140","city":"Argenvières","country":"France"},"contacts":{"email":"secretariatmairie@argenvieres.fr","telephone":"0248765123"},"horaires":"Le Lundi : de 08h30 à 12h00\nLe Mardi : de 08h30 à 12h00 de 13h30 à 17h30\nLe Jeudi : de 08h30 à 12h00 de 13h30 à 17h15\nLe Vendredi : de 08h30 à 12h00 de 13h30 à 16h00","latitude":47.13758,"longitude":3.005241,"website":"https://www.argenvieres.fr/","hasWebsite":true,"hasHoraires":true,"url":"https://lannuaire.service-public.gouv.fr/centre-val-de-loire/cher/69afd1aa-ddec-47bc-a089-70b8fe7acbff"}
{"nom":"Arpheuilles","nomNormalise":"arpheuilles","typeCollectivite":"Commune","region":"Centre-Val de Loire","departement":"Cher","departementCode":"18","adresse":{"street":"79 route de la Clouze","postalCode":"18200","city":"Arpheuilles","country":"France"},"contacts":{"email":"mairie.darpheuilles@wanadoo.fr","telephone":"0248633025"},"horaires":"Le Lundi : de 13h30 à 17h30\nLe Mardi : de 09h00 à 12h00\nLe Jeudi : de 13h30 à 17h30","latitude":46.782673,"longitude":2.560448,"website":"","hasWebsite":false,"hasHoraires":true,"url":"https://lannuaire.service-public.gouv.fr/centre-val-de-loire/cher/923137e6-fc43-438a-afc5-5bd9c60e608e"}
{"nom":"Assigny","nomNormalise":"assigny","typeCollectivite":"Commune","region":"Centre-Val de Loire","departement":"Cher","departementCode":"18","adresse":{"street":"12 route des Merisiers","postalCode":"18260","city":"Assigny","country":"France"},"contacts":{"email":"mairie@assigny18.fr","telephone":"0248737258"},"horaires":"Le Mardi : de 09h00 à 12h00 de 13h30 à 17h30\nLe Jeudi : de 09h00 à 12h00 de 13h30 à 17h30","latitude":47.42898,"longitude":2.756604,"website":"","hasWebsite":false,"hasHoraires":true,"url":"https://lannuaire.service-public.gouv.fr/centre-val-de-loire/cher/e1e02193-08d8-4add-a1f7-c41e721442fc"}
{"nom":"Aubigny-sur-Nère","nomNormalise":"aubignysurnere","typeCollectivite":"Commune","region":"Centre-Val de Loire","departement":"Cher","departementCode":"18","adresse":{"street":"Place de la Résistance","postalCode":"18700","city":"Aubigny-sur-Nère","country":"France"},"contacts":{"email":"mairie@aubigny-sur-nere.fr","telephone":"0248815000"},"horaires":"Le Lundi : de 14h00 à 17h30\nDu Mardi au Vendredi : de 08h30 à 12h00 de 14h00 à 17h30\nLe Samedi : de 08h30 à 12h00","latitude":47.488743,"longitude":2.440928,"website":"https://www.aubigny.net/","hasWebsite":true,"hasHoraires":true,"url":"https://lannuaire.service-public.gouv.fr/centre-val-de-loire/cher/af7386ac-9d48-4581-82d3-6ac187efc2e4"}
{"nom":"Aubinges","nomNormalise":"aubinges","typeCollectivite":"Commune","region":"Centre-Val de Loire","departement":"Cher","departementCode":"18","adresse":{"street":"1 route de Morogues","postalCode":"18220","city":"Aubinges","country":"France"},"contacts":{"email":"mairie.aubinges@wanadoo.fr","telephone":"0248644062"},"horaires":"Le Lundi : de 14h00 à 17h00\nDu Mardi au Mercredi : de 09h00 à 12h00\nLe Vendredi : de 09h00 à 12h00\n\nAprès-midi sur rendez-vous.","latitude":47.222675,"longitude":2.5820887,"website":"https://www.aubinges.fr/","hasWebsite":true,"hasHoraires":true,"url":"https://lannuaire.service-public.gouv.fr/centre-val-de-loire/cher/f372a0ae-4fb9-4017-9aa5-c579fa5821b8"}
{"nom":"Augy-sur-Aubois","nomNormalise":"augysuraubois","typeCollectivite":"Commune","region":"Centre-Val de Loire","departement":"Cher","departementCode":"18","adresse":{"street":"Le Bourg","postalCode":"18600","city":"Augy-sur-Aubois","country":"France"},"contacts":{"email":"mairie.augy.sur.aubois@orange.fr","telephone":"0248745624"},"horaires":"Le Lundi : de 14h00 à 18h00\nLe Mardi : de 14h00 à 17h30\nLe Jeudi : de 14h00 à 18h00\nLe Vendredi : de 14h00 à 16h30","latitude":46.7854,"longitude":2.84345,"website":"https://www.mairie-augy-sur-aubois.fr/","hasWebsite":true,"hasHoraires":true,"url":"https://lannuaire.service-public.gouv.fr/centre-val-de-loire/cher/fce8b731-2898-4ace-8c91-047cff9c0ef1"}
{"nom":"Avord","nomNormalise":"avord","typeCollectivite":"Commune","region":"Centre-Val de Loire","departement":"Cher","departementCode":"18","adresse":{"street":"Rue Désiré-Deschamps","postalCode":"18520","city":"Avord","country":"France"},"contacts":{"email":"accueil@ville-avord.fr","telephone":"0248691016"},"horaires":"Le Lundi : de 09h00 à 12h00\nLe Mardi : de 09h00 à 12h00 de 13h30 à 18h00\nLe Mercredi : de 09h00 à 12h00 de 14h00 à 17h30\nLe Jeudi : de 14h00 à 17h30\nLe Vendredi : de 09h00 à 12h00 de 14h00 à 17h00","latitude":47.0326,"longitude":2.65217,"website":"https://www.ville-avord.fr/","hasWebsite":true,"hasHoraires":true,"url":"https://lannuaire.service-public.gouv.fr/centre-val-de-loire/cher/9d6ceb6b-0ad9-4716-bee0-430db18ecf12"}
{"nom":"Azy","nomNormalise":"azy","typeCollectivite":"Commune","region":"Centre-Val de Loire","departement":"Cher","departementCode":"18","adresse":{"street":"Le Bourg","postalCode":"18220","city":"Azy","country":"France"},"contacts":{"email":"secretariat@comazy.fr","telephone":"0248695022"},"horaires":"Le Lundi : de 13h30 à 16h30\nLe Jeudi : de 16h00 à 18h00\nLe Vendredi : de 13h30 à 16h00","latitude":47.183456,"longitude":2.708535,"website":"https://www.comazy.fr/","hasWebsite":true,"hasHoraires":true,"url":"https://lannuaire.service-public.gouv.fr/centre-val-de-loire/cher/b2a67cc6-9e86-449f-bcbc-98849a28c6ed"}
{"nom":"Bannay","nomNormalise":"bannay","typeCollectivite":"Commune","region":"Centre-Val de Loire","departement":"Cher","departementCode":"18","adresse":{"street":"24 rue du Village","postalCode":"18300","city":"Bannay","country":"France"},"contacts":{"email":"mairie@mairie-bannay18.fr","telephone":"0248724169"},"horaires":"Du Lundi au Mardi : de 09h00 à 12h30 de 14h00 à 17h00\nLe Mercredi : de 14h00 à 15h30\nLe Jeudi : de 09h00 à 12h30 de 14h00 à 17h00\nLe Vendredi : de 09h00 à 12h30\nLe Samedi : de 09h00 à 12h00","latitude":47.385536,"longitude":2.8806975,"website":"https://mairie-bannay18.fr/","hasWebsite":true,"hasHoraires":true,"url":"https://lannuaire.service-public.gouv.fr/centre-val-de-loire/cher/e8c0aded-3ce3-4e41-adaf-fee218585635"}
{"nom":"Bannegon","nomNormalise":"bannegon","typeCollectivite":"Commune","region":"Centre-Val de Loire","departement":"Cher","departementCode":"18","adresse":{"street":"20 rue de la Mairie","postalCode":"18210","city":"Bannegon","country":"France"},"contacts":{"email":"mairie.bannegon@wanadoo.fr","telephone":"0248618361"},"horaires":"Du Lundi au Mardi : de 13h30 à 17h30\nDu Jeudi au Vendredi : de 08h00 à 12h15","latitude":46.860096,"longitude":2.7045095,"website":"https://www.intramuros.org/bannegon","hasWebsite":true,"hasHoraires":true,"url":"https://lannuaire.service-public.gouv.fr/centre-val-de-loire/cher/b8bd75d0-4bdf-4662-8d2d-cb8c01064068"}
{"nom":"Barlieu","nomNormalise":"barlieu","typeCollectivite":"Commune","region":"Centre-Val de Loire","departement":"Cher","departementCode":"18","adresse":{"street":"19 route de Cernoy","postalCode":"18260","city":"Barlieu","country":"France"},"contacts":{"email":"mairie@barlieu.com","telephone":"0248737212"},"horaires":"Le Lundi : de 08h30 à 12h30 de 13h00 à 16h00\nLe Mardi : de 08h30 à 12h30\n\nUniquement sur rendez-vous l'après-midi.\nLe Mercredi : de 08h30 à 12h30 de 13h00 à 16h00\nLe Jeudi : de 08h30 à 12h30\n\nUniquement sur rendez-vous l'après-midi.\nLe Vendredi : de 08h30 à 12h30 de 13h00 à 16h00","latitude":47.493008,"longitude":2.631426,"website":"https://www.barlieu.fr/","hasWebsite":true,"hasHoraires":true,"url":"https://lannuaire.service-public.gouv.fr/centre-val-de-loire/cher/2f048e97-dc30-4aac-8e57-10fa29cc06c6"}
{"nom":"Baugy","nomNormalise":"baugy","typeCollectivite":"Commune","region":"Centre-Val de Loire","departement":"Cher","departementCode":"18","adresse":{"street":"1 rue du Chancelier","postalCode":"18800","city":"Baugy","country":"France"},"contacts":{"email":"accueil@commune-baugy18.fr","telephone":"0248261528"},"horaires":"Le Lundi : de 09h00 à 12h00 de 14h00 à 17h30\nLe Mardi : de 09h00 à 12h00\nDu Mercredi au Jeudi : de 09h00 à 12h00 de 14h00 à 17h30\nLe Vendredi : de 09h00 à 12h00\nLe Samedi : de 10h00 à 12h00","latitude":47.0829,"longitude":2.72818,"website":"https://www.commune-baugy18.fr/","hasWebsite":true,"hasHoraires":true,"url":"https://lannuaire.service-public.gouv.fr/centre-val-de-loire/cher/e55bd4a1-89f8-4265-8b89-552a34356794"}
{"nom":"Beddes","nomNormalise":"beddes","typeCollectivite":"Commune","region":"Centre-Val de Loire","departement":"Cher","departementCode":"18","adresse":{"street":"4 route de Saint-Jeanvrin","postalCode":"18370","city":"Beddes","country":"France"},"contacts":{"email":"mairie.beddes18@orange.fr","telephone":"0248614066"},"horaires":"Du Lundi au Mardi : de 09h00 à 12h00 de 14h00 à 17h30\nLe Vendredi : de 14h00 à 17h00","latitude":46.604897,"longitude":2.213325,"website":"https://www.intramuros.org/beddes","hasWebsite":true,"hasHoraires":true,"url":"https://lannuaire.service-public.gouv.fr/centre-val-de-loire/cher/45758335-b87d-4047-a5e8-68afb8a245e3"}
{"nom":"Beffes","nomNormalise":"beffes","typeCollectivite":"Commune","region":"Centre-Val de Loire","departement":"Cher","departementCode":"18","adresse":{"street":"Route du Fort","postalCode":"18320","city":"Beffes","country":"France"},"contacts":{"email":"mairie.beffes@beffes.fr","telephone":"0248765108"},"horaires":"Du Lundi au Jeudi : de 08h00 à 11h30 de 13h00 à 17h30\nLe Vendredi : de 08h00 à 11h30 de 13h00 à 16h30","latitude":47.0871,"longitude":3.00467,"website":"http://www.beffes.fr/","hasWebsite":true,"hasHoraires":true,"url":"https://lannuaire.service-public.gouv.fr/centre-val-de-loire/cher/c35c3a53-26b9-4a2b-aaae-ccfebda28cf9"}
{"nom":"Belleville-sur-Loire","nomNormalise":"bellevillesurloire","typeCollectivite":"Commune","region":"Centre-Val de Loire","departement":"Cher","departementCode":"18","adresse":{"street":"5 place Prudent-Chollet","postalCode":"18240","city":"Belleville-sur-Loire","country":"France"},"contacts":{"email":"mairie@bellevillesurloire.fr","telephone":"0248782050"},"horaires":"Du Lundi au Vendredi : de 09h30 à 12h30 de 14h00 à 18h00","latitude":47.507183,"longitude":2.851584,"website":"https://www.bellevillesurloire.fr/index.php/fr/","hasWebsite":true,"hasHoraires":true,"url":"https://lannuaire.service-public.gouv.fr/centre-val-de-loire/cher/612f3042-5522-4ab6-b54c-eef02e2c9c36"}
{"nom":"Bengy-sur-Craon","nomNormalise":"bengysurcraon","typeCollectivite":"Commune","region":"Centre-Val de Loire","departement":"Cher","departementCode":"18","adresse":{"street":"2 route de Flavigny","postalCode":"18520","city":"Bengy-sur-Craon","country":"France"},"contacts":{"email":"mairie.bengy@orange.fr","telephone":"0248592342"},"horaires":"Du Lundi au Vendredi : de 09h00 à 12h00","latitude":46.99888,"longitude":2.748815,"website":"https://mairie-bengy.fr/","hasWebsite":true,"hasHoraires":true,"url":"https://lannuaire.service-public.gouv.fr/centre-val-de-loire/cher/056ad783-875e-4bd3-80e9-3b22a842c2b4"}
{"nom":"Berry-Bouy","nomNormalise":"berrybouy","typeCollectivite":"Commune","region":"Centre-Val de Loire","departement":"Cher","departementCode":"18","adresse":{"street":"Rue de la Vallée","postalCode":"18500","city":"Berry-Bouy","country":"France"},"contacts":{"email":"mairie.berry-bouy@wanadoo.fr","telephone":"0248268223"},"horaires":"Le Mardi : de 09h00 à 11h45 de 13h30 à 18h00\nDu Mercredi au Jeudi : de 09h00 à 11h45\nLe Vendredi : de 09h00 à 11h45 de 13h30 à 18h00\nLe Samedi : de 09h00 à 11h45\n\n(semaines impaires)","latitude":47.110992,"longitude":2.289686,"website":"https://www.berry-bouy.fr/","hasWebsite":true,"hasHoraires":true,"url":"https://lannuaire.service-public.gouv.fr/centre-val-de-loire/cher/d0dd947f-a998-4ef8-b3db-2f2f8116e505"}
{"nom":"Bessais-le-Fromental","nomNormalise":"bessaislefromental","typeCollectivite":"Commune","region":"Centre-Val de Loire","departement":"Cher","departementCode":"18","adresse":{"street":"9 route Nationale","postalCode":"18210","city":"Bessais-le-Fromental","country":"France"},"contacts":{"email":"mairie.bessais@wanadoo.fr","telephone":"0248607189"},"horaires":"Le Lundi : de 10h00 à 12h00\nLe Mardi : de 10h00 à 12h00 de 15h00 à 16h30\nDu Mercredi au Vendredi : de 10h00 à 12h00","latitude":46.7458,"longitude":2.76245,"website":"https://www.intramuros.org/bessais-le-fromental","hasWebsite":true,"hasHoraires":true,"url":"https://lannuaire.service-public.gouv.fr/centre-val-de-loire/cher/dc947a10-78a2-493f-9208-68accf3afeb6"}
{"nom":"Blancafort","nomNormalise":"blancafort","typeCollectivite":"Commune","region":"Centre-Val de Loire","departement":"Cher","departementCode":"18","adresse":{"street":"Place de la Mairie","postalCode":"18410","city":"Blancafort","country":"France"},"contacts":{"email":"secretariat.mairie@blancafort.fr","telephone":"0248586323"},"horaires":"Du Lundi au Mercredi : de 08h30 à 12h00 de 15h00 à 18h00\nLe Jeudi : de 08h30 à 12h00\nLe Vendredi : de 08h30 à 12h00 de 15h00 à 18h00\nLe Samedi : de 08h30 à 12h00","latitude":47.532036,"longitude":2.528471,"website":"https://www.blancafort.fr/","hasWebsite":true,"hasHoraires":true,"url":"https://lannuaire.service-public.gouv.fr/centre-val-de-loire/cher/0622ad28-0a48-47e5-87cc-092125641432"}
{"nom":"Blet","nomNormalise":"blet","typeCollectivite":"Commune","region":"Centre-Val de Loire","departement":"Cher","departementCode":"18","adresse":{"street":"14 route de Bourges","postalCode":"18350","city":"Blet","country":"France"},"contacts":{"email":"mairiedeblet@wanadoo.fr","telephone":"0248747104"},"horaires":"Le Lundi : de 09h00 à 12h00 de 14h00 à 18h00\n\nAccueil ouvert un matin sur deux.\nLe Mardi : de 09h00 à 12h00 de 14h00 à 17h00\nDu Mercredi au Samedi : de 09h00 à 12h00\n\nAccueil ouvert un samedi sur deux.","latitude":47.0635,"longitude":2.4238,"website":"","hasWebsite":false,"hasHoraires":true,"url":"https://lannuaire.service-public.gouv.fr/centre-val-de-loire/cher/71f28f27-8e81-414f-884f-2b2f8a0d478b"}
{"nom":"Boulleret","nomNormalise":"boulleret","typeCollectivite":"Commune","region":"Centre-Val de Loire","departement":"Cher","departementCode":"18","adresse":{"street":"1 route de Cosne","postalCode":"18240","city":"Boulleret","country":"France"},"contacts":{"email":"mairie@boulleret.fr","telephone":"0248723115"},"horaires":"Le Lundi : de 09h00 à 12h00 de 15h00 à 17h30\nDu Mardi au Jeudi : de 09h00 à 12h00\nLe Vendredi : de 09h00 à 12h00 de 15h00 à 17h30\nLe Samedi : de 09h00 à 12h00","latitude":47.4225,"longitude":2.87864,"website":"https://boulleret.fr/","hasWebsite":true,"hasHoraires":true,"url":"https://lannuaire.service-public.gouv.fr/centre-val-de-loire/cher/2dbee572-7fd0-47cd-8692-f931eb67988c"}
{"nom":"Bourges","nomNormalise":"bourges","typeCollectivite":"Commune","region":"Centre-Val de Loire","departement":"Cher","departementCode":"18","adresse":{"street":"11 rue Jacques-Rimbault","postalCode":"18000","city":"Bourges","country":"France"},"contacts":{"email":"","telephone":"0248578000"},"horaires":"Du Lundi au Vendredi : de 09h00 à 17h00","latitude":47.079887,"longitude":2.399137,"website":"https://www.ville-bourges.fr/","hasWebsite":true,"hasHoraires":true,"url":"https://lannuaire.service-public.gouv.fr/centre-val-de-loire/cher/953376fe-cb7f-4d8e-b9ef-b077fa855aeb"}
{"nom":"Bouzais","nomNormalise":"bouzais","typeCollectivite":"Commune","region":"Centre-Val de Loire","departement":"Cher","departementCode":"18","adresse":{"street":"15 route de Saint-Amand","postalCode":"18200","city":"Bouzais","country":"France"},"contacts":{"email":"mairie.bouzais@wanadoo.fr","telephone":"0248966141"},"horaires":"Le Lundi : de 14h00 à 18h00\nLe Mardi : de 10h00 à 12h00\nLe Jeudi : de 15h00 à 19h00","latitude":46.707012,"longitude":2.4782357,"website":"","hasWebsite":false,"hasHoraires":true,"url":"https://lannuaire.service-public.gouv.fr/centre-val-de-loire/cher/e91bd931-d8b7-4ac1-ad6d-c6de1914e770"}
{"nom":"Brécy","nomNormalise":"brecy","typeCollectivite":"Commune","region":"Centre-Val de Loire","departement":"Cher","departementCode":"18","adresse":{"street":"8 rue Saint-Firmin","postalCode":"18220","city":"Brécy","country":"France"},"contacts":{"email":"mairie.brecy@wanadoo.fr","telephone":"0248661048"},"horaires":"Le Lundi : de 14h30 à 17h30\nLe Mardi : de 10h00 à 12h00\nLe Jeudi : de 10h00 à 12h00 de 14h30 à 17h30\nLe Vendredi : de 10h00 à 12h00 de 14h00 à 16h00","latitude":47.12377,"longitude":2.6203382,"website":"https://www.mairiebrecy.fr/","hasWebsite":true,"hasHoraires":true,"url":"https://lannuaire.service-public.gouv.fr/centre-val-de-loire/cher/fb94ca95-e8df-4af1-ad77-0962224740f1"}
{"nom":"Brinay","nomNormalise":"brinay","typeCollectivite":"Commune","region":"Centre-Val de Loire","departement":"Cher","departementCode":"18","adresse":{"street":"Le Bourg","postalCode":"18120","city":"Brinay","country":"France"},"contacts":{"email":"mairie@brinay.fr","telephone":"0248510920"},"horaires":"Du Lundi au Mardi : de 13h30 à 17h30\nLe Mercredi : de 08h00 à 12h00\nDu Jeudi au Vendredi : de 13h30 à 17h30\nLe Samedi : de 11h00 à 12h00\n\nAccueil ouvert uniquement pour la permanence des élus.","latitude":47.17547,"longitude":2.129161,"website":"","hasWebsite":false,"hasHoraires":true,"url":"https://lannuaire.service-public.gouv.fr/centre-val-de-loire/cher/653393d1-adb3-42a6-a2bd-2c7c6f67d2f9"}
{"nom":"Brinon-sur-Sauldre","nomNormalise":"brinonsursauldre","typeCollectivite":"Commune","region":"Centre-Val de Loire","departement":"Cher","departementCode":"18","adresse":{"street":"6 route de Chaon","postalCode":"18410","city":"Brinon-sur-Sauldre","country":"France"},"contacts":{"email":"accueil.mairie@ville-brinon.fr","telephone":"0248815270"},"horaires":"Le Lundi : de 09h00 à 12h00\nLe Mardi : de 09h00 à 12h00 de 14h30 à 17h30\nLe Mercredi : de 09h00 à 12h00\nDu Jeudi au Vendredi : de 09h00 à 12h00 de 14h30 à 17h30","latitude":47.56643,"longitude":2.253963,"website":"https://www.ville-brinon.fr/","hasWebsite":true,"hasHoraires":true,"url":"https://lannuaire.service-public.gouv.fr/centre-val-de-loire/cher/efa1109d-7de6-4b78-af30-ceaf8903a959"}
{"nom":"Bruère-Allichamps","nomNormalise":"bruereallichamps","typeCollectivite":"Commune","region":"Centre-Val de Loire","departement":"Cher","departementCode":"18","adresse":{"street":"Place Louis-Margueritat","postalCode":"18200","city":"Bruère-Allichamps","country":"France"},"contacts":{"email":"secretariat@mairie-bruereallichamps.fr","telephone":"0248610268"},"horaires":"Du Lundi au Mercredi : de 13h30 à 17h00\nLe Vendredi : de 13h30 à 16h00","latitude":46.768196,"longitude":2.432664,"website":"https://www.bruere-allichamps.fr/","hasWebsite":true,"hasHoraires":true,"url":"https://lannuaire.service-public.gouv.fr/centre-val-de-loire/cher/0da2a9af-f08b-4647-974c-3083c61ee8b0"}
{"nom":"Bué","nomNormalise":"bue","typeCollectivite":"Commune","region":"Centre-Val de Loire","departement":"Cher","departementCode":"18","adresse":{"street":"5 Rue Saint-Vincent","postalCode":"18300","city":"Bué","country":"France"},"contacts":{"email":"mairie.bue@wanadoo.fr","telephone":"0248541498"},"horaires":"Du Lundi au Jeudi : de 07h00 à 12h00 de 13h30 à 16h30\nLe Vendredi : de 07h00 à 12h00","latitude":47.31077,"longitude":2.79196,"website":"https://bue-sancerre.fr/","hasWebsite":true,"hasHoraires":true,"url":"https://lannuaire.service-public.gouv.fr/centre-val-de-loire/cher/8f751540-1d93-467c-9d1d-28deecf22c11"}
{"nom":"Bussy","nomNormalise":"bussy","typeCollectivite":"Commune","region":"Centre-Val de Loire","departement":"Cher","departementCode":"18","adresse":{"street":"Le Bourg","postalCode":"18130","city":"Bussy","country":"France"},"contacts":{"email":"mairie.bussy18@orange.fr","telephone":"0248595372"},"horaires":"Du Lundi au Mardi : de 09h00 à 12h00\nLe Jeudi : de 09h00 à 12h00\nLe Samedi : de 09h00 à 12h00","latitude":46.90738,"longitude":2.662316,"website":"https://www.intramuros.org/bussy/annuaire/contact/mairie","hasWebsite":true,"hasHoraires":true,"url":"https://lannuaire.service-public.gouv.fr/centre-val-de-loire/cher/effce88e-7720-49d8-a039-791cac0e788e"}
{"nom":"Cerbois","nomNormalise":"cerbois","typeCollectivite":"Commune","region":"Centre-Val de Loire","departement":"Cher","departementCode":"18","adresse":{"street":"13 rue de la Mairie","postalCode":"18120","city":"Cerbois","country":"France"},"contacts":{"email":"mairie.cerbois@orange.fr","telephone":"0248517134"},"horaires":"Le Lundi : de 08h30 à 12h00 de 14h00 à 17h00\nDu Mardi au Mercredi : de 08h30 à 12h00\nLe Jeudi : de 08h30 à 12h00 de 14h00 à 17h00\nLe Vendredi : de 08h30 à 12h00","latitude":47.10594,"longitude":2.10196,"website":"","hasWebsite":false,"hasHoraires":true,"url":"https://lannuaire.service-public.gouv.fr/centre-val-de-loire/cher/e638e5e3-2438-422b-8472-8596110555b8"}
{"nom":"Chalivoy-Milon","nomNormalise":"chalivoymilon","typeCollectivite":"Commune","region":"Centre-Val de Loire","departement":"Cher","departementCode":"18","adresse":{"street":"4 place de la Mairie","postalCode":"18130","city":"Chalivoy-Milon","country":"France"},"contacts":{"email":"commune.chalivoy.milon@wanadoo.fr","telephone":"0248747204"},"horaires":"Le Mardi : de 09h00 à 12h00 de 14h00 à 17h00\nDu Jeudi au Vendredi : de 09h00 à 12h00 de 14h00 à 17h00","latitude":46.800358,"longitude":2.714188,"website":"","hasWebsite":false,"hasHoraires":true,"url":"https://lannuaire.service-public.gouv.fr/centre-val-de-loire/cher/30bf1839-48a3-4d87-958d-e8264e0ecda7"}
{"nom":"Chambon","nomNormalise":"chambon","typeCollectivite":"Commune","region":"Centre-Val de Loire","departement":"Cher","departementCode":"18","adresse":{"street":"13 le Bourg","postalCode":"18190","city":"Chambon","country":"France"},"contacts":{"email":"mairiechambon@orange.fr","telephone":"0248606541"},"horaires":"Le Lundi : de 09h30 à 12h30\nLe Jeudi : de 09h30 à 12h30","latitude":46.786232,"longitude":2.3235135,"website":"","hasWebsite":false,"hasHoraires":true,"url":"https://lannuaire.service-public.gouv.fr/centre-val-de-loire/cher/1d11e9cf-f662-424f-819e-455e0e2ee600"}
{"nom":"Charenton-du-Cher","nomNormalise":"charentonducher","typeCollectivite":"Commune","region":"Centre-Val de Loire","departement":"Cher","departementCode":"18","adresse":{"street":"89 rue Nationale","postalCode":"18210","city":"Charenton-du-Cher","country":"France"},"contacts":{"email":"mairie.charentonducher@wanadoo.fr","telephone":"0248620030"},"horaires":"Le Lundi : de 14h00 à 17h00\nLe Mardi : de 09h00 à 12h00 de 14h00 à 18h00\nLe Jeudi : de 09h00 à 12h00 de 14h00 à 18h00\nLe Vendredi : de 09h00 à 12h00 de 14h00 à 17h00\nLe Samedi : de 09h00 à 12h00","latitude":46.729633,"longitude":2.644202,"website":"http://www.charentonducher.fr/","hasWebsite":true,"hasHoraires":true,"url":"https://lannuaire.service-public.gouv.fr/centre-val-de-loire/cher/fc4aa2c9-03bd-40d3-91b4-24df452a9c09"}
{"nom":"Charentonnay","nomNormalise":"charentonnay","typeCollectivite":"Commune","region":"Centre-Val de Loire","departement":"Cher","departementCode":"18","adresse":{"street":"50 Le Bourg","postalCode":"18140","city":"Charentonnay","country":"France"},"contacts":{"email":"mairie-charentonnay@outlook.fr","telephone":"0248727518"},"horaires":"Le Mardi : de 09h00 à 12h30 de 13h30 à 17h00\nLe Vendredi : de 09h00 à 12h30 de 13h30 à 16h30","latitude":47.145134,"longitude":2.875442,"website":"https://www.charentonnay.fr/","hasWebsite":true,"hasHoraires":true,"url":"https://lannuaire.service-public.gouv.fr/centre-val-de-loire/cher/2fdd383e-3587-43a4-8783-035e09091d5c"}
{"nom":"Charly","nomNormalise":"charly","typeCollectivite":"Commune","region":"Centre-Val de Loire","departement":"Cher","departementCode":"18","adresse":{"street":"28 route de Nérondes","postalCode":"18350","city":"Charly","country":"France"},"contacts":{"email":"mairie-charly@orange.fr","telephone":"0248747092"},"horaires":"Le Lundi : de 13h30 à 16h00\nLe Mercredi : de 09h00 à 12h00\nDu Vendredi au Samedi : de 09h00 à 12h00\n\nAccueil ouvert uniquement un samedi sur deux.","latitude":46.9024,"longitude":2.75478,"website":"","hasWebsite":false,"hasHoraires":true,"url":"https://lannuaire.service-public.gouv.fr/centre-val-de-loire/cher/ab1528d5-4b54-4e04-b775-a43bad46f28b"}
{"nom":"Charost","nomNormalise":"charost","typeCollectivite":"Commune","region":"Centre-Val de Loire","departement":"Cher","departementCode":"18","adresse":{"street":"Place de la Mairie","postalCode":"18290","city":"Charost","country":"France"},"contacts":{"email":"mairiedecharost@orange.fr","telephone":"0248262026"},"horaires":"Le Lundi : de 10h00 à 12h00 de 15h00 à 17h30\nLe Mercredi : de 10h00 à 13h00\nDu Jeudi au Vendredi : de 10h00 à 12h00 de 15h00 à 17h30","latitude":46.994316,"longitude":2.116665,"website":"https://charost.fr/","hasWebsite":true,"hasHoraires":true,"url":"https://lannuaire.service-public.gouv.fr/centre-val-de-loire/cher/0bda8703-682f-48bf-ab1b-1bc84e003824"}
{"nom":"Chassy","nomNormalise":"chassy","typeCollectivite":"Commune","region":"Centre-Val de Loire","departement":"Cher","departementCode":"18","adresse":{"street":"1 rue de la Mairie","postalCode":"18800","city":"Chassy","country":"France"},"contacts":{"email":"mairie.chassy@wanadoo.fr","telephone":"0248802076"},"horaires":"Du Lundi au Mardi : de 08h30 à 13h30\nDu Jeudi au Vendredi : de 08h30 à 13h30","latitude":47.0419,"longitude":2.8358,"website":"https://chassy.fr/","hasWebsite":true,"hasHoraires":true,"url":"https://lannuaire.service-public.gouv.fr/centre-val-de-loire/cher/cf6291f5-ca49-4c4a-b911-a5d295d62777"}
{"nom":"Châteaumeillant","nomNormalise":"chateaumeillant","typeCollectivite":"Commune","region":"Centre-Val de Loire","departement":"Cher","departementCode":"18","adresse":{"street":"4 place de la Mairie","postalCode":"18370","city":"Châteaumeillant","country":"France"},"contacts":{"email":"mairie@chateaumeillant.fr","telephone":"0248613317"},"horaires":"Du Lundi au Vendredi : de 08h30 à 12h00 de 14h00 à 17h00","latitude":46.5601,"longitude":2.19475,"website":"https://www.chateaumeillant.fr/","hasWebsite":true,"hasHoraires":true,"url":"https://lannuaire.service-public.gouv.fr/centre-val-de-loire/cher/f4bbde44-c9d6-4dda-af59-528f5685fe51"}
{"nom":"Châteauneuf-sur-Cher","nomNormalise":"chateauneufsurcher","typeCollectivite":"Commune","region":"Centre-Val de Loire","departement":"Cher","departementCode":"18","adresse":{"street":"Place de l'Hôtel-de-Ville","postalCode":"18190","city":"Châteauneuf-sur-Cher","country":"France"},"contacts":{"email":"accueil@chateauneufsurcher.fr","telephone":"0248606384"},"horaires":"Le Lundi : de 13h30 à 17h30\nDu Mardi au Mercredi : de 09h00 à 12h00 de 13h30 à 17h30\nLe Jeudi : de 09h00 à 12h00\nLe Vendredi : de 09h00 à 12h00 de 13h30 à 17h30\nLe Samedi : de 09h00 à 12h00","latitude":46.85798,"longitude":2.3218,"website":"https://www.chateauneufsurcher.fr/","hasWebsite":true,"hasHoraires":true,"url":"https://lannuaire.service-public.gouv.fr/centre-val-de-loire/cher/1a4760a0-3610-43c3-902d-80b8fb39d899"}
{"nom":"Chaumont","nomNormalise":"chaumont","typeCollectivite":"Commune","region":"Centre-Val de Loire","departement":"Cher","departementCode":"18","adresse":{"street":"Le Bourg","postalCode":"18350","city":"Chaumont","country":"France"},"contacts":{"email":"mairie-chaumont@orange.fr","telephone":"0248747444"},"horaires":"Le Jeudi : de 13h30 à 17h30","latitude":46.844223,"longitude":2.7522624,"website":"","hasWebsite":false,"hasHoraires":true,"url":"https://lannuaire.service-public.gouv.fr/centre-val-de-loire/cher/963c0480-2bee-4337-a27d-a3ffd10fdb06"}
{"nom":"Chaumoux-Marcilly","nomNormalise":"chaumouxmarcilly","typeCollectivite":"Commune","region":"Centre-Val de Loire","departement":"Cher","departementCode":"18","adresse":{"street":"8 route de Baugy","postalCode":"18140","city":"Chaumoux-Marcilly","country":"France"},"contacts":{"email":"mairie.chaumoux-marcilly@wanadoo.fr","telephone":"0248685708"},"horaires":"Le Lundi : de 08h30 à 12h00\nLe Mercredi : de 08h30 à 12h00 de 13h30 à 16h00\nLe Vendredi : de 13h30 à 16h00","latitude":47.126373,"longitude":2.778816,"website":"http://www.chaumoux-marcilly.fr/","hasWebsite":true,"hasHoraires":true,"url":"https://lannuaire.service-public.gouv.fr/centre-val-de-loire/cher/d8f9d30b-4abc-477a-9d6d-4252eea3c862"}
{"nom":"Chavannes","nomNormalise":"chavannes","typeCollectivite":"Commune","region":"Centre-Val de Loire","departement":"Cher","departementCode":"18","adresse":{"street":"Place de l'Église","postalCode":"18190","city":"Chavannes","country":"France"},"contacts":{"email":"mairiedechavannes@wanadoo.fr","telephone":"0248606298"},"horaires":"Le Lundi : de 15h00 à 18h00\nLe Mardi : de 15h00 à 19h00\nLe Vendredi : de 14h00 à 17h00","latitude":46.8526,"longitude":2.37705,"website":"","hasWebsite":false,"hasHoraires":true,"url":"https://lannuaire.service-public.gouv.fr/centre-val-de-loire/cher/f93e38fe-2053-4029-90dd-f0850e9ae9e5"}
{"nom":"Chéry","nomNormalise":"chery","typeCollectivite":"Commune","region":"Centre-Val de Loire","departement":"Cher","departementCode":"18","adresse":{"street":"1 chemin des Prés-Martins","postalCode":"18120","city":"Chéry","country":"France"},"contacts":{"email":"mairiechery@orange.fr","telephone":"0248517153"},"horaires":"Du Mardi au Mercredi : de 08h30 à 12h30\nDu Jeudi au Vendredi : de 08h30 à 12h30\nLe Samedi : de 09h30 à 11h00\n\nPermanence des élus uniquement.","latitude":47.12146,"longitude":2.042944,"website":"https://www.cheryenberry.fr/","hasWebsite":true,"hasHoraires":true,"url":"https://lannuaire.service-public.gouv.fr/centre-val-de-loire/cher/fe0bb7fc-7f91-4852-82ea-10ffc39856ef"}
{"nom":"Chezal-Benoît","nomNormalise":"chezalbenoit","typeCollectivite":"Commune","region":"Centre-Val de Loire","departement":"Cher","departementCode":"18","adresse":{"street":"17 bis grande-Rue","postalCode":"18160","city":"Chezal-Benoît","country":"France"},"contacts":{"email":"mairie@chezal-benoit.fr","telephone":"0248611115"},"horaires":"Le Lundi : de 08h30 à 12h00 de 13h30 à 17h30\nLe Mardi : de 08h30 à 12h00\nLe Jeudi : de 08h30 à 12h00\nLe Vendredi : de 08h30 à 12h00 de 13h30 à 16h45","latitude":46.827477,"longitude":2.112414,"website":"https://www.chezal-benoit.fr/","hasWebsite":true,"hasHoraires":true,"url":"https://lannuaire.service-public.gouv.fr/centre-val-de-loire/cher/f1325359-326a-43df-af73-7c9ed521bf0f"}
{"nom":"Civray","nomNormalise":"civray","typeCollectivite":"Commune","region":"Centre-Val de Loire","departement":"Cher","departementCode":"18","adresse":{"street":"2 place de l'Église","postalCode":"18290","city":"Civray","country":"France"},"contacts":{"email":"contact@civray-cher.fr","telephone":"0248551409"},"horaires":"Le Lundi : de 13h30 à 17h00\nDu Mardi au Mercredi : de 09h00 à 12h00\nDu Jeudi au Vendredi : de 09h00 à 12h00 de 13h30 à 17h00","latitude":46.967472,"longitude":2.1735935,"website":"https://www.civray-cher.fr/","hasWebsite":true,"hasHoraires":true,"url":"https://lannuaire.service-public.gouv.fr/centre-val-de-loire/cher/9eb8d189-7546-400d-bf77-51b871b8786b"}
{"nom":"Clémont","nomNormalise":"clemont","typeCollectivite":"Commune","region":"Centre-Val de Loire","departement":"Cher","departementCode":"18","adresse":{"street":"2 place Albert-Boyer","postalCode":"18410","city":"Clémont","country":"France"},"contacts":{"email":"accueil@mairieclemont.fr","telephone":"0248588787"},"horaires":"Du Lundi au Mardi : de 09h00 à 12h00 de 14h00 à 17h00\nDu Jeudi au Vendredi : de 09h00 à 12h00 de 14h00 à 17h00","latitude":47.566807,"longitude":2.305865,"website":"https://www.mairieclemont.fr/","hasWebsite":true,"hasHoraires":true,"url":"https://lannuaire.service-public.gouv.fr/centre-val-de-loire/cher/98e3c9c1-b10a-40fa-a7d6-94703861d390"}
{"nom":"Cogny","nomNormalise":"cogny","typeCollectivite":"Commune","region":"Centre-Val de Loire","departement":"Cher","departementCode":"18","adresse":{"street":"Rue du Gué-de-l'Aubray","postalCode":"18130","city":"Cogny","country":"France"},"contacts":{"email":"cogny-cher@wanadoo.fr","telephone":"0248618123"},"horaires":"Le Mardi : de 14h00 à 16h00","latitude":46.845974,"longitude":2.634689,"website":"","hasWebsite":false,"hasHoraires":true,"url":"https://lannuaire.service-public.gouv.fr/centre-val-de-loire/cher/5331f3f8-0c2f-4485-a65d-1bf0a4517fdc"}
{"nom":"Colombiers","nomNormalise":"colombiers","typeCollectivite":"Commune","region":"Centre-Val de Loire","departement":"Cher","departementCode":"18","adresse":{"street":"7 rue de la Jumelle","postalCode":"18200","city":"Colombiers","country":"France"},"contacts":{"email":"mairie.colombiers@wanadoo.fr","telephone":"0248962172"},"horaires":"Du Lundi au Mardi : de 14h00 à 19h00\nLe Mercredi : de 09h00 à 12h00\nLe Jeudi : de 14h00 à 19h00\nLe Vendredi : de 09h00 à 12h00","latitude":46.701378,"longitude":2.538874,"website":"","hasWebsite":false,"hasHoraires":true,"url":"https://lannuaire.service-public.gouv.fr/centre-val-de-loire/cher/e6da58e4-2648-491f-b21a-c3f42f622792"}
{"nom":"Concressault","nomNormalise":"concressault","typeCollectivite":"Commune","region":"Centre-Val de Loire","departement":"Cher","departementCode":"18","adresse":{"street":"3 rue de la Mairie","postalCode":"18260","city":"Concressault","country":"France"},"contacts":{"email":"mairie.concressault@orange.fr","telephone":"0248737433"},"horaires":"Du Lundi au Vendredi : de 09h00 à 12h00","latitude":47.489723,"longitude":2.5758338,"website":"","hasWebsite":false,"hasHoraires":true,"url":"https://lannuaire.service-public.gouv.fr/centre-val-de-loire/cher/afd723b8-6350-460f-aef9-15e22e6bc86d"}
{"nom":"Contres","nomNormalise":"contres","typeCollectivite":"Commune","region":"Centre-Val de Loire","departement":"Cher","departementCode":"18","adresse":{"street":"2 impasse de la Caroline","postalCode":"18130","city":"Contres","country":"France"},"contacts":{"email":"mairie.contres.18@wanadoo.fr","telephone":"0248598291"},"horaires":"Le Lundi : de 14h00 à 18h00\nLe Mercredi : de 14h00 à 18h00","latitude":46.86728,"longitude":2.488414,"website":"","hasWebsite":false,"hasHoraires":true,"url":"https://lannuaire.service-public.gouv.fr/centre-val-de-loire/cher/d1161916-53c0-4080-aa62-ab80da9dc9d8"}
{"nom":"Cornusse","nomNormalise":"cornusse","typeCollectivite":"Commune","region":"Centre-Val de Loire","departement":"Cher","departementCode":"18","adresse":{"street":"3 route de Raymond","postalCode":"18350","city":"Cornusse","country":"France"},"contacts":{"email":"mairie@cornusse.fr","telephone":"0248768185"},"horaires":"Le Lundi : de 08h00 à 12h00\nDu Jeudi au Vendredi : de 08h00 à 12h00","latitude":46.954887,"longitude":2.7291558,"website":"https://www.cornusse.fr/","hasWebsite":true,"hasHoraires":true,"url":"https://lannuaire.service-public.gouv.fr/centre-val-de-loire/cher/6ec09954-5dee-4362-a60d-5924c98b1e01"}
{"nom":"Corquoy","nomNormalise":"corquoy","typeCollectivite":"Commune","region":"Centre-Val de Loire","departement":"Cher","departementCode":"18","adresse":{"street":"10 route de Lunery","postalCode":"18190","city":"Corquoy","country":"France"},"contacts":{"email":"corquoycommune@mairiedecorquoy.fr","telephone":"0248606604"},"horaires":"Le Mardi : de 09h00 à 16h00\nLe Vendredi : de 09h00 à 16h00","latitude":46.898624,"longitude":2.292582,"website":"","hasWebsite":false,"hasHoraires":true,"url":"https://lannuaire.service-public.gouv.fr/centre-val-de-loire/cher/962c658f-8eda-4760-bfc1-1933584b3ac3"}
{"nom":"Couargues","nomNormalise":"couargues","typeCollectivite":"Commune","region":"Centre-Val de Loire","departement":"Cher","departementCode":"18","adresse":{"street":"Prévent","postalCode":"18300","city":"Couargues","country":"France"},"contacts":{"email":"mairie.couargues@wanadoo.fr","telephone":"0248799047"},"horaires":"Le Lundi : de 09h30 à 12h30\nLe Jeudi : de 09h30 à 12h30\nLe Vendredi : de 14h00 à 17h00","latitude":47.277805,"longitude":2.927231,"website":"","hasWebsite":false,"hasHoraires":true,"url":"https://lannuaire.service-public.gouv.fr/centre-val-de-loire/cher/2b902e34-084f-4ccf-a1c6-c9669de46f49"}
{"nom":"Cours-les-Barres","nomNormalise":"courslesbarres","typeCollectivite":"Commune","region":"Centre-Val de Loire","departement":"Cher","departementCode":"18","adresse":{"street":"1 place de l'Église","postalCode":"18320","city":"Cours-les-Barres","country":"France"},"contacts":{"email":"mairie.cours.les.barres@wanadoo.fr","telephone":"0248764986"},"horaires":"Le Mardi : de 10h00 à 12h00 de 14h00 à 17h30\nDu Jeudi au Vendredi : de 10h00 à 12h00 de 14h00 à 17h30\nLe Samedi : de 09h00 à 12h00","latitude":46.9619,"longitude":3.05349,"website":"https://www.courslesbarres.fr/","hasWebsite":true,"hasHoraires":true,"url":"https://lannuaire.service-public.gouv.fr/centre-val-de-loire/cher/489bc827-95e2-4b06-a065-18d78056657d"}
{"nom":"Coust","nomNormalise":"coust","typeCollectivite":"Commune","region":"Centre-Val de Loire","departement":"Cher","departementCode":"18","adresse":{"street":"23 route d'Ainay","postalCode":"18210","city":"Coust","country":"France"},"contacts":{"email":"secretariat.mairie@coust.fr","telephone":"0248635055"},"horaires":"Le Lundi : de 14h00 à 17h00\nLe Mardi : de 14h00 à 18h00\nLe Jeudi : de 14h00 à 17h00\nLe Vendredi : de 09h00 à 12h00","latitude":46.690765,"longitude":2.5930283,"website":"","hasWebsite":false,"hasHoraires":true,"url":"https://lannuaire.service-public.gouv.fr/centre-val-de-loire/cher/d437c304-02c5-4ca2-841e-e863312ab95c"}
{"nom":"Couy","nomNormalise":"couy","typeCollectivite":"Commune","region":"Centre-Val de Loire","departement":"Cher","departementCode":"18","adresse":{"street":"2 route de Baugy","postalCode":"18140","city":"Couy","country":"France"},"contacts":{"email":"secretariat@mairie-couy.fr","telephone":"0248727723"},"horaires":"Du Lundi au Vendredi : de 08h30 à 12h30 de 14h00 à 16h00","latitude":47.1168,"longitude":2.82467,"website":"","hasWebsite":false,"hasHoraires":true,"url":"https://lannuaire.service-public.gouv.fr/centre-val-de-loire/cher/8dcd5a18-5e41-4136-86c5-73d6c5532369"}
{"nom":"Crézançay-sur-Cher","nomNormalise":"crezancaysurcher","typeCollectivite":"Commune","region":"Centre-Val de Loire","departement":"Cher","departementCode":"18","adresse":{"street":"Le Bourg","postalCode":"18190","city":"Crézançay-sur-Cher","country":"France"},"contacts":{"email":"mairie.crezancaysurcher@wanadoo.fr","telephone":"0248636283"},"horaires":"Le Mardi : de 09h00 à 12h00\nLe Jeudi : de 09h00 à 12h00","latitude":46.812428,"longitude":2.35806,"website":"","hasWebsite":false,"hasHoraires":true,"url":"https://lannuaire.service-public.gouv.fr/centre-val-de-loire/cher/52b0f154-e624-44e9-ad0b-28da1bb89185"}
{"nom":"Crézancy-en-Sancerre","nomNormalise":"crezancyensancerre","typeCollectivite":"Commune","region":"Centre-Val de Loire","departement":"Cher","departementCode":"18","adresse":{"street":"8 place Edgard-Hubert","postalCode":"18300","city":"Crézancy-en-Sancerre","country":"France"},"contacts":{"email":"accueil@mairie-crezancy-en-sancerre.fr","telephone":"0248790394"},"horaires":"Du Lundi au Vendredi : de 08h00 à 12h00\nLe Samedi : de 10h00 à 11h30","latitude":47.3472,"longitude":2.80814,"website":"https://www.crezancyensancerre.com/","hasWebsite":true,"hasHoraires":true,"url":"https://lannuaire.service-public.gouv.fr/centre-val-de-loire/cher/1e1c1cd5-647f-4aa8-9ac3-85badf252339"}
{"nom":"Croisy","nomNormalise":"croisy","typeCollectivite":"Commune","region":"Centre-Val de Loire","departement":"Cher","departementCode":"18","adresse":{"street":"Le Bourg","postalCode":"18350","city":"Croisy","country":"France"},"contacts":{"email":"mairie.croisy@wanadoo.fr","telephone":"0248768458"},"horaires":"Le Mardi : de 09h00 à 12h30 de 13h30 à 16h30\nLe Jeudi : de 13h30 à 18h00","latitude":46.938988,"longitude":2.807599,"website":"","hasWebsite":false,"hasHoraires":true,"url":"https://lannuaire.service-public.gouv.fr/centre-val-de-loire/cher/7aee8331-c1c1-4d61-996b-c1fc4c4d6e43"}
{"nom":"Crosses","nomNormalise":"crosses","typeCollectivite":"Commune","region":"Centre-Val de Loire","departement":"Cher","departementCode":"18","adresse":{"street":"9 rue de l'École","postalCode":"18340","city":"Crosses","country":"France"},"contacts":{"email":"mairie.crosses@wanadoo.fr","telephone":"0248250117"},"horaires":"Le Lundi : de 13h30 à 17h30\nLe Mardi : de 14h00 à 18h00\nLe Mercredi : de 08h30 à 12h30\nLe Jeudi : de 13h30 à 17h30\nLe Vendredi : de 08h30 à 12h30","latitude":47.0126,"longitude":2.58335,"website":"https://www.mairie-de-crosses.com/","hasWebsite":true,"hasHoraires":true,"url":"https://lannuaire.service-public.gouv.fr/centre-val-de-loire/cher/9cb4ea97-67fb-443f-8b0a-db5d59ba56f5"}
{"nom":"Cuffy","nomNormalise":"cuffy","typeCollectivite":"Commune","region":"Centre-Val de Loire","departement":"Cher","departementCode":"18","adresse":{"street":"2 rue de la Mairie","postalCode":"18150","city":"Cuffy","country":"France"},"contacts":{"email":"secretariat@mairie-cuffy.fr","telephone":"0248804054"},"horaires":"Du Lundi au Mardi : de 09h00 à 12h00 de 15h00 à 18h00\nLe Mercredi : de 09h00 à 12h00\nDu Jeudi au Vendredi : de 09h00 à 12h00 de 15h00 à 18h00\nLe Samedi : de 09h00 à 12h00","latitude":46.961735,"longitude":3.052384,"website":"https://www.mairie-cuffy.fr/","hasWebsite":true,"hasHoraires":true,"url":"https://lannuaire.service-public.gouv.fr/centre-val-de-loire/cher/4e4129a7-75c1-4500-83f5-eb3f18a6f513"}
{"nom":"Culan","nomNormalise":"culan","typeCollectivite":"Commune","region":"Centre-Val de Loire","departement":"Cher","departementCode":"18","adresse":{"street":"6 place Saint-Ursin","postalCode":"18270","city":"Culan","country":"France"},"contacts":{"email":"mairie.de.culan@wanadoo.fr","telephone":"0248566441"},"horaires":"Du Lundi au Vendredi : de 08h00 à 12h00 de 14h00 à 17h00","latitude":46.5475,"longitude":2.34992,"website":"","hasWebsite":false,"hasHoraires":true,"url":"https://lannuaire.service-public.gouv.fr/centre-val-de-loire/cher/3b578762-00d3-4d14-9093-3d29bd8bc3ec"}
{"nom":"Dampierre-en-Crot","nomNormalise":"dampierreencrot","typeCollectivite":"Commune","region":"Centre-Val de Loire","departement":"Cher","departementCode":"18","adresse":{"street":"8 route de Concressault","postalCode":"18260","city":"Dampierre-en-Crot","country":"France"},"contacts":{"email":"commune-de-dampierre-en-crot@wanadoo.fr","telephone":"0248737240"},"horaires":"Du Lundi au Jeudi : de 13h15 à 17h30","latitude":47.460846,"longitude":2.583063,"website":"","hasWebsite":false,"hasHoraires":true,"url":"https://lannuaire.service-public.gouv.fr/centre-val-de-loire/cher/79b97949-c023-4ac9-bee6-d7d89142c2fa"}
{"nom":"Dampierre-en-Graçay","nomNormalise":"dampierreengracay","typeCollectivite":"Commune","region":"Centre-Val de Loire","departement":"Cher","departementCode":"18","adresse":{"street":"2 route de Nohant","postalCode":"18310","city":"Dampierre-en-Graçay","country":"France"},"contacts":{"email":"mairie-de-dampierre-en-gracay@wanadoo.fr","telephone":"0248753242"},"horaires":"Du Lundi au Mardi : de 10h00 à 12h30 de 13h30 à 18h30\nDu Jeudi au Vendredi : de 10h00 à 12h30 de 13h30 à 18h30","latitude":47.182007,"longitude":1.942862,"website":"https://www.dampierre-en-gracay.com/","hasWebsite":true,"hasHoraires":true,"url":"https://lannuaire.service-public.gouv.fr/centre-val-de-loire/cher/699ae1d0-8905-404d-8579-ee47d02b5253"}
{"nom":"Drevant","nomNormalise":"drevant","typeCollectivite":"Commune","region":"Centre-Val de Loire","departement":"Cher","departementCode":"18","adresse":{"street":"2 place de l'Église","postalCode":"18200","city":"Drevant","country":"France"},"contacts":{"email":"mairie-drevant@orange.fr","telephone":"0248963420"},"horaires":"Du Lundi au Mardi : de 09h00 à 12h00 de 13h30 à 17h00\nDu Jeudi au Vendredi : de 09h00 à 12h00 de 13h30 à 17h00","latitude":46.693245,"longitude":2.524624,"website":"https://drevant.net/","hasWebsite":true,"hasHoraires":true,"url":"https://lannuaire.service-public.gouv.fr/centre-val-de-loire/cher/4f13d815-baca-4830-b582-dc2f89c13438"}
{"nom":"Dun-sur-Auron","nomNormalise":"dunsurauron","typeCollectivite":"Commune","region":"Centre-Val de Loire","departement":"Cher","departementCode":"18","adresse":{"street":"3 place du Champ-de-Foire","postalCode":"18130","city":"Dun-sur-Auron","country":"France"},"contacts":{"email":"contact@ville-dunsurauron.fr","telephone":"0248666420"},"horaires":"Le Lundi : de 08h30 à 12h00 de 13h30 à 17h30\nDu Mardi au Jeudi : de 08h20 à 12h00 de 13h30 à 17h30\nLe Vendredi : de 08h30 à 12h00 de 13h30 à 17h00\nLe Samedi : de 10h00 à 12h00","latitude":46.8879,"longitude":2.57405,"website":"https://www.dun-sur-auron.fr/","hasWebsite":true,"hasHoraires":true,"url":"https://lannuaire.service-public.gouv.fr/centre-val-de-loire/cher/b882308e-b2d2-45ec-8a86-618e51b7a003"}
{"nom":"Ennordres","nomNormalise":"ennordres","typeCollectivite":"Commune","region":"Centre-Val de Loire","departement":"Cher","departementCode":"18","adresse":{"street":"26 Grande-Rue","postalCode":"18380","city":"Ennordres","country":"France"},"contacts":{"email":"mairie-ennordres@orange.fr","telephone":"0248580682"},"horaires":"Le Lundi : de 16h00 à 18h00\nLe Mardi : de 10h00 à 12h00\nDu Jeudi au Vendredi : de 10h00 à 12h00","latitude":47.430374,"longitude":2.3841,"website":"https://www.intramuros.org/ennordres","hasWebsite":true,"hasHoraires":true,"url":"https://lannuaire.service-public.gouv.fr/centre-val-de-loire/cher/40d4c9a2-5bef-497b-aaa3-20af684c74ca"}
{"nom":"Épineuil-le-Fleuriel","nomNormalise":"epineuillefleuriel","typeCollectivite":"Commune","region":"Centre-Val de Loire","departement":"Cher","departementCode":"18","adresse":{"street":"4 rue Alain-Fournier","postalCode":"18360","city":"Épineuil-le-Fleuriel","country":"France"},"contacts":{"email":"mairie.epineuil@orange.fr","telephone":"0248630218"},"horaires":"Le Mardi : de 09h00 à 12h30\nLe Jeudi : de 09h00 à 12h30\nLe Vendredi : de 09h00 à 12h30 de 13h30 à 16h30","latitude":46.5579,"longitude":2.5825,"website":"https://www.epineuil.fr/","hasWebsite":true,"hasHoraires":true,"url":"https://lannuaire.service-public.gouv.fr/centre-val-de-loire/cher/d48e3ffa-ef39-46c8-8ae6-44ac231a8663"}
{"nom":"Étréchy","nomNormalise":"etrechy","typeCollectivite":"Commune","region":"Centre-Val de Loire","departement":"Cher","departementCode":"18","adresse":{"street":"2 avenue du Général-de-Gaulle","postalCode":"18800","city":"Étréchy","country":"France"},"contacts":{"email":"mairie.etrechy@wanadoo.fr","telephone":"0248685246"},"horaires":"Le Lundi : de 09h00 à 18h00\nLe Mercredi : de 09h00 à 13h00\nLe Jeudi : de 09h00 à 19h00","latitude":47.161697,"longitude":2.7280405,"website":"","hasWebsite":false,"hasHoraires":true,"url":"https://lannuaire.service-public.gouv.fr/centre-val-de-loire/cher/e6701528-b3f7-465b-8f9b-0102bf6814ff"}
{"nom":"Farges-Allichamps","nomNormalise":"fargesallichamps","typeCollectivite":"Commune","region":"Centre-Val de Loire","departement":"Cher","departementCode":"18","adresse":{"street":"15 route de Bruère","postalCode":"18200","city":"Farges-Allichamps","country":"France"},"contacts":{"email":"mairie@farges-all.fr","telephone":"0248610133"},"horaires":"Le Lundi : de 08h00 à 13h00\nLe Mardi : de 14h00 à 19h00\nLe Mercredi : de 08h00 à 13h00\nLe Jeudi : de 08h00 à 12h00","latitude":46.759014,"longitude":2.402041,"website":"https://farges-allichamps.fr/","hasWebsite":true,"hasHoraires":true,"url":"https://lannuaire.service-public.gouv.fr/centre-val-de-loire/cher/f197f6a6-dd26-4b6b-b2db-db205cf1ee4c"}
{"nom":"Farges-en-Septaine","nomNormalise":"fargesenseptaine","typeCollectivite":"Commune","region":"Centre-Val de Loire","departement":"Cher","departementCode":"18","adresse":{"street":"5 rue des Épinettes","postalCode":"18800","city":"Farges-en-Septaine","country":"France"},"contacts":{"email":"mairie.farges@wanadoo.fr","telephone":"0248691209"},"horaires":"Le Lundi : de 08h45 à 12h15 de 13h30 à 18h00\nLe Mardi : de 08h15 à 12h15 de 13h30 à 16h30\nLe Mercredi : de 08h15 à 13h15\nLe Jeudi : de 08h15 à 12h15 de 13h30 à 16h30\nLe Vendredi : de 08h45 à 12h15 de 13h30 à 18h00","latitude":47.073166,"longitude":2.6502776,"website":"http://www.farges-en-septaine.fr/","hasWebsite":true,"hasHoraires":true,"url":"https://lannuaire.service-public.gouv.fr/centre-val-de-loire/cher/e71afe20-cd21-42b5-be07-3841280e7352"}
{"nom":"Faverdines","nomNormalise":"faverdines","typeCollectivite":"Commune","region":"Centre-Val de Loire","departement":"Cher","departementCode":"18","adresse":{"street":"5 Gariot","postalCode":"18360","city":"Faverdines","country":"France"},"contacts":{"email":"mairie.faverdines@wanadoo.fr","telephone":"0248961153"},"horaires":"Le Lundi : de 08h30 à 15h30\nLe Vendredi : de 08h30 à 15h30","latitude":46.638893,"longitude":2.476384,"website":"","hasWebsite":false,"hasHoraires":true,"url":"https://lannuaire.service-public.gouv.fr/centre-val-de-loire/cher/8a7328ed-8ce2-404b-8a91-a3725c0c7a16"}
{"nom":"Feux","nomNormalise":"feux","typeCollectivite":"Commune","region":"Centre-Val de Loire","departement":"Cher","departementCode":"18","adresse":{"street":"3 place des Tilleuls","postalCode":"18300","city":"Feux","country":"France"},"contacts":{"email":"mairie.feux@wanadoo.fr","telephone":"0248729122"},"horaires":"Du Mardi au Jeudi : de 08h00 à 12h00 de 14h00 à 17h00\nLe Vendredi : de 08h00 à 12h00\nLe Samedi : de 09h00 à 12h00","latitude":47.229927,"longitude":2.859682,"website":"https://www.mairiedefeux18.fr/","hasWebsite":true,"hasHoraires":true,"url":"https://lannuaire.service-public.gouv.fr/centre-val-de-loire/cher/8aa10c54-a7c2-4c58-84b6-487f728683b1"}
{"nom":"Flavigny","nomNormalise":"flavigny","typeCollectivite":"Commune","region":"Centre-Val de Loire","departement":"Cher","departementCode":"18","adresse":{"street":"22 Grande-Rue","postalCode":"18350","city":"Flavigny","country":"France"},"contacts":{"email":"mairie.flavigny@wanadoo.fr","telephone":"0248748078"},"horaires":"Du Lundi au Mardi : de 13h30 à 17h00\nDu Jeudi au Vendredi : de 13h30 à 17h00","latitude":46.96578,"longitude":2.8001719,"website":"","hasWebsite":false,"hasHoraires":true,"url":"https://lannuaire.service-public.gouv.fr/centre-val-de-loire/cher/a1df0c10-5198-45c1-9889-bcde2b57bf9c"}
{"nom":"Foëcy","nomNormalise":"foecy","typeCollectivite":"Commune","region":"Centre-Val de Loire","departement":"Cher","departementCode":"18","adresse":{"street":"21 rue Gaston-Cornavin","postalCode":"18500","city":"Foëcy","country":"France"},"contacts":{"email":"mairiefoecy@gmail.com","telephone":"0248530180"},"horaires":"Du Lundi au Vendredi : de 08h45 à 12h00 de 14h00 à 17h00\nLe Samedi : de 08h45 à 12h00","latitude":47.1781,"longitude":2.16054,"website":"https://foecy.fr/","hasWebsite":true,"hasHoraires":true,"url":"https://lannuaire.service-public.gouv.fr/centre-val-de-loire/cher/3e6ce442-475b-4355-b894-e397c8e5539a"}
{"nom":"Fussy","nomNormalise":"fussy","typeCollectivite":"Commune","region":"Centre-Val de Loire","departement":"Cher","departementCode":"18","adresse":{"street":"Place du 8-Mai-1945","postalCode":"18110","city":"Fussy","country":"France"},"contacts":{"email":"mairie-de-fussy@wanadoo.fr","telephone":"0248693421"},"horaires":"Le Lundi : de 08h00 à 12h00 de 13h30 à 17h30\nDu Mercredi au Vendredi : de 08h00 à 12h00 de 13h30 à 17h30\nLe Samedi : de 09h00 à 12h00","latitude":47.1442,"longitude":2.42726,"website":"https://www.fussy.fr/","hasWebsite":true,"hasHoraires":true,"url":"https://lannuaire.service-public.gouv.fr/centre-val-de-loire/cher/a7f89a1e-40e0-41c5-b9fb-9694189ffc0a"}
{"nom":"Gardefort","nomNormalise":"gardefort","typeCollectivite":"Commune","region":"Centre-Val de Loire","departement":"Cher","departementCode":"18","adresse":{"street":"5 Grand'rue","postalCode":"18300","city":"Gardefort","country":"France"},"contacts":{"email":"communedegardefort@orange.fr","telephone":"0248792791"},"horaires":"Le Mardi : de 13h30 à 17h30\nLe Jeudi : de 13h30 à 17h30\nLe Vendredi : de 09h00 à 12h00","latitude":47.266632,"longitude":2.829642,"website":"","hasWebsite":false,"hasHoraires":true,"url":"https://lannuaire.service-public.gouv.fr/centre-val-de-loire/cher/f7df85b0-55dc-409a-97ed-34596d416930"}
{"nom":"Garigny","nomNormalise":"garigny","typeCollectivite":"Commune","region":"Centre-Val de Loire","departement":"Cher","departementCode":"18","adresse":{"street":"Place de la Mairie","postalCode":"18140","city":"Garigny","country":"France"},"contacts":{"email":"mairie.garigny@wanadoo.fr","telephone":"0248806395"},"horaires":"Le Mardi : de 09h00 à 12h00\nLe Vendredi : de 09h00 à 12h00","latitude":47.086147,"longitude":2.8866923,"website":"","hasWebsite":false,"hasHoraires":true,"url":"https://lannuaire.service-public.gouv.fr/centre-val-de-loire/cher/13c45e94-bf64-45d3-b785-8be61a801c07"}
{"nom":"Genouilly","nomNormalise":"genouilly","typeCollectivite":"Commune","region":"Centre-Val de Loire","departement":"Cher","departementCode":"18","adresse":{"street":"49 rue du Bas-Bourg","postalCode":"18310","city":"Genouilly","country":"France"},"contacts":{"email":"mairie.genouillycher@orange.fr","telephone":"0248522162"},"horaires":"Du Lundi au Mardi : de 08h00 à 12h00 de 13h30 à 17h30\nDu Jeudi au Vendredi : de 08h00 à 12h00 de 13h30 à 17h30\nLe Samedi : de 09h00 à 12h00","latitude":47.1914,"longitude":1.88827,"website":"https://www.genouilly.fr/","hasWebsite":true,"hasHoraires":true,"url":"https://lannuaire.service-public.gouv.fr/centre-val-de-loire/cher/e80e5a0b-b49c-4811-9dd3-700eae3fecb1"}
{"nom":"Germigny-l'Exempt","nomNormalise":"germignylexempt","typeCollectivite":"Commune","region":"Centre-Val de Loire","departement":"Cher","departementCode":"18","adresse":{"street":"3 place de la Mairie","postalCode":"18150","city":"Germigny-l'Exempt","country":"France"},"contacts":{"email":"germigny.lexempt@wanadoo.fr","telephone":"0248740916"},"horaires":"Le Lundi : de 10h00 à 12h00\nLe Jeudi : de 10h00 à 12h00\nLe Samedi : de 10h00 à 12h00","latitude":46.91607,"longitude":2.8978474,"website":"","hasWebsite":false,"hasHoraires":true,"url":"https://lannuaire.service-public.gouv.fr/centre-val-de-loire/cher/59eea235-94b0-417d-ab6a-80b79f89ad35"}
{"nom":"Givardon","nomNormalise":"givardon","typeCollectivite":"Commune","region":"Centre-Val de Loire","departement":"Cher","departementCode":"18","adresse":{"street":"6 rue Alfred-Clément","postalCode":"18600","city":"Givardon","country":"France"},"contacts":{"email":"mairie.givardon@wanadoo.fr","telephone":"0248800088"},"horaires":"Le Lundi : de 08h30 à 12h30 de 13h00 à 17h30\nLe Jeudi : de 08h30 à 12h30 de 13h00 à 17h30","latitude":46.84086,"longitude":2.81855,"website":"","hasWebsite":false,"hasHoraires":true,"url":"https://lannuaire.service-public.gouv.fr/centre-val-de-loire/cher/2068d5bd-fc76-49a5-958a-d6d10a86d834"}
{"nom":"Graçay","nomNormalise":"gracay","typeCollectivite":"Commune","region":"Centre-Val de Loire","departement":"Cher","departementCode":"18","adresse":{"street":"Place du Marché","postalCode":"18310","city":"Graçay","country":"France"},"contacts":{"email":"mairiedegracay@orange.fr","telephone":"0248514207"},"horaires":"Le Lundi : de 08h30 à 12h00 de 13h00 à 16h30\nLe Mardi : de 08h30 à 12h00\nLe Mercredi : de 08h30 à 12h00 de 13h00 à 16h30\nLe Jeudi : de 08h30 à 12h00\nLe Vendredi : de 08h30 à 12h00 de 13h00 à 16h30\nLe Samedi : de 09h30 à 11h30\n\nPlus permanence des élus","latitude":47.1426,"longitude":1.84564,"website":"https://www.gracay.info/","hasWebsite":true,"hasHoraires":true,"url":"https://lannuaire.service-public.gouv.fr/centre-val-de-loire/cher/58dfae91-aca1-4093-8727-15b808dfa6f3"}
{"nom":"Groises","nomNormalise":"groises","typeCollectivite":"Commune","region":"Centre-Val de Loire","departement":"Cher","departementCode":"18","adresse":{"street":"7 route de Sancergues","postalCode":"18140","city":"Groises","country":"France"},"contacts":{"email":"secretariat@mairiedegroises.fr","telephone":"0248729092"},"horaires":"Du Lundi au Jeudi : de 09h00 à 12h00","latitude":47.209167,"longitude":2.81121,"website":"","hasWebsite":false,"hasHoraires":true,"url":"https://lannuaire.service-public.gouv.fr/centre-val-de-loire/cher/1c69edcb-8238-4750-9145-269a2b633f28"}
{"nom":"Gron","nomNormalise":"gron","typeCollectivite":"Commune","region":"Centre-Val de Loire","departement":"Cher","departementCode":"18","adresse":{"street":"19 place de l'Église","postalCode":"18800","city":"Gron","country":"France"},"contacts":{"email":"mairie.gron.18@wanadoo.fr","telephone":"0248685011"},"horaires":"Du Lundi au Mardi : de 09h00 à 12h15 de 14h00 à 17h00\nDu Jeudi au Vendredi : de 09h00 à 12h15 de 14h00 à 17h00","latitude":47.1207,"longitude":2.7407587,"website":"http://www.gron18.fr/","hasWebsite":true,"hasHoraires":true,"url":"https://lannuaire.service-public.gouv.fr/centre-val-de-loire/cher/eb25c46c-1455-49b9-a6f1-8f4d737bfd80"}
{"nom":"Grossouvre","nomNormalise":"grossouvre","typeCollectivite":"Commune","region":"Centre-Val de Loire","departement":"Cher","departementCode":"18","adresse":{"street":"14 rue Principale","postalCode":"18600","city":"Grossouvre","country":"France"},"contacts":{"email":"grossouvre-mairie@wanadoo.fr","telephone":"0248740827"},"horaires":"Le Mardi : de 08h30 à 12h30 de 13h00 à 17h30\nLe Vendredi : de 08h30 à 12h30 de 13h00 à 17h30","latitude":46.87869,"longitude":2.938286,"website":"","hasWebsite":false,"hasHoraires":true,"url":"https://lannuaire.service-public.gouv.fr/centre-val-de-loire/cher/a0216f0b-6fc4-41b3-b657-8bfff6e60544"}
{"nom":"Henrichemont","nomNormalise":"henrichemont","typeCollectivite":"Commune","region":"Centre-Val de Loire","departement":"Cher","departementCode":"18","adresse":{"street":"1 place de la Mairie","postalCode":"18250","city":"Henrichemont","country":"France"},"contacts":{"email":"mairiehenrichemont@orange.fr","telephone":"0248267004"},"horaires":"Du Lundi au Mardi : de 09h00 à 12h00 de 14h00 à 17h00\nLe Mercredi : de 09h00 à 12h00\nDu Jeudi au Vendredi : de 09h00 à 12h00 de 14h00 à 17h00\nLe Samedi : de 09h00 à 12h00","latitude":47.303402,"longitude":2.525681,"website":"https://henrichemont.fr/infos-pratiques/mairie/","hasWebsite":true,"hasHoraires":true,"url":"https://lannuaire.service-public.gouv.fr/centre-val-de-loire/cher/7c716ef8-3d06-494b-83fb-16087c3e93c1"}
{"nom":"Herry","nomNormalise":"herry","typeCollectivite":"Commune","region":"Centre-Val de Loire","departement":"Cher","departementCode":"18","adresse":{"street":"1 place du Champ-de-Foire","postalCode":"18140","city":"Herry","country":"France"},"contacts":{"email":"mairie@herry.fr","telephone":"0248795424"},"horaires":"Du Lundi au Vendredi : de 08h30 à 12h00 de 13h30 à 17h00\nDu Vendredi au Samedi : de 08h30 à 12h00","latitude":47.2159,"longitude":2.95284,"website":"https://herry.fr/","hasWebsite":true,"hasHoraires":true,"url":"https://lannuaire.service-public.gouv.fr/centre-val-de-loire/cher/cbf35913-b3e9-455a-83a8-15483173107f"}
{"nom":"Humbligny","nomNormalise":"humbligny","typeCollectivite":"Commune","region":"Centre-Val de Loire","departement":"Cher","departementCode":"18","adresse":{"street":"Le Bourg","postalCode":"18250","city":"Humbligny","country":"France"},"contacts":{"email":"mairie.humbligny@wanadoo.fr","telephone":"0248695838"},"horaires":"Le Lundi : de 09h00 à 12h00 de 18h00 à 20h00\nLe Mardi : de 09h00 à 12h00\nDu Jeudi au Vendredi : de 09h00 à 12h00","latitude":47.25422,"longitude":2.662239,"website":"https://humbligny.com/","hasWebsite":true,"hasHoraires":true,"url":"https://lannuaire.service-public.gouv.fr/centre-val-de-loire/cher/f774e4fa-98fa-48fb-9874-1234acd2d3ab"}
{"nom":"Ids-Saint-Roch","nomNormalise":"idssaintroch","typeCollectivite":"Commune","region":"Centre-Val de Loire","departement":"Cher","departementCode":"18","adresse":{"street":"1 A route de Lignières","postalCode":"18170","city":"Ids-Saint-Roch","country":"France"},"contacts":{"email":"mairie-ids-st-roch@wanadoo.fr","telephone":"0248600566"},"horaires":"Du Lundi au Mardi : de 08h30 à 12h30 de 13h00 à 16h30\nLe Mercredi : de 08h30 à 12h00\nDu Jeudi au Vendredi : de 08h30 à 12h30 de 13h00 à 16h30\nLe Samedi : de 09h00 à 12h00","latitude":46.702812,"longitude":2.2412896,"website":"https://www.ids-saint-roch.fr/","hasWebsite":true,"hasHoraires":true,"url":"https://lannuaire.service-public.gouv.fr/centre-val-de-loire/cher/365160dd-95ef-4ce7-91ad-9be07e1ac5d1"}
{"nom":"Ignol","nomNormalise":"ignol","typeCollectivite":"Commune","region":"Centre-Val de Loire","departement":"Cher","departementCode":"18","adresse":{"street":"6 chemin de la Vallée","postalCode":"18350","city":"Ignol","country":"France"},"contacts":{"email":"mairie.ignol@gmail.com","telephone":"0248748194"},"horaires":"Le Mardi : de 13h30 à 17h30\nLe Jeudi : de 08h30 à 12h30 de 13h30 à 17h30\nLe Vendredi : de 13h30 à 17h30","latitude":46.966736,"longitude":2.846615,"website":"","hasWebsite":false,"hasHoraires":true,"url":"https://lannuaire.service-public.gouv.fr/centre-val-de-loire/cher/b251aa36-f65b-4e5f-922a-cc15c9f9b267"}
{"nom":"Ineuil","nomNormalise":"ineuil","typeCollectivite":"Commune","region":"Centre-Val de Loire","departement":"Cher","departementCode":"18","adresse":{"street":"11 Place Saint-Martin","postalCode":"18160","city":"Ineuil","country":"France"},"contacts":{"email":"mairie.ineuil@wanadoo.fr","telephone":"0248600109"},"horaires":"Du Lundi au Mardi : de 13h30 à 17h30\nLe Jeudi : de 13h30 à 17h30\nLe Vendredi : de 13h00 à 16h00","latitude":46.77641,"longitude":2.289196,"website":"","hasWebsite":false,"hasHoraires":true,"url":"https://lannuaire.service-public.gouv.fr/centre-val-de-loire/cher/8245096a-b60c-4698-aa8a-fea75e6b1204"}
{"nom":"Ivoy-le-Pré","nomNormalise":"ivoylepre","typeCollectivite":"Commune","region":"Centre-Val de Loire","departement":"Cher","departementCode":"18","adresse":{"street":"16 rue de la Gare","postalCode":"18380","city":"Ivoy-le-Pré","country":"France"},"contacts":{"email":"ivoy.le.pre@wanadoo.fr","telephone":"0248589045"},"horaires":"Le Lundi : de 09h00 à 12h00\nLe Mardi : de 14h00 à 18h00\nLe Mercredi : de 09h00 à 12h00\nLe Jeudi : de 09h00 à 12h00 de 14h00 à 18h00\nLe Vendredi : de 09h00 à 12h00","latitude":47.3632,"longitude":2.44128,"website":"https://ivoy-le-pre.fr/","hasWebsite":true,"hasHoraires":true,"url":"https://lannuaire.service-public.gouv.fr/centre-val-de-loire/cher/fa1bfcbc-94cd-46ea-a802-bcc866e0cab9"}
{"nom":"Jalognes","nomNormalise":"jalognes","typeCollectivite":"Commune","region":"Centre-Val de Loire","departement":"Cher","departementCode":"18","adresse":{"street":"1 place de l'Église","postalCode":"18300","city":"Jalognes","country":"France"},"contacts":{"email":"mairie.jalognes@wanadoo.fr","telephone":"0248729147"},"horaires":"Le Lundi : de 09h00 à 12h00 de 13h30 à 16h30\nLe Mardi : de 09h00 à 12h00\nDu Jeudi au Vendredi : de 09h00 à 12h00","latitude":47.23566,"longitude":2.784913,"website":"","hasWebsite":false,"hasHoraires":true,"url":"https://lannuaire.service-public.gouv.fr/centre-val-de-loire/cher/17bcf2bc-0971-4e48-ba28-708e4ef25714"}
{"nom":"Jars","nomNormalise":"jars","typeCollectivite":"Commune","region":"Centre-Val de Loire","departement":"Cher","departementCode":"18","adresse":{"street":"35 route de Sury-es-Bois","postalCode":"18260","city":"Jars","country":"France"},"contacts":{"email":"mairie.jars@wanadoo.fr","telephone":"0248587015"},"horaires":"Le Lundi : de 10h00 à 12h30\nLe Mardi : de 10h00 à 12h30 de 14h00 à 18h00\nDu Jeudi au Vendredi : de 10h00 à 12h30","latitude":47.39522,"longitude":2.68177,"website":"https://www.intramuros.org/jars","hasWebsite":true,"hasHoraires":true,"url":"https://lannuaire.service-public.gouv.fr/centre-val-de-loire/cher/e2ae3548-e522-4392-9a8a-78d70f6db93e"}
{"nom":"Jouet-sur-l'Aubois","nomNormalise":"jouetsurlaubois","typeCollectivite":"Commune","region":"Centre-Val de Loire","departement":"Cher","departementCode":"18","adresse":{"street":"4 bis rue des Écoles","postalCode":"18320","city":"Jouet-sur-l'Aubois","country":"France"},"contacts":{"email":"accueil@mairie-jouetsurlaubois.fr","telephone":"0248764326"},"horaires":"Du Lundi au Vendredi : de 09h00 à 12h00 de 13h00 à 17h00","latitude":47.04554,"longitude":2.987757,"website":"https://www.mairie-jouetsurlaubois.fr/","hasWebsite":true,"hasHoraires":true,"url":"https://lannuaire.service-public.gouv.fr/centre-val-de-loire/cher/07542abe-ace0-4238-a7bc-022d9f258da2"}
{"nom":"Jussy-Champagne","nomNormalise":"jussychampagne","typeCollectivite":"Commune","region":"Centre-Val de Loire","departement":"Cher","departementCode":"18","adresse":{"street":"1 place de l'Église","postalCode":"18130","city":"Jussy-Champagne","country":"France"},"contacts":{"email":"mairiejussychampagne@wanadoo.fr","telephone":"0248250044"},"horaires":"Le Mardi : de 08h30 à 12h30\nLe Mercredi : de 14h00 à 18h00\nLe Vendredi : de 08h30 à 12h30","latitude":46.986217,"longitude":2.643028,"website":"https://mairiejussychampagne.fr/","hasWebsite":true,"hasHoraires":true,"url":"https://lannuaire.service-public.gouv.fr/centre-val-de-loire/cher/87732827-0ee2-4079-9e27-0b8d68400a08"}
{"nom":"Jussy-le-Chaudrier","nomNormalise":"jussylechaudrier","typeCollectivite":"Commune","region":"Centre-Val de Loire","departement":"Cher","departementCode":"18","adresse":{"street":"6 place de l'Église","postalCode":"18140","city":"Jussy-le-Chaudrier","country":"France"},"contacts":{"email":"mairiejussychaudrier@wanadoo.fr","telephone":"0967407305"},"horaires":"Le Lundi : de 09h00 à 12h00 de 13h30 à 18h30\n\nAccueil fermé à 16h30 le 1er lundi du mois.\nLe Mardi : de 09h00 à 12h00 de 13h30 à 16h30\nLe Jeudi : de 09h00 à 12h00\nLe Samedi : de 10h00 à 12h00\n\nAccueil ouvert uniquement le 1er samedi du mois.","latitude":47.129044,"longitude":2.933265,"website":"https://lapagelocale.fr/18140-jussy-le-chaudrier","hasWebsite":true,"hasHoraires":true,"url":"https://lannuaire.service-public.gouv.fr/centre-val-de-loire/cher/ae0cdbe9-93f1-410d-bc32-2659eb3a2c6b"}
{"nom":"La Celette","nomNormalise":"lacelette","typeCollectivite":"Commune","region":"Centre-Val de Loire","departement":"Cher","departementCode":"18","adresse":{"street":"Le Bourg","postalCode":"18360","city":"La Celette","country":"France"},"contacts":{"email":"mairie.lacelette18@gmail.com","telephone":"0248635259"},"horaires":"Le Mardi : de 08h00 à 12h00\nLe Mercredi : de 14h00 à 18h00\nLe Vendredi : de 08h00 à 12h00 de 15h00 à 19h00","latitude":46.65082,"longitude":2.521025,"website":"","hasWebsite":false,"hasHoraires":true,"url":"https://lannuaire.service-public.gouv.fr/centre-val-de-loire/cher/9037015d-5446-43e6-bfa5-84eca8dd8302"}
{"nom":"La Celle","nomNormalise":"lacelle","typeCollectivite":"Commune","region":"Centre-Val de Loire","departement":"Cher","departementCode":"18","adresse":{"street":"8 rue des Pélerins","postalCode":"18200","city":"La Celle","country":"France"},"contacts":{"email":"mairie@la-celle.fr","telephone":"0248610025"},"horaires":"Le Lundi : de 14h00 à 18h00\nLe Mardi : de 08h00 à 12h00\nLe Mercredi : de 15h00 à 19h00\nLe Jeudi : de 14h00 à 18h00\nLe Vendredi : de 08h00 à 12h00","latitude":46.767998,"longitude":2.4443421,"website":"https://www.la-celle.fr/","hasWebsite":true,"hasHoraires":true,"url":"https://lannuaire.service-public.gouv.fr/centre-val-de-loire/cher/a552d4a1-5575-45cc-8157-a6e4a1c53791"}
{"nom":"La Celle-Condé","nomNormalise":"lacelleconde","typeCollectivite":"Commune","region":"Centre-Val de Loire","departement":"Cher","departementCode":"18","adresse":{"street":"1 place Odette-Mondain","postalCode":"18160","city":"La Celle-Condé","country":"France"},"contacts":{"email":"mairie.lacelleconde@wanadoo.fr","telephone":"0248600482"},"horaires":"Le Mardi : de 13h30 à 18h00\nLe Mercredi : de 09h00 à 15h30\nLe Vendredi : de 09h15 à 12h15 de 13h30 à 17h00","latitude":46.793297,"longitude":2.1851487,"website":"https://www.lacelleconde.fr/","hasWebsite":true,"hasHoraires":true,"url":"https://lannuaire.service-public.gouv.fr/centre-val-de-loire/cher/40b13432-1ba9-4b0d-b58c-870e95855202"}
{"nom":"La Chapelle-d'Angillon","nomNormalise":"lachapelledangillon","typeCollectivite":"Commune","region":"Centre-Val de Loire","departement":"Cher","departementCode":"18","adresse":{"street":"17 rue Eudes-de-Sully","postalCode":"18380","city":"La Chapelle-d'Angillon","country":"France"},"contacts":{"email":"accueil@lachapelledangillon.fr","telephone":"0248734012"},"horaires":"Du Lundi au Vendredi : de 09h00 à 11h45","latitude":47.3634,"longitude":2.43353,"website":"https://lachapelledangillon.fr/","hasWebsite":true,"hasHoraires":true,"url":"https://lannuaire.service-public.gouv.fr/centre-val-de-loire/cher/20b6dfd9-f9a4-4292-879f-88a48df22310"}
{"nom":"La Chapelle-Hugon","nomNormalise":"lachapellehugon","typeCollectivite":"Commune","region":"Centre-Val de Loire","departement":"Cher","departementCode":"18","adresse":{"street":"7 bis route d'Apremont","postalCode":"18150","city":"La Chapelle-Hugon","country":"France"},"contacts":{"email":"la-chapelle-hugon-mairie@wanadoo.fr","telephone":"0248740716"},"horaires":"Du Mardi au Vendredi : de 08h30 à 12h30\nLe Samedi : de 08h30 à 12h00","latitude":46.9095,"longitude":2.96303,"website":"https://mairie-lachapellehugon.fr/","hasWebsite":true,"hasHoraires":true,"url":"https://lannuaire.service-public.gouv.fr/centre-val-de-loire/cher/395775ef-bd51-41f4-b130-598656f42ca3"}
{"nom":"La Chapelle-Montlinard","nomNormalise":"lachapellemontlinard","typeCollectivite":"Commune","region":"Centre-Val de Loire","departement":"Cher","departementCode":"18","adresse":{"street":"31 route du Canal","postalCode":"18140","city":"La Chapelle-Montlinard","country":"France"},"contacts":{"email":"mairielachapelle@orange.fr","telephone":"0248795440"},"horaires":"Le Lundi : de 14h00 à 17h30\nDu Mardi au Jeudi : de 08h30 à 12h00 de 13h00 à 17h30\nLe Vendredi : de 08h30 à 12h00 de 13h00 à 17h00","latitude":47.17257,"longitude":2.988553,"website":"","hasWebsite":false,"hasHoraires":true,"url":"https://lannuaire.service-public.gouv.fr/centre-val-de-loire/cher/fff19032-cbbe-46d4-9dc2-ca1232651791"}
{"nom":"La Chapelle-Saint-Ursin","nomNormalise":"lachapellesaintursin","typeCollectivite":"Commune","region":"Centre-Val de Loire","departement":"Cher","departementCode":"18","adresse":{"street":"Place de l'Église","postalCode":"18570","city":"La Chapelle-Saint-Ursin","country":"France"},"contacts":{"email":"mairie@lachapelle-saint-ursin.fr","telephone":"0248232100"},"horaires":"Le Lundi : de 08h30 à 12h00 de 13h30 à 17h30\nLe Mardi : de 08h30 à 12h00 de 16h00 à 17h30\nLe Mercredi : de 08h30 à 12h00 de 13h30 à 17h30\nLe Jeudi : de 08h30 à 12h00 de 16h00 à 17h30\nLe Vendredi : de 08h30 à 12h00 de 13h30 à 17h30\nLe Samedi : de 09h00 à 12h00\n\nAccueil fermé le samedi en juillet-août et les veilles de jours fériés.","latitude":47.06343,"longitude":2.3213742,"website":"https://www.lachapelle-saint-ursin.fr/","hasWebsite":true,"hasHoraires":true,"url":"https://lannuaire.service-public.gouv.fr/centre-val-de-loire/cher/2a7d6079-faca-4b12-875e-465ffc4f723c"}
{"nom":"La Chapelotte","nomNormalise":"lachapelotte","typeCollectivite":"Commune","region":"Centre-Val de Loire","departement":"Cher","departementCode":"18","adresse":{"street":"9 route d'Aubigny","postalCode":"18250","city":"La Chapelotte","country":"France"},"contacts":{"email":"mairie.lachapelotte@wanadoo.fr","telephone":"0248269154"},"horaires":"Du Lundi au Mardi : de 13h30 à 17h30\nLe Jeudi : de 13h30 à 17h30\nLe Vendredi : de 13h30 à 16h00","latitude":47.35368,"longitude":2.590172,"website":"","hasWebsite":false,"hasHoraires":true,"url":"https://lannuaire.service-public.gouv.fr/centre-val-de-loire/cher/df79dc1a-e3eb-421d-a5c5-566add7e0356"}
{"nom":"La Groutte","nomNormalise":"lagroutte","typeCollectivite":"Commune","region":"Centre-Val de Loire","departement":"Cher","departementCode":"18","adresse":{"street":"1 place de la Mairie","postalCode":"18200","city":"La Groutte","country":"France"},"contacts":{"email":"lagroutte-mairie@laposte.net","telephone":"0248964838"},"horaires":"Le Lundi : de 14h00 à 17h30\nLe Mardi : de 09h00 à 12h00\nLe Jeudi : de 14h00 à 17h30\nLe Vendredi : de 09h00 à 12h00","latitude":46.687683,"longitude":2.509803,"website":"","hasWebsite":false,"hasHoraires":true,"url":"https://lannuaire.service-public.gouv.fr/centre-val-de-loire/cher/a387ff5d-3da5-4f0e-83d6-cf0bf1c3bf5e"}
{"nom":"La Guerche-sur-l'Aubois","nomNormalise":"laguerchesurlaubois","typeCollectivite":"Commune","region":"Centre-Val de Loire","departement":"Cher","departementCode":"18","adresse":{"street":"Parc Maurice-Fuselier","postalCode":"18150","city":"La Guerche-sur-l'Aubois","country":"France"},"contacts":{"email":"accueil@mairielaguercheaubois.fr","telephone":"0248775353"},"horaires":"Du Lundi au Vendredi : de 09h00 à 12h00 de 14h00 à 17h00","latitude":46.951305,"longitude":2.944724,"website":"https://www.mairielaguercheaubois.fr/","hasWebsite":true,"hasHoraires":true,"url":"https://lannuaire.service-public.gouv.fr/centre-val-de-loire/cher/b3b68d5a-5f02-4d07-b3f5-f34786525fc3"}
{"nom":"Lantan","nomNormalise":"lantan","typeCollectivite":"Commune","region":"Centre-Val de Loire","departement":"Cher","departementCode":"18","adresse":{"street":"3 route de Bourges","postalCode":"18130","city":"Lantan","country":"France"},"contacts":{"email":"mairiedelantan@orange.fr","telephone":"0248595799"},"horaires":"Le Mardi : de 14h00 à 18h00\nDu Jeudi au Vendredi : de 14h00 à 18h00","latitude":46.906765,"longitude":2.661265,"website":"","hasWebsite":false,"hasHoraires":true,"url":"https://lannuaire.service-public.gouv.fr/centre-val-de-loire/cher/208bc443-423b-4319-99ba-625109f04fe0"}
{"nom":"Lapan","nomNormalise":"lapan","typeCollectivite":"Commune","region":"Centre-Val de Loire","departement":"Cher","departementCode":"18","adresse":{"street":"48 route de la Vallée-du-Cher","postalCode":"18340","city":"Lapan","country":"France"},"contacts":{"email":"mairie@lapan.fr","telephone":"0248689028"},"horaires":"Le Lundi : de 09h00 à 16h00\nLe Jeudi : de 09h00 à 16h00","latitude":46.922985,"longitude":2.29873,"website":"http://www.lapan.fr/","hasWebsite":true,"hasHoraires":true,"url":"https://lannuaire.service-public.gouv.fr/centre-val-de-loire/cher/8300a92b-8c73-4786-b06f-3ecb63d30e91"}
{"nom":"La Perche","nomNormalise":"laperche","typeCollectivite":"Commune","region":"Centre-Val de Loire","departement":"Cher","departementCode":"18","adresse":{"street":"12 route d'Urçay","postalCode":"18200","city":"La Perche","country":"France"},"contacts":{"email":"mairielaperche@orange.fr","telephone":"0248635022"},"horaires":"Le Lundi : de 14h00 à 18h00\nLe Mardi : de 08h00 à 12h00\nLe Vendredi : de 08h00 à 12h00","latitude":46.645493,"longitude":2.5724359,"website":"","hasWebsite":false,"hasHoraires":true,"url":"https://lannuaire.service-public.gouv.fr/centre-val-de-loire/cher/df70d46e-5d1d-4644-9418-2cdbb78e86dc"}
{"nom":"Lazenay","nomNormalise":"lazenay","typeCollectivite":"Commune","region":"Centre-Val de Loire","departement":"Cher","departementCode":"18","adresse":{"street":"1 place de la Mairie","postalCode":"18120","city":"Lazenay","country":"France"},"contacts":{"email":"mairie.lazenay@orange.fr","telephone":"0248517074"},"horaires":"Du Lundi au Mardi : de 08h00 à 12h30 de 13h30 à 17h00\nDu Mercredi au Jeudi : de 08h00 à 12h30\nLe Vendredi : de 09h00 à 12h00","latitude":47.07118,"longitude":2.061043,"website":"","hasWebsite":false,"hasHoraires":true,"url":"https://lannuaire.service-public.gouv.fr/centre-val-de-loire/cher/202f8afb-bc2e-4c84-9069-57d8077de44a"}
{"nom":"Le Châtelet","nomNormalise":"lechatelet","typeCollectivite":"Commune","region":"Centre-Val de Loire","departement":"Cher","departementCode":"18","adresse":{"street":"Place Gaston-Guillemain","postalCode":"18170","city":"Le Châtelet","country":"France"},"contacts":{"email":"mairie.lechatelet@orange.fr","telephone":"0248562121"},"horaires":"Du Mardi au Mercredi : de 08h00 à 12h00 de 13h30 à 17h30\nLe Jeudi : de 08h00 à 12h00\nLe Vendredi : de 08h00 à 12h00 de 13h30 à 17h30\nLe Samedi : de 08h00 à 12h00\nFermeture le jeudi après-midi.","latitude":46.642456,"longitude":2.281716,"website":"https://le-chatelet.fr/","hasWebsite":true,"hasHoraires":true,"url":"https://lannuaire.service-public.gouv.fr/centre-val-de-loire/cher/ca70acd1-949d-486b-ac99-41ab183f4db6"}
{"nom":"Le Chautay","nomNormalise":"lechautay","typeCollectivite":"Commune","region":"Centre-Val de Loire","departement":"Cher","departementCode":"18","adresse":{"street":"4 place de l'Église","postalCode":"18150","city":"Le Chautay","country":"France"},"contacts":{"email":"secretariat@mairie-chautay.com","telephone":"0248740157"},"horaires":"Du Lundi au Mardi : de 08h30 à 12h00 de 14h00 à 16h30\nLe Mercredi : de 08h30 à 12h00\nDu Jeudi au Vendredi : de 08h30 à 12h00 de 14h00 à 16h30","latitude":46.976913,"longitude":2.96628,"website":"https://lapagelocale.fr/18150-le-chautay","hasWebsite":true,"hasHoraires":true,"url":"https://lannuaire.service-public.gouv.fr/centre-val-de-loire/cher/c51b3522-34f8-4d0e-bfad-bd461d187168"}
{"nom":"Le Noyer","nomNormalise":"lenoyer","typeCollectivite":"Commune","region":"Centre-Val de Loire","departement":"Cher","departementCode":"18","adresse":{"street":"Route de la Chapelotte","postalCode":"18260","city":"Le Noyer","country":"France"},"contacts":{"email":"mairie.lenoyer@orange.fr","telephone":"0248587107"},"horaires":"Du Lundi au Mardi : de 09h00 à 12h00\nDu Jeudi au Vendredi : de 09h00 à 12h00\nLe Samedi : de 11h00 à 12h00\n\nPermanence des élus.","latitude":47.383617,"longitude":2.679573,"website":"","hasWebsite":false,"hasHoraires":true,"url":"https://lannuaire.service-public.gouv.fr/centre-val-de-loire/cher/8d4f761a-6b37-4279-931c-c20f54bc31dd"}
{"nom":"Le Pondy","nomNormalise":"lepondy","typeCollectivite":"Commune","region":"Centre-Val de Loire","departement":"Cher","departementCode":"18","adresse":{"street":"6 route de Verneuil","postalCode":"18210","city":"Le Pondy","country":"France"},"contacts":{"email":"communelepondy@wanadoo.fr","telephone":"0248618092"},"horaires":"Le Mardi : de 13h30 à 17h00\nLe Vendredi : de 13h30 à 17h00","latitude":46.80495,"longitude":2.648699,"website":"","hasWebsite":false,"hasHoraires":true,"url":"https://lannuaire.service-public.gouv.fr/centre-val-de-loire/cher/94baccb5-4622-4fde-a3f9-84000cfa99db"}
{"nom":"Léré","nomNormalise":"lere","typeCollectivite":"Commune","region":"Centre-Val de Loire","departement":"Cher","departementCode":"18","adresse":{"street":"6 rue du 16-Juin-1940","postalCode":"18240","city":"Léré","country":"France"},"contacts":{"email":"mairiedelere@wanadoo.fr","telephone":"0248726001"},"horaires":"Du Lundi au Mardi : de 08h30 à 12h30\nLe Mercredi : de 08h30 à 12h30 de 13h30 à 17h00\nLe Jeudi : de 08h30 à 12h30\nLe Vendredi : de 08h30 à 12h30 de 13h30 à 17h00\nLe Samedi : de 09h00 à 12h00\n\nUniquement les semaines paires.","latitude":47.4715,"longitude":2.87291,"website":"https://lere.fr/","hasWebsite":true,"hasHoraires":true,"url":"https://lannuaire.service-public.gouv.fr/centre-val-de-loire/cher/5192b814-761a-44b1-bbf7-dbbdbaa105f4"}
{"nom":"Les Aix-d'Angillon","nomNormalise":"lesaixdangillon","typeCollectivite":"Commune","region":"Centre-Val de Loire","departement":"Cher","departementCode":"18","adresse":{"street":"1 rue de la République","postalCode":"18220","city":"Les Aix-d'Angillon","country":"France"},"contacts":{"email":"mairie@lesaixdangillon.fr","telephone":"0248644155"},"horaires":"Du Lundi au Mardi : de 09h00 à 12h00 de 14h00 à 18h00\nLe Mercredi : de 09h00 à 12h00\nLe Jeudi : de 09h00 à 12h00 de 14h00 à 18h00\nLe Vendredi : de 09h00 à 12h00 de 14h00 à 17h00","latitude":47.1986,"longitude":2.57202,"website":"https://www.lesaixdangillon.fr/","hasWebsite":true,"hasHoraires":true,"url":"https://lannuaire.service-public.gouv.fr/centre-val-de-loire/cher/fe63cae6-9a78-489f-9715-222dd2e5d9f4"}
{"nom":"Le Subdray","nomNormalise":"lesubdray","typeCollectivite":"Commune","region":"Centre-Val de Loire","departement":"Cher","departementCode":"18","adresse":{"street":"4 rue du Bois-Rollet","postalCode":"18570","city":"Le Subdray","country":"France"},"contacts":{"email":"contact@le-subdray.fr","telephone":"0248552604"},"horaires":"Du Lundi au Mardi : de 08h30 à 12h00 de 14h00 à 17h30\nLe Mercredi : de 08h30 à 12h00\nDu Jeudi au Vendredi : de 08h30 à 12h00 de 14h00 à 17h30","latitude":47.009735,"longitude":2.29497,"website":"https://www.le-subdray.fr/","hasWebsite":true,"hasHoraires":true,"url":"https://lannuaire.service-public.gouv.fr/centre-val-de-loire/cher/a2bf4273-debc-49fb-9b88-a464de168f98"}
{"nom":"Levet","nomNormalise":"levet","typeCollectivite":"Commune","region":"Centre-Val de Loire","departement":"Cher","departementCode":"18","adresse":{"street":"Place du 8-Mai-1945","postalCode":"18340","city":"Levet","country":"France"},"contacts":{"email":"mairiedelevet@gmail.com","telephone":"0248253025"},"horaires":"Le Lundi : de 08h00 à 12h00 de 13h30 à 17h30\nLe Mardi : de 08h00 à 12h00\nLe Mercredi : de 08h00 à 12h00 de 13h30 à 17h30\nLe Jeudi : de 08h00 à 12h00\nLe Vendredi : de 08h00 à 12h00 de 13h30 à 16h30\nLe Samedi : de 09h00 à 12h00\n\nPermanence des élus uniquement.","latitude":46.924946,"longitude":2.40802,"website":"http://www.levet.org/","hasWebsite":true,"hasHoraires":true,"url":"https://lannuaire.service-public.gouv.fr/centre-val-de-loire/cher/12eb4d50-f477-462a-aa4f-1e963909eeb2"}
{"nom":"Lignières","nomNormalise":"lignieres","typeCollectivite":"Commune","region":"Centre-Val de Loire","departement":"Cher","departementCode":"18","adresse":{"street":"2 rue du Docteur-Bonnet","postalCode":"18160","city":"Lignières","country":"France"},"contacts":{"email":"commune.lignieres@wanadoo.fr","telephone":"0248600018"},"horaires":"Du Lundi au Vendredi : de 09h00 à 12h00 de 14h00 à 17h00\nLe service CNI et passeport est fermé le vendredi.","latitude":46.7509,"longitude":2.17726,"website":"","hasWebsite":false,"hasHoraires":true,"url":"https://lannuaire.service-public.gouv.fr/centre-val-de-loire/cher/73da2a1b-b6ff-4f5a-8b01-bedf32ba3f01"}
{"nom":"Limeux","nomNormalise":"limeux","typeCollectivite":"Commune","region":"Centre-Val de Loire","departement":"Cher","departementCode":"18","adresse":{"street":"6 route de Lemos","postalCode":"18120","city":"Limeux","country":"France"},"contacts":{"email":"mairie.limeux@wanadoo.fr","telephone":"0248517496"},"horaires":"Le Lundi : de 14h00 à 18h00\nLe Jeudi : de 14h00 à 17h00\nLe Vendredi : de 14h00 à 17h30","latitude":47.074883,"longitude":2.108011,"website":"https://www.limeux-berry.fr/","hasWebsite":true,"hasHoraires":true,"url":"https://lannuaire.service-public.gouv.fr/centre-val-de-loire/cher/ff1ee97d-ca8f-4897-bd02-20764b16eff1"}
{"nom":"Lissay-Lochy","nomNormalise":"lissaylochy","typeCollectivite":"Commune","region":"Centre-Val de Loire","departement":"Cher","departementCode":"18","adresse":{"street":"15 rue de Saint-Hilaire","postalCode":"18340","city":"Lissay-Lochy","country":"France"},"contacts":{"email":"lissay-lochy2@wanadoo.fr","telephone":"0248253173"},"horaires":"Du Lundi au Mardi : de 09h00 à 12h00\nLe Jeudi : de 09h00 à 12h00 de 16h00 à 18h30\nLe Vendredi : de 09h00 à 12h00","latitude":46.972065,"longitude":2.405124,"website":"https://www.lissay-lochy.fr/","hasWebsite":true,"hasHoraires":true,"url":"https://lannuaire.service-public.gouv.fr/centre-val-de-loire/cher/47625f0e-a4e9-4f37-ad55-dff38b7bc382"}
{"nom":"Loye-sur-Arnon","nomNormalise":"loyesurarnon","typeCollectivite":"Commune","region":"Centre-Val de Loire","departement":"Cher","departementCode":"18","adresse":{"street":"5 rue des Treize-Blés","postalCode":"18170","city":"Loye-sur-Arnon","country":"France"},"contacts":{"email":"mairie.loyesurarnon@orange.fr","telephone":"0248961453"},"horaires":"Du Lundi au Mardi : de 09h00 à 12h30\nLe Jeudi : de 13h30 à 19h00\nLe Vendredi : de 09h00 à 12h30","latitude":46.65323,"longitude":2.3931918,"website":"https://loyesurarnon.net/","hasWebsite":true,"hasHoraires":true,"url":"https://lannuaire.service-public.gouv.fr/centre-val-de-loire/cher/b692e8ec-9da4-488a-a463-2b67b882200d"}
{"nom":"Lugny-Champagne","nomNormalise":"lugnychampagne","typeCollectivite":"Commune","region":"Centre-Val de Loire","departement":"Cher","departementCode":"18","adresse":{"street":"10 route de Herry","postalCode":"18140","city":"Lugny-Champagne","country":"France"},"contacts":{"email":"lugnychampagne@wanadoo.fr","telephone":"0248729324"},"horaires":"Du Lundi au Mardi : de 13h30 à 17h15\nLe Jeudi : de 13h30 à 17h15\nLe Vendredi : de 09h00 à 12h00","latitude":47.186756,"longitude":2.821175,"website":"","hasWebsite":false,"hasHoraires":true,"url":"https://lannuaire.service-public.gouv.fr/centre-val-de-loire/cher/90d9f7b1-4d59-4647-908b-79dd870d754c"}
{"nom":"Lunery","nomNormalise":"lunery","typeCollectivite":"Commune","region":"Centre-Val de Loire","departement":"Cher","departementCode":"18","adresse":{"street":"1 place Jacques-Georges","postalCode":"18400","city":"Lunery","country":"France"},"contacts":{"email":"mairie@lunery.fr","telephone":"0248231420"},"horaires":"Du Lundi au Vendredi : de 09h00 à 12h00 de 14h00 à 18h00","latitude":46.93618,"longitude":2.269614,"website":"https://lunery.fr/","hasWebsite":true,"hasHoraires":true,"url":"https://lannuaire.service-public.gouv.fr/centre-val-de-loire/cher/1c5c675c-958b-49a0-ae44-8820d674a585"}
{"nom":"Lury-sur-Arnon","nomNormalise":"lurysurarnon","typeCollectivite":"Commune","region":"Centre-Val de Loire","departement":"Cher","departementCode":"18","adresse":{"street":"25 rue de la Mairie","postalCode":"18120","city":"Lury-sur-Arnon","country":"France"},"contacts":{"email":"mairie-de-lury@wanadoo.fr","telephone":"0248517150"},"horaires":"Du Lundi au Mardi : de 09h00 à 12h00 de 14h00 à 17h00\nLe Mercredi : de 09h00 à 12h00\nDu Jeudi au Vendredi : de 09h00 à 12h00 de 14h00 à 17h00","latitude":47.12899,"longitude":2.058056,"website":"http://lury.fr/","hasWebsite":true,"hasHoraires":true,"url":"https://lannuaire.service-public.gouv.fr/centre-val-de-loire/cher/6a00e875-e538-4318-90f9-510e5197bd74"}
{"nom":"Maisonnais","nomNormalise":"maisonnais","typeCollectivite":"Commune","region":"Centre-Val de Loire","departement":"Cher","departementCode":"18","adresse":{"street":"16 chemin des Joncs","postalCode":"18170","city":"Maisonnais","country":"France"},"contacts":{"email":"mairie-maisonnais@wanadoo.fr","telephone":"0248562275"},"horaires":"Le Mercredi : de 09h00 à 12h00\nLe Jeudi : de 10h00 à 12h00\nLe Vendredi : de 09h00 à 12h00","latitude":46.640736,"longitude":2.215945,"website":"","hasWebsite":false,"hasHoraires":true,"url":"https://lannuaire.service-public.gouv.fr/centre-val-de-loire/cher/d9045284-fd8e-4d6a-8dbf-5b93a35c43c9"}
{"nom":"Marçais","nomNormalise":"marcais","typeCollectivite":"Commune","region":"Centre-Val de Loire","departement":"Cher","departementCode":"18","adresse":{"street":"9 rue de Sizières","postalCode":"18170","city":"Marçais","country":"France"},"contacts":{"email":"mairie-marcais@wanadoo.fr","telephone":"0248961231"},"horaires":"Le Lundi : de 13h30 à 17h00\nDu Mardi au Vendredi : de 10h00 à 12h00 de 14h00 à 18h00","latitude":46.698055,"longitude":2.367547,"website":"https://marcais.fr/","hasWebsite":true,"hasHoraires":true,"url":"https://lannuaire.service-public.gouv.fr/centre-val-de-loire/cher/2c979b32-db58-4a1e-9719-f5c076b21c4a"}
{"nom":"Mareuil-sur-Arnon","nomNormalise":"mareuilsurarnon","typeCollectivite":"Commune","region":"Centre-Val de Loire","departement":"Cher","departementCode":"18","adresse":{"street":"46 route de Saint-Florent","postalCode":"18290","city":"Mareuil-sur-Arnon","country":"France"},"contacts":{"email":"mairie.mareuil18290@orange.fr","telephone":"0248699106"},"horaires":"Du Lundi au Mardi : de 08h30 à 12h00 de 14h00 à 17h00\nLe Mercredi : de 08h30 à 12h00\nDu Jeudi au Vendredi : de 08h30 à 12h00 de 14h00 à 17h00\nLe Samedi : de 10h00 à 12h00","latitude":46.8803,"longitude":2.16254,"website":"https://commune-mareuil-sur-arnon.fr/","hasWebsite":true,"hasHoraires":true,"url":"https://lannuaire.service-public.gouv.fr/centre-val-de-loire/cher/42793a04-75c6-482d-8512-c42bec48330c"}
{"nom":"Marmagne","nomNormalise":"marmagne","typeCollectivite":"Commune","region":"Centre-Val de Loire","departement":"Cher","departementCode":"18","adresse":{"street":"Place de l'Église","postalCode":"18500","city":"Marmagne","country":"France"},"contacts":{"email":"mairie@marmagne.fr","telephone":"0248268401"},"horaires":"Le Lundi : de 08h00 à 11h30 de 13h30 à 17h00\nLe Mardi : de 08h00 à 12h00 de 13h30 à 17h00\nLe Mercredi : de 08h00 à 13h00\nDu Jeudi au Vendredi : de 08h00 à 12h00 de 13h30 à 17h00\nLe Samedi : de 08h30 à 11h30","latitude":47.10169,"longitude":2.284687,"website":"https://www.marmagne.fr/","hasWebsite":true,"hasHoraires":true,"url":"https://lannuaire.service-public.gouv.fr/centre-val-de-loire/cher/690685d9-57f5-4a01-bff2-5f7a6a2cb156"}
{"nom":"Marseilles-lès-Aubigny","nomNormalise":"marseilleslesaubigny","typeCollectivite":"Commune","region":"Centre-Val de Loire","departement":"Cher","departementCode":"18","adresse":{"street":"3 rue du Port","postalCode":"18320","city":"Marseilles-lès-Aubigny","country":"France"},"contacts":{"email":"mairie@marseilles18.fr","telephone":"0248764499"},"horaires":"Du Lundi au Vendredi : de 08h30 à 12h00\nL'agence postale est située dans la mairie et ouverte aux mêmes horaires.","latitude":47.0649,"longitude":3.01534,"website":"https://lapagelocale.fr/18320-marseilles-les-aubigny","hasWebsite":true,"hasHoraires":true,"url":"https://lannuaire.service-public.gouv.fr/centre-val-de-loire/cher/20566be4-72c3-48d4-8526-1c320f659dc5"}
{"nom":"Massay","nomNormalise":"massay","typeCollectivite":"Commune","region":"Centre-Val de Loire","departement":"Cher","departementCode":"18","adresse":{"street":"Route de Reuilly","postalCode":"18120","city":"Massay","country":"France"},"contacts":{"email":"mairie.massay@mairie-massay.fr","telephone":"0248519081"},"horaires":"Le Lundi : de 08h45 à 12h00 de 14h00 à 16h15\nLe Mardi : de 08h45 à 12h00\nLe Mercredi : de 08h45 à 12h00 de 14h00 à 16h15\nLe Jeudi : de 08h45 à 12h00\nLe Vendredi : de 08h45 à 12h00 de 14h00 à 16h15\nLe Samedi : de 09h00 à 12h00","latitude":47.1517,"longitude":1.99049,"website":"http://www.massay.fr/","hasWebsite":true,"hasHoraires":true,"url":"https://lannuaire.service-public.gouv.fr/centre-val-de-loire/cher/ad227804-e18b-4bbe-b049-c036d8ed3075"}
{"nom":"Mehun-sur-Yèvre","nomNormalise":"mehunsuryevre","typeCollectivite":"Commune","region":"Centre-Val de Loire","departement":"Cher","departementCode":"18","adresse":{"street":"7 place Jean-Manceau","postalCode":"18500","city":"Mehun-sur-Yèvre","country":"France"},"contacts":{"email":"secretariat.dgs@ville-mehun-sur-yevre.fr","telephone":"0248573025"},"horaires":"Le Lundi : de 08h30 à 12h00 de 13h30 à 17h00\nLe Mardi : de 09h30 à 12h00 de 13h30 à 17h00\nLe Mercredi : de 08h30 à 12h00 de 13h30 à 17h00\nLe Jeudi : de 09h30 à 12h00 de 13h30 à 17h00\nLe Vendredi : de 08h30 à 12h00 de 13h30 à 16h45\nLe Samedi : de 09h00 à 12h00","latitude":47.145527,"longitude":2.217368,"website":"https://www.ville-mehun-sur-yevre.fr/","hasWebsite":true,"hasHoraires":true,"url":"https://lannuaire.service-public.gouv.fr/centre-val-de-loire/cher/7b469dc5-3a33-4293-a754-f5e3fc62a9d4"}
{"nom":"Meillant","nomNormalise":"meillant","typeCollectivite":"Commune","region":"Centre-Val de Loire","departement":"Cher","departementCode":"18","adresse":{"street":"4 avenue de Dun","postalCode":"18200","city":"Meillant","country":"France"},"contacts":{"email":"mairiemeillant@wanadoo.fr","telephone":"0248633005"},"horaires":"Du Lundi au Mardi : de 09h00 à 12h00 de 14h00 à 17h00\nDu Jeudi au Vendredi : de 09h00 à 12h00 de 14h00 à 17h00","latitude":46.7867,"longitude":2.5125,"website":"","hasWebsite":false,"hasHoraires":true,"url":"https://lannuaire.service-public.gouv.fr/centre-val-de-loire/cher/5190e198-3a33-4862-84da-49ddbfc0994e"}
{"nom":"Menetou-Couture","nomNormalise":"menetoucouture","typeCollectivite":"Commune","region":"Centre-Val de Loire","departement":"Cher","departementCode":"18","adresse":{"street":"28 rue Principale","postalCode":"18320","city":"Menetou-Couture","country":"France"},"contacts":{"email":"menetoucouture.mairie@gmail.com","telephone":"0248802340"},"horaires":"Le Lundi : de 14h00 à 18h00\nLe Mercredi : de 08h30 à 12h00\nLe Vendredi : de 13h00 à 18h00","latitude":47.04397,"longitude":2.914583,"website":"https://mairie-menetoucouture.fr/","hasWebsite":true,"hasHoraires":true,"url":"https://lannuaire.service-public.gouv.fr/centre-val-de-loire/cher/9a768d8d-dd14-4db4-880d-70a3b9763778"}
{"nom":"Menetou-Râtel","nomNormalise":"menetouratel","typeCollectivite":"Commune","region":"Centre-Val de Loire","departement":"Cher","departementCode":"18","adresse":{"street":"3 rue de la Poste","postalCode":"18300","city":"Menetou-Râtel","country":"France"},"contacts":{"email":"mairie.menetou.ratel@wanadoo.fr","telephone":"0248793333"},"horaires":"Du Lundi au Mardi : de 14h00 à 17h00\nDu Jeudi au Vendredi : de 14h00 à 17h00","latitude":47.351353,"longitude":2.755091,"website":"https://www.menetou-ratel.fr/","hasWebsite":true,"hasHoraires":true,"url":"https://lannuaire.service-public.gouv.fr/centre-val-de-loire/cher/c8f780cc-8c46-4291-bcc5-8ef7dae945f2"}
{"nom":"Menetou-Salon","nomNormalise":"menetousalon","typeCollectivite":"Commune","region":"Centre-Val de Loire","departement":"Cher","departementCode":"18","adresse":{"street":"12 rue de la Mairie","postalCode":"18510","city":"Menetou-Salon","country":"France"},"contacts":{"email":"contact.mairie@menetou-salon.fr","telephone":"0248648121"},"horaires":"Du Lundi au Vendredi : de 09h00 à 12h00 de 14h00 à 16h00\nLe Samedi : de 09h00 à 12h00","latitude":47.232,"longitude":2.4884,"website":"https://www.menetou-salon.fr/index.php/fr/","hasWebsite":true,"hasHoraires":true,"url":"https://lannuaire.service-public.gouv.fr/centre-val-de-loire/cher/c0b0795d-bd65-47cc-a568-366371f2e472"}
{"nom":"Ménétréol-sous-Sancerre","nomNormalise":"menetreolsoussancerre","typeCollectivite":"Commune","region":"Centre-Val de Loire","departement":"Cher","departementCode":"18","adresse":{"street":"32 route du Canal","postalCode":"18300","city":"Ménétréol-sous-Sancerre","country":"France"},"contacts":{"email":"de-menetreol.mairie@wanadoo.fr","telephone":"0248542734"},"horaires":"Du Lundi au Mardi : de 14h00 à 16h00\nDu Mercredi au Jeudi : de 14h00 à 16h00","latitude":47.31868,"longitude":2.8572156,"website":"","hasWebsite":false,"hasHoraires":true,"url":"https://lannuaire.service-public.gouv.fr/centre-val-de-loire/cher/4d7dd43d-6169-4426-8818-6a65076a2208"}
{"nom":"Ménétréol-sur-Sauldre","nomNormalise":"menetreolsursauldre","typeCollectivite":"Commune","region":"Centre-Val de Loire","departement":"Cher","departementCode":"18","adresse":{"street":"3 Grande rue","postalCode":"18700","city":"Ménétréol-sur-Sauldre","country":"France"},"contacts":{"email":"mairie.menetreol-sur-sauldre@wanadoo.fr","telephone":"0248580430"},"horaires":"Le Mardi : de 09h00 à 11h45\nLe Mercredi : de 09h00 à 11h45 de 14h00 à 17h00\nLe Jeudi : de 09h00 à 11h45\nLe Vendredi : de 09h00 à 11h45 de 14h00 à 17h00\nLe Samedi : de 09h00 à 11h45","latitude":47.4468,"longitude":2.30503,"website":"","hasWebsite":false,"hasHoraires":true,"url":"https://lannuaire.service-public.gouv.fr/centre-val-de-loire/cher/ae316c39-ddba-4257-be60-d642d9d4c832"}
{"nom":"Méreau","nomNormalise":"mereau","typeCollectivite":"Commune","region":"Centre-Val de Loire","departement":"Cher","departementCode":"18","adresse":{"street":"3 avenue d'Issoudun","postalCode":"18120","city":"Méreau","country":"France"},"contacts":{"email":"mairie.mereau@orange.fr","telephone":"0248528054"},"horaires":"Du Lundi au Vendredi : de 08h00 à 12h00 de 13h30 à 17h00\nLe Samedi : de 08h00 à 12h00","latitude":47.1631,"longitude":2.050022,"website":"https://www.ville-mereau.fr/","hasWebsite":true,"hasHoraires":true,"url":"https://lannuaire.service-public.gouv.fr/centre-val-de-loire/cher/c0ae385e-b861-45fb-802f-e278d6d27b12"}
{"nom":"Méry-ès-Bois","nomNormalise":"meryesbois","typeCollectivite":"Commune","region":"Centre-Val de Loire","departement":"Cher","departementCode":"18","adresse":{"street":"11 Grande-Rue","postalCode":"18380","city":"Méry-ès-Bois","country":"France"},"contacts":{"email":"accueil@meryesbois.fr","telephone":"0248734112"},"horaires":"Du Lundi au Samedi : de 10h00 à 12h00","latitude":47.31369,"longitude":2.3625271,"website":"https://meryesbois.fr/","hasWebsite":true,"hasHoraires":true,"url":"https://lannuaire.service-public.gouv.fr/centre-val-de-loire/cher/232ae8b5-83a5-4bf1-9794-15ef05ac9188"}
{"nom":"Méry-sur-Cher","nomNormalise":"merysurcher","typeCollectivite":"Commune","region":"Centre-Val de Loire","departement":"Cher","departementCode":"18","adresse":{"street":"183 route de Tours","postalCode":"18100","city":"Méry-sur-Cher","country":"France"},"contacts":{"email":"mairiemery@orange.fr","telephone":"0248753818"},"horaires":"Le Lundi : de 13h00 à 17h00\nLe Mercredi : de 10h00 à 12h00\nDu Jeudi au Vendredi : de 13h30 à 18h00","latitude":47.2461,"longitude":1.98881,"website":"","hasWebsite":false,"hasHoraires":true,"url":"https://lannuaire.service-public.gouv.fr/centre-val-de-loire/cher/2aa0e1d9-e197-4601-83bf-48d9277aa047"}
{"nom":"Montigny","nomNormalise":"montigny","typeCollectivite":"Commune","region":"Centre-Val de Loire","departement":"Cher","departementCode":"18","adresse":{"street":"Le bourg","postalCode":"18250","city":"Montigny","country":"France"},"contacts":{"email":"mairie.montigny.18@gmail.com","telephone":"0248695822"},"horaires":"Du Lundi au Mardi : de 08h00 à 12h00\nLe Jeudi : de 08h00 à 12h00\nLe Vendredi : de 13h30 à 17h30","latitude":47.238956,"longitude":2.683887,"website":"https://montigny18.fr/","hasWebsite":true,"hasHoraires":true,"url":"https://lannuaire.service-public.gouv.fr/centre-val-de-loire/cher/39925192-1147-4f53-9405-349c141aa717"}
{"nom":"Montlouis","nomNormalise":"montlouis","typeCollectivite":"Commune","region":"Centre-Val de Loire","departement":"Cher","departementCode":"18","adresse":{"street":"4 route de la Réserve","postalCode":"18160","city":"Montlouis","country":"France"},"contacts":{"email":"mairiedemontlouis@orange.fr","telephone":"0248600431"},"horaires":"Le Lundi : de 09h15 à 12h15 de 14h00 à 18h00\nLe Mardi : de 09h15 à 12h30\nLe Jeudi : de 09h15 à 12h15 de 13h45 à 18h00","latitude":46.793198,"longitude":2.184724,"website":"https://www.montlouis18-cher.fr/","hasWebsite":true,"hasHoraires":true,"url":"https://lannuaire.service-public.gouv.fr/centre-val-de-loire/cher/27c465b1-864e-4d71-b747-8a287038fcb7"}
{"nom":"Morlac","nomNormalise":"morlac","typeCollectivite":"Commune","region":"Centre-Val de Loire","departement":"Cher","departementCode":"18","adresse":{"street":"1 rue du Roibertaud","postalCode":"18170","city":"Morlac","country":"France"},"contacts":{"email":"commune.morlac@orange.fr","telephone":"0248562491"},"horaires":"Le Lundi : de 09h30 à 11h30\nLe Mardi : de 09h30 à 11h30 de 13h30 à 16h30\nLe Mercredi : de 09h30 à 11h30\nLe Jeudi : de 09h30 à 11h30 de 13h30 à 16h30\nLe Vendredi : de 09h30 à 11h30\nLe Samedi : de 10h00 à 12h00\n\nPermanence des élus uniquement.","latitude":46.71872,"longitude":2.308097,"website":"https://www.commune-morlac.com/","hasWebsite":true,"hasHoraires":true,"url":"https://lannuaire.service-public.gouv.fr/centre-val-de-loire/cher/a3f53b89-191d-4847-b157-a6008800bb96"}
{"nom":"Mornay-Berry","nomNormalise":"mornayberry","typeCollectivite":"Commune","region":"Centre-Val de Loire","departement":"Cher","departementCode":"18","adresse":{"street":"3 rue de la Mairie","postalCode":"18350","city":"Mornay-Berry","country":"France"},"contacts":{"email":"mairie@mornay-berry.fr","telephone":"0248802086"},"horaires":"Du Lundi au Mardi : de 14h30 à 18h00\nDu Jeudi au Vendredi : de 09h00 à 12h00\nLe Samedi : de 09h00 à 11h00\n\nLe 2ème samedi du mois. Accueil uniquement sur rendez-vous.","latitude":47.04911,"longitude":2.871338,"website":"https://www.mornay-berry.fr/","hasWebsite":true,"hasHoraires":true,"url":"https://lannuaire.service-public.gouv.fr/centre-val-de-loire/cher/46f1bdc5-6ade-45b3-aeba-385892225f2c"}
{"nom":"Mornay-sur-Allier","nomNormalise":"mornaysurallier","typeCollectivite":"Commune","region":"Centre-Val de Loire","departement":"Cher","departementCode":"18","adresse":{"street":"Le Bourg","postalCode":"18600","city":"Mornay-sur-Allier","country":"France"},"contacts":{"email":"mairie-mornaysurallier@orange.fr","telephone":"0248745607"},"horaires":"Du Lundi au Mardi : de 08h15 à 12h15 de 13h00 à 17h00\nLe Jeudi : de 08h15 à 12h15 de 13h00 à 17h00\nLe Vendredi : de 08h15 à 12h00 de 13h00 à 17h00","latitude":46.81961,"longitude":3.0295708,"website":"https://mornay-sur-allier.wixsite.com/mairie","hasWebsite":true,"hasHoraires":true,"url":"https://lannuaire.service-public.gouv.fr/centre-val-de-loire/cher/c3979178-5ae1-4174-a05f-4a4ffcdc6542"}
{"nom":"Morogues","nomNormalise":"morogues","typeCollectivite":"Commune","region":"Centre-Val de Loire","departement":"Cher","departementCode":"18","adresse":{"street":"13 Grande-Rue","postalCode":"18220","city":"Morogues","country":"France"},"contacts":{"email":"mairie.morogues.cher@wanadoo.fr","telephone":"0248644194"},"horaires":"Le Mardi : de 08h00 à 12h00 de 13h30 à 17h30\nDu Jeudi au Vendredi : de 08h00 à 12h00","latitude":47.241352,"longitude":2.596235,"website":"https://morogues.fr/","hasWebsite":true,"hasHoraires":true,"url":"https://lannuaire.service-public.gouv.fr/centre-val-de-loire/cher/1479d6d3-d37f-4ae3-a827-e2cec41341ec"}
{"nom":"Morthomiers","nomNormalise":"morthomiers","typeCollectivite":"Commune","region":"Centre-Val de Loire","departement":"Cher","departementCode":"18","adresse":{"street":"2 route de la Chapelle","postalCode":"18570","city":"Morthomiers","country":"France"},"contacts":{"email":"mairie.morthomiers@wanadoo.fr","telephone":"0248552624"},"horaires":"Du Lundi au Mardi : de 10h30 à 12h00 de 15h30 à 18h00\nDu Jeudi au Vendredi : de 10h30 à 12h00 de 15h30 à 18h00","latitude":47.03728,"longitude":2.278478,"website":"https://morthomiers.fr/","hasWebsite":true,"hasHoraires":true,"url":"https://lannuaire.service-public.gouv.fr/centre-val-de-loire/cher/8dbe98d0-41fd-4f3c-948e-8ec1dc5f41ca"}
{"nom":"Moulins-sur-Yèvre","nomNormalise":"moulinssuryevre","typeCollectivite":"Commune","region":"Centre-Val de Loire","departement":"Cher","departementCode":"18","adresse":{"street":"10 rue de l'Église","postalCode":"18390","city":"Moulins-sur-Yèvre","country":"France"},"contacts":{"email":"mairie.moulinsuryevre@wanadoo.fr","telephone":"0248308356"},"horaires":"Le Lundi : de 13h30 à 17h45\nLe Mardi : de 13h30 à 17h00\nLe Mercredi : de 08h30 à 11h30\nLe Jeudi : de 13h30 à 17h00\nLe Vendredi : de 13h30 à 16h00","latitude":47.083748,"longitude":2.516777,"website":"https://mairie-moulins-sur-yevre.fr/","hasWebsite":true,"hasHoraires":true,"url":"https://lannuaire.service-public.gouv.fr/centre-val-de-loire/cher/9f11833e-0a48-41ee-be80-bb97828fa0e0"}
{"nom":"Nançay","nomNormalise":"nancay","typeCollectivite":"Commune","region":"Centre-Val de Loire","departement":"Cher","departementCode":"18","adresse":{"street":"2 place de la Mairie","postalCode":"18330","city":"Nançay","country":"France"},"contacts":{"email":"mairie@nancay.fr","telephone":"0248518135"},"horaires":"Le Lundi : de 15h00 à 17h00\nDu Mardi au Mercredi : de 09h30 à 11h30 de 15h00 à 17h00\nLe Vendredi : de 09h30 à 11h30 de 15h00 à 17h00\nLe Samedi : de 10h00 à 11h00","latitude":47.3151,"longitude":2.25568,"website":"http://www.nancay-sologne.fr/","hasWebsite":true,"hasHoraires":true,"url":"https://lannuaire.service-public.gouv.fr/centre-val-de-loire/cher/4f36fa22-8ade-4680-8684-13eef9ac576b"}
{"nom":"Nérondes","nomNormalise":"nerondes","typeCollectivite":"Commune","region":"Centre-Val de Loire","departement":"Cher","departementCode":"18","adresse":{"street":"1 place de l'Hôtel-de-Ville","postalCode":"18350","city":"Nérondes","country":"France"},"contacts":{"email":"mairie.nerondes@wanadoo.fr","telephone":"0248748016"},"horaires":"Le Mardi : de 09h00 à 12h00 de 14h00 à 18h00\nLe Mercredi : de 09h00 à 12h00 de 14h00 à 17h00\nDu Jeudi au Vendredi : de 09h00 à 12h00 de 14h00 à 18h00","latitude":46.997643,"longitude":2.8183613,"website":"https://www.nerondes.com/","hasWebsite":true,"hasHoraires":true,"url":"https://lannuaire.service-public.gouv.fr/centre-val-de-loire/cher/5cbc7b5f-2371-44b7-bdec-cd2d9648dc95"}
{"nom":"Neuilly-en-Dun","nomNormalise":"neuillyendun","typeCollectivite":"Commune","region":"Centre-Val de Loire","departement":"Cher","departementCode":"18","adresse":{"street":"3 rue de la Mairie","postalCode":"18600","city":"Neuilly-en-Dun","country":"France"},"contacts":{"email":"mairieneuillyendun@orange.fr","telephone":"0248745615"},"horaires":"Le Lundi : de 14h00 à 17h00\nLe Mardi : de 09h00 à 12h00\nLe Jeudi : de 09h00 à 12h00\nLe Samedi : de 09h00 à 12h00","latitude":46.7992,"longitude":2.78282,"website":"","hasWebsite":false,"hasHoraires":true,"url":"https://lannuaire.service-public.gouv.fr/centre-val-de-loire/cher/c9cffefa-442a-4983-856a-2f0cd1f654e0"}
{"nom":"Neuilly-en-Sancerre","nomNormalise":"neuillyensancerre","typeCollectivite":"Commune","region":"Centre-Val de Loire","departement":"Cher","departementCode":"18","adresse":{"street":"Le Bourg","postalCode":"18250","city":"Neuilly-en-Sancerre","country":"France"},"contacts":{"email":"neuilly-en-sancerre@wanadoo.fr","telephone":"0248790522"},"horaires":"Du Lundi au Mardi : de 08h00 à 12h00 de 13h30 à 17h30\nLe Mercredi : de 08h00 à 13h00 de 14h00 à 18h00\nLe Jeudi : de 08h00 à 12h00 de 13h30 à 17h30\nLe Vendredi : de 08h00 à 12h00","latitude":47.3037,"longitude":2.68659,"website":"","hasWebsite":false,"hasHoraires":true,"url":"https://lannuaire.service-public.gouv.fr/centre-val-de-loire/cher/c3813fd2-1507-4c4e-b828-529e6a14b023"}
{"nom":"Neuvy-Deux-Clochers","nomNormalise":"neuvydeuxclochers","typeCollectivite":"Commune","region":"Centre-Val de Loire","departement":"Cher","departementCode":"18","adresse":{"street":"Place de l'Église","postalCode":"18250","city":"Neuvy-Deux-Clochers","country":"France"},"contacts":{"email":"mairie.neuvydeuxclochers@wanadoo.fr","telephone":"0248790313"},"horaires":"Du Lundi au Mardi : de 09h00 à 12h00 de 13h30 à 17h00\nDu Jeudi au Vendredi : de 09h00 à 12h00 de 13h30 à 17h00","latitude":47.2786,"longitude":2.699084,"website":"http://www.neuvydeuxclochers.fr/","hasWebsite":true,"hasHoraires":true,"url":"https://lannuaire.service-public.gouv.fr/centre-val-de-loire/cher/a6ea7cf1-7342-480b-8ff9-7c045ff3b2aa"}
{"nom":"Neuvy-le-Barrois","nomNormalise":"neuvylebarrois","typeCollectivite":"Commune","region":"Centre-Val de Loire","departement":"Cher","departementCode":"18","adresse":{"street":"9 route d'Apremont","postalCode":"18600","city":"Neuvy-le-Barrois","country":"France"},"contacts":{"email":"mairieneuvylebarrois@orange.fr","telephone":"0248745468"},"horaires":"Le Lundi : de 09h00 à 12h30\nLe Mardi : de 09h00 à 12h30 de 13h30 à 16h00\nLe Jeudi : de 09h00 à 12h30 de 13h30 à 16h00\nLe Vendredi : de 09h00 à 12h30","latitude":46.8644,"longitude":3.03709,"website":"http://www.neuvylebarrois.fr/","hasWebsite":true,"hasHoraires":true,"url":"https://lannuaire.service-public.gouv.fr/centre-val-de-loire/cher/1bbadf48-2ceb-4d11-b4af-ee9a6f8f6232"}
{"nom":"Neuvy-sur-Barangeon","nomNormalise":"neuvysurbarangeon","typeCollectivite":"Commune","region":"Centre-Val de Loire","departement":"Cher","departementCode":"18","adresse":{"street":"Place de la Mairie","postalCode":"18330","city":"Neuvy-sur-Barangeon","country":"France"},"contacts":{"email":"mairie-neuvy-sur-barangeon@wanadoo.fr","telephone":"0248529520"},"horaires":"Du Lundi au Mardi : de 08h30 à 12h00 de 14h30 à 17h30\nLe Jeudi : de 08h30 à 12h00\nLe Vendredi : de 08h30 à 12h00 de 14h30 à 17h30\nLe Samedi : de 09h00 à 12h00\n\nouvert uniquement le premier samedi du mois","latitude":47.31481,"longitude":2.2549057,"website":"https://www.neuvy-sur-barangeon.fr/","hasWebsite":true,"hasHoraires":true,"url":"https://lannuaire.service-public.gouv.fr/centre-val-de-loire/cher/bd236def-ea20-4c96-bc86-9da01d1e9a7b"}
{"nom":"Nohant-en-Goût","nomNormalise":"nohantengout","typeCollectivite":"Commune","region":"Centre-Val de Loire","departement":"Cher","departementCode":"18","adresse":{"street":"Place de l'Église","postalCode":"18390","city":"Nohant-en-Goût","country":"France"},"contacts":{"email":"mairie.nohantengout@orange.fr","telephone":"0248674301"},"horaires":"Le Mardi : de 09h00 à 12h00 de 13h30 à 17h00\nDu Jeudi au Vendredi : de 09h00 à 12h00 de 13h30 à 17h00","latitude":47.098866,"longitude":2.570721,"website":"https://www.intramuros.org/nohantengout","hasWebsite":true,"hasHoraires":true,"url":"https://lannuaire.service-public.gouv.fr/centre-val-de-loire/cher/6eb2f5e9-f03a-464f-9b96-b30748013ef3"}
{"nom":"Nohant-en-Graçay","nomNormalise":"nohantengracay","typeCollectivite":"Commune","region":"Centre-Val de Loire","departement":"Cher","departementCode":"18","adresse":{"street":"1 place de la Mairie","postalCode":"18310","city":"Nohant-en-Graçay","country":"France"},"contacts":{"email":"mairie.nohant18@orange.fr","telephone":"0248514065"},"horaires":"Du Lundi au Vendredi : de 08h00 à 11h30","latitude":47.13725,"longitude":1.89288,"website":"https://nohant-en-gracay.fr/","hasWebsite":true,"hasHoraires":true,"url":"https://lannuaire.service-public.gouv.fr/centre-val-de-loire/cher/74af6a3c-cffc-47c4-acb9-5e9dacbb7e7b"}
{"nom":"Nozières","nomNormalise":"nozieres","typeCollectivite":"Commune","region":"Centre-Val de Loire","departement":"Cher","departementCode":"18","adresse":{"street":"445 route de la Forêt","postalCode":"18200","city":"Nozières","country":"France"},"contacts":{"email":"mairie.nozieres.18@gmail.com","telephone":"0248963978"},"horaires":"Le Mardi : de 09h00 à 12h00\nLe Vendredi : de 09h00 à 12h00\nLe Samedi : de 10h00 à 12h00\n\nPermanence des élus.","latitude":46.7309,"longitude":2.4343314,"website":"https://nozieres18.fr/","hasWebsite":true,"hasHoraires":true,"url":"https://lannuaire.service-public.gouv.fr/centre-val-de-loire/cher/754077a5-a424-4293-b2ee-032827dc7f08"}
{"nom":"Oizon","nomNormalise":"oizon","typeCollectivite":"Commune","region":"Centre-Val de Loire","departement":"Cher","departementCode":"18","adresse":{"street":"Place Antoine-de-Vogüé","postalCode":"18700","city":"Oizon","country":"France"},"contacts":{"email":"mairie.oizon@orange.fr","telephone":"0248580705"},"horaires":"Du Lundi au Mardi : de 08h30 à 13h30\nLe Mercredi : de 08h30 à 12h00\nDu Jeudi au Vendredi : de 08h30 à 13h30","latitude":47.474564,"longitude":2.515171,"website":"https://oizon.net/","hasWebsite":true,"hasHoraires":true,"url":"https://lannuaire.service-public.gouv.fr/centre-val-de-loire/cher/43d4d685-3c69-4818-81bf-b145a9332a9a"}
{"nom":"Orcenais","nomNormalise":"orcenais","typeCollectivite":"Commune","region":"Centre-Val de Loire","departement":"Cher","departementCode":"18","adresse":{"street":"28 route de Marçais","postalCode":"18200","city":"Orcenais","country":"France"},"contacts":{"email":"mairie.orcenais18@outlook.com","telephone":"0988668464"},"horaires":"Du Lundi au Mardi : de 08h00 à 12h00\nLe Mercredi : de 13h30 à 17h30\nDu Jeudi au Vendredi : de 08h00 à 12h00","latitude":46.715992,"longitude":2.4225085,"website":"","hasWebsite":false,"hasHoraires":true,"url":"https://lannuaire.service-public.gouv.fr/centre-val-de-loire/cher/a94114cd-3619-40f0-ae39-076342056f40"}
{"nom":"Orval","nomNormalise":"orval","typeCollectivite":"Commune","region":"Centre-Val de Loire","departement":"Cher","departementCode":"18","adresse":{"street":"2 rue de la Mairie","postalCode":"18200","city":"Orval","country":"France"},"contacts":{"email":"mairie@ville-orval18.fr","telephone":"0248965740"},"horaires":"Le Lundi : de 13h30 à 17h30\nDu Mardi au Vendredi : de 08h30 à 12h00 de 13h30 à 17h30","latitude":46.7262,"longitude":2.48154,"website":"https://www.ville-orval.fr/","hasWebsite":true,"hasHoraires":true,"url":"https://lannuaire.service-public.gouv.fr/centre-val-de-loire/cher/a2e61f3e-ff07-48e7-8f81-732572a01535"}
{"nom":"Osmery","nomNormalise":"osmery","typeCollectivite":"Commune","region":"Centre-Val de Loire","departement":"Cher","departementCode":"18","adresse":{"street":"2 place de l'Église","postalCode":"18130","city":"Osmery","country":"France"},"contacts":{"email":"mairie.osmery@orange.fr","telephone":"0248595276"},"horaires":"Le Lundi : de 08h30 à 12h30 de 13h00 à 18h30\nLe Mercredi : de 08h30 à 12h30\nLe Vendredi : de 08h30 à 12h30","latitude":46.934704,"longitude":2.6544847,"website":"https://www.osmery.fr/","hasWebsite":true,"hasHoraires":true,"url":"https://lannuaire.service-public.gouv.fr/centre-val-de-loire/cher/f491586c-98cc-4e34-a016-a3e9d492c48a"}
{"nom":"Osmoy","nomNormalise":"osmoy","typeCollectivite":"Commune","region":"Centre-Val de Loire","departement":"Cher","departementCode":"18","adresse":{"street":"Le Bourg","postalCode":"18390","city":"Osmoy","country":"France"},"contacts":{"email":"mairie.osmoy@wanadoo.fr","telephone":"0248308329"},"horaires":"Le Lundi : de 13h30 à 18h00\nLe Jeudi : de 13h30 à 18h00\nLe Vendredi : de 13h30 à 16h30","latitude":47.07363,"longitude":2.5236483,"website":"https://osmoy.fr/","hasWebsite":true,"hasHoraires":true,"url":"https://lannuaire.service-public.gouv.fr/centre-val-de-loire/cher/16dc8c12-5052-4dcb-a19c-00d4aecf6c26"}
{"nom":"Ourouer-les-Bourdelins","nomNormalise":"ourouerlesbourdelins","typeCollectivite":"Commune","region":"Centre-Val de Loire","departement":"Cher","departementCode":"18","adresse":{"street":"10 Grande-Rue","postalCode":"18350","city":"Ourouer-les-Bourdelins","country":"France"},"contacts":{"email":"mairie.ourouer-les-bourdelins@orange.fr","telephone":"0248768101"},"horaires":"Le Lundi : de 09h00 à 12h00 de 14h00 à 17h00\nDu Mardi au Jeudi : de 09h00 à 12h00\nLe Vendredi : de 09h00 à 12h00 de 14h00 à 17h00\nLe Samedi : de 09h00 à 11h30","latitude":46.9302,"longitude":2.78331,"website":"","hasWebsite":false,"hasHoraires":true,"url":"https://lannuaire.service-public.gouv.fr/centre-val-de-loire/cher/e1f24957-8595-4638-9dab-c13bf952aa48"}
{"nom":"Parassy","nomNormalise":"parassy","typeCollectivite":"Commune","region":"Centre-Val de Loire","departement":"Cher","departementCode":"18","adresse":{"street":"1 le Bourg","postalCode":"18220","city":"Parassy","country":"France"},"contacts":{"email":"mairie-parassy@orange.fr","telephone":"0248644533"},"horaires":"Du Lundi au Mardi : de 08h00 à 12h30 de 13h00 à 17h00\nLe Jeudi : de 08h00 à 12h30 de 13h00 à 17h00\nLe Vendredi : de 08h00 à 12h30 de 13h00 à 16h00","latitude":47.2321,"longitude":2.48602,"website":"https://www.parassy.fr/","hasWebsite":true,"hasHoraires":true,"url":"https://lannuaire.service-public.gouv.fr/centre-val-de-loire/cher/60d08000-f37b-4ec8-b602-557b67269183"}
{"nom":"Parnay","nomNormalise":"parnay","typeCollectivite":"Commune","region":"Centre-Val de Loire","departement":"Cher","departementCode":"18","adresse":{"street":"Le Bourg","postalCode":"18130","city":"Parnay","country":"France"},"contacts":{"email":"mairie.parnay@wanadoo.fr","telephone":"0248598070"},"horaires":"Le Vendredi : de 09h00 à 11h30","latitude":46.849373,"longitude":2.572011,"website":"","hasWebsite":false,"hasHoraires":true,"url":"https://lannuaire.service-public.gouv.fr/centre-val-de-loire/cher/7f7f1a8b-a25b-4fe8-a0a7-108b8f106a26"}
{"nom":"Pigny","nomNormalise":"pigny","typeCollectivite":"Commune","region":"Centre-Val de Loire","departement":"Cher","departementCode":"18","adresse":{"street":"3 ter rue de la Mairie","postalCode":"18110","city":"Pigny","country":"France"},"contacts":{"email":"mairie@pigny18.fr","telephone":"0248693145"},"horaires":"Le Lundi : de 08h30 à 12h00\nLe Mardi : de 08h30 à 12h00 de 13h30 à 17h30\nLe Mercredi : de 08h30 à 12h00 de 13h30 à 17h30\nLe Jeudi : de 13h30 à 17h30\nLe Vendredi : de 08h30 à 12h00 de 13h30 à 17h30\nLe Samedi : de 09h00 à 12h00","latitude":47.172516,"longitude":2.4428017,"website":"https://www.pigny.fr/fr/","hasWebsite":true,"hasHoraires":true,"url":"https://lannuaire.service-public.gouv.fr/centre-val-de-loire/cher/0d18b045-35e2-409d-8884-de72e56746fd"}
{"nom":"Plaimpied-Givaudins","nomNormalise":"plaimpiedgivaudins","typeCollectivite":"Commune","region":"Centre-Val de Loire","departement":"Cher","departementCode":"18","adresse":{"street":"1 rue Saint-Martin","postalCode":"18340","city":"Plaimpied-Givaudins","country":"France"},"contacts":{"email":"mairiedeplaimpied@wanadoo.fr","telephone":"0248508860"},"horaires":"Le Lundi : de 09h00 à 12h00 de 15h00 à 18h00\nLe Mardi : de 09h00 à 12h00\nLe Mercredi : de 09h00 à 12h00 de 15h00 à 18h00\nLe Jeudi : de 09h00 à 12h00\nLe Vendredi : de 09h00 à 12h00 de 14h00 à 17h00\nLe Samedi : de 09h00 à 12h00\n\nAccueil ouvert uniquement certains samedis, contacter la mairie.","latitude":46.997807,"longitude":2.45425,"website":"https://www.plaimpied-givaudins.fr/fr/accueil","hasWebsite":true,"hasHoraires":true,"url":"https://lannuaire.service-public.gouv.fr/centre-val-de-loire/cher/4ac48a8b-b6d4-418f-aadd-44a45480c212"}
{"nom":"Plou","nomNormalise":"plou","typeCollectivite":"Commune","region":"Centre-Val de Loire","departement":"Cher","departementCode":"18","adresse":{"street":"Brouillamnon","postalCode":"18290","city":"Plou","country":"France"},"contacts":{"email":"communedeplou@wanadoo.fr","telephone":"0248262141"},"horaires":"Le Lundi : de 09h00 à 11h00 de 16h00 à 18h00\nLe Mardi : de 16h00 à 18h00\nLe Jeudi : de 16h00 à 18h00\nLe Vendredi : de 09h00 à 11h00 de 16h00 à 18h00","latitude":47.02775,"longitude":2.0999832,"website":"","hasWebsite":false,"hasHoraires":true,"url":"https://lannuaire.service-public.gouv.fr/centre-val-de-loire/cher/5ce55c35-06ad-4f7f-a7ce-19d9307e93dd"}
{"nom":"Poisieux","nomNormalise":"poisieux","typeCollectivite":"Commune","region":"Centre-Val de Loire","departement":"Cher","departementCode":"18","adresse":{"street":"Place de la Mairie","postalCode":"18290","city":"Poisieux","country":"France"},"contacts":{"email":"mairie-de-poisieux@wanadoo.fr","telephone":"0248262121"},"horaires":"Le Lundi : de 14h00 à 17h00\nLe Mardi : de 09h00 à 12h00\nLe Jeudi : de 09h00 à 12h00 de 14h00 à 16h00","latitude":47.0276,"longitude":2.09664,"website":"","hasWebsite":false,"hasHoraires":true,"url":"https://lannuaire.service-public.gouv.fr/centre-val-de-loire/cher/3c9f278b-bdfe-482f-815a-d6c457b5708b"}
{"nom":"Précy","nomNormalise":"precy","typeCollectivite":"Commune","region":"Centre-Val de Loire","departement":"Cher","departementCode":"18","adresse":{"street":"13 place du 19-Mars-1962","postalCode":"18140","city":"Précy","country":"France"},"contacts":{"email":"mprecy@wanadoo.fr","telephone":"0248806120"},"horaires":"Du Lundi au Mardi : de 14h00 à 16h00\nDu Jeudi au Vendredi : de 14h00 à 16h00","latitude":47.128,"longitude":2.93255,"website":"","hasWebsite":false,"hasHoraires":true,"url":"https://lannuaire.service-public.gouv.fr/centre-val-de-loire/cher/596ac28e-ffe0-4575-a889-5b87a9a7396c"}
{"nom":"Presly","nomNormalise":"presly","typeCollectivite":"Commune","region":"Centre-Val de Loire","departement":"Cher","departementCode":"18","adresse":{"street":"4 place de la Mairie","postalCode":"18380","city":"Presly","country":"France"},"contacts":{"email":"mairie-de-presly@wanadoo.fr","telephone":"0248815429"},"horaires":"Du Lundi au Jeudi : de 09h00 à 11h30 de 14h00 à 16h30\nLe Vendredi : de 09h00 à 11h30 de 15h00 à 18h00","latitude":47.38898,"longitude":2.3576872,"website":"https://www.mairiedepresly.fr/","hasWebsite":true,"hasHoraires":true,"url":"https://lannuaire.service-public.gouv.fr/centre-val-de-loire/cher/a0333064-87ed-4484-a72c-9ed014764ed0"}
{"nom":"Preuilly","nomNormalise":"preuilly","typeCollectivite":"Commune","region":"Centre-Val de Loire","departement":"Cher","departementCode":"18","adresse":{"street":"6 place de l'Église","postalCode":"18120","city":"Preuilly","country":"France"},"contacts":{"email":"mairie.preuilly@wanadoo.fr","telephone":"0248513008"},"horaires":"Du Lundi au Vendredi : de 08h30 à 12h00","latitude":47.096123,"longitude":2.1766672,"website":"https://commune-preuilly.fr/","hasWebsite":true,"hasHoraires":true,"url":"https://lannuaire.service-public.gouv.fr/centre-val-de-loire/cher/34ecd77c-b4a1-4f5a-817f-821a486b0772"}
{"nom":"Préveranges","nomNormalise":"preveranges","typeCollectivite":"Commune","region":"Centre-Val de Loire","departement":"Cher","departementCode":"18","adresse":{"street":"17 rue Grande","postalCode":"18370","city":"Préveranges","country":"France"},"contacts":{"email":"mairiepreveranges@preveranges18.fr","telephone":"0248564677"},"horaires":"Le Lundi : de 08h45 à 11h45 de 13h00 à 16h45\nLe Mardi : de 08h45 à 11h45 de 13h45 à 17h15\nLe Mercredi : de 08h45 à 11h45 de 13h00 à 16h45\nLe Jeudi : de 08h45 à 11h45 de 13h45 à 17h15\nLe Vendredi : de 08h45 à 15h45","latitude":46.433525,"longitude":2.254212,"website":"","hasWebsite":false,"hasHoraires":true,"url":"https://lannuaire.service-public.gouv.fr/centre-val-de-loire/cher/6bce0dcc-bfbc-4423-97a4-f0a0246c9b00"}
{"nom":"Primelles","nomNormalise":"primelles","typeCollectivite":"Commune","region":"Centre-Val de Loire","departement":"Cher","departementCode":"18","adresse":{"street":"Le Grand Malleray","postalCode":"18400","city":"Primelles","country":"France"},"contacts":{"email":"mairie.primelles@orange.fr","telephone":"0248689103"},"horaires":"Le Lundi : de 14h00 à 16h30\nLe Mercredi : de 08h15 à 12h00 de 14h00 à 16h00\nLe Jeudi : de 14h00 à 16h30","latitude":46.928455,"longitude":2.211983,"website":"https://www.intramuros.org/primelles","hasWebsite":true,"hasHoraires":true,"url":"https://lannuaire.service-public.gouv.fr/centre-val-de-loire/cher/a54b9ff5-cbde-46a0-82b7-37eacb89b860"}
{"nom":"Quantilly","nomNormalise":"quantilly","typeCollectivite":"Commune","region":"Centre-Val de Loire","departement":"Cher","departementCode":"18","adresse":{"street":"7 place de l'Église","postalCode":"18110","city":"Quantilly","country":"France"},"contacts":{"email":"mairie.quantilly@wanadoo.fr","telephone":"0248506209"},"horaires":"Du Lundi au Mardi : de 08h00 à 12h00\nDu Jeudi au Vendredi : de 08h00 à 12h00\nLe Samedi : de 09h00 à 12h00","latitude":47.224594,"longitude":2.444765,"website":"https://www.mairiequantilly.fr/","hasWebsite":true,"hasHoraires":true,"url":"https://lannuaire.service-public.gouv.fr/centre-val-de-loire/cher/9df09d63-f7c4-4fcf-bdd0-70fbf52c3efc"}
{"nom":"Quincy","nomNormalise":"quincy","typeCollectivite":"Commune","region":"Centre-Val de Loire","departement":"Cher","departementCode":"18","adresse":{"street":"9 place de la Mairie","postalCode":"18120","city":"Quincy","country":"France"},"contacts":{"email":"mairie.quincy@wanadoo.fr","telephone":"0248513012"},"horaires":"Du Lundi au Mardi : de 13h30 à 17h30\nLe Mercredi : de 09h00 à 12h00\nDu Jeudi au Vendredi : de 13h30 à 17h30","latitude":47.131916,"longitude":2.1577795,"website":"https://www.quincy18.fr/","hasWebsite":true,"hasHoraires":true,"url":"https://lannuaire.service-public.gouv.fr/centre-val-de-loire/cher/500eb615-4755-4a4d-ac2f-a41364644d29"}
{"nom":"Raymond","nomNormalise":"raymond","typeCollectivite":"Commune","region":"Centre-Val de Loire","departement":"Cher","departementCode":"18","adresse":{"street":"1 route de Cornusse","postalCode":"18130","city":"Raymond","country":"France"},"contacts":{"email":"mairie.raymond@wanadoo.fr","telephone":"0248595773"},"horaires":"Le Mardi : de 08h30 à 12h00\nLe Mercredi : de 13h30 à 17h30\nLe Jeudi : de 08h30 à 12h00\nLe Vendredi : de 13h30 à 17h30","latitude":46.970566,"longitude":2.685724,"website":"https://mairie-raymond.fr/","hasWebsite":true,"hasHoraires":true,"url":"https://lannuaire.service-public.gouv.fr/centre-val-de-loire/cher/6689352f-4380-4a33-8bb6-70984accbaff"}
{"nom":"Reigny","nomNormalise":"reigny","typeCollectivite":"Commune","region":"Centre-Val de Loire","departement":"Cher","departementCode":"18","adresse":{"street":"95 route du trait-de-justice","postalCode":"18270","city":"Reigny","country":"France"},"contacts":{"email":"commune.de.reigny@orange.fr","telephone":"0248566312"},"horaires":"Le Lundi : de 09h00 à 12h00 de 14h00 à 17h30\nLe Mercredi : de 09h00 à 16h00\nLe Vendredi : de 09h00 à 12h00 de 14h00 à 17h30","latitude":46.576157,"longitude":2.35119,"website":"","hasWebsite":false,"hasHoraires":true,"url":"https://lannuaire.service-public.gouv.fr/centre-val-de-loire/cher/79d711f7-1f2d-4453-b5ba-f8c55febe78f"}
{"nom":"Rezay","nomNormalise":"rezay","typeCollectivite":"Commune","region":"Centre-Val de Loire","departement":"Cher","departementCode":"18","adresse":{"street":"Rue George-Sand","postalCode":"18170","city":"Rezay","country":"France"},"contacts":{"email":"mairiederezay@orange.fr","telephone":"0248563260"},"horaires":"Du Lundi au Mardi : de 09h00 à 12h00\nLe Jeudi : de 14h00 à 19h00","latitude":46.67248,"longitude":2.178701,"website":"","hasWebsite":false,"hasHoraires":true,"url":"https://lannuaire.service-public.gouv.fr/centre-val-de-loire/cher/ef636193-a965-4818-b8b8-9b85207d3a16"}
{"nom":"Rians","nomNormalise":"rians","typeCollectivite":"Commune","region":"Centre-Val de Loire","departement":"Cher","departementCode":"18","adresse":{"street":"4 Grand'rue","postalCode":"18220","city":"Rians","country":"France"},"contacts":{"email":"mairie.rians@wanadoo.fr","telephone":"0248644208"},"horaires":"Le Lundi : de 09h00 à 12h00 de 13h00 à 16h45\nLe Mardi : de 09h00 à 12h00 de 13h00 à 17h15\nLe Mercredi : de 14h00 à 17h00\nLe Jeudi : de 09h00 à 12h00 de 13h00 à 17h15\nLe Vendredi : de 09h00 à 12h00 de 13h00 à 16h15","latitude":47.185688,"longitude":2.6128538,"website":"https://www.rians18.fr/","hasWebsite":true,"hasHoraires":true,"url":"https://lannuaire.service-public.gouv.fr/centre-val-de-loire/cher/1f2d902a-6cf6-49ed-b4bd-c2e59cd1e26d"}
{"nom":"Sagonne","nomNormalise":"sagonne","typeCollectivite":"Commune","region":"Centre-Val de Loire","departement":"Cher","departementCode":"18","adresse":{"street":"5 place de l'Église","postalCode":"18600","city":"Sagonne","country":"France"},"contacts":{"email":"commune.sagonne@orange.fr","telephone":"0248800116"},"horaires":"Le Mardi : de 16h00 à 18h00\nLe Jeudi : de 11h00 à 12h30 de 16h00 à 18h00","latitude":46.849712,"longitude":2.8251,"website":"","hasWebsite":false,"hasHoraires":true,"url":"https://lannuaire.service-public.gouv.fr/centre-val-de-loire/cher/97531eb6-8fa0-4530-aac8-a2c020eb956d"}
{"nom":"Saint-Aignan-des-Noyers","nomNormalise":"saintaignandesnoyers","typeCollectivite":"Commune","region":"Centre-Val de Loire","departement":"Cher","departementCode":"18","adresse":{"street":"10 place de l'Église","postalCode":"18600","city":"Saint-Aignan-des-Noyers","country":"France"},"contacts":{"email":"mairie.aignan@wanadoo.fr","telephone":"0248746064"},"horaires":"Le Mercredi : de 14h00 à 18h00\nLe Vendredi : de 14h00 à 18h00","latitude":46.76429,"longitude":2.815744,"website":"","hasWebsite":false,"hasHoraires":true,"url":"https://lannuaire.service-public.gouv.fr/centre-val-de-loire/cher/92c80107-5f3c-486b-a043-99eb09a18f4e"}
{"nom":"Saint-Amand-Montrond","nomNormalise":"saintamandmontrond","typeCollectivite":"Commune","region":"Centre-Val de Loire","departement":"Cher","departementCode":"18","adresse":{"street":"2 rue Philibert-Audebrand","postalCode":"18200","city":"Saint-Amand-Montrond","country":"France"},"contacts":{"email":"direction.generale.services@ville-saint-amand-montrond.fr","telephone":"0248638300"},"horaires":"Le Lundi : de 08h00 à 12h30 de 14h00 à 17h00\nLe Mardi : de 08h00 à 17h00\nLe Mercredi : de 08h00 à 12h00\nLe Jeudi : de 08h00 à 17h00\nLe Vendredi : de 08h00 à 12h30 de 14h00 à 17h00\nLe Samedi : de 08h00 à 12h00","latitude":46.7216,"longitude":2.5068,"website":"http://www.ville-saint-amand-montrond.fr/fr/index.html","hasWebsite":true,"hasHoraires":true,"url":"https://lannuaire.service-public.gouv.fr/centre-val-de-loire/cher/4a862967-a495-4ffd-8cab-86b0457ba244"}
{"nom":"Saint-Ambroix","nomNormalise":"saintambroix","typeCollectivite":"Commune","region":"Centre-Val de Loire","departement":"Cher","departementCode":"18","adresse":{"street":"4 rue de la Mairie","postalCode":"18290","city":"Saint-Ambroix","country":"France"},"contacts":{"email":"mairie-stambroixcher@wanadoo.fr","telephone":"0248699387"},"horaires":"Du Lundi au Mardi : de 09h00 à 12h30 de 13h15 à 17h00\nDu Jeudi au Vendredi : de 09h00 à 12h30 de 13h15 à 17h00","latitude":46.9311,"longitude":2.11948,"website":"","hasWebsite":false,"hasHoraires":true,"url":"https://lannuaire.service-public.gouv.fr/centre-val-de-loire/cher/29869779-8f80-41e3-a524-ff1094688a3c"}
{"nom":"Saint-Baudel","nomNormalise":"saintbaudel","typeCollectivite":"Commune","region":"Centre-Val de Loire","departement":"Cher","departementCode":"18","adresse":{"street":"9 rue Principale","postalCode":"18160","city":"Saint-Baudel","country":"France"},"contacts":{"email":"mairie-de-st-baudel@wanadoo.fr","telephone":"0248600068"},"horaires":"Le Lundi : de 09h00 à 12h00\nLe Mardi : de 13h30 à 17h00\nLe Mercredi : de 09h00 à 12h00\nLe Jeudi : de 09h00 à 12h00\nLe Vendredi : de 13h30 à 17h00","latitude":46.838196,"longitude":2.206703,"website":"https://www.saintbaudel.fr/","hasWebsite":true,"hasHoraires":true,"url":"https://lannuaire.service-public.gouv.fr/centre-val-de-loire/cher/0ae13bed-85ec-4307-8d1d-52792996f6a7"}
{"nom":"Saint-Bouize","nomNormalise":"saintbouize","typeCollectivite":"Commune","region":"Centre-Val de Loire","departement":"Cher","departementCode":"18","adresse":{"street":"1 route de Sancerre","postalCode":"18300","city":"Saint-Bouize","country":"France"},"contacts":{"email":"mairie-st-bouize@orange.fr","telephone":"0248799233"},"horaires":"Le Mardi : de 09h00 à 12h00 de 14h00 à 17h00\nLe Mercredi : de 09h00 à 12h00\nDu Jeudi au Vendredi : de 09h00 à 12h00 de 14h00 à 17h00","latitude":47.284317,"longitude":2.885262,"website":"","hasWebsite":false,"hasHoraires":true,"url":"https://lannuaire.service-public.gouv.fr/centre-val-de-loire/cher/1364b0fb-c303-4a4f-a57a-c897ff49d584"}
{"nom":"Saint-Caprais","nomNormalise":"saintcaprais","typeCollectivite":"Commune","region":"Centre-Val de Loire","departement":"Cher","departementCode":"18","adresse":{"street":"3 rue de Néré","postalCode":"18400","city":"Saint-Caprais","country":"France"},"contacts":{"email":"mairie@saintcaprais18.fr","telephone":"0248550212"},"horaires":"Du Lundi au Mardi : de 14h00 à 18h00\nLe Mercredi : de 09h00 à 12h00 de 14h00 à 16h00\nDu Jeudi au Vendredi : de 14h00 à 18h00","latitude":46.96858,"longitude":2.29343,"website":"","hasWebsite":false,"hasHoraires":true,"url":"https://lannuaire.service-public.gouv.fr/centre-val-de-loire/cher/7cfe0662-8f3f-4251-9285-a333033f0a2a"}
{"nom":"Saint-Céols","nomNormalise":"saintceols","typeCollectivite":"Commune","region":"Centre-Val de Loire","departement":"Cher","departementCode":"18","adresse":{"street":"1 route de Sancerre","postalCode":"18220","city":"Saint-Céols","country":"France"},"contacts":{"email":"ceolsmairie@orange.fr","telephone":"0248643131"},"horaires":"Le Vendredi : de 14h00 à 17h00","latitude":47.22161,"longitude":2.630341,"website":"","hasWebsite":false,"hasHoraires":true,"url":"https://lannuaire.service-public.gouv.fr/centre-val-de-loire/cher/94e079ed-a3c8-4f44-a87f-593b9728b96f"}
{"nom":"Saint-Christophe-le-Chaudry","nomNormalise":"saintchristophelechaudry","typeCollectivite":"Commune","region":"Centre-Val de Loire","departement":"Cher","departementCode":"18","adresse":{"street":"1 rue du Château","postalCode":"18270","city":"Saint-Christophe-le-Chaudry","country":"France"},"contacts":{"email":"communestchristophelechaudry@wanadoo.fr","telephone":"0248566320"},"horaires":"Le Mardi : de 14h00 à 18h00\nLe Jeudi : de 14h00 à 18h00","latitude":46.580647,"longitude":2.368873,"website":"","hasWebsite":false,"hasHoraires":true,"url":"https://lannuaire.service-public.gouv.fr/centre-val-de-loire/cher/3917ac59-5547-43e9-bf52-0553ca0f8f4f"}
{"nom":"Saint-Denis-de-Palin","nomNormalise":"saintdenisdepalin","typeCollectivite":"Commune","region":"Centre-Val de Loire","departement":"Cher","departementCode":"18","adresse":{"street":"2 Place de la Liberté","postalCode":"18130","city":"Saint-Denis-de-Palin","country":"France"},"contacts":{"email":"commune@saintdenisdepalin.com","telephone":"0248255325"},"horaires":"Du Mardi au Mercredi : de 14h00 à 17h00\nLe Jeudi : de 08h30 à 12h30 de 14h30 à 17h30\nLe Vendredi : de 13h30 à 16h30","latitude":46.940277,"longitude":2.53963,"website":"","hasWebsite":false,"hasHoraires":true,"url":"https://lannuaire.service-public.gouv.fr/centre-val-de-loire/cher/ed2ca8d3-b1d0-4a61-bb16-4138e4eba071"}
{"nom":"Saint-Doulchard","nomNormalise":"saintdoulchard","typeCollectivite":"Commune","region":"Centre-Val de Loire","departement":"Cher","departementCode":"18","adresse":{"street":"Avenue du Général-de-Gaulle","postalCode":"18230","city":"Saint-Doulchard","country":"France"},"contacts":{"email":"contact@mairie-saintdoulchard.fr","telephone":"0248235252"},"horaires":"Du Lundi au Vendredi : de 08h15 à 11h45 de 13h30 à 17h00\nLe Samedi : de 09h00 à 11h45\n\nAccueil carte d'identité et état civil uniquement.","latitude":47.1005,"longitude":2.37328,"website":"https://www.mairie-saintdoulchard.fr/","hasWebsite":true,"hasHoraires":true,"url":"https://lannuaire.service-public.gouv.fr/centre-val-de-loire/cher/7baf27bd-1253-49dc-879c-e46c5767d6aa"}
{"nom":"Sainte-Gemme-en-Sancerrois","nomNormalise":"saintegemmeensancerrois","typeCollectivite":"Commune","region":"Centre-Val de Loire","departement":"Cher","departementCode":"18","adresse":{"street":"5 route de Sancerre","postalCode":"18240","city":"Sainte-Gemme-en-Sancerrois","country":"France"},"contacts":{"email":"mairie-st-gemme@wanadoo.fr","telephone":"0248793605"},"horaires":"Du Lundi au Mardi : de 08h00 à 12h30\nLe Jeudi : de 08h00 à 12h30\nLe Vendredi : de 08h00 à 12h30 de 14h00 à 18h00","latitude":47.39414,"longitude":2.816514,"website":"https://www.saintegemmeensancerrois.com/","hasWebsite":true,"hasHoraires":true,"url":"https://lannuaire.service-public.gouv.fr/centre-val-de-loire/cher/0a71931e-2c2e-45aa-9614-03c98db771e4"}
{"nom":"Saint-Éloy-de-Gy","nomNormalise":"sainteloydegy","typeCollectivite":"Commune","region":"Centre-Val de Loire","departement":"Cher","departementCode":"18","adresse":{"street":"4 place de l'Église","postalCode":"18110","city":"Saint-Éloy-de-Gy","country":"France"},"contacts":{"email":"mairiesaintel@orange.fr","telephone":"0248254165"},"horaires":"Du Lundi au Mardi : de 09h00 à 12h00\nDu Jeudi au Vendredi : de 09h00 à 12h00","latitude":47.155266,"longitude":2.3409722,"website":"https://www.saint-eloy-de-gy.fr/","hasWebsite":true,"hasHoraires":true,"url":"https://lannuaire.service-public.gouv.fr/centre-val-de-loire/cher/caf641e2-96b3-4213-90af-4fc786c6afa1"}
{"nom":"Mairie déléguée - Sainte-Lunaise","nomNormalise":"mairiedelegueesaintelunaise","typeCollectivite":"Commune","region":"Centre-Val de Loire","departement":"Cher","departementCode":"18","adresse":{"street":"Sainte-lunaise","postalCode":"18340","city":"Corquoy","country":"France"},"contacts":{"email":"sainte-lunaise@nordnet.fr","telephone":"0248253309"},"horaires":"Le Mardi : de 17h00 à 19h00\nLe Vendredi : de 14h00 à 16h30\nA compter du 1er janvier 2019, la commune nouvelle de Corquoy est créée en lieu et place des communes de Corquoy et de Sainte-Lunaise (canton de Trouy, arrondissement de Saint-Amand-Montrond).","latitude":46.9205,"longitude":2.349392,"website":"","hasWebsite":false,"hasHoraires":true,"url":"https://lannuaire.service-public.gouv.fr/centre-val-de-loire/cher/dc38096e-6f16-40c6-a426-25b171840ceb"}
{"nom":"Sainte-Montaine","nomNormalise":"saintemontaine","typeCollectivite":"Commune","region":"Centre-Val de Loire","departement":"Cher","departementCode":"18","adresse":{"street":"24 rue Principale","postalCode":"18700","city":"Sainte-Montaine","country":"France"},"contacts":{"email":"mairie@saintemontaine.fr","telephone":"0248580516"},"horaires":"Du Mardi au Vendredi : de 13h00 à 17h30\nLe Samedi : de 08h00 à 13h00","latitude":47.489403,"longitude":2.321781,"website":"https://www.saintemontaine.fr/","hasWebsite":true,"hasHoraires":true,"url":"https://lannuaire.service-public.gouv.fr/centre-val-de-loire/cher/17c6f6db-f95d-48e6-8407-d0c9b2bd0dcf"}
{"nom":"Sainte-Solange","nomNormalise":"saintesolange","typeCollectivite":"Commune","region":"Centre-Val de Loire","departement":"Cher","departementCode":"18","adresse":{"street":"Place de la Mairie","postalCode":"18220","city":"Sainte-Solange","country":"France"},"contacts":{"email":"secretariat@saintesolange.fr","telephone":"0248674284"},"horaires":"Le Lundi : de 09h00 à 12h30\nLe Mardi : de 09h00 à 12h30 de 14h00 à 17h30\nLe Jeudi : de 08h00 à 12h30\nLe Vendredi : de 09h00 à 12h30 de 14h00 à 17h30","latitude":47.1349,"longitude":2.54815,"website":"https://sainte-solange.fr/","hasWebsite":true,"hasHoraires":true,"url":"https://lannuaire.service-public.gouv.fr/centre-val-de-loire/cher/d91c0533-042c-4158-9d24-74d776d8bdeb"}
{"nom":"Sainte-Thorette","nomNormalise":"saintethorette","typeCollectivite":"Commune","region":"Centre-Val de Loire","departement":"Cher","departementCode":"18","adresse":{"street":"Route de Mehun-sur-Yèvre","postalCode":"18500","city":"Sainte-Thorette","country":"France"},"contacts":{"email":"mairie.ste-thorette@orange.fr","telephone":"0248573445"},"horaires":"Du Mardi au Samedi : de 09h00 à 12h00","latitude":47.08476,"longitude":2.1977065,"website":"http://www.saintethorette.fr/","hasWebsite":true,"hasHoraires":true,"url":"https://lannuaire.service-public.gouv.fr/centre-val-de-loire/cher/4e1b5d93-a8d0-4ce3-af71-acc1385a06c3"}
{"nom":"Saint-Florent-sur-Cher","nomNormalise":"saintflorentsurcher","typeCollectivite":"Commune","region":"Centre-Val de Loire","departement":"Cher","departementCode":"18","adresse":{"street":"Place de la République","postalCode":"18400","city":"Saint-Florent-sur-Cher","country":"France"},"contacts":{"email":"contact@villesaintflorentsurcher.fr","telephone":"0248235000"},"horaires":"Le Lundi : de 09h00 à 12h00 de 13h30 à 17h30\nDu Mardi au Mercredi : de 08h30 à 12h00 de 13h30 à 17h30\nLe Jeudi : de 08h30 à 12h00\n\nFermeture au public l'après-midi (sauf rendez-vous CNI et passeports).\nLe Vendredi : de 08h30 à 12h00 de 13h30 à 17h00","latitude":46.99241,"longitude":2.245143,"website":"https://www.ville-saint-florent-sur-cher.fr/","hasWebsite":true,"hasHoraires":true,"url":"https://lannuaire.service-public.gouv.fr/centre-val-de-loire/cher/b687fe0e-1fd3-4379-887d-5ca521955d28"}
{"nom":"Saint-Georges-de-Poisieux","nomNormalise":"saintgeorgesdepoisieux","typeCollectivite":"Commune","region":"Centre-Val de Loire","departement":"Cher","departementCode":"18","adresse":{"street":"15 résidence Malza","postalCode":"18200","city":"Saint-Georges-de-Poisieux","country":"France"},"contacts":{"email":"mairie.stgeorgesdepoisieux@hotmail.fr","telephone":"0248963966"},"horaires":"Le Lundi : de 08h00 à 12h00 de 14h00 à 18h00\nDu Mardi au Mercredi : de 08h00 à 12h00\nLe Jeudi : de 08h00 à 12h00 de 14h00 à 18h00\nLe Vendredi : de 08h00 à 12h00 de 14h00 à 17h00","latitude":46.687595,"longitude":2.4807563,"website":"","hasWebsite":false,"hasHoraires":true,"url":"https://lannuaire.service-public.gouv.fr/centre-val-de-loire/cher/a81f1c7e-5157-40d5-8691-d8ed52eba338"}
{"nom":"Saint-Georges-sur-la-Prée","nomNormalise":"saintgeorgessurlapree","typeCollectivite":"Commune","region":"Centre-Val de Loire","departement":"Cher","departementCode":"18","adresse":{"street":"6 rue de Dampierre","postalCode":"18100","city":"Saint-Georges-sur-la-Prée","country":"France"},"contacts":{"email":"mairie.stgeorgessurlapree@orange.fr","telephone":"0248520020"},"horaires":"Du Mardi au Mercredi : de 10h00 à 12h00\nDu Jeudi au Vendredi : de 14h00 à 17h00\nLe Samedi : de 10h00 à 12h00","latitude":47.2229,"longitude":1.94355,"website":"https://saintgeorgessurlapree.fr/","hasWebsite":true,"hasHoraires":true,"url":"https://lannuaire.service-public.gouv.fr/centre-val-de-loire/cher/4819b4f5-4c5c-48f5-8aa8-955df4791d6b"}
{"nom":"Saint-Georges-sur-Moulon","nomNormalise":"saintgeorgessurmoulon","typeCollectivite":"Commune","region":"Centre-Val de Loire","departement":"Cher","departementCode":"18","adresse":{"street":"8 route de Bourges","postalCode":"18110","city":"Saint-Georges-sur-Moulon","country":"France"},"contacts":{"email":"mairie.st.georges.moulon18@wanadoo.fr","telephone":"0248645158"},"horaires":"Le Lundi : de 14h00 à 17h30\nLe Mardi : de 09h00 à 12h00\nLe Mercredi : de 14h00 à 17h30\nLe Jeudi : de 09h00 à 12h00\nLe Samedi : de 09h00 à 12h00","latitude":47.1872,"longitude":2.42314,"website":"http://www.saint-georges-sur-moulon.fr/","hasWebsite":true,"hasHoraires":true,"url":"https://lannuaire.service-public.gouv.fr/centre-val-de-loire/cher/cec8dbf5-f0a0-49ee-9712-01f0dcffbb06"}
{"nom":"Saint-Germain-des-Bois","nomNormalise":"saintgermaindesbois","typeCollectivite":"Commune","region":"Centre-Val de Loire","departement":"Cher","departementCode":"18","adresse":{"street":"29 place de l'Église","postalCode":"18340","city":"Saint-Germain-des-Bois","country":"France"},"contacts":{"email":"mairie.stgermaindesbois18@wanadoo.fr","telephone":"0248253098"},"horaires":"Le Lundi : de 08h30 à 12h30 de 13h30 à 17h30\nLe Mardi : de 08h30 à 12h30\nLe Mercredi : de 08h30 à 12h00\nLe Jeudi : de 08h30 à 12h30 de 13h30 à 17h30\nLe Vendredi : de 13h30 à 17h00","latitude":46.912754,"longitude":2.4442177,"website":"https://mairie-stgermaindesbois18.fr/","hasWebsite":true,"hasHoraires":true,"url":"https://lannuaire.service-public.gouv.fr/centre-val-de-loire/cher/a9ad8b3b-3a54-45c0-9920-757976248628"}
{"nom":"Saint-Germain-du-Puy","nomNormalise":"saintgermaindupuy","typeCollectivite":"Commune","region":"Centre-Val de Loire","departement":"Cher","departementCode":"18","adresse":{"street":"Rue Joliot-Curie","postalCode":"18390","city":"Saint-Germain-du-Puy","country":"France"},"contacts":{"email":"info@saintgermaindupuy.fr","telephone":"0248308418"},"horaires":"Le Lundi : de 08h45 à 12h00 de 14h00 à 18h00\nDu Mardi au Jeudi : de 08h45 à 12h00 de 14h00 à 17h30\nLe Vendredi : de 08h45 à 12h00 de 14h00 à 17h00\nLe Samedi : de 09h00 à 11h30\n\nAccueil ouvert uniquement sur rendez-vous.","latitude":47.0997,"longitude":2.483,"website":"https://www.saintgermaindupuy.fr/","hasWebsite":true,"hasHoraires":true,"url":"https://lannuaire.service-public.gouv.fr/centre-val-de-loire/cher/b7e592c8-217a-4158-8171-61dc48c7109b"}
{"nom":"Saint-Hilaire-de-Court","nomNormalise":"sainthilairedecourt","typeCollectivite":"Commune","region":"Centre-Val de Loire","departement":"Cher","departementCode":"18","adresse":{"street":"3 route de Saint-Georges","postalCode":"18100","city":"Saint-Hilaire-de-Court","country":"France"},"contacts":{"email":"saint-hilaire-de-court.mairie@wanadoo.fr","telephone":"0248751054"},"horaires":"Du Lundi au Mardi : de 13h00 à 17h00\nLe Mercredi : de 14h00 à 17h00\n\nOuvert le mercredi matin seulement pendant les périodes scolaires\nLe Jeudi : de 09h30 à 12h15 de 13h00 à 17h00\nLe Vendredi : de 13h00 à 17h15","latitude":47.2065,"longitude":2.01998,"website":"https://www.saint-hilaire-de-court.fr/","hasWebsite":true,"hasHoraires":true,"url":"https://lannuaire.service-public.gouv.fr/centre-val-de-loire/cher/20520308-a93c-43bc-b01f-00448a55233b"}
{"nom":"Saint-Hilaire-de-Gondilly","nomNormalise":"sainthilairedegondilly","typeCollectivite":"Commune","region":"Centre-Val de Loire","departement":"Cher","departementCode":"18","adresse":{"street":"3 route l'Ouche-Bonnin","postalCode":"18320","city":"Saint-Hilaire-de-Gondilly","country":"France"},"contacts":{"email":"mairie.sthilairedegondilly@orange.fr","telephone":"0248802357"},"horaires":"Le Lundi : de 08h30 à 12h30\nLe Jeudi : de 08h30 à 12h30\nLe Samedi : de 08h30 à 12h30","latitude":47.04925,"longitude":2.885747,"website":"https://www.sainthilairedegondilly.fr/","hasWebsite":true,"hasHoraires":true,"url":"https://lannuaire.service-public.gouv.fr/centre-val-de-loire/cher/f238afed-fa46-44ed-96be-eb863ec76ba7"}
{"nom":"Saint-Hilaire-en-Lignières","nomNormalise":"sainthilaireenlignieres","typeCollectivite":"Commune","region":"Centre-Val de Loire","departement":"Cher","departementCode":"18","adresse":{"street":"10 rue de Bornéis","postalCode":"18160","city":"Saint-Hilaire-en-Lignières","country":"France"},"contacts":{"email":"mairie-saint-hilaire-en-l@wanadoo.fr","telephone":"0248600332"},"horaires":"Du Lundi au Mardi : de 09h00 à 12h30 de 13h00 à 16h30\nLe Mercredi : de 09h00 à 12h30\nLe Jeudi : de 09h00 à 12h30 de 13h00 à 16h30\nLe Vendredi : de 09h00 à 12h30","latitude":46.72701,"longitude":2.1741285,"website":"https://www.saint-hilaire-en-lignieres.fr/","hasWebsite":true,"hasHoraires":true,"url":"https://lannuaire.service-public.gouv.fr/centre-val-de-loire/cher/4c3c8368-4d31-464a-947a-b15fd142cc3c"}
{"nom":"Saint-Jeanvrin","nomNormalise":"saintjeanvrin","typeCollectivite":"Commune","region":"Centre-Val de Loire","departement":"Cher","departementCode":"18","adresse":{"street":"15 route des Archers","postalCode":"18370","city":"Saint-Jeanvrin","country":"France"},"contacts":{"email":"mairie.saint.jeanvrin@orange.fr","telephone":"0248613203"},"horaires":"Le Mardi : de 09h00 à 12h00\nLe Jeudi : de 14h00 à 17h00","latitude":46.596134,"longitude":2.23413,"website":"","hasWebsite":false,"hasHoraires":true,"url":"https://lannuaire.service-public.gouv.fr/centre-val-de-loire/cher/38ff75fd-1403-412a-8801-0db11b733185"}
{"nom":"Saint-Just","nomNormalise":"saintjust","typeCollectivite":"Commune","region":"Centre-Val de Loire","departement":"Cher","departementCode":"18","adresse":{"street":"1 place de la Mairie","postalCode":"18340","city":"Saint-Just","country":"France"},"contacts":{"email":"mairie.stjust18@wanadoo.fr","telephone":"0248256221"},"horaires":"Du Lundi au Jeudi : de 09h00 à 17h00\nLe Vendredi : de 09h00 à 12h00","latitude":46.99212,"longitude":2.5096939,"website":"","hasWebsite":false,"hasHoraires":true,"url":"https://lannuaire.service-public.gouv.fr/centre-val-de-loire/cher/6df78ceb-4d41-4826-b017-28e9b37ada93"}
{"nom":"Saint-Laurent","nomNormalise":"saintlaurent","typeCollectivite":"Commune","region":"Centre-Val de Loire","departement":"Cher","departementCode":"18","adresse":{"street":"27 rue Honoré-Édouard-Perrot","postalCode":"18330","city":"Saint-Laurent","country":"France"},"contacts":{"email":"mairie18330@saintlaurent18.fr","telephone":"0248515107"},"horaires":"Du Lundi au Mardi : de 09h00 à 12h30 de 14h00 à 17h00\nLe Mercredi : de 09h00 à 12h00\nDu Jeudi au Vendredi : de 09h00 à 12h30 de 14h00 à 17h00","latitude":47.22686,"longitude":2.2032838,"website":"https://saintlaurent18.fr/","hasWebsite":true,"hasHoraires":true,"url":"https://lannuaire.service-public.gouv.fr/centre-val-de-loire/cher/f6776949-8acd-41b2-9a2c-a2b6d1047564"}
{"nom":"Saint-Léger-le-Petit","nomNormalise":"saintlegerlepetit","typeCollectivite":"Commune","region":"Centre-Val de Loire","departement":"Cher","departementCode":"18","adresse":{"street":"4 rue de la Mairie","postalCode":"18140","city":"Saint-Léger-le-Petit","country":"France"},"contacts":{"email":"secretariat.mairie@saint-leger-le-petit.fr","telephone":"0248765201"},"horaires":"Le Lundi : de 09h00 à 12h30 de 13h30 à 16h00\nDu Mercredi au Jeudi : de 09h00 à 12h30 de 13h30 à 17h00","latitude":47.1224,"longitude":3.00317,"website":"https://www.saint-leger-le-petit.fr/","hasWebsite":true,"hasHoraires":true,"url":"https://lannuaire.service-public.gouv.fr/centre-val-de-loire/cher/65ca541c-4226-4bb6-a5ef-12ed8eeec09d"}
{"nom":"Saint-Loup-des-Chaumes","nomNormalise":"saintloupdeschaumes","typeCollectivite":"Commune","region":"Centre-Val de Loire","departement":"Cher","departementCode":"18","adresse":{"street":"2 route de Bigny","postalCode":"18190","city":"Saint-Loup-des-Chaumes","country":"France"},"contacts":{"email":"mairie.saintloupdeschaumes@wanadoo.fr","telephone":"0248636408"},"horaires":"Le Lundi : de 14h00 à 19h00\nLe Mercredi : de 09h00 à 12h00\nLe Vendredi : de 09h00 à 12h00","latitude":46.823338,"longitude":2.388094,"website":"","hasWebsite":false,"hasHoraires":true,"url":"https://lannuaire.service-public.gouv.fr/centre-val-de-loire/cher/91f51099-f615-4c9a-9a19-52e6f111999c"}
{"nom":"Saint-Martin-d'Auxigny","nomNormalise":"saintmartindauxigny","typeCollectivite":"Commune","region":"Centre-Val de Loire","departement":"Cher","departementCode":"18","adresse":{"street":"1 place de la Mairie","postalCode":"18110","city":"Saint-Martin-d'Auxigny","country":"France"},"contacts":{"email":"contact@stmartin-auxigny.fr","telephone":"0248666161"},"horaires":"Du Mardi au Vendredi : de 08h30 à 12h00 de 13h30 à 17h30\nLe Samedi : de 08h30 à 12h00","latitude":47.2042,"longitude":2.4171822,"website":"https://www.stmartin-auxigny.fr/","hasWebsite":true,"hasHoraires":true,"url":"https://lannuaire.service-public.gouv.fr/centre-val-de-loire/cher/7965ffa9-c894-4846-b00c-a6d18e0e27be"}
{"nom":"Saint-Martin-des-Champs","nomNormalise":"saintmartindeschamps","typeCollectivite":"Commune","region":"Centre-Val de Loire","departement":"Cher","departementCode":"18","adresse":{"street":"Espace Gabriel-Gitton","postalCode":"18140","city":"Saint-Martin-des-Champs","country":"France"},"contacts":{"email":"mairie.stmartindeschamps.18@wanadoo.fr","telephone":"0248727034"},"horaires":"Du Lundi au Jeudi : de 08h30 à 12h00\nLe Vendredi : de 16h30 à 19h00","latitude":47.15846,"longitude":2.921738,"website":"","hasWebsite":false,"hasHoraires":true,"url":"https://lannuaire.service-public.gouv.fr/centre-val-de-loire/cher/a327a0c0-8bf0-415a-a39b-85509f39c21f"}
{"nom":"Saint-Maur","nomNormalise":"saintmaur","typeCollectivite":"Commune","region":"Centre-Val de Loire","departement":"Cher","departementCode":"18","adresse":{"street":"20 route de la Gaieté","postalCode":"18270","city":"Saint-Maur","country":"France"},"contacts":{"email":"mairiestmaur18@wanadoo.fr","telephone":"0248566606"},"horaires":"Le Mardi : de 08h30 à 12h30 de 13h00 à 17h00\nLe Jeudi : de 08h30 à 12h00\nLe Vendredi : de 08h30 à 12h30 de 13h00 à 17h00","latitude":46.580177,"longitude":2.299723,"website":"","hasWebsite":false,"hasHoraires":true,"url":"https://lannuaire.service-public.gouv.fr/centre-val-de-loire/cher/c198ec77-983a-49a1-a4bd-5b9aa2e5f2e8"}
{"nom":"Saint-Michel-de-Volangis","nomNormalise":"saintmicheldevolangis","typeCollectivite":"Commune","region":"Centre-Val de Loire","departement":"Cher","departementCode":"18","adresse":{"street":"1 rue de Bel-Air","postalCode":"18390","city":"Saint-Michel-de-Volangis","country":"France"},"contacts":{"email":"mairie-st-michel@wanadoo.fr","telephone":"0248693574"},"horaires":"Le Lundi : de 09h00 à 12h00\nLe Mardi : de 14h00 à 18h00\nLe Jeudi : de 14h00 à 18h00\nLe Vendredi : de 17h00 à 19h00","latitude":47.1445,"longitude":2.49629,"website":"https://www.st-michel-de-volangis.fr/","hasWebsite":true,"hasHoraires":true,"url":"https://lannuaire.service-public.gouv.fr/centre-val-de-loire/cher/629b70a8-4d62-4271-9914-fe0c41794529"}
{"nom":"Saint-Outrille","nomNormalise":"saintoutrille","typeCollectivite":"Commune","region":"Centre-Val de Loire","departement":"Cher","departementCode":"18","adresse":{"street":"4 rue de l'Église","postalCode":"18310","city":"Saint-Outrille","country":"France"},"contacts":{"email":"a.commune-de-st-outrille@orange.fr","telephone":"0248514041"},"horaires":"Le Lundi : de 08h00 à 12h00\nLe Mardi : de 13h00 à 16h30\nDu Mercredi au Vendredi : de 08h00 à 12h00","latitude":47.1438,"longitude":1.84184,"website":"https://www.communesaintoutrille.fr/","hasWebsite":true,"hasHoraires":true,"url":"https://lannuaire.service-public.gouv.fr/centre-val-de-loire/cher/1becd391-931a-4f99-ba21-4fddafeb4a78"}
{"nom":"Saint-Palais","nomNormalise":"saintpalais","typeCollectivite":"Commune","region":"Centre-Val de Loire","departement":"Cher","departementCode":"18","adresse":{"street":"2 place de la Mairie","postalCode":"18110","city":"Saint-Palais","country":"France"},"contacts":{"email":"mairie@saintpalais18.fr","telephone":"0248660133"},"horaires":"Le Lundi : de 09h00 à 12h00\nLe Mardi : de 09h00 à 12h00 de 15h00 à 18h00\nLe Mercredi : de 09h00 à 12h00\nLe Jeudi : de 09h00 à 12h00 de 15h00 à 18h00\nDu Vendredi au Samedi : de 09h00 à 12h00","latitude":47.232773,"longitude":2.4204717,"website":"https://saintpalais18.fr/","hasWebsite":true,"hasHoraires":true,"url":"https://lannuaire.service-public.gouv.fr/centre-val-de-loire/cher/cebe3b9b-d732-4a5c-84f0-4c3268649208"}
{"nom":"Saint-Pierre-les-Bois","nomNormalise":"saintpierrelesbois","typeCollectivite":"Commune","region":"Centre-Val de Loire","departement":"Cher","departementCode":"18","adresse":{"street":"Le Bourg","postalCode":"18170","city":"Saint-Pierre-les-Bois","country":"France"},"contacts":{"email":"mairie.st.pierre.les.bois@wanadoo.fr","telephone":"0248562043"},"horaires":"Le Lundi : de 08h00 à 12h00 de 13h00 à 16h00\nLe Mardi : de 08h00 à 11h30 de 13h00 à 16h00\nLe Mercredi : de 08h00 à 11h30\nDu Jeudi au Vendredi : de 08h00 à 11h30 de 13h00 à 16h00","latitude":46.66478,"longitude":2.2784927,"website":"https://www.saintpierrelesbois.fr/","hasWebsite":true,"hasHoraires":true,"url":"https://lannuaire.service-public.gouv.fr/centre-val-de-loire/cher/6ddb7d15-d029-444a-87b2-a439a231433a"}
{"nom":"Saint-Pierre-les-Étieux","nomNormalise":"saintpierrelesetieux","typeCollectivite":"Commune","region":"Centre-Val de Loire","departement":"Cher","departementCode":"18","adresse":{"street":"Les Vivons","postalCode":"18210","city":"Saint-Pierre-les-Étieux","country":"France"},"contacts":{"email":"mairie-stpierrelesetieux@wanadoo.fr","telephone":"0248607393"},"horaires":"Le Lundi : de 08h00 à 13h00\nLe Mardi : de 13h00 à 16h00\nLe Mercredi : de 08h00 à 12h00\nLe Jeudi : de 14h00 à 18h30\nLe Vendredi : de 08h00 à 12h00","latitude":46.73814,"longitude":2.593523,"website":"","hasWebsite":false,"hasHoraires":true,"url":"https://lannuaire.service-public.gouv.fr/centre-val-de-loire/cher/0df6f6c8-bc8a-4a51-9d22-f3be647a5c31"}
{"nom":"Saint-Priest-la-Marche","nomNormalise":"saintpriestlamarche","typeCollectivite":"Commune","region":"Centre-Val de Loire","departement":"Cher","departementCode":"18","adresse":{"street":"9 le Bourg","postalCode":"18370","city":"Saint-Priest-la-Marche","country":"France"},"contacts":{"email":"mairie@stpriestlamarche.fr","telephone":"0248564805"},"horaires":"Le Lundi : de 09h00 à 12h15 de 13h00 à 16h45\nLe Mardi : de 09h00 à 12h15\nLe Mercredi : de 09h00 à 12h15 de 13h00 à 16h45","latitude":46.448517,"longitude":2.1743875,"website":"https://mairie-stpriest-18.fr/","hasWebsite":true,"hasHoraires":true,"url":"https://lannuaire.service-public.gouv.fr/centre-val-de-loire/cher/92db13ed-ed0b-43cb-8848-ba32b2341deb"}
{"nom":"Saint-Satur","nomNormalise":"saintsatur","typeCollectivite":"Commune","region":"Centre-Val de Loire","departement":"Cher","departementCode":"18","adresse":{"street":"36 rue du Commerce","postalCode":"18300","city":"Saint-Satur","country":"France"},"contacts":{"email":"mairie.st.satur@wanadoo.fr","telephone":"0248540261"},"horaires":"Du Lundi au Vendredi : de 08h00 à 12h00 de 13h30 à 16h45","latitude":47.34,"longitude":2.85282,"website":"https://www.saint-satur.fr/","hasWebsite":true,"hasHoraires":true,"url":"https://lannuaire.service-public.gouv.fr/centre-val-de-loire/cher/062c16c1-13bf-4d0a-916f-c170f1c593d5"}
{"nom":"Saint-Saturnin","nomNormalise":"saintsaturnin","typeCollectivite":"Commune","region":"Centre-Val de Loire","departement":"Cher","departementCode":"18","adresse":{"street":"1 route de Sainte-Sévère","postalCode":"18370","city":"Saint-Saturnin","country":"France"},"contacts":{"email":"mairie-saintsaturnin18@wanadoo.fr","telephone":"0248616075"},"horaires":"Du Lundi au Mardi : de 09h00 à 12h00 de 14h00 à 17h30\nDu Jeudi au Vendredi : de 09h00 à 12h00 de 14h00 à 17h30","latitude":46.5518,"longitude":2.18017,"website":"","hasWebsite":false,"hasHoraires":true,"url":"https://lannuaire.service-public.gouv.fr/centre-val-de-loire/cher/06ebf1e3-e8eb-4bce-9934-58a1168f6d36"}
{"nom":"Saint-Symphorien","nomNormalise":"saintsymphorien","typeCollectivite":"Commune","region":"Centre-Val de Loire","departement":"Cher","departementCode":"18","adresse":{"street":"2 le Champs-de-Derrière","postalCode":"18190","city":"Saint-Symphorien","country":"France"},"contacts":{"email":"mairie.stsymphoriencher@wanadoo.fr","telephone":"0248606079"},"horaires":"Le Mardi : de 16h30 à 18h30\nLe Jeudi : de 16h30 à 18h30","latitude":46.812115,"longitude":2.311178,"website":"","hasWebsite":false,"hasHoraires":true,"url":"https://lannuaire.service-public.gouv.fr/centre-val-de-loire/cher/9056e511-7961-4ada-aff2-aee9ac318ed0"}
{"nom":"Saint-Vitte","nomNormalise":"saintvitte","typeCollectivite":"Commune","region":"Centre-Val de Loire","departement":"Cher","departementCode":"18","adresse":{"street":"24 rue de la Forge","postalCode":"18360","city":"Saint-Vitte","country":"France"},"contacts":{"email":"commune.saint-vitte@wanadoo.fr","telephone":"0248630063"},"horaires":"Le Mardi : de 08h00 à 18h00\nLe Jeudi : de 08h00 à 18h00","latitude":46.54568,"longitude":2.531543,"website":"","hasWebsite":false,"hasHoraires":true,"url":"https://lannuaire.service-public.gouv.fr/centre-val-de-loire/cher/b61d496f-b258-414b-9cf0-6325265af490"}
{"nom":"Mairie déléguée - Saligny-le-Vif","nomNormalise":"mairiedelegueesalignylevif","typeCollectivite":"Commune","region":"Centre-Val de Loire","departement":"Cher","departementCode":"18","adresse":{"street":"Saligny-le-Vif","postalCode":"18800","city":"Baugy","country":"France"},"contacts":{"email":"accueil@commune-baugy18.fr","telephone":"0248592371"},"horaires":"Le Mardi : de 13h30 à 17h30\nAccueil ouvert uniquement le 1er mardi de chaque mois.","latitude":47.04898,"longitude":2.783632,"website":"https://baugy18.fr/","hasWebsite":true,"hasHoraires":true,"url":"https://lannuaire.service-public.gouv.fr/centre-val-de-loire/cher/d10ddc37-e53d-4175-b02c-98e8049cd34d"}
{"nom":"Sancergues","nomNormalise":"sancergues","typeCollectivite":"Commune","region":"Centre-Val de Loire","departement":"Cher","departementCode":"18","adresse":{"street":"8 rue Hubert-Gouvernel","postalCode":"18140","city":"Sancergues","country":"France"},"contacts":{"email":"mairie.sancergues@wanadoo.fr","telephone":"0248727042"},"horaires":"Du Lundi au Mardi : de 09h00 à 12h00 de 14h00 à 18h00\nLe Mercredi : de 09h00 à 12h00\nLe Jeudi : de 09h00 à 12h00 de 14h00 à 18h00\nLe Vendredi : de 09h00 à 12h00 de 14h00 à 17h30","latitude":47.156,"longitude":2.91725,"website":"https://www.sancergues.fr/","hasWebsite":true,"hasHoraires":true,"url":"https://lannuaire.service-public.gouv.fr/centre-val-de-loire/cher/e107d04d-705a-4e82-af86-8a23f49e6e0a"}
{"nom":"Sancerre","nomNormalise":"sancerre","typeCollectivite":"Commune","region":"Centre-Val de Loire","departement":"Cher","departementCode":"18","adresse":{"street":"Place de la Panneterie","postalCode":"18300","city":"Sancerre","country":"France"},"contacts":{"email":"mairie@ville-sancerre.fr","telephone":"0248785252"},"horaires":"Du Lundi au Vendredi : de 09h00 à 12h00 de 14h00 à 17h00","latitude":47.329582,"longitude":2.839867,"website":"https://ville-sancerre.com/","hasWebsite":true,"hasHoraires":true,"url":"https://lannuaire.service-public.gouv.fr/centre-val-de-loire/cher/cbe2d132-e35c-4348-8255-ccf3e9423220"}
{"nom":"Sancoins","nomNormalise":"sancoins","typeCollectivite":"Commune","region":"Centre-Val de Loire","departement":"Cher","departementCode":"18","adresse":{"street":"10 place de la Libération","postalCode":"18600","city":"Sancoins","country":"France"},"contacts":{"email":"accueil@sancoins.fr","telephone":"0248775242"},"horaires":"Le Lundi : de 08h30 à 12h00 de 13h30 à 17h30\nLe Mardi : de 13h30 à 17h30\nLe Mercredi : de 08h30 à 12h00\nDu Jeudi au Vendredi : de 08h30 à 12h00 de 13h30 à 17h30","latitude":46.831078,"longitude":2.920495,"website":"https://www.sancoins.fr/","hasWebsite":true,"hasHoraires":true,"url":"https://lannuaire.service-public.gouv.fr/centre-val-de-loire/cher/820262a0-84c3-433d-9200-bba06b7841d6"}
{"nom":"Santranges","nomNormalise":"santranges","typeCollectivite":"Commune","region":"Centre-Val de Loire","departement":"Cher","departementCode":"18","adresse":{"street":"9 place du Souvenir-Français","postalCode":"18240","city":"Santranges","country":"France"},"contacts":{"email":"mairie.santranges@wanadoo.fr","telephone":"0248726302"},"horaires":"Du Lundi au Samedi : de 10h00 à 12h00","latitude":47.497887,"longitude":2.7729945,"website":"https://www.santranges.com/","hasWebsite":true,"hasHoraires":true,"url":"https://lannuaire.service-public.gouv.fr/centre-val-de-loire/cher/7dd75e2e-c77a-41dd-99ec-6486146ad513"}
{"nom":"Saugy","nomNormalise":"saugy","typeCollectivite":"Commune","region":"Centre-Val de Loire","departement":"Cher","departementCode":"18","adresse":{"street":"2 rue de la Mairie","postalCode":"18290","city":"Saugy","country":"France"},"contacts":{"email":"mairiesaugy@orange.fr","telephone":"0248262621"},"horaires":"Le Mardi : de 13h00 à 16h30\nLe Jeudi : de 13h00 à 16h30","latitude":46.970444,"longitude":2.116376,"website":"","hasWebsite":false,"hasHoraires":true,"url":"https://lannuaire.service-public.gouv.fr/centre-val-de-loire/cher/b0b1713c-f37b-4509-b295-669e17e1f9d3"}
{"nom":"Saulzais-le-Potier","nomNormalise":"saulzaislepotier","typeCollectivite":"Commune","region":"Centre-Val de Loire","departement":"Cher","departementCode":"18","adresse":{"street":"2 place du Marché","postalCode":"18360","city":"Saulzais-le-Potier","country":"France"},"contacts":{"email":"mairiedesaulzais@wanadoo.fr","telephone":"0248630210"},"horaires":"Du Lundi au Mardi : de 09h00 à 12h00 de 14h00 à 17h00\nLe Mercredi : de 09h00 à 12h00\nLe Jeudi : de 09h00 à 12h00 de 14h00 à 17h00\nLe Vendredi : de 09h00 à 12h00 de 14h00 à 16h00","latitude":46.598476,"longitude":2.4952767,"website":"https://saulzais-le-potier.e-monsite.com/","hasWebsite":true,"hasHoraires":true,"url":"https://lannuaire.service-public.gouv.fr/centre-val-de-loire/cher/b280dda6-fed4-4b37-a4f9-691e9a74fdac"}
{"nom":"Savigny-en-Sancerre","nomNormalise":"savignyensancerre","typeCollectivite":"Commune","region":"Centre-Val de Loire","departement":"Cher","departementCode":"18","adresse":{"street":"2 rue de la Mairie","postalCode":"18240","city":"Savigny-en-Sancerre","country":"France"},"contacts":{"email":"mairie@savigny-en-sancerre.fr","telephone":"0248785090"},"horaires":"Du Lundi au Mardi : de 09h00 à 12h00 de 14h00 à 17h00\nDu Mercredi au Jeudi : de 09h00 à 12h00\nLe Vendredi : de 09h00 à 12h00 de 14h00 à 17h00\nLe Samedi : de 09h00 à 12h00","latitude":47.441696,"longitude":2.808988,"website":"https://www.savigny-en-sancerre.com/","hasWebsite":true,"hasHoraires":true,"url":"https://lannuaire.service-public.gouv.fr/centre-val-de-loire/cher/5b6f6ac6-b866-4ed1-a566-c5114b39ed3e"}
{"nom":"Savigny-en-Septaine","nomNormalise":"savignyenseptaine","typeCollectivite":"Commune","region":"Centre-Val de Loire","departement":"Cher","departementCode":"18","adresse":{"street":"11 route de Saint-Just","postalCode":"18390","city":"Savigny-en-Septaine","country":"France"},"contacts":{"email":"mairie.savigny.septaine@wanadoo.fr","telephone":"0248259217"},"horaires":"Du Lundi au Vendredi : de 08h30 à 12h00 de 14h00 à 17h30","latitude":47.044006,"longitude":2.560496,"website":"","hasWebsite":false,"hasHoraires":true,"url":"https://lannuaire.service-public.gouv.fr/centre-val-de-loire/cher/e54106d6-403a-42bd-a576-308c421d4d30"}
{"nom":"Senneçay","nomNormalise":"sennecay","typeCollectivite":"Commune","region":"Centre-Val de Loire","departement":"Cher","departementCode":"18","adresse":{"street":"10 rue de la Mairie","postalCode":"18340","city":"Senneçay","country":"France"},"contacts":{"email":"mairie.sennecay@wanadoo.fr","telephone":"0248253291"},"horaires":"Du Lundi au Mardi : de 14h00 à 18h00\nDu Jeudi au Vendredi : de 14h00 à 18h00","latitude":46.950874,"longitude":2.437112,"website":"https://www.sennecay18.fr/","hasWebsite":true,"hasHoraires":true,"url":"https://lannuaire.service-public.gouv.fr/centre-val-de-loire/cher/07185b03-a105-46d7-8a26-e2d91c2a3231"}
{"nom":"Sens-Beaujeu","nomNormalise":"sensbeaujeu","typeCollectivite":"Commune","region":"Centre-Val de Loire","departement":"Cher","departementCode":"18","adresse":{"street":"14 route de Sancerre","postalCode":"18300","city":"Sens-Beaujeu","country":"France"},"contacts":{"email":"secretariat@sens-beaujeu.fr","telephone":"0248790215"},"horaires":"Le Lundi : de 08h30 à 12h30\nLe Mercredi : de 09h00 à 12h30\nLe Jeudi : de 08h30 à 12h30\nLe Vendredi : de 08h30 à 12h30 de 13h30 à 16h30\nLe Samedi : de 09h00 à 12h00\n\nLe 1er samedi du mois.","latitude":47.326534,"longitude":2.710755,"website":"","hasWebsite":false,"hasHoraires":true,"url":"https://lannuaire.service-public.gouv.fr/centre-val-de-loire/cher/601f3db2-d837-4fd3-9bed-45a2e23af26e"}
{"nom":"Serruelles","nomNormalise":"serruelles","typeCollectivite":"Commune","region":"Centre-Val de Loire","departement":"Cher","departementCode":"18","adresse":{"street":"3 route de la Mairie","postalCode":"18190","city":"Serruelles","country":"France"},"contacts":{"email":"mairie.serruelles@gmail.com","telephone":"0248251129"},"horaires":"Le Lundi : de 14h00 à 16h00\nLe Jeudi : de 09h00 à 12h00","latitude":46.882835,"longitude":2.370313,"website":"","hasWebsite":false,"hasHoraires":true,"url":"https://lannuaire.service-public.gouv.fr/centre-val-de-loire/cher/6e1ce300-64fc-496e-992d-c346494464c5"}
{"nom":"Sévry","nomNormalise":"sevry","typeCollectivite":"Commune","region":"Centre-Val de Loire","departement":"Cher","departementCode":"18","adresse":{"street":"4 rue des Lilas","postalCode":"18140","city":"Sévry","country":"France"},"contacts":{"email":"mairie.sevry@orange.fr","telephone":"0248727605"},"horaires":"Le Lundi : de 13h30 à 17h00\nLe Mercredi : de 08h30 à 12h00 de 13h30 à 15h30","latitude":47.131683,"longitude":2.803681,"website":"https://www.sevry.fr/","hasWebsite":true,"hasHoraires":true,"url":"https://lannuaire.service-public.gouv.fr/centre-val-de-loire/cher/96856207-c1db-490c-b19b-a2f285278d38"}
{"nom":"Sidiailles","nomNormalise":"sidiailles","typeCollectivite":"Commune","region":"Centre-Val de Loire","departement":"Cher","departementCode":"18","adresse":{"street":"Le Bourg","postalCode":"18270","city":"Sidiailles","country":"France"},"contacts":{"email":"mairie.sidiailles@orange.fr","telephone":"0248566327"},"horaires":"Le Lundi : de 14h00 à 19h00\nLe Mardi : de 08h30 à 12h30 de 13h30 à 17h30\nLe Jeudi : de 08h30 à 12h30 de 13h30 à 17h30\nLe Vendredi : de 08h30 à 12h30","latitude":46.50797,"longitude":2.318224,"website":"","hasWebsite":false,"hasHoraires":true,"url":"https://lannuaire.service-public.gouv.fr/centre-val-de-loire/cher/2472b1b6-330f-417a-b34c-360dcc0c502c"}
{"nom":"Soulangis","nomNormalise":"soulangis","typeCollectivite":"Commune","region":"Centre-Val de Loire","departement":"Cher","departementCode":"18","adresse":{"street":"5 route de Parassy","postalCode":"18220","city":"Soulangis","country":"France"},"contacts":{"email":"mairiesoulangis@orange.fr","telephone":"0248644252"},"horaires":"Du Lundi au Jeudi : de 08h15 à 12h00 de 13h00 à 17h00\nLe Vendredi : de 08h15 à 12h00","latitude":47.1871,"longitude":2.517757,"website":"https://soulangis.com/","hasWebsite":true,"hasHoraires":true,"url":"https://lannuaire.service-public.gouv.fr/centre-val-de-loire/cher/d64dc36c-7bee-45cc-826b-243807ed4d1b"}
{"nom":"Soye-en-Septaine","nomNormalise":"soyeenseptaine","typeCollectivite":"Commune","region":"Centre-Val de Loire","departement":"Cher","departementCode":"18","adresse":{"street":"2 route de Plaimpied","postalCode":"18340","city":"Soye-en-Septaine","country":"France"},"contacts":{"email":"accueil@soyeenseptaine.fr","telephone":"0248256337"},"horaires":"Le Lundi : de 09h00 à 12h00\nLe Jeudi : de 16h00 à 19h00\nLe Vendredi : de 09h00 à 12h00","latitude":47.02749,"longitude":2.488982,"website":"https://www.soye-en-septaine.fr/fr/","hasWebsite":true,"hasHoraires":true,"url":"https://lannuaire.service-public.gouv.fr/centre-val-de-loire/cher/cb722ff7-ce49-40f9-9aeb-69d7ba0d57f2"}
{"nom":"Subligny","nomNormalise":"subligny","typeCollectivite":"Commune","region":"Centre-Val de Loire","departement":"Cher","departementCode":"18","adresse":{"street":"6 rue Grangier","postalCode":"18260","city":"Subligny","country":"France"},"contacts":{"email":"mairie.subligny@orange.fr","telephone":"0248737455"},"horaires":"Du Lundi au Mardi : de 08h00 à 12h00\nDu Jeudi au Samedi : de 08h00 à 12h00","latitude":47.403683,"longitude":2.755109,"website":"https://www.sublignypaysfort.fr/","hasWebsite":true,"hasHoraires":true,"url":"https://lannuaire.service-public.gouv.fr/centre-val-de-loire/cher/704fd076-a477-478d-a5c7-6f1f061ab1c3"}
{"nom":"Sury-en-Vaux","nomNormalise":"suryenvaux","typeCollectivite":"Commune","region":"Centre-Val de Loire","departement":"Cher","departementCode":"18","adresse":{"street":"1 route de Ménetou-Ratel","postalCode":"18300","city":"Sury-en-Vaux","country":"France"},"contacts":{"email":"communedesuryenvaux@wanadoo.fr","telephone":"0248793231"},"horaires":"Du Lundi au Mardi : de 09h00 à 12h30 de 13h00 à 17h00\nLe Mercredi : de 09h00 à 12h30 de 13h00 à 16h00\nLe Jeudi : de 09h00 à 12h30 de 13h00 à 17h00\nLe Vendredi : de 09h00 à 12h30 de 13h00 à 16h00","latitude":47.36986,"longitude":2.80259,"website":"https://sury-en-vaux.fr/","hasWebsite":true,"hasHoraires":true,"url":"https://lannuaire.service-public.gouv.fr/centre-val-de-loire/cher/5035a8ff-961d-4a74-b860-5d509090aa32"}
{"nom":"Sury-ès-Bois","nomNormalise":"suryesbois","typeCollectivite":"Commune","region":"Centre-Val de Loire","departement":"Cher","departementCode":"18","adresse":{"street":"1 place de la Mairie","postalCode":"18260","city":"Sury-ès-Bois","country":"France"},"contacts":{"email":"mairie.sury-es-bois@wanadoo.fr","telephone":"0248737528"},"horaires":"Le Mardi : de 08h30 à 12h30 de 13h30 à 15h30\nDu Jeudi au Vendredi : de 08h30 à 12h30 de 13h30 à 15h30\nLe Samedi : de 08h30 à 12h30","latitude":47.464546,"longitude":2.7039452,"website":"https://suryesbois.fr/","hasWebsite":true,"hasHoraires":true,"url":"https://lannuaire.service-public.gouv.fr/centre-val-de-loire/cher/70ec6b11-daba-44a4-a0d1-9f3c3f44dd45"}
{"nom":"Sury-près-Léré","nomNormalise":"surypreslere","typeCollectivite":"Commune","region":"Centre-Val de Loire","departement":"Cher","departementCode":"18","adresse":{"street":"8 rue de la Mairie","postalCode":"18240","city":"Sury-près-Léré","country":"France"},"contacts":{"email":"mairiesurypreslere@orange.fr","telephone":"0248726044"},"horaires":"Du Lundi au Samedi : de 09h00 à 12h00","latitude":47.4827,"longitude":2.8625877,"website":"https://sury-pres-lere.fr/","hasWebsite":true,"hasHoraires":true,"url":"https://lannuaire.service-public.gouv.fr/centre-val-de-loire/cher/c07fc0f8-d17d-49a6-9a5b-187cff85a6a4"}
{"nom":"Tendron","nomNormalise":"tendron","typeCollectivite":"Commune","region":"Centre-Val de Loire","departement":"Cher","departementCode":"18","adresse":{"street":"3 route du bourg","postalCode":"18350","city":"Tendron","country":"France"},"contacts":{"email":"mairiedetendron@gmail.com","telephone":"0248748035"},"horaires":"Le Mercredi : de 08h30 à 12h30","latitude":46.973488,"longitude":2.844677,"website":"","hasWebsite":false,"hasHoraires":true,"url":"https://lannuaire.service-public.gouv.fr/centre-val-de-loire/cher/226d54b4-aca5-4804-8271-ae5f76c3c1ed"}
{"nom":"Thaumiers","nomNormalise":"thaumiers","typeCollectivite":"Commune","region":"Centre-Val de Loire","departement":"Cher","departementCode":"18","adresse":{"street":"10 place de l'Église","postalCode":"18210","city":"Thaumiers","country":"France"},"contacts":{"email":"mairie.thaumiers@wanadoo.fr","telephone":"0248618122"},"horaires":"Du Lundi au Vendredi : de 09h00 à 12h00","latitude":46.821297,"longitude":2.654769,"website":"","hasWebsite":false,"hasHoraires":true,"url":"https://lannuaire.service-public.gouv.fr/centre-val-de-loire/cher/0247ecce-0dfc-4674-b27e-b45fc6100d9b"}
{"nom":"Thauvenay","nomNormalise":"thauvenay","typeCollectivite":"Commune","region":"Centre-Val de Loire","departement":"Cher","departementCode":"18","adresse":{"street":"1 rue de la Mairie","postalCode":"18300","city":"Thauvenay","country":"France"},"contacts":{"email":"mairie.thauvenay@orange.fr","telephone":"0248799254"},"horaires":"Du Lundi au Mardi : de 13h00 à 16h00\nLe Jeudi : de 13h00 à 16h00\nLe Vendredi : de 09h30 à 12h30","latitude":47.30487,"longitude":2.8670924,"website":"https://thauvenay.fr/","hasWebsite":true,"hasHoraires":true,"url":"https://lannuaire.service-public.gouv.fr/centre-val-de-loire/cher/d4dd8525-6f99-41e2-bc7a-563606f8db1b"}
{"nom":"Thénioux","nomNormalise":"thenioux","typeCollectivite":"Commune","region":"Centre-Val de Loire","departement":"Cher","departementCode":"18","adresse":{"street":"4 place de l'Église","postalCode":"18100","city":"Thénioux","country":"France"},"contacts":{"email":"mairie.thenioux@orange.fr","telephone":"0248520098"},"horaires":"Du Lundi au Mardi : de 15h00 à 18h00\nDu Jeudi au Vendredi : de 15h00 à 18h00","latitude":47.2566,"longitude":1.926753,"website":"https://www.thenioux.fr/","hasWebsite":true,"hasHoraires":true,"url":"https://lannuaire.service-public.gouv.fr/centre-val-de-loire/cher/0ba3e0b2-b795-4e1e-a68e-08ad4388a9f1"}
{"nom":"Thou","nomNormalise":"thou","typeCollectivite":"Commune","region":"Centre-Val de Loire","departement":"Cher","departementCode":"18","adresse":{"street":"7 Grande rue","postalCode":"18260","city":"Thou","country":"France"},"contacts":{"email":"mairie.thou@wanadoo.fr","telephone":"0248738570"},"horaires":"Le Mardi : de 09h00 à 12h00 de 13h30 à 17h30\nLe Jeudi : de 09h00 à 12h00 de 13h30 à 17h30","latitude":47.42657,"longitude":2.660836,"website":"","hasWebsite":false,"hasHoraires":true,"url":"https://lannuaire.service-public.gouv.fr/centre-val-de-loire/cher/9515a50b-d889-45cd-9712-76db04f5465e"}
{"nom":"Torteron","nomNormalise":"torteron","typeCollectivite":"Commune","region":"Centre-Val de Loire","departement":"Cher","departementCode":"18","adresse":{"street":"3 rue du Commerce","postalCode":"18320","city":"Torteron","country":"France"},"contacts":{"email":"mairie.torteron@orange.fr","telephone":"0248764220"},"horaires":"Du Lundi au Mardi : de 09h00 à 12h00 de 14h00 à 18h00\nLe Mercredi : de 09h00 à 12h00\nLe Jeudi : de 09h00 à 12h00 de 14h00 à 18h00\nLe Vendredi : de 09h00 à 12h00 de 14h00 à 17h00","latitude":47.023827,"longitude":2.9623065,"website":"https://www.mairie-torteron.fr/","hasWebsite":true,"hasHoraires":true,"url":"https://lannuaire.service-public.gouv.fr/centre-val-de-loire/cher/90e9491f-a231-443f-bd1b-0ddd76c9bc45"}
{"nom":"Touchay","nomNormalise":"touchay","typeCollectivite":"Commune","region":"Centre-Val de Loire","departement":"Cher","departementCode":"18","adresse":{"street":"3 place Maurice-Utrillo","postalCode":"18160","city":"Touchay","country":"France"},"contacts":{"email":"mairie.touchay@wanadoo.fr","telephone":"0248600659"},"horaires":"Du Lundi au Jeudi : de 09h00 à 12h30 de 13h30 à 17h00","latitude":46.712486,"longitude":2.210573,"website":"https://www.touchay.fr/","hasWebsite":true,"hasHoraires":true,"url":"https://lannuaire.service-public.gouv.fr/centre-val-de-loire/cher/cd89ac84-cdd3-4a2c-a5f6-98d94dfab4c7"}
{"nom":"Trouy","nomNormalise":"trouy","typeCollectivite":"Commune","region":"Centre-Val de Loire","departement":"Cher","departementCode":"18","adresse":{"street":"12 route de la Chapelle","postalCode":"18570","city":"Trouy","country":"France"},"contacts":{"email":"mairie@ville-trouy.fr","telephone":"0248647818"},"horaires":"Le Lundi : de 09h00 à 12h00 de 14h00 à 17h00\nLe Mardi : de 09h00 à 12h00 de 14h00 à 18h00\nLe Mercredi : de 09h00 à 12h00\n\nMairie annexe de 14h à 16h.\nLe Jeudi : de 09h00 à 12h00\nLe Vendredi : de 09h00 à 17h00","latitude":47.014984,"longitude":2.360904,"website":"https://www.villedetrouy.fr/","hasWebsite":true,"hasHoraires":true,"url":"https://lannuaire.service-public.gouv.fr/centre-val-de-loire/cher/f41f0c13-fd67-41d6-9147-b88ee165fee0"}
{"nom":"Uzay-le-Venon","nomNormalise":"uzaylevenon","typeCollectivite":"Commune","region":"Centre-Val de Loire","departement":"Cher","departementCode":"18","adresse":{"street":"1 rue de la République","postalCode":"18190","city":"Uzay-le-Venon","country":"France"},"contacts":{"email":"mairie-uzay@wanadoo.fr","telephone":"0248610303"},"horaires":"Le Lundi : de 08h30 à 12h00\nLe Mardi : de 13h30 à 17h30\nLe Mercredi : de 08h30 à 12h00\nLe Vendredi : de 08h30 à 12h00","latitude":46.812393,"longitude":2.460286,"website":"https://www.uzaylevenon.fr/","hasWebsite":true,"hasHoraires":true,"url":"https://lannuaire.service-public.gouv.fr/centre-val-de-loire/cher/0e61b425-c81e-4deb-b8aa-2ddc2372ce2d"}
{"nom":"Vailly-sur-Sauldre","nomNormalise":"vaillysursauldre","typeCollectivite":"Commune","region":"Centre-Val de Loire","departement":"Cher","departementCode":"18","adresse":{"street":"29 place du 8-Mai-1945","postalCode":"18260","city":"Vailly-sur-Sauldre","country":"France"},"contacts":{"email":"vailly.mairie@orange.fr","telephone":"0248811260"},"horaires":"Du Lundi au Mardi : de 09h00 à 12h00 de 14h00 à 16h30\nLe Mercredi : de 10h00 à 11h30\nDu Jeudi au Vendredi : de 09h00 à 12h00 de 14h00 à 16h30","latitude":47.458614,"longitude":2.650762,"website":"https://vailly-sur-sauldre.com/","hasWebsite":true,"hasHoraires":true,"url":"https://lannuaire.service-public.gouv.fr/centre-val-de-loire/cher/91775142-7140-44a2-bc4a-a0599c4a60e3"}
{"nom":"Vallenay","nomNormalise":"vallenay","typeCollectivite":"Commune","region":"Centre-Val de Loire","departement":"Cher","departementCode":"18","adresse":{"street":"20 avenue Hubert-Gaulier","postalCode":"18190","city":"Vallenay","country":"France"},"contacts":{"email":"secretariat@mairie-vallenay.fr","telephone":"0248636274"},"horaires":"Du Lundi au Mardi : de 09h30 à 12h30 de 15h30 à 17h00\nDu Mercredi au Jeudi : de 09h30 à 12h30\nLe Vendredi : de 09h30 à 12h30 de 15h30 à 18h00","latitude":46.800556,"longitude":2.372337,"website":"https://www.mairie-vallenay.fr/","hasWebsite":true,"hasHoraires":true,"url":"https://lannuaire.service-public.gouv.fr/centre-val-de-loire/cher/aff1183e-dc6a-452f-9a74-19d4a2ca2eed"}
{"nom":"Vasselay","nomNormalise":"vasselay","typeCollectivite":"Commune","region":"Centre-Val de Loire","departement":"Cher","departementCode":"18","adresse":{"street":"1 place Louis-Ducoux","postalCode":"18110","city":"Vasselay","country":"France"},"contacts":{"email":"urbanisme.vasselay@orange.fr","telephone":"0248693366"},"horaires":"Le Lundi : de 08h30 à 12h30 de 13h30 à 17h30\nLe Mardi : de 07h30 à 12h30 de 13h30 à 17h30\nLe Mercredi : de 08h00 à 12h30\nLe Jeudi : de 07h30 à 12h30\nLe Vendredi : de 08h00 à 12h30 de 13h30 à 17h30","latitude":47.158062,"longitude":2.387871,"website":"https://www.vasselay.fr/","hasWebsite":true,"hasHoraires":true,"url":"https://lannuaire.service-public.gouv.fr/centre-val-de-loire/cher/da603f00-48e0-45db-ae9a-74cbdb4ea5f8"}
{"nom":"Veaugues","nomNormalise":"veaugues","typeCollectivite":"Commune","region":"Centre-Val de Loire","departement":"Cher","departementCode":"18","adresse":{"street":"2 rue de la Gare","postalCode":"18300","city":"Veaugues","country":"France"},"contacts":{"email":"mairie.veaugues@wanadoo.fr","telephone":"0248792420"},"horaires":"Du Lundi au Vendredi : de 08h30 à 12h30","latitude":47.256447,"longitude":2.757969,"website":"https://www.veaugues.fr/","hasWebsite":true,"hasHoraires":true,"url":"https://lannuaire.service-public.gouv.fr/centre-val-de-loire/cher/dfb6dc51-a50a-4c5f-88b9-e1399a8ad5d1"}
{"nom":"Venesmes","nomNormalise":"venesmes","typeCollectivite":"Commune","region":"Centre-Val de Loire","departement":"Cher","departementCode":"18","adresse":{"street":"7 place de la Mairie","postalCode":"18190","city":"Venesmes","country":"France"},"contacts":{"email":"mairie-venesmes@orange.fr","telephone":"0248606046"},"horaires":"Du Lundi au Samedi : de 09h00 à 12h00","latitude":46.8398,"longitude":2.31306,"website":"","hasWebsite":false,"hasHoraires":true,"url":"https://lannuaire.service-public.gouv.fr/centre-val-de-loire/cher/3e56641a-b24e-41a3-a2e9-2b76186d1473"}
{"nom":"Verdigny","nomNormalise":"verdigny","typeCollectivite":"Commune","region":"Centre-Val de Loire","departement":"Cher","departementCode":"18","adresse":{"street":"14 rue Saint-Vincent","postalCode":"18300","city":"Verdigny","country":"France"},"contacts":{"email":"mairie@verdigny.com","telephone":"0248793501"},"horaires":"Du Lundi au Mardi : de 13h30 à 18h00\nDu Jeudi au Vendredi : de 13h30 à 18h00","latitude":47.3472,"longitude":2.80754,"website":"https://www.verdigny.fr/accueil/","hasWebsite":true,"hasHoraires":true,"url":"https://lannuaire.service-public.gouv.fr/centre-val-de-loire/cher/f072c306-7cb6-44d1-bd47-d9cccac4de28"}
{"nom":"Vereaux","nomNormalise":"vereaux","typeCollectivite":"Commune","region":"Centre-Val de Loire","departement":"Cher","departementCode":"18","adresse":{"street":"6 route de Sancoins","postalCode":"18600","city":"Vereaux","country":"France"},"contacts":{"email":"mairieverreaux@wanadoo.fr","telephone":"0248740105"},"horaires":"Le Lundi : de 14h30 à 17h30\nDu Jeudi au Vendredi : de 14h30 à 17h30","latitude":46.8424,"longitude":2.91293,"website":"","hasWebsite":false,"hasHoraires":true,"url":"https://lannuaire.service-public.gouv.fr/centre-val-de-loire/cher/a3b0730c-7216-473d-a5e6-20705f687b4e"}
{"nom":"Vernais","nomNormalise":"vernais","typeCollectivite":"Commune","region":"Centre-Val de Loire","departement":"Cher","departementCode":"18","adresse":{"street":"2 rue de la Mairie","postalCode":"18210","city":"Vernais","country":"France"},"contacts":{"email":"mairie.vernais@wanadoo.fr","telephone":"0248607479"},"horaires":"Du Lundi au Mardi : de 08h00 à 12h15\nLe Jeudi : de 13h30 à 17h30","latitude":46.765537,"longitude":2.713376,"website":"http://vernais.free.fr/","hasWebsite":true,"hasHoraires":true,"url":"https://lannuaire.service-public.gouv.fr/centre-val-de-loire/cher/d162bc74-3392-4a0e-8143-8a91027f4015"}
{"nom":"Verneuil","nomNormalise":"verneuil","typeCollectivite":"Commune","region":"Centre-Val de Loire","departement":"Cher","departementCode":"18","adresse":{"street":"1 rue de Thaumiers","postalCode":"18210","city":"Verneuil","country":"France"},"contacts":{"email":"mairiedeverneuil@orange.fr","telephone":"0248618116"},"horaires":"Le Mercredi : de 14h00 à 18h00","latitude":46.83338,"longitude":2.6502678,"website":"","hasWebsite":false,"hasHoraires":true,"url":"https://lannuaire.service-public.gouv.fr/centre-val-de-loire/cher/cb83be33-877b-4e4d-a58f-c203c6918979"}
{"nom":"Vesdun","nomNormalise":"vesdun","typeCollectivite":"Commune","region":"Centre-Val de Loire","departement":"Cher","departementCode":"18","adresse":{"street":"4 place du Champ-de-Foire","postalCode":"18360","city":"Vesdun","country":"France"},"contacts":{"email":"mairie.vesdun.cher@orange.fr","telephone":"0248630307"},"horaires":"Le Mardi : de 09h00 à 12h00 de 14h00 à 18h00\nLe Mercredi : de 09h00 à 12h00\nDu Jeudi au Vendredi : de 09h00 à 12h00 de 14h00 à 18h00","latitude":46.539146,"longitude":2.430057,"website":"","hasWebsite":false,"hasHoraires":true,"url":"https://lannuaire.service-public.gouv.fr/centre-val-de-loire/cher/c7f2ced5-1d61-4a5f-899d-a21088f42a7a"}
{"nom":"Vierzon","nomNormalise":"vierzon","typeCollectivite":"Commune","region":"Centre-Val de Loire","departement":"Cher","departementCode":"18","adresse":{"street":"Place de l'Hôtel-de-Ville","postalCode":"18100","city":"Vierzon","country":"France"},"contacts":{"email":"info@ville-vierzon.fr","telephone":"0248526500"},"horaires":"Du Lundi au Vendredi : de 08h00 à 12h00 de 13h30 à 17h30\nLe Samedi : de 09h00 à 12h00\n\nAccueil ouvert uniquement pour l'état civil et le guichet unique.","latitude":47.2214,"longitude":2.069673,"website":"http://www.ville-vierzon.fr/","hasWebsite":true,"hasHoraires":true,"url":"https://lannuaire.service-public.gouv.fr/centre-val-de-loire/cher/3a4bf9b7-7540-4896-b55b-e73b085e16bf"}
{"nom":"Vignoux-sous-les-Aix","nomNormalise":"vignouxsouslesaix","typeCollectivite":"Commune","region":"Centre-Val de Loire","departement":"Cher","departementCode":"18","adresse":{"street":"1 place de l'Église","postalCode":"18110","city":"Vignoux-sous-les-Aix","country":"France"},"contacts":{"email":"mairievignoux-aix@wanadoo.fr","telephone":"0248645293"},"horaires":"Du Lundi au Mardi : de 13h30 à 16h30\nDu Jeudi au Vendredi : de 13h30 à 16h30\nLe Samedi : de 09h00 à 12h00","latitude":47.186367,"longitude":2.464213,"website":"http://www.vignouxsouslesaix.fr/","hasWebsite":true,"hasHoraires":true,"url":"https://lannuaire.service-public.gouv.fr/centre-val-de-loire/cher/b6fd129f-067a-4592-9234-21a7de102555"}
{"nom":"Vignoux-sur-Barangeon","nomNormalise":"vignouxsurbarangeon","typeCollectivite":"Commune","region":"Centre-Val de Loire","departement":"Cher","departementCode":"18","adresse":{"street":"25 rue de la République","postalCode":"18500","city":"Vignoux-sur-Barangeon","country":"France"},"contacts":{"email":"mairie@vignoux.fr","telephone":"0248515111"},"horaires":"Le Lundi : de 09h00 à 12h00 de 14h00 à 18h00\nLe Mercredi : de 09h00 à 12h00 de 14h00 à 18h00\nLe Jeudi : de 09h00 à 12h00\nLe Vendredi : de 09h00 à 12h00 de 14h00 à 18h00\nLe Samedi : de 09h00 à 12h00","latitude":47.1961,"longitude":2.17651,"website":"https://www.intramuros.org/vignoux-sur-barangeon","hasWebsite":true,"hasHoraires":true,"url":"https://lannuaire.service-public.gouv.fr/centre-val-de-loire/cher/b2f10b52-b62a-4937-b12e-aff28b90535e"}
{"nom":"Villabon","nomNormalise":"villabon","typeCollectivite":"Commune","region":"Centre-Val de Loire","departement":"Cher","departementCode":"18","adresse":{"street":"13 Grande rue","postalCode":"18800","city":"Villabon","country":"France"},"contacts":{"email":"commune.villabon@orange.fr","telephone":"0248692164"},"horaires":"Le Lundi : de 09h00 à 12h00 de 13h30 à 18h30\nLe Mardi : de 13h30 à 18h30\nDu Jeudi au Vendredi : de 09h00 à 12h00 de 13h30 à 18h30","latitude":47.096745,"longitude":2.6742306,"website":"http://www.villabon.fr/","hasWebsite":true,"hasHoraires":true,"url":"https://lannuaire.service-public.gouv.fr/centre-val-de-loire/cher/f44324b0-fb6a-4fe0-888b-7084a9c73c52"}
{"nom":"Villecelin","nomNormalise":"villecelin","typeCollectivite":"Commune","region":"Centre-Val de Loire","departement":"Cher","departementCode":"18","adresse":{"street":"2 rue de la Brande","postalCode":"18160","city":"Villecelin","country":"France"},"contacts":{"email":"mairie.villecelin@wanadoo.fr","telephone":"0248600074"},"horaires":"Le Mardi : de 09h15 à 12h30\nLe Vendredi : de 09h15 à 12h00","latitude":46.82908,"longitude":2.184776,"website":"","hasWebsite":false,"hasHoraires":true,"url":"https://lannuaire.service-public.gouv.fr/centre-val-de-loire/cher/63c8a5c0-fe9f-422e-8848-4ee923588a0b"}
{"nom":"Villegenon","nomNormalise":"villegenon","typeCollectivite":"Commune","region":"Centre-Val de Loire","departement":"Cher","departementCode":"18","adresse":{"street":"16 route de la Chapelotte","postalCode":"18260","city":"Villegenon","country":"France"},"contacts":{"email":"mairie.de.villegenon@orange.fr","telephone":"0248737177"},"horaires":"Du Lundi au Mardi : de 10h00 à 12h00 de 14h00 à 17h00\nLe Jeudi : de 10h00 à 12h00 de 14h00 à 17h00\nLe Vendredi : de 14h00 à 17h00","latitude":47.425632,"longitude":2.605382,"website":"","hasWebsite":false,"hasHoraires":true,"url":"https://lannuaire.service-public.gouv.fr/centre-val-de-loire/cher/b0695a8c-9b1c-4814-a754-2647110fde88"}
{"nom":"Villeneuve-sur-Cher","nomNormalise":"villeneuvesurcher","typeCollectivite":"Commune","region":"Centre-Val de Loire","departement":"Cher","departementCode":"18","adresse":{"street":"2 route de Charost","postalCode":"18400","city":"Villeneuve-sur-Cher","country":"France"},"contacts":{"email":"mairie-villeneuve-cher@orange.fr","telephone":"0248550450"},"horaires":"Le Lundi : de 09h00 à 12h00 de 13h30 à 17h00\nLe Jeudi : de 09h00 à 12h00 de 13h30 à 17h00\nLe Vendredi : de 09h00 à 12h00","latitude":47.029087,"longitude":2.222485,"website":"https://villeneuvesurcher.net/","hasWebsite":true,"hasHoraires":true,"url":"https://lannuaire.service-public.gouv.fr/centre-val-de-loire/cher/80126bb7-4725-4939-8e62-c940348c133e"}
{"nom":"Villequiers","nomNormalise":"villequiers","typeCollectivite":"Commune","region":"Centre-Val de Loire","departement":"Cher","departementCode":"18","adresse":{"street":"14 rue du 8-Mai-1945","postalCode":"18800","city":"Villequiers","country":"France"},"contacts":{"email":"mairie-villequiers@orange.fr","telephone":"0248261701"},"horaires":"Le Lundi : de 08h30 à 12h00\nLe Mardi : de 08h30 à 12h00 de 14h00 à 18h00\nLe Jeudi : de 08h30 à 12h00\nLe Vendredi : de 08h30 à 12h00 de 13h45 à 16h45\nLe Samedi : de 09h00 à 12h00\n\nLes 1er et 3e samedis du mois.","latitude":47.06851,"longitude":2.804839,"website":"https://www.villequiers.fr/","hasWebsite":true,"hasHoraires":true,"url":"https://lannuaire.service-public.gouv.fr/centre-val-de-loire/cher/d25ca97a-1318-435b-a585-8ef6fce7361f"}
{"nom":"Vinon","nomNormalise":"vinon","typeCollectivite":"Commune","region":"Centre-Val de Loire","departement":"Cher","departementCode":"18","adresse":{"street":"24 route de Saint-Bouize","postalCode":"18300","city":"Vinon","country":"France"},"contacts":{"email":"mairie-de-vinon-18300@wanadoo.fr","telephone":"0248792616"},"horaires":"Le Lundi : de 09h00 à 12h00\nLe Mercredi : de 09h00 à 12h00\nLe Vendredi : de 09h00 à 12h00","latitude":47.28519,"longitude":2.829019,"website":"https://www.village-vinon.fr/","hasWebsite":true,"hasHoraires":true,"url":"https://lannuaire.service-public.gouv.fr/centre-val-de-loire/cher/4b66e7a1-0418-4940-899c-364a3a3448a6"}
{"nom":"Vorly","nomNormalise":"vorly","typeCollectivite":"Commune","region":"Centre-Val de Loire","departement":"Cher","departementCode":"18","adresse":{"street":"Place de l'Église","postalCode":"18340","city":"Vorly","country":"France"},"contacts":{"email":"contact@vorly.fr","telephone":"0248253220"},"horaires":"Le Lundi : de 14h00 à 16h30\nLe Mardi : de 16h00 à 19h00\nLe Jeudi : de 10h00 à 12h00\nLe Vendredi : de 13h30 à 16h00","latitude":46.944954,"longitude":2.463546,"website":"https://vorly.fr/","hasWebsite":true,"hasHoraires":true,"url":"https://lannuaire.service-public.gouv.fr/centre-val-de-loire/cher/ec00c118-9cb0-40b1-929e-113c87c79bee"}
{"nom":"Vornay","nomNormalise":"vornay","typeCollectivite":"Commune","region":"Centre-Val de Loire","departement":"Cher","departementCode":"18","adresse":{"street":"Place de la Mairie","postalCode":"18130","city":"Vornay","country":"France"},"contacts":{"email":"mairie@vornay.fr","telephone":"0248250043"},"horaires":"Du Lundi au Mardi : de 11h00 à 12h00 de 15h00 à 17h15\nDu Jeudi au Vendredi : de 11h00 à 12h00 de 15h00 à 17h15","latitude":46.975433,"longitude":2.584338,"website":"https://vornay.net/","hasWebsite":true,"hasHoraires":true,"url":"https://lannuaire.service-public.gouv.fr/centre-val-de-loire/cher/b0686ff0-e786-47c9-95d6-f864256c6127"}
{"nom":"Vouzeron","nomNormalise":"vouzeron","typeCollectivite":"Commune","region":"Centre-Val de Loire","departement":"Cher","departementCode":"18","adresse":{"street":"2 route de Nançay","postalCode":"18330","city":"Vouzeron","country":"France"},"contacts":{"email":"vouzeron.commune@orange.fr","telephone":"0248516209"},"horaires":"Le Lundi : de 09h00 à 12h00 de 14h00 à 17h00\nLe Mardi : de 14h00 à 17h00\nLe Mercredi : de 09h00 à 12h00 de 14h00 à 17h00\nLe Jeudi : de 14h00 à 17h00\nLe Vendredi : de 09h00 à 12h00 de 14h00 à 17h00","latitude":47.260628,"longitude":2.2225,"website":"https://vouzeron.info/","hasWebsite":true,"hasHoraires":true,"url":"https://lannuaire.service-public.gouv.fr/centre-val-de-loire/cher/99bcfed8-1a14-4bc4-ac10-1a6c1b8bfad3"}
