{"nom":"Affieux","nomNormalise":"affieux","typeCollectivite":"Commune","region":"Nouvelle-Aquitaine","departement":"Corrèze","departementCode":"19","adresse":{"street":"1 route de l'Étang-de-Linatre","postalCode":"19260","city":"Affieux","country":"France"},"contacts":{"email":"mairie.affieux@orange.fr","telephone":"0555980104"},"horaires":"Du Lundi au Vendredi : de 08h30 à 12h00 de 14h00 à 17h00","latitude":45.51733,"longitude":1.768513,"website":"","hasWebsite":false,"hasHoraires":true,"url":"https://lannuaire.service-public.gouv.fr/nouvelle-aquitaine/correze/cfbd656a-62ae-475b-ac4a-8763f003273c"}
{"nom":"Aix","nomNormalise":"aix","typeCollectivite":"Commune","region":"Nouvelle-Aquitaine","departement":"Corrèze","departementCode":"19","adresse":{"street":"4 rue de la mairie","postalCode":"19200","city":"Aix","country":"France"},"contacts":{"email":"mairie.aix@orange.fr","telephone":"0555721706"},"horaires":"Le Lundi : de 09h00 à 12h00 de 13h30 à 17h30\nLe Mardi : de 13h30 à 17h30\nLe Jeudi : de 09h00 à 12h00 de 13h30 à 17h30","latitude":45.616028,"longitude":2.382079,"website":"https://aix19.fr/","hasWebsite":true,"hasHoraires":true,"url":"https://lannuaire.service-public.gouv.fr/nouvelle-aquitaine/correze/0a8bdaf1-03b3-4f0c-8ddd-0f14cdf4db92"}
{"nom":"Albignac","nomNormalise":"albignac","typeCollectivite":"Commune","region":"Nouvelle-Aquitaine","departement":"Corrèze","departementCode":"19","adresse":{"street":"90 route de la Croix-Belle","postalCode":"19190","city":"Albignac","country":"France"},"contacts":{"email":"mairie.albignac@orange.fr","telephone":"0555855142"},"horaires":"Le Lundi : de 09h15 à 12h00 de 14h00 à 18h00\nLe Mercredi : de 09h15 à 12h00\nLe Jeudi : de 09h15 à 12h00 de 14h00 à 18h00\nLe Samedi : de 10h00 à 12h00","latitude":45.139263,"longitude":1.678721,"website":"","hasWebsite":false,"hasHoraires":true,"url":"https://lannuaire.service-public.gouv.fr/nouvelle-aquitaine/correze/8629c132-ebf8-4cda-957b-4211eb53f6a7"}
{"nom":"Albussac","nomNormalise":"albussac","typeCollectivite":"Commune","region":"Nouvelle-Aquitaine","departement":"Corrèze","departementCode":"19","adresse":{"street":"1 rue du Stade","postalCode":"19380","city":"Albussac","country":"France"},"contacts":{"email":"mairie@albussac.fr","telephone":"0555286148"},"horaires":"Du Lundi au Samedi : de 08h30 à 12h00","latitude":45.13733,"longitude":1.836103,"website":"https://www.albussac.fr/","hasWebsite":true,"hasHoraires":true,"url":"https://lannuaire.service-public.gouv.fr/nouvelle-aquitaine/correze/16bb8103-0a66-4682-bd14-b41002da0a50"}
{"nom":"Allassac","nomNormalise":"allassac","typeCollectivite":"Commune","region":"Nouvelle-Aquitaine","departement":"Corrèze","departementCode":"19","adresse":{"street":"2 place de la République","postalCode":"19240","city":"Allassac","country":"France"},"contacts":{"email":"mairie@allassac.fr","telephone":"0555849238"},"horaires":"Du Lundi au Vendredi : de 08h30 à 12h00 de 13h30 à 17h30\nLe Samedi : de 08h30 à 12h00","latitude":45.2571,"longitude":1.47562,"website":"https://www.allassac.fr/","hasWebsite":true,"hasHoraires":true,"url":"https://lannuaire.service-public.gouv.fr/nouvelle-aquitaine/correze/5b314520-c94b-4360-af71-b21232d836b0"}
{"nom":"Alleyrat","nomNormalise":"alleyrat","typeCollectivite":"Commune","region":"Nouvelle-Aquitaine","departement":"Corrèze","departementCode":"19","adresse":{"street":"Le Bourg","postalCode":"19200","city":"Alleyrat","country":"France"},"contacts":{"email":"mairie@alleyrat19.fr","telephone":"0555951043"},"horaires":"Le Jeudi : de 09h00 à 12h30 de 13h00 à 17h30","latitude":45.57609,"longitude":2.215971,"website":"","hasWebsite":false,"hasHoraires":true,"url":"https://lannuaire.service-public.gouv.fr/nouvelle-aquitaine/correze/cadf0a9c-0b7c-4d80-9702-3738a2515ddc"}
{"nom":"Altillac","nomNormalise":"altillac","typeCollectivite":"Commune","region":"Nouvelle-Aquitaine","departement":"Corrèze","departementCode":"19","adresse":{"street":"26 avenue des Généraux-Marbot","postalCode":"19120","city":"Altillac","country":"France"},"contacts":{"email":"mairie.altillac@orange.fr","telephone":"0555911116"},"horaires":"Le Lundi : de 09h00 à 12h00\nLe Mardi : de 09h00 à 12h00 de 14h00 à 18h00\nLe Mercredi : de 09h00 à 12h00\nDu Jeudi au Vendredi : de 09h00 à 12h00 de 14h00 à 18h00","latitude":44.975864,"longitude":1.846416,"website":"http://www.altillac.com/","hasWebsite":true,"hasHoraires":true,"url":"https://lannuaire.service-public.gouv.fr/nouvelle-aquitaine/correze/de7cf06e-df62-4237-9072-deee4101569b"}
{"nom":"Ambrugeat","nomNormalise":"ambrugeat","typeCollectivite":"Commune","region":"Nouvelle-Aquitaine","departement":"Corrèze","departementCode":"19","adresse":{"street":"1 place la Mairie","postalCode":"19250","city":"Ambrugeat","country":"France"},"contacts":{"email":"mairie.ambrugeat@wanadoo.fr","telephone":"0555951283"},"horaires":"Du Lundi au Mardi : de 08h30 à 12h30 de 14h00 à 17h00\nDu Jeudi au Vendredi : de 08h30 à 12h30 de 14h00 à 17h00","latitude":45.526237,"longitude":2.118975,"website":"https://ambrugeat.fr/","hasWebsite":true,"hasHoraires":true,"url":"https://lannuaire.service-public.gouv.fr/nouvelle-aquitaine/correze/58fdd63a-843f-4098-97d3-68b61a838e4c"}
{"nom":"Mairie annexe - Saint-Pardoux-Corbier","nomNormalise":"mairieannexesaintpardouxcorbier","typeCollectivite":"Commune","region":"Nouvelle-Aquitaine","departement":"Corrèze","departementCode":"19","adresse":{"street":"Saint-Pardoux-Corbier","postalCode":"19210","city":"Les Trois-Saints","country":"France"},"contacts":{"email":"secretariat.mairie@lestrois-saints","telephone":"0555735903"},"horaires":"Du Lundi au Mardi : de 08h00 à 12h00\nDu Vendredi au Samedi : de 08h00 à 12h00","latitude":45.43997,"longitude":1.34264,"website":"","hasWebsite":false,"hasHoraires":true,"url":"https://lannuaire.service-public.gouv.fr/nouvelle-aquitaine/correze/8f8ede3c-2155-45d6-bb07-df0f0bb5d700"}
{"nom":"Argentat-sur-Dordogne","nomNormalise":"argentatsurdordogne","typeCollectivite":"Commune","region":"Nouvelle-Aquitaine","departement":"Corrèze","departementCode":"19","adresse":{"street":"Avenue Pasteur","postalCode":"19400","city":"Argentat-sur-Dordogne","country":"France"},"contacts":{"email":"mairie@argentat-sur-dordogne.fr","telephone":"0555281091"},"horaires":"Du Lundi au Vendredi : de 09h00 à 12h00 de 14h00 à 17h30\nLe Samedi : de 09h00 à 12h00","latitude":45.0934,"longitude":1.936,"website":"https://www.argentat-sur-dordogne.fr/","hasWebsite":true,"hasHoraires":true,"url":"https://lannuaire.service-public.gouv.fr/nouvelle-aquitaine/correze/d3266d01-02ef-41ce-b62c-bf48741cca88"}
{"nom":"Arnac-Pompadour","nomNormalise":"arnacpompadour","typeCollectivite":"Commune","region":"Nouvelle-Aquitaine","departement":"Corrèze","departementCode":"19","adresse":{"street":"42 rue des Écoles","postalCode":"19230","city":"Arnac-Pompadour","country":"France"},"contacts":{"email":"secretariat@ville-pompadour.fr","telephone":"0555733043"},"horaires":"Du Lundi au Vendredi : de 09h00 à 12h30 de 13h30 à 17h00\nLe Samedi : de 09h00 à 12h00","latitude":45.4007,"longitude":1.38066,"website":"https://www.pompadour.net/","hasWebsite":true,"hasHoraires":true,"url":"https://lannuaire.service-public.gouv.fr/nouvelle-aquitaine/correze/3773d25f-adab-40c6-8b0d-9199a4204d86"}
{"nom":"Astaillac","nomNormalise":"astaillac","typeCollectivite":"Commune","region":"Nouvelle-Aquitaine","departement":"Corrèze","departementCode":"19","adresse":{"street":"1 place Marius-Lescure","postalCode":"19120","city":"Astaillac","country":"France"},"contacts":{"email":"mairieastaillac@orange.fr","telephone":"0555910317"},"horaires":"Le Mardi : de 13h30 à 17h00\nLe Vendredi : de 13h30 à 17h00","latitude":44.952606,"longitude":1.831485,"website":"https://www.astaillac.fr/","hasWebsite":true,"hasHoraires":true,"url":"https://lannuaire.service-public.gouv.fr/nouvelle-aquitaine/correze/78372e94-e60b-4733-b33f-669cbf8e3b32"}
{"nom":"Aubazine","nomNormalise":"aubazine","typeCollectivite":"Commune","region":"Nouvelle-Aquitaine","departement":"Corrèze","departementCode":"19","adresse":{"street":"3 place Léon-Canard","postalCode":"19190","city":"Aubazine","country":"France"},"contacts":{"email":"mairie@ville-aubazine.fr","telephone":"0555257126"},"horaires":"Le Lundi : de 09h00 à 12h00\nLe Mardi : de 09h00 à 12h00 de 13h30 à 17h30\nLe Mercredi : de 09h00 à 12h00\nDu Jeudi au Vendredi : de 09h00 à 12h00 de 13h30 à 17h30\nLe Samedi : de 09h00 à 12h00","latitude":45.174313,"longitude":1.670602,"website":"https://www.ville-aubazine.fr/","hasWebsite":true,"hasHoraires":true,"url":"https://lannuaire.service-public.gouv.fr/nouvelle-aquitaine/correze/2eea7ad9-9037-403b-a986-b3550aaa16bb"}
{"nom":"Auriac","nomNormalise":"auriac","typeCollectivite":"Commune","region":"Nouvelle-Aquitaine","departement":"Corrèze","departementCode":"19","adresse":{"street":"12 rue du Sudour","postalCode":"19220","city":"Auriac","country":"France"},"contacts":{"email":"commune.auriac@orange.fr","telephone":"0555282302"},"horaires":"Du Lundi au Mardi : de 09h00 à 12h00 de 14h00 à 16h00\nDu Mercredi au Jeudi : de 09h00 à 12h00\nLe Vendredi : de 09h00 à 12h00 de 14h00 à 16h00","latitude":45.20413,"longitude":2.147552,"website":"http://www.auriac.fr/","hasWebsite":true,"hasHoraires":true,"url":"https://lannuaire.service-public.gouv.fr/nouvelle-aquitaine/correze/acd98967-db9b-4fbb-989b-689dd71263cf"}
{"nom":"Ayen","nomNormalise":"ayen","typeCollectivite":"Commune","region":"Nouvelle-Aquitaine","departement":"Corrèze","departementCode":"19","adresse":{"street":"28 rue des Écoles","postalCode":"19310","city":"Ayen","country":"France"},"contacts":{"email":"mairie.ayen@ayen.fr","telephone":"0555251022"},"horaires":"Du Lundi au Mardi : de 09h00 à 12h00 de 14h00 à 17h00\nLe Mercredi : de 09h00 à 12h00\nLe Jeudi : de 09h00 à 12h00 de 14h00 à 17h00\nLe Vendredi : de 09h00 à 12h00\nLe Samedi : de 09h00 à 12h00\n\nAccueil ouvert les 2e et 4e samedis du mois uniquement.","latitude":45.247784,"longitude":1.327435,"website":"https://www.ayen.fr/","hasWebsite":true,"hasHoraires":true,"url":"https://lannuaire.service-public.gouv.fr/nouvelle-aquitaine/correze/a4090648-b7ff-43f3-af7c-944dbd8d7fd6"}
{"nom":"Bar","nomNormalise":"bar","typeCollectivite":"Commune","region":"Nouvelle-Aquitaine","departement":"Corrèze","departementCode":"19","adresse":{"street":"5 avenue de Corrèze","postalCode":"19800","city":"Bar","country":"France"},"contacts":{"email":"mairiedebar19@orange.fr","telephone":"0555213206"},"horaires":"Du Lundi au Mardi : de 08h30 à 12h00 de 13h30 à 17h00\nLe Mercredi : de 09h30 à 12h00 de 13h30 à 18h00\nDu Jeudi au Vendredi : de 08h30 à 12h00 de 13h30 à 17h00","latitude":45.344917,"longitude":1.813915,"website":"https://www.intramuros.org/bar","hasWebsite":true,"hasHoraires":true,"url":"https://lannuaire.service-public.gouv.fr/nouvelle-aquitaine/correze/61fab857-2b51-4044-a043-855eba554e56"}
{"nom":"Bassignac-le-Bas","nomNormalise":"bassignaclebas","typeCollectivite":"Commune","region":"Nouvelle-Aquitaine","departement":"Corrèze","departementCode":"19","adresse":{"street":"Le Bourg","postalCode":"19430","city":"Bassignac-le-Bas","country":"France"},"contacts":{"email":"mairie.bassignaclebas@wanadoo.fr","telephone":"0555910787"},"horaires":"Le Mardi : de 09h30 à 12h00 de 14h00 à 17h00\nLe Jeudi : de 09h30 à 12h00","latitude":45.019,"longitude":1.85288,"website":"","hasWebsite":false,"hasHoraires":true,"url":"https://lannuaire.service-public.gouv.fr/nouvelle-aquitaine/correze/90b66120-fdf2-4a92-968b-6141bfa2d42c"}
{"nom":"Bassignac-le-Haut","nomNormalise":"bassignaclehaut","typeCollectivite":"Commune","region":"Nouvelle-Aquitaine","departement":"Corrèze","departementCode":"19","adresse":{"street":"3 rue du Peyrat","postalCode":"19220","city":"Bassignac-le-Haut","country":"France"},"contacts":{"email":"mairie@bassignaclehaut.fr","telephone":"0555282472"},"horaires":"Du Lundi au Mardi : de 09h00 à 12h00 de 13h30 à 16h00\nLe Jeudi : de 09h00 à 12h00 de 13h30 à 16h00","latitude":45.211212,"longitude":2.072194,"website":"https://www.bassignac-le-haut.fr/","hasWebsite":true,"hasHoraires":true,"url":"https://lannuaire.service-public.gouv.fr/nouvelle-aquitaine/correze/6f033302-aded-4a9f-9d7f-d0ac605ca16c"}
{"nom":"Beaulieu-sur-Dordogne","nomNormalise":"beaulieusurdordogne","typeCollectivite":"Commune","region":"Nouvelle-Aquitaine","departement":"Corrèze","departementCode":"19","adresse":{"street":"Place Albert","postalCode":"19120","city":"Beaulieu-sur-Dordogne","country":"France"},"contacts":{"email":"contact@commune-beaulieu-sur-dordogne.fr","telephone":"0555911131"},"horaires":"Du Lundi au Jeudi : de 08h15 à 12h00 de 13h30 à 17h30\nLe Vendredi : de 08h15 à 12h00 de 14h00 à 17h00\nLe Samedi : de 09h00 à 11h00","latitude":44.9778,"longitude":1.84079,"website":"https://www.beaulieu-sur-dordogne.fr/","hasWebsite":true,"hasHoraires":true,"url":"https://lannuaire.service-public.gouv.fr/nouvelle-aquitaine/correze/469c83e3-fa70-4d6a-81f4-8f87cb73110c"}
{"nom":"Beaumont","nomNormalise":"beaumont","typeCollectivite":"Commune","region":"Nouvelle-Aquitaine","departement":"Corrèze","departementCode":"19","adresse":{"street":"Le Bourg","postalCode":"19390","city":"Beaumont","country":"France"},"contacts":{"email":"mairie.beaumont4@wanadoo.fr","telephone":"0555213338"},"horaires":"Du Lundi au Mardi : de 09h00 à 12h00\nLe Jeudi : de 09h00 à 12h00\nLe Vendredi : de 14h00 à 17h30","latitude":45.422264,"longitude":1.80223,"website":"https://www.beaumont-correze.fr/","hasWebsite":true,"hasHoraires":true,"url":"https://lannuaire.service-public.gouv.fr/nouvelle-aquitaine/correze/4e1c6054-359b-44c3-bb64-5e2533678633"}
{"nom":"Bellechassagne","nomNormalise":"bellechassagne","typeCollectivite":"Commune","region":"Nouvelle-Aquitaine","departement":"Corrèze","departementCode":"19","adresse":{"street":"6 Le Bourg","postalCode":"19290","city":"Bellechassagne","country":"France"},"contacts":{"email":"communedebellechassagne@orange.fr","telephone":"0555946517"},"horaires":"Le Jeudi : de 13h00 à 17h00\nLe Vendredi : de 09h30 à 12h30\n\nAccueil uniquement le vendredi des semaines paires.","latitude":45.644745,"longitude":2.22599,"website":"","hasWebsite":false,"hasHoraires":true,"url":"https://lannuaire.service-public.gouv.fr/nouvelle-aquitaine/correze/f5b41a10-2993-405c-8a6a-a5f44a8c172f"}
{"nom":"Benayes","nomNormalise":"benayes","typeCollectivite":"Commune","region":"Nouvelle-Aquitaine","departement":"Corrèze","departementCode":"19","adresse":{"street":"150 route de Lubersac","postalCode":"19510","city":"Benayes","country":"France"},"contacts":{"email":"secretariat@benayes.fr","telephone":"0555734119"},"horaires":"Du Lundi au Samedi : de 08h30 à 12h00","latitude":45.517826,"longitude":1.469359,"website":"https://benayes.fr/","hasWebsite":true,"hasHoraires":true,"url":"https://lannuaire.service-public.gouv.fr/nouvelle-aquitaine/correze/9d7a79b1-b805-4bca-8235-f9afc95c723c"}
{"nom":"Beynat","nomNormalise":"beynat","typeCollectivite":"Commune","region":"Nouvelle-Aquitaine","departement":"Corrèze","departementCode":"19","adresse":{"street":"45 rue de la Mairie","postalCode":"19190","city":"Beynat","country":"France"},"contacts":{"email":"mairie@beynat.fr","telephone":"0555855025"},"horaires":"Du Lundi au Vendredi : de 08h30 à 12h00 de 14h00 à 17h00\nLe Samedi : de 08h30 à 12h00","latitude":45.12474,"longitude":1.721972,"website":"http://www.beynat.fr/","hasWebsite":true,"hasHoraires":true,"url":"https://lannuaire.service-public.gouv.fr/nouvelle-aquitaine/correze/ecbbd14a-5918-4027-8438-1227d6463a8f"}
{"nom":"Beyssac","nomNormalise":"beyssac","typeCollectivite":"Commune","region":"Nouvelle-Aquitaine","departement":"Corrèze","departementCode":"19","adresse":{"street":"6 rue des Écoles","postalCode":"19230","city":"Beyssac","country":"France"},"contacts":{"email":"beyssac@correze.net","telephone":"0555733331"},"horaires":"Du Lundi au Vendredi : de 13h30 à 17h30\nLe Samedi : de 09h00 à 12h00","latitude":45.3714,"longitude":1.40208,"website":"","hasWebsite":false,"hasHoraires":true,"url":"https://lannuaire.service-public.gouv.fr/nouvelle-aquitaine/correze/20a18745-8647-40c8-80f0-e2daa3bb464a"}
{"nom":"Beyssenac","nomNormalise":"beyssenac","typeCollectivite":"Commune","region":"Nouvelle-Aquitaine","departement":"Corrèze","departementCode":"19","adresse":{"street":"1 rue de l'église","postalCode":"19230","city":"Beyssenac","country":"France"},"contacts":{"email":"mairie@beyssenac.com","telephone":"0555733177"},"horaires":"Du Lundi au Vendredi : de 13h30 à 17h30\nLe Samedi : de 09h00 à 12h00","latitude":45.404175,"longitude":1.285538,"website":"https://www.beyssenac.com/","hasWebsite":true,"hasHoraires":true,"url":"https://lannuaire.service-public.gouv.fr/nouvelle-aquitaine/correze/1d70a335-77a9-4528-8363-94094673ca16"}
{"nom":"Bilhac","nomNormalise":"bilhac","typeCollectivite":"Commune","region":"Nouvelle-Aquitaine","departement":"Corrèze","departementCode":"19","adresse":{"street":"60 Allée de la Mairie","postalCode":"19120","city":"Bilhac","country":"France"},"contacts":{"email":"bilhac@mairie19.fr","telephone":"0555910568"},"horaires":"Le Lundi : de 09h00 à 12h00 de 14h00 à 17h00\nLe Mercredi : de 09h00 à 12h00 de 14h00 à 17h00\nLe Samedi : de 10h00 à 12h00\n\nPermanence des élus uniquement.","latitude":44.944572,"longitude":1.773645,"website":"https://bilhac.fr/","hasWebsite":true,"hasHoraires":true,"url":"https://lannuaire.service-public.gouv.fr/nouvelle-aquitaine/correze/af8a9121-df67-47b7-864e-261fad04b8b1"}
{"nom":"Bonnefond","nomNormalise":"bonnefond","typeCollectivite":"Commune","region":"Nouvelle-Aquitaine","departement":"Corrèze","departementCode":"19","adresse":{"street":"11 rue des Menhirs","postalCode":"19170","city":"Bonnefond","country":"France"},"contacts":{"email":"commune-de-bonnefond@orange.fr","telephone":"0555955164"},"horaires":"Le Lundi : de 13h30 à 17h30\nLe Jeudi : de 08h30 à 12h00 de 13h30 à 17h30\nLe Vendredi : de 13h30 à 17h00","latitude":45.52974,"longitude":1.982553,"website":"","hasWebsite":false,"hasHoraires":true,"url":"https://lannuaire.service-public.gouv.fr/nouvelle-aquitaine/correze/7c17bb56-73bb-475f-b7c6-7cb9b8c4e328"}
{"nom":"Bort-les-Orgues","nomNormalise":"bortlesorgues","typeCollectivite":"Commune","region":"Nouvelle-Aquitaine","departement":"Corrèze","departementCode":"19","adresse":{"street":"33 place du 19-Octobre 1943","postalCode":"19110","city":"Bort-les-Orgues","country":"France"},"contacts":{"email":"mairie@bort-les-orgues.com","telephone":"0555461760"},"horaires":"Du Lundi au Vendredi : de 08h30 à 12h00 de 13h30 à 17h00","latitude":45.401012,"longitude":2.495476,"website":"http://www.bort-les-orgues.com/","hasWebsite":true,"hasHoraires":true,"url":"https://lannuaire.service-public.gouv.fr/nouvelle-aquitaine/correze/c2cac9cf-a7c3-483b-9d23-6eb68c251fef"}
{"nom":"Branceilles","nomNormalise":"branceilles","typeCollectivite":"Commune","region":"Nouvelle-Aquitaine","departement":"Corrèze","departementCode":"19","adresse":{"street":"3 Place de l'Eglise","postalCode":"19500","city":"Branceilles","country":"France"},"contacts":{"email":"mairie@branceilles.fr","telephone":"0555254288"},"horaires":"Le Mercredi : de 10h00 à 12h00\nLe Vendredi : de 14h00 à 16h00","latitude":44.999897,"longitude":1.742985,"website":"https://www.branceilles.fr/","hasWebsite":true,"hasHoraires":true,"url":"https://lannuaire.service-public.gouv.fr/nouvelle-aquitaine/correze/ac3dbb7a-5f1a-412f-9aaf-f6985f508ec6"}
{"nom":"Brignac-la-Plaine","nomNormalise":"brignaclaplaine","typeCollectivite":"Commune","region":"Nouvelle-Aquitaine","departement":"Corrèze","departementCode":"19","adresse":{"street":"4 place de la Mairie","postalCode":"19310","city":"Brignac-la-Plaine","country":"France"},"contacts":{"email":"mairiedebrignac@laposte.net","telephone":"0555852213"},"horaires":"Le Lundi : de 09h00 à 12h00 de 14h00 à 18h00\nLe Mardi : de 09h00 à 12h00\nDu Mercredi au Vendredi : de 09h00 à 12h00 de 14h00 à 18h00","latitude":45.18829,"longitude":1.340063,"website":"https://www.brignac.fr/","hasWebsite":true,"hasHoraires":true,"url":"https://lannuaire.service-public.gouv.fr/nouvelle-aquitaine/correze/d23511f5-46e6-4f59-bf7b-d0bf9855d253"}
{"nom":"Brive-la-Gaillarde","nomNormalise":"brivelagaillarde","typeCollectivite":"Commune","region":"Nouvelle-Aquitaine","departement":"Corrèze","departementCode":"19","adresse":{"street":"7 place Jean-Charbonnel","postalCode":"19100","city":"Brive-la-Gaillarde","country":"France"},"contacts":{"email":"contact@brive.fr","telephone":"0555923939"},"horaires":"Du Lundi au Mercredi : de 08h30 à 12h30 de 13h30 à 17h30\nLe Jeudi : de 08h30 à 12h30 de 13h30 à 17h00\nLe Vendredi : de 08h30 à 12h30 de 13h30 à 17h30","latitude":45.15956,"longitude":1.533822,"website":"https://www.brive.fr/","hasWebsite":true,"hasHoraires":true,"url":"https://lannuaire.service-public.gouv.fr/nouvelle-aquitaine/correze/e04cd3d5-cdff-4b5e-9116-716b78bf1f8d"}
{"nom":"Mairie déléguée - Brivezac","nomNormalise":"mairiedelegueebrivezac","typeCollectivite":"Commune","region":"Nouvelle-Aquitaine","departement":"Corrèze","departementCode":"19","adresse":{"street":"Brivezac","postalCode":"19120","city":"Beaulieu-sur-Dordogne","country":"France"},"contacts":{"email":"mairie.brivezac@commune-beaulieu-sur-dordogne.fr","telephone":"0555910371"},"horaires":"Le Lundi : de 09h00 à 12h00\nLe Mardi : de 09h00 à 12h30 de 13h30 à 17h00\nLe Jeudi : de 09h00 à 12h00\nLe Vendredi : de 09h00 à 12h15","latitude":45.025608,"longitude":1.839533,"website":"http://www.beaulieu-sur-dordogne.fr/","hasWebsite":true,"hasHoraires":true,"url":"https://lannuaire.service-public.gouv.fr/nouvelle-aquitaine/correze/b0665ca1-d76c-44ba-825c-e4742a879221"}
{"nom":"Bugeat","nomNormalise":"bugeat","typeCollectivite":"Commune","region":"Nouvelle-Aquitaine","departement":"Corrèze","departementCode":"19","adresse":{"street":"1 rue de la Mairie","postalCode":"19170","city":"Bugeat","country":"France"},"contacts":{"email":"mairie@bugeat.fr","telephone":"0555955034"},"horaires":"Du Lundi au Vendredi : de 10h30 à 12h00 de 14h00 à 17h00","latitude":45.59691,"longitude":1.927319,"website":"http://www.bugeat.fr/","hasWebsite":true,"hasHoraires":true,"url":"https://lannuaire.service-public.gouv.fr/nouvelle-aquitaine/correze/1bf025c9-667e-4108-b558-96b8fc61f636"}
{"nom":"Camps-Saint-Mathurin-Léobazel","nomNormalise":"campssaintmathurinleobazel","typeCollectivite":"Commune","region":"Nouvelle-Aquitaine","departement":"Corrèze","departementCode":"19","adresse":{"street":"8 place de la Mairie","postalCode":"19430","city":"Camps-Saint-Mathurin-Léobazel","country":"France"},"contacts":{"email":"mairie@camps.correze.net","telephone":"0555285032"},"horaires":"Le Lundi : de 10h30 à 12h00 de 14h00 à 17h00\nLe Mardi : de 09h00 à 12h00 de 14h00 à 17h00\nLe Mercredi : de 09h00 à 12h00\nDu Jeudi au Vendredi : de 09h00 à 12h00 de 14h00 à 17h00","latitude":44.981453,"longitude":1.739126,"website":"https://www.mairie-camps.fr/","hasWebsite":true,"hasHoraires":true,"url":"https://lannuaire.service-public.gouv.fr/nouvelle-aquitaine/correze/30f3277d-bc5c-42f2-8b71-92113d1a74ba"}
{"nom":"Chabrignac","nomNormalise":"chabrignac","typeCollectivite":"Commune","region":"Nouvelle-Aquitaine","departement":"Corrèze","departementCode":"19","adresse":{"street":"1 place de la Mairie","postalCode":"19350","city":"Chabrignac","country":"France"},"contacts":{"email":"mairie.chabrignac@orange.fr","telephone":"0555256057"},"horaires":"Le Lundi : de 08h00 à 12h00 de 13h30 à 16h30\nLe Mardi : de 08h00 à 12h00 de 13h30 à 15h30\nLe Mercredi : de 08h00 à 12h00 de 13h30 à 16h30\nLe Jeudi : de 08h00 à 12h00 de 13h30 à 15h30\nLe Vendredi : de 09h00 à 12h00","latitude":45.315285,"longitude":1.339288,"website":"https://www.chabrignac.fr/","hasWebsite":true,"hasHoraires":true,"url":"https://lannuaire.service-public.gouv.fr/nouvelle-aquitaine/correze/c90496d1-4cae-4ad8-8ed8-f4395d1c1d14"}
{"nom":"Chamberet","nomNormalise":"chamberet","typeCollectivite":"Commune","region":"Nouvelle-Aquitaine","departement":"Corrèze","departementCode":"19","adresse":{"street":"1 place de la Mairie","postalCode":"19370","city":"Chamberet","country":"France"},"contacts":{"email":"contact@mairie-chamberet.fr","telephone":"0555983012"},"horaires":"Du Lundi au Vendredi : de 09h00 à 12h30 de 14h00 à 17h00","latitude":45.5824,"longitude":1.72122,"website":"https://www.chamberet.net/","hasWebsite":true,"hasHoraires":true,"url":"https://lannuaire.service-public.gouv.fr/nouvelle-aquitaine/correze/7de74f47-2c2a-4339-98c1-3630294db71c"}
{"nom":"Chamboulive","nomNormalise":"chamboulive","typeCollectivite":"Commune","region":"Nouvelle-Aquitaine","departement":"Corrèze","departementCode":"19","adresse":{"street":"7 rue de la Mairie","postalCode":"19450","city":"Chamboulive","country":"France"},"contacts":{"email":"contact@mairie-chamboulive.com","telephone":"0555204760"},"horaires":"Du Lundi au Vendredi : de 09h00 à 12h00 de 13h30 à 16h30\nLe Samedi : de 09h00 à 12h00","latitude":45.43149,"longitude":1.702935,"website":"https://www.mairie-chamboulive.com/","hasWebsite":true,"hasHoraires":true,"url":"https://lannuaire.service-public.gouv.fr/nouvelle-aquitaine/correze/9c7a8781-8365-4742-bb9b-3b1618e7ad46"}
{"nom":"Chameyrat","nomNormalise":"chameyrat","typeCollectivite":"Commune","region":"Nouvelle-Aquitaine","departement":"Corrèze","departementCode":"19","adresse":{"street":"7 place de l'Église","postalCode":"19330","city":"Chameyrat","country":"France"},"contacts":{"email":"mairiechameyrat@orange.fr","telephone":"0555272146"},"horaires":"Du Lundi au Jeudi : de 08h30 à 12h00 de 13h30 à 17h30\nLe Vendredi : de 08h30 à 12h00 de 13h30 à 17h00","latitude":45.23372,"longitude":1.69779,"website":"https://www.chameyrat.fr/","hasWebsite":true,"hasHoraires":true,"url":"https://lannuaire.service-public.gouv.fr/nouvelle-aquitaine/correze/428f646a-59ac-4ab7-b0b7-78cf2bcd10c8"}
{"nom":"Champagnac-la-Noaille","nomNormalise":"champagnaclanoaille","typeCollectivite":"Commune","region":"Nouvelle-Aquitaine","departement":"Corrèze","departementCode":"19","adresse":{"street":"10 rue Jean-Baptiste-Dumond","postalCode":"19320","city":"Champagnac-la-Noaille","country":"France"},"contacts":{"email":"mairie@champagnaclanoaille.fr","telephone":"0555278510"},"horaires":"Le Mardi : de 09h15 à 12h00 de 13h00 à 17h00\nLe Jeudi : de 09h15 à 12h00 de 13h00 à 17h00\nLe Vendredi : de 09h15 à 13h00","latitude":45.30689,"longitude":2.015309,"website":"https://champagnac-la-noaille.fr/","hasWebsite":true,"hasHoraires":true,"url":"https://lannuaire.service-public.gouv.fr/nouvelle-aquitaine/correze/6afac16d-018e-4dec-bf91-5888963bc3dc"}
{"nom":"Champagnac-la-Prune","nomNormalise":"champagnaclaprune","typeCollectivite":"Commune","region":"Nouvelle-Aquitaine","departement":"Corrèze","departementCode":"19","adresse":{"street":"6 Grand' rue","postalCode":"19320","city":"Champagnac-la-Prune","country":"France"},"contacts":{"email":"mairiechampagnaclaprune@orange.fr","telephone":"0555291461"},"horaires":"Le Lundi : de 10h00 à 12h00 de 14h00 à 16h00\nLe Jeudi : de 10h00 à 12h00 de 14h00 à 16h00\nLe Samedi : de 10h00 à 12h00","latitude":45.18541,"longitude":1.949224,"website":"https://www.champagnac-la-prune-19.fr/","hasWebsite":true,"hasHoraires":true,"url":"https://lannuaire.service-public.gouv.fr/nouvelle-aquitaine/correze/67582c79-04e4-4929-88b1-581cac44dfb4"}
{"nom":"Chanac-les-Mines","nomNormalise":"chanaclesmines","typeCollectivite":"Commune","region":"Nouvelle-Aquitaine","departement":"Corrèze","departementCode":"19","adresse":{"street":"1 rue de la Gane","postalCode":"19150","city":"Chanac-les-Mines","country":"France"},"contacts":{"email":"chanac.mairie@orange.fr","telephone":"0555204747"},"horaires":"Le Lundi : de 14h00 à 18h00\nLe Mercredi : de 14h00 à 18h00\nLe Jeudi : de 08h30 à 12h30\nLe Vendredi : de 14h00 à 18h00","latitude":45.26389,"longitude":1.81904,"website":"","hasWebsite":false,"hasHoraires":true,"url":"https://lannuaire.service-public.gouv.fr/nouvelle-aquitaine/correze/c4908098-246d-4bb3-a17e-8a669f66f3bd"}
{"nom":"Chanteix","nomNormalise":"chanteix","typeCollectivite":"Commune","region":"Nouvelle-Aquitaine","departement":"Corrèze","departementCode":"19","adresse":{"street":"Le Bourg","postalCode":"19330","city":"Chanteix","country":"France"},"contacts":{"email":"mairie@chanteix.fr","telephone":"0555293024"},"horaires":"Du Lundi au Samedi : de 09h00 à 12h00\n\nOuvert les samedis en semaine paire. Les après-midis sur RDV convenus avec la secrétaire de Mairie\nOuvert les samedis en semaine paire. Les après-midis sur RDV convenus avec la secrétaire de Mairie","latitude":45.30989,"longitude":1.637783,"website":"https://chanteix.fr/","hasWebsite":true,"hasHoraires":true,"url":"https://lannuaire.service-public.gouv.fr/nouvelle-aquitaine/correze/4637b2df-5e14-4a69-a0a0-d8bb7cd67309"}
{"nom":"Chartrier-Ferrière","nomNormalise":"chartrierferriere","typeCollectivite":"Commune","region":"Nouvelle-Aquitaine","departement":"Corrèze","departementCode":"19","adresse":{"street":"Le Bourg","postalCode":"19600","city":"Chartrier-Ferrière","country":"France"},"contacts":{"email":"mairie@chartrier-ferriere.fr","telephone":"0555854485"},"horaires":"Du Lundi au Jeudi : de 10h00 à 12h00\nLe Vendredi : de 10h00 à 12h00 de 13h30 à 16h30","latitude":45.069748,"longitude":1.452504,"website":"https://chartrier-ferriere.fr/","hasWebsite":true,"hasHoraires":true,"url":"https://lannuaire.service-public.gouv.fr/nouvelle-aquitaine/correze/721fe7bf-d758-4d96-b9d1-44992414bcc4"}
{"nom":"Chasteaux","nomNormalise":"chasteaux","typeCollectivite":"Commune","region":"Nouvelle-Aquitaine","departement":"Corrèze","departementCode":"19","adresse":{"street":"41 rue Jean Reisdorff","postalCode":"19600","city":"Chasteaux","country":"France"},"contacts":{"email":"mairie.chasteaux@orange.fr","telephone":"0555858275"},"horaires":"Le Lundi : de 09h00 à 12h30 de 13h15 à 17h45\nLe Mardi : de 13h15 à 17h45\nLe Jeudi : de 13h15 à 17h45\nLe Vendredi : de 09h00 à 12h30 de 13h15 à 17h45\nLe Samedi : de 10h00 à 12h00\n\npermanence des élus","latitude":45.092613,"longitude":1.467895,"website":"https://www.chasteaux19.fr/","hasWebsite":true,"hasHoraires":true,"url":"https://lannuaire.service-public.gouv.fr/nouvelle-aquitaine/correze/5a684c2c-bc57-49a5-9c80-1147571151ba"}
{"nom":"Chauffour-sur-Vell","nomNormalise":"chauffoursurvell","typeCollectivite":"Commune","region":"Nouvelle-Aquitaine","departement":"Corrèze","departementCode":"19","adresse":{"street":"Fradasse","postalCode":"19500","city":"Chauffour-sur-Vell","country":"France"},"contacts":{"email":"chauffour.mairie@wanadoo.fr","telephone":"0555254282"},"horaires":"Le Lundi : de 14h00 à 17h30\nLe Jeudi : de 14h00 à 18h00","latitude":45.0185,"longitude":1.6651,"website":"","hasWebsite":false,"hasHoraires":true,"url":"https://lannuaire.service-public.gouv.fr/nouvelle-aquitaine/correze/d1310d7d-6cae-455d-b9de-5630d9fa0bad"}
{"nom":"Chaumeil","nomNormalise":"chaumeil","typeCollectivite":"Commune","region":"Nouvelle-Aquitaine","departement":"Corrèze","departementCode":"19","adresse":{"street":"Le Bourg","postalCode":"19390","city":"Chaumeil","country":"France"},"contacts":{"email":"mairie-chaumeil@wanadoo.fr","telephone":"0555213411"},"horaires":"","latitude":45.456226,"longitude":1.880961,"website":"","hasWebsite":false,"hasHoraires":false,"url":"https://lannuaire.service-public.gouv.fr/nouvelle-aquitaine/correze/06e82ad2-0cf1-45fa-8043-6c0059b68cbc"}
{"nom":"Chavanac","nomNormalise":"chavanac","typeCollectivite":"Commune","region":"Nouvelle-Aquitaine","departement":"Corrèze","departementCode":"19","adresse":{"street":"Le Bourg","postalCode":"19290","city":"Chavanac","country":"France"},"contacts":{"email":"chavanac.mairie@orange.fr","telephone":"0555954959"},"horaires":"Le Samedi : de 09h00 à 12h00\n\nPermanence du Maire : le samedi de 10h à 12h\nPermanence du Maire : le samedi de 10h à 12h","latitude":45.565365,"longitude":2.110861,"website":"","hasWebsite":false,"hasHoraires":true,"url":"https://lannuaire.service-public.gouv.fr/nouvelle-aquitaine/correze/4e04c901-82fa-4453-9109-435c9734232f"}
{"nom":"Chaveroche","nomNormalise":"chaveroche","typeCollectivite":"Commune","region":"Nouvelle-Aquitaine","departement":"Corrèze","departementCode":"19","adresse":{"street":"4 Rue des Fontaines","postalCode":"19200","city":"Chaveroche","country":"France"},"contacts":{"email":"mairie.chaveroche@wanadoo.fr","telephone":"0555728583"},"horaires":"Du Lundi au Mardi : de 08h45 à 12h30 de 13h30 à 17h30\nLe Mercredi : de 14h00 à 18h00\nLe Jeudi : de 08h45 à 12h30 de 13h30 à 17h30\nLe Vendredi : de 08h45 à 12h30 de 13h30 à 15h30","latitude":45.574173,"longitude":2.256455,"website":"https://chaveroche19.fr/","hasWebsite":true,"hasHoraires":true,"url":"https://lannuaire.service-public.gouv.fr/nouvelle-aquitaine/correze/963f43a0-bc84-4a24-b033-8f8eacf85b07"}
{"nom":"Chenailler-Mascheix","nomNormalise":"chenaillermascheix","typeCollectivite":"Commune","region":"Nouvelle-Aquitaine","departement":"Corrèze","departementCode":"19","adresse":{"street":"342 route de la Mairie","postalCode":"19120","city":"Chenailler-Mascheix","country":"France"},"contacts":{"email":"chenailler-mascheix@mairie19.fr","telephone":"0555910962"},"horaires":"Le Lundi : de 09h00 à 12h00 de 14h00 à 17h00\nLe Jeudi : de 09h00 à 12h00 de 14h00 à 17h00","latitude":45.054565,"longitude":1.841923,"website":"","hasWebsite":false,"hasHoraires":true,"url":"https://lannuaire.service-public.gouv.fr/nouvelle-aquitaine/correze/e6c3747f-5c11-4a7a-af49-ff68ead5f95a"}
{"nom":"Chirac-Bellevue","nomNormalise":"chiracbellevue","typeCollectivite":"Commune","region":"Nouvelle-Aquitaine","departement":"Corrèze","departementCode":"19","adresse":{"street":"5 rue de la Mairie","postalCode":"19160","city":"Chirac-Bellevue","country":"France"},"contacts":{"email":"accueil@chiracbellevue.com","telephone":"0555958210"},"horaires":"Du Lundi au Mardi : de 08h30 à 16h15\nLe Mercredi : de 08h30 à 12h30\nLe Jeudi : de 08h30 à 16h30\nLe Vendredi : de 08h30 à 12h30","latitude":45.45186,"longitude":2.305657,"website":"https://www.chiracbellevue.com/","hasWebsite":true,"hasHoraires":true,"url":"https://lannuaire.service-public.gouv.fr/nouvelle-aquitaine/correze/a71cdbac-a5de-46d9-90b0-9a6ddd84a54f"}
{"nom":"Clergoux","nomNormalise":"clergoux","typeCollectivite":"Commune","region":"Nouvelle-Aquitaine","departement":"Corrèze","departementCode":"19","adresse":{"street":"1 ter route des Diligences","postalCode":"19320","city":"Clergoux","country":"France"},"contacts":{"email":"mairieclergoux@orange.fr","telephone":"0555277926"},"horaires":"Du Lundi au Mardi : de 08h30 à 12h30 de 14h00 à 18h00\nDu Jeudi au Vendredi : de 08h30 à 12h30 de 14h00 à 18h00","latitude":45.278515,"longitude":1.968456,"website":"http://www.clergoux.correze.net/","hasWebsite":true,"hasHoraires":true,"url":"https://lannuaire.service-public.gouv.fr/nouvelle-aquitaine/correze/b97bac67-ab43-48fb-b95c-c78d346b8703"}
{"nom":"Collonges-la-Rouge","nomNormalise":"collongeslarouge","typeCollectivite":"Commune","region":"Nouvelle-Aquitaine","departement":"Corrèze","departementCode":"19","adresse":{"street":"Le Bourg","postalCode":"19500","city":"Collonges-la-Rouge","country":"France"},"contacts":{"email":"collonges-la-rouge.mairie@orange.fr","telephone":"0555254109"},"horaires":"Du Lundi au Jeudi : de 09h00 à 12h00","latitude":45.062,"longitude":1.65526,"website":"https://www.collonges-la-rouge.fr/","hasWebsite":true,"hasHoraires":true,"url":"https://lannuaire.service-public.gouv.fr/nouvelle-aquitaine/correze/0b5fc24e-9c14-43f7-8b03-2d758c3ae836"}
{"nom":"Combressol","nomNormalise":"combressol","typeCollectivite":"Commune","region":"Nouvelle-Aquitaine","departement":"Corrèze","departementCode":"19","adresse":{"street":"1 place Saint-Pierre","postalCode":"19250","city":"Combressol","country":"France"},"contacts":{"email":"mairie.combressol@gmail.com","telephone":"0555942112"},"horaires":"Du Lundi au Mardi : de 08h30 à 12h00 de 14h00 à 16h00\nLe Mercredi : de 08h30 à 12h00\nLe Jeudi : de 08h30 à 12h00 de 14h00 à 16h00\nLe Vendredi : de 08h30 à 12h00","latitude":45.47454,"longitude":2.160465,"website":"https://mairiecombressol.wixsite.com/accueil","hasWebsite":true,"hasHoraires":true,"url":"https://lannuaire.service-public.gouv.fr/nouvelle-aquitaine/correze/de29b3ab-fdc5-429e-bf61-03d1717222cb"}
{"nom":"Concèze","nomNormalise":"conceze","typeCollectivite":"Commune","region":"Nouvelle-Aquitaine","departement":"Corrèze","departementCode":"19","adresse":{"street":"31 place de la mairie","postalCode":"19350","city":"Concèze","country":"France"},"contacts":{"email":"mairie.conceze@wanadoo.fr","telephone":"0555256151"},"horaires":"Du Lundi au Vendredi : de 13h30 à 17h00\nLe Samedi : de 09h00 à 12h00","latitude":45.35545,"longitude":1.344007,"website":"","hasWebsite":false,"hasHoraires":true,"url":"https://lannuaire.service-public.gouv.fr/nouvelle-aquitaine/correze/6d2afc17-d888-4d92-aab5-0e7124005c50"}
{"nom":"Condat-sur-Ganaveix","nomNormalise":"condatsurganaveix","typeCollectivite":"Commune","region":"Nouvelle-Aquitaine","departement":"Corrèze","departementCode":"19","adresse":{"street":"Le Bourg","postalCode":"19140","city":"Condat-sur-Ganaveix","country":"France"},"contacts":{"email":"mairie.condat@orange.fr","telephone":"0555732101"},"horaires":"Du Lundi au Mercredi : de 09h00 à 12h00 de 13h30 à 17h30\nLe Jeudi : de 09h00 à 12h00 de 13h30 à 16h30\nLe Vendredi : de 09h00 à 12h00 de 13h30 à 17h30\nLe Samedi : de 10h00 à 12h00","latitude":45.4673,"longitude":1.59338,"website":"https://www.condat-sur-ganaveix.fr/","hasWebsite":true,"hasHoraires":true,"url":"https://lannuaire.service-public.gouv.fr/nouvelle-aquitaine/correze/e032bf78-0349-4a5d-9e94-bdf0df401531"}
{"nom":"Confolent-Port-Dieu","nomNormalise":"confolentportdieu","typeCollectivite":"Commune","region":"Nouvelle-Aquitaine","departement":"Corrèze","departementCode":"19","adresse":{"street":"2 rue Joseph Picard","postalCode":"19200","city":"Confolent-Port-Dieu","country":"France"},"contacts":{"email":"confolent.mairie@wanadoo.fr","telephone":"0555945049"},"horaires":"Le Jeudi : de 10h00 à 12h00","latitude":45.54286,"longitude":2.496192,"website":"http://www.confolent-port-dieu.fr/","hasWebsite":true,"hasHoraires":true,"url":"https://lannuaire.service-public.gouv.fr/nouvelle-aquitaine/correze/a8de3157-2a11-4b45-a0a6-254218ff57cb"}
{"nom":"Cornil","nomNormalise":"cornil","typeCollectivite":"Commune","region":"Nouvelle-Aquitaine","departement":"Corrèze","departementCode":"19","adresse":{"street":"2 place Jean-Marie-Dauzier","postalCode":"19150","city":"Cornil","country":"France"},"contacts":{"email":"mairie.cornil@cornil19.fr","telephone":"0555272012"},"horaires":"Le Lundi : de 09h00 à 12h00 de 14h00 à 18h00\nLe Mardi : de 14h00 à 18h00\nDu Mercredi au Vendredi : de 09h00 à 12h00 de 14h00 à 18h00\nLe Samedi : de 09h00 à 12h00","latitude":45.211483,"longitude":1.691437,"website":"https://cornil19.fr/fr/","hasWebsite":true,"hasHoraires":true,"url":"https://lannuaire.service-public.gouv.fr/nouvelle-aquitaine/correze/f8bbb3a6-cb08-40f9-bd03-db3819571ad4"}
{"nom":"Corrèze","nomNormalise":"correze","typeCollectivite":"Commune","region":"Nouvelle-Aquitaine","departement":"Corrèze","departementCode":"19","adresse":{"street":"1 place de la Mairie","postalCode":"19800","city":"Corrèze","country":"France"},"contacts":{"email":"accueil@mairie-correze.fr","telephone":"0555212521"},"horaires":"Le Lundi : de 08h30 à 12h00\nDu Mardi au Mercredi : de 08h30 à 12h00 de 13h30 à 17h00\nLe Jeudi : de 08h30 à 12h00\nLe Vendredi : de 08h30 à 12h00 de 13h30 à 17h00","latitude":45.3718,"longitude":1.8742,"website":"https://www.mairie-de-correze.fr/","hasWebsite":true,"hasHoraires":true,"url":"https://lannuaire.service-public.gouv.fr/nouvelle-aquitaine/correze/27d0f716-f619-4688-ac5c-4dafd5e2c4da"}
{"nom":"Cosnac","nomNormalise":"cosnac","typeCollectivite":"Commune","region":"Nouvelle-Aquitaine","departement":"Corrèze","departementCode":"19","adresse":{"street":"155 avenue du 19-Mars-1962","postalCode":"19360","city":"Cosnac","country":"France"},"contacts":{"email":"maire@commune-cosnac.fr","telephone":"0555928170"},"horaires":"Le Lundi : de 08h00 à 12h00 de 13h30 à 17h30\nLe Mardi : de 08h00 à 12h00\nLe Mercredi : de 08h00 à 12h00 de 13h30 à 17h30\nLe Jeudi : de 08h00 à 12h00\nLe Vendredi : de 08h00 à 12h00 de 13h30 à 17h00\nLe Samedi : de 09h00 à 12h00","latitude":45.134716,"longitude":1.584432,"website":"http://www.cosnac.fr/","hasWebsite":true,"hasHoraires":true,"url":"https://lannuaire.service-public.gouv.fr/nouvelle-aquitaine/correze/20d12b4d-e8be-4594-a004-b9fe3abdf190"}
{"nom":"Couffy-sur-Sarsonne","nomNormalise":"couffysursarsonne","typeCollectivite":"Commune","region":"Nouvelle-Aquitaine","departement":"Corrèze","departementCode":"19","adresse":{"street":"Le Bourg","postalCode":"19340","city":"Couffy-sur-Sarsonne","country":"France"},"contacts":{"email":"couffysursasonne@orange.fr","telephone":"0555946806"},"horaires":"Le Mardi : de 09h00 à 12h00\nLe Jeudi : de 09h00 à 12h00","latitude":45.6613,"longitude":2.32873,"website":"","hasWebsite":false,"hasHoraires":true,"url":"https://lannuaire.service-public.gouv.fr/nouvelle-aquitaine/correze/fb8946ce-2470-4763-bb92-69a64b363263"}
{"nom":"Courteix","nomNormalise":"courteix","typeCollectivite":"Commune","region":"Nouvelle-Aquitaine","departement":"Corrèze","departementCode":"19","adresse":{"street":"Le Bourg","postalCode":"19340","city":"Courteix","country":"France"},"contacts":{"email":"mairie.courteix@wanadoo.fr","telephone":"0555944051"},"horaires":"Le Lundi : de 08h00 à 12h00\nLe Vendredi : de 08h00 à 12h00","latitude":45.648605,"longitude":2.342581,"website":"","hasWebsite":false,"hasHoraires":true,"url":"https://lannuaire.service-public.gouv.fr/nouvelle-aquitaine/correze/964804fd-fb13-45a4-bb39-74cdab8a221e"}
{"nom":"Cublac","nomNormalise":"cublac","typeCollectivite":"Commune","region":"Nouvelle-Aquitaine","departement":"Corrèze","departementCode":"19","adresse":{"street":"2 rue de la Liberté","postalCode":"19520","city":"Cublac","country":"France"},"contacts":{"email":"mairie@cublac.fr","telephone":"0555852289"},"horaires":"Du Lundi au Mardi : de 08h30 à 12h00 de 13h30 à 17h30\nLe Mercredi : de 08h30 à 12h00\nDu Jeudi au Vendredi : de 08h30 à 12h00 de 13h30 à 17h30\nLe Samedi : de 09h00 à 12h00","latitude":45.12977,"longitude":2.138917,"website":"https://www.cublac.correze.net/","hasWebsite":true,"hasHoraires":true,"url":"https://lannuaire.service-public.gouv.fr/nouvelle-aquitaine/correze/85dfefca-e36a-4214-9eba-02cb8329524a"}
{"nom":"Curemonte","nomNormalise":"curemonte","typeCollectivite":"Commune","region":"Nouvelle-Aquitaine","departement":"Corrèze","departementCode":"19","adresse":{"street":"300 rue Antonin-Laumond","postalCode":"19500","city":"Curemonte","country":"France"},"contacts":{"email":"mairie@curemonte.fr","telephone":"0555253476"},"horaires":"Le Mercredi : de 09h00 à 12h00","latitude":45.000282,"longitude":1.742756,"website":"https://www.curemonte.fr/","hasWebsite":true,"hasHoraires":true,"url":"https://lannuaire.service-public.gouv.fr/nouvelle-aquitaine/correze/422aad8a-b353-4a8c-8ed2-140ab08eca3e"}
{"nom":"Dampniat","nomNormalise":"dampniat","typeCollectivite":"Commune","region":"Nouvelle-Aquitaine","departement":"Corrèze","departementCode":"19","adresse":{"street":"49 avenue Auguste Taurisson","postalCode":"19360","city":"Dampniat","country":"France"},"contacts":{"email":"mairie@dampniat.com","telephone":"0555257021"},"horaires":"Le Lundi : de 09h00 à 12h30\nLe Mardi : de 09h00 à 12h00 de 15h00 à 18h30\nLe Mercredi : de 09h00 à 12h30\nLe Jeudi : de 09h00 à 12h30\nLe Vendredi : de 09h00 à 12h00 de 13h30 à 16h15","latitude":45.16764,"longitude":1.632291,"website":"http://www.dampniat.com/","hasWebsite":true,"hasHoraires":true,"url":"https://lannuaire.service-public.gouv.fr/nouvelle-aquitaine/correze/97301567-94fe-4dbd-a769-c456a0d2da7b"}
{"nom":"Darazac","nomNormalise":"darazac","typeCollectivite":"Commune","region":"Nouvelle-Aquitaine","departement":"Corrèze","departementCode":"19","adresse":{"street":"11 rue de la Mairie","postalCode":"19220","city":"Darazac","country":"France"},"contacts":{"email":"mairiededarazac@orange.fr","telephone":"0555282198"},"horaires":"Le Lundi : de 14h00 à 16h30\nLe Mercredi : de 09h00 à 12h00\nLe Jeudi : de 09h00 à 12h00 de 14h00 à 16h30","latitude":45.17542,"longitude":2.082646,"website":"","hasWebsite":false,"hasHoraires":true,"url":"https://lannuaire.service-public.gouv.fr/nouvelle-aquitaine/correze/7cb023e7-3a9f-4913-9a52-1b906fb1f72b"}
{"nom":"Darnets","nomNormalise":"darnets","typeCollectivite":"Commune","region":"Nouvelle-Aquitaine","departement":"Corrèze","departementCode":"19","adresse":{"street":"3 rue de la Bourre","postalCode":"19300","city":"Darnets","country":"France"},"contacts":{"email":"mairiededarnets@wanadoo.fr","telephone":"0555930991"},"horaires":"Du Lundi au Mardi : de 13h30 à 17h30\nLe Mercredi : de 08h00 à 12h00\nLe Jeudi : de 13h30 à 17h30","latitude":45.42666,"longitude":2.11141,"website":"http://www.darnets.correze.net/","hasWebsite":true,"hasHoraires":true,"url":"https://lannuaire.service-public.gouv.fr/nouvelle-aquitaine/correze/d8a288cc-f38a-4b22-868e-8ab16041c5a1"}
{"nom":"Davignac","nomNormalise":"davignac","typeCollectivite":"Commune","region":"Nouvelle-Aquitaine","departement":"Corrèze","departementCode":"19","adresse":{"street":"3 place de la mairie","postalCode":"19250","city":"Davignac","country":"France"},"contacts":{"email":"mairie.davignac@wanadoo.fr","telephone":"0555942213"},"horaires":"Du Lundi au Mardi : de 09h00 à 12h00 de 14h00 à 17h00\nLe Mercredi : de 09h00 à 12h00\nDu Jeudi au Vendredi : de 09h00 à 12h00 de 14h00 à 17h00","latitude":45.48445,"longitude":2.093596,"website":"","hasWebsite":false,"hasHoraires":true,"url":"https://lannuaire.service-public.gouv.fr/nouvelle-aquitaine/correze/c8c990b1-f1bf-4e9d-adfa-de3cc618f4d1"}
{"nom":"Donzenac","nomNormalise":"donzenac","typeCollectivite":"Commune","region":"Nouvelle-Aquitaine","departement":"Corrèze","departementCode":"19","adresse":{"street":"1 place Jacques-Chirac","postalCode":"19270","city":"Donzenac","country":"France"},"contacts":{"email":"mairie@donzenac19.fr","telephone":"0555857233"},"horaires":"Du Lundi au Vendredi : de 09h00 à 12h00 de 13h30 à 17h30","latitude":45.22769,"longitude":1.52293,"website":"http://www.donzenac.correze.net/","hasWebsite":true,"hasHoraires":true,"url":"https://lannuaire.service-public.gouv.fr/nouvelle-aquitaine/correze/40e562a1-5815-4c6b-8512-42260ea4fda0"}
{"nom":"Égletons","nomNormalise":"egletons","typeCollectivite":"Commune","region":"Nouvelle-Aquitaine","departement":"Corrèze","departementCode":"19","adresse":{"street":"20 place des Anciens-Combattants","postalCode":"19300","city":"Égletons","country":"France"},"contacts":{"email":"contact@mairie-egletons.fr","telephone":"0555930036"},"horaires":"Du Lundi au Vendredi : de 08h00 à 12h00 de 13h00 à 17h00","latitude":45.406044,"longitude":2.046285,"website":"https://www.egletons.fr/","hasWebsite":true,"hasHoraires":true,"url":"https://lannuaire.service-public.gouv.fr/nouvelle-aquitaine/correze/e883308b-647f-4e3e-b630-41700b3fcf0c"}
{"nom":"Espagnac","nomNormalise":"espagnac","typeCollectivite":"Commune","region":"Nouvelle-Aquitaine","departement":"Corrèze","departementCode":"19","adresse":{"street":"2 rue Albert-Neyrat","postalCode":"19150","city":"Espagnac","country":"France"},"contacts":{"email":"mairie.espagnac19@orange.fr","telephone":"0555291134"},"horaires":"Le Lundi : de 08h00 à 12h00\nLe Mardi : de 13h30 à 17h30\nLe Jeudi : de 08h00 à 12h00\nLe Samedi : de 09h00 à 12h00","latitude":45.229977,"longitude":1.897073,"website":"https://espagnac.fr/","hasWebsite":true,"hasHoraires":true,"url":"https://lannuaire.service-public.gouv.fr/nouvelle-aquitaine/correze/0c4002f4-b17a-481c-ab27-b7ac9ba50023"}
{"nom":"Espartignac","nomNormalise":"espartignac","typeCollectivite":"Commune","region":"Nouvelle-Aquitaine","departement":"Corrèze","departementCode":"19","adresse":{"street":"20 impasse des Instituteurs","postalCode":"19140","city":"Espartignac","country":"France"},"contacts":{"email":"mairie.espartignac@wanadoo.fr","telephone":"0555732302"},"horaires":"Du Lundi au Mardi : de 09h00 à 12h00 de 14h30 à 17h00\nLe Mercredi : de 09h00 à 12h00\nLe Jeudi : de 09h00 à 12h00 de 14h30 à 17h00\nDu Vendredi au Samedi : de 09h00 à 12h00","latitude":45.414593,"longitude":1.59547,"website":"https://www.espartignac.correze.net/","hasWebsite":true,"hasHoraires":true,"url":"https://lannuaire.service-public.gouv.fr/nouvelle-aquitaine/correze/0a9276ed-e8e1-48bb-b56a-259f7f00569e"}
{"nom":"Estivals","nomNormalise":"estivals","typeCollectivite":"Commune","region":"Nouvelle-Aquitaine","departement":"Corrèze","departementCode":"19","adresse":{"street":"92 route de l'Aéroport","postalCode":"19600","city":"Estivals","country":"France"},"contacts":{"email":"mairiedestivals@gmail.com","telephone":"0555858664"},"horaires":"Le Mardi : de 09h00 à 19h00\nLe Jeudi : de 09h00 à 12h30","latitude":45.027817,"longitude":1.461243,"website":"","hasWebsite":false,"hasHoraires":true,"url":"https://lannuaire.service-public.gouv.fr/nouvelle-aquitaine/correze/91c2ba6e-02ca-4bd4-9c6e-95736ec9a98d"}
{"nom":"Estivaux","nomNormalise":"estivaux","typeCollectivite":"Commune","region":"Nouvelle-Aquitaine","departement":"Corrèze","departementCode":"19","adresse":{"street":"65 place de la mairie","postalCode":"19410","city":"Estivaux","country":"France"},"contacts":{"email":"mairie-estivaux@orange.fr","telephone":"0555737307"},"horaires":"Du Lundi au Vendredi : de 13h30 à 18h00","latitude":45.376465,"longitude":1.995,"website":"https://www.estivaux.fr/","hasWebsite":true,"hasHoraires":true,"url":"https://lannuaire.service-public.gouv.fr/nouvelle-aquitaine/correze/24ffc9c1-6cae-4035-a3e2-d109d007621b"}
{"nom":"Eyburie","nomNormalise":"eyburie","typeCollectivite":"Commune","region":"Nouvelle-Aquitaine","departement":"Corrèze","departementCode":"19","adresse":{"street":"26 rue de la Mairie","postalCode":"19140","city":"Eyburie","country":"France"},"contacts":{"email":"mairie.eyburie@wanadoo.fr","telephone":"0555732161"},"horaires":"Du Lundi au Mardi : de 08h30 à 12h00 de 13h30 à 17h00\nLe Mercredi : de 08h00 à 12h00\nDu Jeudi au Vendredi : de 08h30 à 12h00 de 13h30 à 17h00\nLe Samedi : de 09h00 à 12h00","latitude":45.460423,"longitude":1.634612,"website":"","hasWebsite":false,"hasHoraires":true,"url":"https://lannuaire.service-public.gouv.fr/nouvelle-aquitaine/correze/c2dc9aab-fb2a-4c22-8546-3b92c6d600f0"}
{"nom":"Eygurande","nomNormalise":"eygurande","typeCollectivite":"Commune","region":"Nouvelle-Aquitaine","departement":"Corrèze","departementCode":"19","adresse":{"street":"10 place de la Mairie","postalCode":"19340","city":"Eygurande","country":"France"},"contacts":{"email":"mairie.eygurande@wanadoo.fr","telephone":"0555943021"},"horaires":"Du Lundi au Jeudi : de 08h30 à 12h00 de 13h30 à 17h30\nLe Vendredi : de 08h30 à 12h00 de 13h30 à 16h30","latitude":45.662373,"longitude":2.452226,"website":"","hasWebsite":false,"hasHoraires":true,"url":"https://lannuaire.service-public.gouv.fr/nouvelle-aquitaine/correze/df74120f-6ba5-44af-b9a5-ee894dff2e09"}
{"nom":"Eyrein","nomNormalise":"eyrein","typeCollectivite":"Commune","region":"Nouvelle-Aquitaine","departement":"Corrèze","departementCode":"19","adresse":{"street":"1 place Léon-Billot","postalCode":"19800","city":"Eyrein","country":"France"},"contacts":{"email":"mairie.eyrein@wanadoo.fr","telephone":"0555276114"},"horaires":"Du Lundi au Mardi : de 08h00 à 12h00 de 13h30 à 17h30\nDu Mercredi au Jeudi : de 08h00 à 12h00\nLe Vendredi : de 08h00 à 12h00 de 13h30 à 17h00","latitude":45.334766,"longitude":1.946224,"website":"https://www.eyrein-commune.com/","hasWebsite":true,"hasHoraires":true,"url":"https://lannuaire.service-public.gouv.fr/nouvelle-aquitaine/correze/e12867e7-b107-4587-bdff-e861f9747cc4"}
{"nom":"Favars","nomNormalise":"favars","typeCollectivite":"Commune","region":"Nouvelle-Aquitaine","departement":"Corrèze","departementCode":"19","adresse":{"street":"1 place Jean-Bertin","postalCode":"19330","city":"Favars","country":"France"},"contacts":{"email":"mairie-favars@wanadoo.fr","telephone":"0555293184"},"horaires":"Le Lundi : de 09h00 à 12h00 de 14h00 à 17h30\nLe Mardi : de 09h00 à 12h00\nLe Mercredi : de 14h00 à 17h30\nDu Jeudi au Vendredi : de 09h00 à 12h00 de 14h00 à 17h30\nLe Samedi : de 09h00 à 12h00\n\nAccueil fermé le samedi en juillet-août.","latitude":45.262737,"longitude":1.679125,"website":"https://www.mairie-favars.fr/","hasWebsite":true,"hasHoraires":true,"url":"https://lannuaire.service-public.gouv.fr/nouvelle-aquitaine/correze/ab715c46-b860-4527-b6f1-40ef6dbaccd0"}
{"nom":"Feyt","nomNormalise":"feyt","typeCollectivite":"Commune","region":"Nouvelle-Aquitaine","departement":"Corrèze","departementCode":"19","adresse":{"street":"1 Le Bourg","postalCode":"19340","city":"Feyt","country":"France"},"contacts":{"email":"mairiedefeyt@orange.fr","telephone":"0555943303"},"horaires":"Le Lundi : de 09h00 à 12h30\nLe Vendredi : de 13h30 à 16h30","latitude":45.689854,"longitude":2.474489,"website":"","hasWebsite":false,"hasHoraires":true,"url":"https://lannuaire.service-public.gouv.fr/nouvelle-aquitaine/correze/a4251229-f9be-4363-8c66-6203c4ca17f3"}
{"nom":"Forgès","nomNormalise":"forges","typeCollectivite":"Commune","region":"Nouvelle-Aquitaine","departement":"Corrèze","departementCode":"19","adresse":{"street":"4 place de la République","postalCode":"19380","city":"Forgès","country":"France"},"contacts":{"email":"forges.mairie@wanadoo.fr","telephone":"0555286164"},"horaires":"Du Lundi au Vendredi : de 08h00 à 12h00","latitude":45.1554,"longitude":1.87149,"website":"","hasWebsite":false,"hasHoraires":true,"url":"https://lannuaire.service-public.gouv.fr/nouvelle-aquitaine/correze/f45ea8bb-7b67-4e95-a527-cf53718681fa"}
{"nom":"Gimel-les-Cascades","nomNormalise":"gimellescascades","typeCollectivite":"Commune","region":"Nouvelle-Aquitaine","departement":"Corrèze","departementCode":"19","adresse":{"street":"Le Bourg","postalCode":"19800","city":"Gimel-les-Cascades","country":"France"},"contacts":{"email":"mairie.gimellescascades@wanadoo.fr","telephone":"0555212533"},"horaires":"Du Lundi au Mardi : de 08h30 à 12h00 de 13h30 à 18h30\nLe Jeudi : de 08h30 à 12h00 de 13h30 à 18h30\nLe Vendredi : de 08h30 à 12h00 de 13h30 à 16h00\nLe Samedi : de 10h30 à 12h30\n\nPermanence du maire uniquement.","latitude":45.2988,"longitude":1.85118,"website":"https://www.gimellescascades.fr/","hasWebsite":true,"hasHoraires":true,"url":"https://lannuaire.service-public.gouv.fr/nouvelle-aquitaine/correze/bc8270ba-3b0e-46c6-b9eb-ece49b8eb03c"}
{"nom":"Goulles","nomNormalise":"goulles","typeCollectivite":"Commune","region":"Nouvelle-Aquitaine","departement":"Corrèze","departementCode":"19","adresse":{"street":"1 avenue de Xaintrie-Blanche","postalCode":"19430","city":"Goulles","country":"France"},"contacts":{"email":"mairie.goulles@wanadoo.fr","telephone":"0555287084"},"horaires":"Du Mardi au Vendredi : de 08h00 à 12h00 de 13h30 à 16h30","latitude":45.03993,"longitude":2.078119,"website":"http://www.goulles.correze.net/","hasWebsite":true,"hasHoraires":true,"url":"https://lannuaire.service-public.gouv.fr/nouvelle-aquitaine/correze/62db93f4-0475-428b-86f2-b346c44e3b51"}
{"nom":"Gourdon-Murat","nomNormalise":"gourdonmurat","typeCollectivite":"Commune","region":"Nouvelle-Aquitaine","departement":"Corrèze","departementCode":"19","adresse":{"street":"29 route de Tulle","postalCode":"19170","city":"Gourdon-Murat","country":"France"},"contacts":{"email":"mairiegourdonmurat@wanadoo.fr","telephone":"0555940200"},"horaires":"Le Mardi : de 08h30 à 12h30 de 13h00 à 16h00\nLe Jeudi : de 08h30 à 12h30 de 13h00 à 16h00\nLe Vendredi : de 08h30 à 12h30","latitude":45.55398,"longitude":1.888511,"website":"","hasWebsite":false,"hasHoraires":true,"url":"https://lannuaire.service-public.gouv.fr/nouvelle-aquitaine/correze/c14f3563-6c9e-47fe-a228-0783f1aacfe3"}
{"nom":"Grandsaigne","nomNormalise":"grandsaigne","typeCollectivite":"Commune","region":"Nouvelle-Aquitaine","departement":"Corrèze","departementCode":"19","adresse":{"street":"Le Bourg","postalCode":"19300","city":"Grandsaigne","country":"France"},"contacts":{"email":"mairiegrandsaigne@wanadoo.fr","telephone":"0555940060"},"horaires":"Du Lundi au Vendredi : de 08h30 à 12h00","latitude":45.544724,"longitude":1.910247,"website":"","hasWebsite":false,"hasHoraires":true,"url":"https://lannuaire.service-public.gouv.fr/nouvelle-aquitaine/correze/41a9122b-da7b-4f63-afee-d76c2323f9cb"}
{"nom":"Gros-Chastang","nomNormalise":"groschastang","typeCollectivite":"Commune","region":"Nouvelle-Aquitaine","departement":"Corrèze","departementCode":"19","adresse":{"street":"La Bitarelle","postalCode":"19320","city":"Gros-Chastang","country":"France"},"contacts":{"email":"mairiegroschastang@wanadoo.fr","telephone":"0555291263"},"horaires":"Le Mardi : de 09h30 à 12h00 de 14h15 à 17h00\nLe Jeudi : de 09h30 à 12h00 de 14h15 à 17h00","latitude":45.222565,"longitude":2.00481,"website":"https://mairie-gros-chastang.fr/","hasWebsite":true,"hasHoraires":true,"url":"https://lannuaire.service-public.gouv.fr/nouvelle-aquitaine/correze/00b905c5-5c01-4afa-a74d-375c89697675"}
{"nom":"Gumond","nomNormalise":"gumond","typeCollectivite":"Commune","region":"Nouvelle-Aquitaine","departement":"Corrèze","departementCode":"19","adresse":{"street":"Le Bourg","postalCode":"19320","city":"Gumond","country":"France"},"contacts":{"email":"mairie.gumont@wanadoo.fr","telephone":"0555291295"},"horaires":"Le Lundi : de 14h00 à 17h00\nLe Jeudi : de 14h00 à 17h00","latitude":45.22323,"longitude":1.977755,"website":"http://www.gumond.fr/","hasWebsite":true,"hasHoraires":true,"url":"https://lannuaire.service-public.gouv.fr/nouvelle-aquitaine/correze/b8fe9204-cf5b-437a-9588-3db1c2078351"}
{"nom":"Hautefage","nomNormalise":"hautefage","typeCollectivite":"Commune","region":"Nouvelle-Aquitaine","departement":"Corrèze","departementCode":"19","adresse":{"street":"80 route de l'École","postalCode":"19400","city":"Hautefage","country":"France"},"contacts":{"email":"mairie@hautefage.fr","telephone":"0555280843"},"horaires":"Du Lundi au Mardi : de 13h15 à 17h00\nLe Jeudi : de 13h15 à 17h00\nLe Vendredi : de 09h00 à 12h00\nLe Samedi : de 10h00 à 12h00\n\npermanence des élus Accueil fermé le 1er samedi du mois.","latitude":45.082996,"longitude":2.001461,"website":"","hasWebsite":false,"hasHoraires":true,"url":"https://lannuaire.service-public.gouv.fr/nouvelle-aquitaine/correze/ab12f0d2-37e2-4d06-a619-387b0659e67b"}
{"nom":"Jugeals-Nazareth","nomNormalise":"jugealsnazareth","typeCollectivite":"Commune","region":"Nouvelle-Aquitaine","departement":"Corrèze","departementCode":"19","adresse":{"street":"3 Rue de l'Ancienne-Forge","postalCode":"19500","city":"Jugeals-Nazareth","country":"France"},"contacts":{"email":"mairie@jugeals-nazareth.fr","telephone":"0555859053"},"horaires":"Le Lundi : de 08h30 à 12h00 de 13h30 à 17h00\nLe Mardi : de 08h00 à 12h00 de 13h30 à 16h30\nDu Mercredi au Jeudi : de 08h00 à 12h00\nLe Vendredi : de 08h00 à 12h00 de 13h30 à 16h30","latitude":45.08069,"longitude":1.559416,"website":"https://www.jugeals-nazareth.fr/","hasWebsite":true,"hasHoraires":true,"url":"https://lannuaire.service-public.gouv.fr/nouvelle-aquitaine/correze/6415bf41-aeed-41b0-949c-7bb9e0829b78"}
{"nom":"Juillac","nomNormalise":"juillac","typeCollectivite":"Commune","region":"Nouvelle-Aquitaine","departement":"Corrèze","departementCode":"19","adresse":{"street":"Place de la Mairie","postalCode":"19350","city":"Juillac","country":"France"},"contacts":{"email":"mairie.juillac@wanadoo.fr","telephone":"0555256012"},"horaires":"Du Lundi au Mardi : de 09h00 à 12h00 de 14h00 à 17h00\nLe Mercredi : de 09h00 à 12h00\nDu Jeudi au Vendredi : de 09h00 à 12h00 de 14h00 à 17h00","latitude":45.3174,"longitude":1.32233,"website":"http://www.juillac19.fr/","hasWebsite":true,"hasHoraires":true,"url":"https://lannuaire.service-public.gouv.fr/nouvelle-aquitaine/correze/61fa9786-cf73-49ba-b475-1cf7386ee745"}
{"nom":"Lacelle","nomNormalise":"lacelle","typeCollectivite":"Commune","region":"Nouvelle-Aquitaine","departement":"Corrèze","departementCode":"19","adresse":{"street":"12 avenue Porte-de-la-Corrèze","postalCode":"19170","city":"Lacelle","country":"France"},"contacts":{"email":"mairie-lacelle@orange.fr","telephone":"0555460384"},"horaires":"Le Mardi : de 09h00 à 12h00 de 14h00 à 17h15\nLe Vendredi : de 09h00 à 12h00 de 14h00 à 17h15","latitude":45.644108,"longitude":1.823679,"website":"http://lacelle-correze.fr/","hasWebsite":true,"hasHoraires":true,"url":"https://lannuaire.service-public.gouv.fr/nouvelle-aquitaine/correze/1de88910-32e9-4c1b-8995-cb8bef124c75"}
{"nom":"La Chapelle-aux-Brocs","nomNormalise":"lachapelleauxbrocs","typeCollectivite":"Commune","region":"Nouvelle-Aquitaine","departement":"Corrèze","departementCode":"19","adresse":{"street":"28 rue du Bourg","postalCode":"19360","city":"La Chapelle-aux-Brocs","country":"France"},"contacts":{"email":"lachapelleauxbrocs@wanadoo.fr","telephone":"0555929800"},"horaires":"Le Lundi : de 08h30 à 17h30\nLe Mardi : de 08h30 à 12h00 de 14h30 à 17h30\nLe Mercredi : de 08h30 à 12h00\nDu Jeudi au Vendredi : de 08h30 à 12h00 de 14h30 à 17h30\nLe Samedi : de 10h00 à 12h00\n\nPermanence des élus uniquement et sur rendez-vous tout les 15 jours.","latitude":45.145195,"longitude":1.6266685,"website":"http://www.la-chapelle-aux-brocs19.fr/","hasWebsite":true,"hasHoraires":true,"url":"https://lannuaire.service-public.gouv.fr/nouvelle-aquitaine/correze/89152151-6112-40a4-83d1-ec987a1f515f"}
{"nom":"La Chapelle-aux-Saints","nomNormalise":"lachapelleauxsaints","typeCollectivite":"Commune","region":"Nouvelle-Aquitaine","departement":"Corrèze","departementCode":"19","adresse":{"street":"Sourdoire","postalCode":"19120","city":"La Chapelle-aux-Saints","country":"France"},"contacts":{"email":"mairie-lcas@wanadoo.fr","telephone":"0555911367"},"horaires":"Le Lundi : de 09h00 à 12h00\nLe Mercredi : de 14h00 à 17h00\n\nAccueil téléphonique le lundi et le mercredi de 9h à 12h et de 14h à 17h.","latitude":44.98705,"longitude":1.725382,"website":"http://www.lachapelleauxsaints.fr/","hasWebsite":true,"hasHoraires":true,"url":"https://lannuaire.service-public.gouv.fr/nouvelle-aquitaine/correze/eb06039b-05a4-4481-a3da-6e1cb3ff78f3"}
{"nom":"La Chapelle-Saint-Géraud","nomNormalise":"lachapellesaintgeraud","typeCollectivite":"Commune","region":"Nouvelle-Aquitaine","departement":"Corrèze","departementCode":"19","adresse":{"street":"7 Route d'Argentat","postalCode":"19430","city":"La Chapelle-Saint-Géraud","country":"France"},"contacts":{"email":"mairie.saintgeraud@wanadoo.fr","telephone":"0555285058"},"horaires":"Le Lundi : de 09h00 à 12h00\nLe Mercredi : de 09h00 à 12h00 de 14h00 à 16h30\nLe Vendredi : de 09h00 à 12h00","latitude":45.039444,"longitude":1.953463,"website":"","hasWebsite":false,"hasHoraires":true,"url":"https://lannuaire.service-public.gouv.fr/nouvelle-aquitaine/correze/e3e1fbb9-842b-4721-9823-9a587ee96ef4"}
{"nom":"La Chapelle-Spinasse","nomNormalise":"lachapellespinasse","typeCollectivite":"Commune","region":"Nouvelle-Aquitaine","departement":"Corrèze","departementCode":"19","adresse":{"street":"Le Bourg","postalCode":"19300","city":"La Chapelle-Spinasse","country":"France"},"contacts":{"email":"commune.chapellespinasse@orange.fr","telephone":"0555933310"},"horaires":"","latitude":45.39325,"longitude":2.00814,"website":"","hasWebsite":false,"hasHoraires":false,"url":"https://lannuaire.service-public.gouv.fr/nouvelle-aquitaine/correze/bf9433a1-a464-4bc2-92ff-e22b76cb6b52"}
{"nom":"Ladignac-sur-Rondelles","nomNormalise":"ladignacsurrondelles","typeCollectivite":"Commune","region":"Nouvelle-Aquitaine","departement":"Corrèze","departementCode":"19","adresse":{"street":"6 rue de la Mairie","postalCode":"19150","city":"Ladignac-sur-Rondelles","country":"France"},"contacts":{"email":"mairieladignac@wanadoo.fr","telephone":"0555267322"},"horaires":"","latitude":45.233414,"longitude":1.837444,"website":"","hasWebsite":false,"hasHoraires":false,"url":"https://lannuaire.service-public.gouv.fr/nouvelle-aquitaine/correze/67c0f496-0580-40df-b907-a6a6a37baceb"}
{"nom":"Lafage-sur-Sombre","nomNormalise":"lafagesursombre","typeCollectivite":"Commune","region":"Nouvelle-Aquitaine","departement":"Corrèze","departementCode":"19","adresse":{"street":"2 place de l'Oratoire","postalCode":"19320","city":"Lafage-sur-Sombre","country":"France"},"contacts":{"email":"mairielafage@wanadoo.fr","telephone":"0555278388"},"horaires":"Du Lundi au Mardi : de 09h15 à 12h00 de 13h00 à 16h15\nLe Jeudi : de 09h15 à 12h00 de 13h00 à 16h15\nLe Vendredi : de 09h00 à 12h00","latitude":45.29628,"longitude":2.071017,"website":"","hasWebsite":false,"hasHoraires":true,"url":"https://lannuaire.service-public.gouv.fr/nouvelle-aquitaine/correze/e8fb39c0-972f-4b41-9b98-0f0b7a096e12"}
{"nom":"Lagarde-Marc-la-Tour","nomNormalise":"lagardemarclatour","typeCollectivite":"Commune","region":"Nouvelle-Aquitaine","departement":"Corrèze","departementCode":"19","adresse":{"street":"Lagarde-Enval","postalCode":"19150","city":"Lagarde-Marc-la-Tour","country":"France"},"contacts":{"email":"contact@lagarde-enval.fr","telephone":"0555271368"},"horaires":"Du Lundi au Mardi : de 09h00 à 12h00 de 14h00 à 17h00\nLe Jeudi : de 09h00 à 12h00 de 14h00 à 17h00\nLe Vendredi : de 09h00 à 12h00 de 14h00 à 16h00","latitude":45.186268,"longitude":1.8040978,"website":"http://www.lagarde-enval.fr/","hasWebsite":true,"hasHoraires":true,"url":"https://lannuaire.service-public.gouv.fr/nouvelle-aquitaine/correze/564ad385-8de1-46b4-8bf4-b1e0cc32dd7d"}
{"nom":"Lagleygeolle","nomNormalise":"lagleygeolle","typeCollectivite":"Commune","region":"Nouvelle-Aquitaine","departement":"Corrèze","departementCode":"19","adresse":{"street":"17 route des Queyrades","postalCode":"19500","city":"Lagleygeolle","country":"France"},"contacts":{"email":"mairie@lagleygeolle.fr","telephone":"0555254189"},"horaires":"Le Lundi : de 14h00 à 17h30\nLe Jeudi : de 14h00 à 16h00\nLe Vendredi : de 14h00 à 17h30","latitude":45.07832,"longitude":1.696344,"website":"https://www.lagleygeolle.fr/","hasWebsite":true,"hasHoraires":true,"url":"https://lannuaire.service-public.gouv.fr/nouvelle-aquitaine/correze/6ec55ec9-a6bb-42e2-8501-b501bbff4aca"}
{"nom":"Lagraulière","nomNormalise":"lagrauliere","typeCollectivite":"Commune","region":"Nouvelle-Aquitaine","departement":"Corrèze","departementCode":"19","adresse":{"street":"1 place de la Mairie","postalCode":"19700","city":"Lagraulière","country":"France"},"contacts":{"email":"mairie@lagrauliere.fr","telephone":"0555737104"},"horaires":"Le Lundi : de 09h00 à 12h00\nDu Mardi au Mercredi : de 09h00 à 12h00 de 14h00 à 17h00\nLe Jeudi : de 09h00 à 12h00\nLe Vendredi : de 09h00 à 12h00 de 14h00 à 17h00\nLe Samedi : de 09h00 à 12h00","latitude":45.352535,"longitude":1.638028,"website":"http://www.lagrauliere.correze.net/","hasWebsite":true,"hasHoraires":true,"url":"https://lannuaire.service-public.gouv.fr/nouvelle-aquitaine/correze/71b79d93-db8a-4011-876f-99b1b76b1712"}
{"nom":"Laguenne-sur-Avalouze","nomNormalise":"laguennesuravalouze","typeCollectivite":"Commune","region":"Nouvelle-Aquitaine","departement":"Corrèze","departementCode":"19","adresse":{"street":"Laguenne","postalCode":"19150","city":"Laguenne-sur-Avalouze","country":"France"},"contacts":{"email":"mairie.laguenne@wanadoo.fr","telephone":"0555200921"},"horaires":"Du Lundi au Jeudi : de 08h30 à 12h00 de 13h30 à 17h30\nLe Vendredi : de 08h30 à 12h00 de 13h30 à 16h30\nLe Samedi : de 09h00 à 12h00","latitude":45.24253,"longitude":1.7813679,"website":"https://laguenne-sur-avalouze.fr/","hasWebsite":true,"hasHoraires":true,"url":"https://lannuaire.service-public.gouv.fr/nouvelle-aquitaine/correze/24cf6bfd-681b-45b7-b981-c828106afcf4"}
{"nom":"Lamazière-Basse","nomNormalise":"lamazierebasse","typeCollectivite":"Commune","region":"Nouvelle-Aquitaine","departement":"Corrèze","departementCode":"19","adresse":{"street":"1 place de la Mairie","postalCode":"19160","city":"Lamazière-Basse","country":"France"},"contacts":{"email":"mairie@lamazierebasse.fr","telephone":"0555958879"},"horaires":"Du Lundi au Mardi : de 08h45 à 13h00 de 13h30 à 17h00\nLe Mercredi : de 08h45 à 13h00\nLe Jeudi : de 08h45 à 13h00 de 13h30 à 17h00\nLe Vendredi : de 08h45 à 13h00 de 13h30 à 15h30\nLe Samedi : de 10h00 à 11h45\nURGENCES En dehors des heures d'ouverture du secrétariat, vous pouvez joindre un élu de 7h à 22h au 06 43 87 43 04.","latitude":45.37175,"longitude":2.170773,"website":"","hasWebsite":false,"hasHoraires":true,"url":"https://lannuaire.service-public.gouv.fr/nouvelle-aquitaine/correze/b3571398-ffaa-48c2-9672-3ef0e635add1"}
{"nom":"Lamazière-Haute","nomNormalise":"lamazierehaute","typeCollectivite":"Commune","region":"Nouvelle-Aquitaine","departement":"Corrèze","departementCode":"19","adresse":{"street":"Le Bourg","postalCode":"19340","city":"Lamazière-Haute","country":"France"},"contacts":{"email":"communedelamazierehaute@wanadoo.fr","telephone":"0555943716"},"horaires":"Le Mardi : de 13h15 à 17h15\nLe Vendredi : de 08h30 à 12h30","latitude":45.66993,"longitude":2.397742,"website":"","hasWebsite":false,"hasHoraires":true,"url":"https://lannuaire.service-public.gouv.fr/nouvelle-aquitaine/correze/8e5bd276-fa65-4c8c-9460-99907abc6671"}
{"nom":"Lamongerie","nomNormalise":"lamongerie","typeCollectivite":"Commune","region":"Nouvelle-Aquitaine","departement":"Corrèze","departementCode":"19","adresse":{"street":"Le Bourg","postalCode":"19510","city":"Lamongerie","country":"France"},"contacts":{"email":"mairie.lamongerie@wanadoo.fr","telephone":"0555734618"},"horaires":"Du Lundi au Mardi : de 13h30 à 16h30\nLe Jeudi : de 13h30 à 16h30","latitude":45.53694,"longitude":1.575077,"website":"","hasWebsite":false,"hasHoraires":true,"url":"https://lannuaire.service-public.gouv.fr/nouvelle-aquitaine/correze/f650cd4b-915f-4b68-8fbd-2b662fb71a16"}
{"nom":"Lanteuil","nomNormalise":"lanteuil","typeCollectivite":"Commune","region":"Nouvelle-Aquitaine","departement":"Corrèze","departementCode":"19","adresse":{"street":"2 place de la Mairie","postalCode":"19190","city":"Lanteuil","country":"France"},"contacts":{"email":"mairie.lanteuil@orange.fr","telephone":"0555855114"},"horaires":"Le Lundi : de 09h00 à 12h00\nLe Mardi : de 09h00 à 12h00 de 13h30 à 18h00\nDu Mercredi au Jeudi : de 09h00 à 12h00\nLe Vendredi : de 09h00 à 12h00 de 13h30 à 17h30","latitude":45.128674,"longitude":1.660981,"website":"https://www.lanteuil.fr/","hasWebsite":true,"hasHoraires":true,"url":"https://lannuaire.service-public.gouv.fr/nouvelle-aquitaine/correze/b57a313b-a525-4ef2-9f69-3520c38b7015"}
{"nom":"Lapleau","nomNormalise":"lapleau","typeCollectivite":"Commune","region":"Nouvelle-Aquitaine","departement":"Corrèze","departementCode":"19","adresse":{"street":"24 avenue l’Épinette","postalCode":"19550","city":"Lapleau","country":"France"},"contacts":{"email":"secretariat@mairiedelapleau-correze.net","telephone":"0555275317"},"horaires":"Le Lundi : de 09h00 à 12h00 de 13h30 à 17h30\nLe Mardi : de 09h00 à 12h00 de 13h30 à 18h30\nLe Mercredi : de 09h00 à 12h00 de 13h30 à 17h00\nLe Jeudi : de 09h00 à 12h00\nLe Vendredi : de 09h00 à 12h00 de 13h30 à 16h00","latitude":45.293575,"longitude":2.16577,"website":"https://mairiedelapleau-correze.net/fr/","hasWebsite":true,"hasHoraires":true,"url":"https://lannuaire.service-public.gouv.fr/nouvelle-aquitaine/correze/ae9d13d8-c400-4c94-83bf-8662e06715ef"}
{"nom":"Larche","nomNormalise":"larche","typeCollectivite":"Commune","region":"Nouvelle-Aquitaine","departement":"Corrèze","departementCode":"19","adresse":{"street":"2 rue du Pont-Barbazan","postalCode":"19600","city":"Larche","country":"France"},"contacts":{"email":"mairie.larche@larche-correze.fr","telephone":"0555853753"},"horaires":"Le Lundi : de 08h00 à 12h00\nDu Mardi au Vendredi : de 08h00 à 12h00 de 13h30 à 17h00","latitude":45.12305,"longitude":1.415127,"website":"https://www.larche-correze.fr/","hasWebsite":true,"hasHoraires":true,"url":"https://lannuaire.service-public.gouv.fr/nouvelle-aquitaine/correze/0a893a57-2cca-45aa-a835-6cc3db020203"}
{"nom":"La Roche-Canillac","nomNormalise":"larochecanillac","typeCollectivite":"Commune","region":"Nouvelle-Aquitaine","departement":"Corrèze","departementCode":"19","adresse":{"street":"3 place de Collonges-la-Rouge","postalCode":"19320","city":"La Roche-Canillac","country":"France"},"contacts":{"email":"mairie@larochecanillac.fr","telephone":"0555291246"},"horaires":"Le Mardi : de 14h00 à 17h00\nLe Mercredi : de 14h00 à 15h00\nLe Jeudi : de 14h00 à 17h00","latitude":45.194332,"longitude":1.973073,"website":"https://larochecanillac.fr/","hasWebsite":true,"hasHoraires":true,"url":"https://lannuaire.service-public.gouv.fr/nouvelle-aquitaine/correze/8f4025bc-a2e5-4d44-827b-5a83630b13a2"}
{"nom":"Laroche-près-Feyt","nomNormalise":"larochepresfeyt","typeCollectivite":"Commune","region":"Nouvelle-Aquitaine","departement":"Corrèze","departementCode":"19","adresse":{"street":"1 rue de la Méouzette","postalCode":"19340","city":"Laroche-près-Feyt","country":"France"},"contacts":{"email":"mairie@larochepresfeyt.fr","telephone":"0555943061"},"horaires":"Le Lundi : de 13h00 à 16h00\nLe Mercredi : de 09h30 à 12h30\n\n(par téléphone et mail uniquement) - fermé\nLe Vendredi : de 09h00 à 12h30","latitude":45.706238,"longitude":2.505411,"website":"","hasWebsite":false,"hasHoraires":true,"url":"https://lannuaire.service-public.gouv.fr/nouvelle-aquitaine/correze/9f0bf2fa-6b2e-4172-a9c3-afee2b00cef9"}
{"nom":"Lascaux","nomNormalise":"lascaux","typeCollectivite":"Commune","region":"Nouvelle-Aquitaine","departement":"Corrèze","departementCode":"19","adresse":{"street":"116 rue de la fontaine","postalCode":"19130","city":"Lascaux","country":"France"},"contacts":{"email":"mairielascaux@orange.fr","telephone":"0555256142"},"horaires":"Le Mardi : de 08h30 à 12h30\nDu Jeudi au Vendredi : de 08h30 à 12h30","latitude":45.339466,"longitude":1.36375,"website":"","hasWebsite":false,"hasHoraires":true,"url":"https://lannuaire.service-public.gouv.fr/nouvelle-aquitaine/correze/a4457d46-f5fa-42db-bd46-697e53a0521e"}
{"nom":"Latronche","nomNormalise":"latronche","typeCollectivite":"Commune","region":"Nouvelle-Aquitaine","departement":"Corrèze","departementCode":"19","adresse":{"street":"2 Le Bourg","postalCode":"19160","city":"Latronche","country":"France"},"contacts":{"email":"communelatronche@wanadoo.fr","telephone":"0555275764"},"horaires":"Le Lundi : de 08h00 à 16h15\nLe Mercredi : de 08h00 à 16h00\nLe Jeudi : de 08h00 à 12h00","latitude":45.299732,"longitude":2.230428,"website":"https://www.latronche19.fr/","hasWebsite":true,"hasHoraires":true,"url":"https://lannuaire.service-public.gouv.fr/nouvelle-aquitaine/correze/7b24e6fd-4d39-4b1a-91a7-e456596a5de4"}
{"nom":"Laval-sur-Luzège","nomNormalise":"lavalsurluzege","typeCollectivite":"Commune","region":"Nouvelle-Aquitaine","departement":"Corrèze","departementCode":"19","adresse":{"street":"Le Poteau-du-Gay","postalCode":"19550","city":"Laval-sur-Luzège","country":"France"},"contacts":{"email":"mairie.lavalsurluzege@orange.fr","telephone":"0555275137"},"horaires":"Le Lundi : de 14h00 à 17h30\nLe Mardi : de 08h30 à 12h00\nLe Jeudi : de 08h30 à 12h00\nLe Vendredi : de 14h00 à 17h30\nLe Samedi : de 09h30 à 11h30\n\nPermanence du Maire le 1er samedi du mois de 9h30 à 11h30","latitude":45.2479,"longitude":2.1611,"website":"http://www.lavalsurluzege.fr/","hasWebsite":true,"hasHoraires":true,"url":"https://lannuaire.service-public.gouv.fr/nouvelle-aquitaine/correze/6708e41b-2e6b-463e-adcf-20619d2a587c"}
{"nom":"Le Chastang","nomNormalise":"lechastang","typeCollectivite":"Commune","region":"Nouvelle-Aquitaine","departement":"Corrèze","departementCode":"19","adresse":{"street":"1 place de la Fontaine","postalCode":"19190","city":"Le Chastang","country":"France"},"contacts":{"email":"mairie.chastang@wanadoo.fr","telephone":"0555272204"},"horaires":"","latitude":45.17262,"longitude":1.734488,"website":"https://lechastang.fr/","hasWebsite":true,"hasHoraires":false,"url":"https://lannuaire.service-public.gouv.fr/nouvelle-aquitaine/correze/b007df43-e23b-4149-ba98-bb67b52a0eda"}
{"nom":"L Église-aux-Bois","nomNormalise":"legliseauxbois","typeCollectivite":"Commune","region":"Nouvelle-Aquitaine","departement":"Corrèze","departementCode":"19","adresse":{"street":"1 Le Bourg","postalCode":"19170","city":"L'Église-aux-Bois","country":"France"},"contacts":{"email":"mairie.legliseauxbois@orange.fr","telephone":"0555955909"},"horaires":"Le Lundi : de 09h00 à 12h00 de 13h00 à 16h00\nLe Jeudi : de 10h00 à 12h30 de 13h30 à 17h00","latitude":45.648277,"longitude":1.802661,"website":"https://www.legliseauxbois.fr/","hasWebsite":true,"hasHoraires":true,"url":"https://lannuaire.service-public.gouv.fr/nouvelle-aquitaine/correze/fb9f56e8-f209-44aa-b51b-ed8c4f1b0e1e"}
{"nom":"Le Lonzac","nomNormalise":"lelonzac","typeCollectivite":"Commune","region":"Nouvelle-Aquitaine","departement":"Corrèze","departementCode":"19","adresse":{"street":"1 avenue de la Libération","postalCode":"19470","city":"Le Lonzac","country":"France"},"contacts":{"email":"mairie.lelonzac@wanadoo.fr","telephone":"0963296860"},"horaires":"Du Lundi au Vendredi : de 08h30 à 12h00 de 14h00 à 17h30","latitude":45.465874,"longitude":1.732177,"website":"https://www.lelonzac.fr/","hasWebsite":true,"hasHoraires":true,"url":"https://lannuaire.service-public.gouv.fr/nouvelle-aquitaine/correze/d40e6c9d-93f7-4366-8c4e-e5f1d188b2c3"}
{"nom":"Le Pescher","nomNormalise":"lepescher","typeCollectivite":"Commune","region":"Nouvelle-Aquitaine","departement":"Corrèze","departementCode":"19","adresse":{"street":"11 route de beaulieu","postalCode":"19190","city":"Le Pescher","country":"France"},"contacts":{"email":"le-pescher.mairie@wanadoo.fr","telephone":"0555254404"},"horaires":"Du Lundi au Samedi : de 09h00 à 12h00","latitude":45.070232,"longitude":1.738228,"website":"https://www.lepescher.fr/","hasWebsite":true,"hasHoraires":true,"url":"https://lannuaire.service-public.gouv.fr/nouvelle-aquitaine/correze/0d624334-6dea-4fee-a4b6-1bbb8e289f6e"}
{"nom":"Les Angles-sur-Corrèze","nomNormalise":"lesanglessurcorreze","typeCollectivite":"Commune","region":"Nouvelle-Aquitaine","departement":"Corrèze","departementCode":"19","adresse":{"street":"1 place de la mairie","postalCode":"19000","city":"Les Angles-sur-Corrèze","country":"France"},"contacts":{"email":"les-angles-sur-correze@mairie19.fr","telephone":"0555266645"},"horaires":"Le Lundi : de 17h15 à 20h00\nLe Jeudi : de 17h15 à 20h00","latitude":45.309982,"longitude":1.797061,"website":"","hasWebsite":false,"hasHoraires":true,"url":"https://lannuaire.service-public.gouv.fr/nouvelle-aquitaine/correze/609c830f-fdd5-45e0-aa53-f4512168901c"}
{"nom":"Lestards","nomNormalise":"lestards","typeCollectivite":"Commune","region":"Nouvelle-Aquitaine","departement":"Corrèze","departementCode":"19","adresse":{"street":"Le Bourg","postalCode":"19170","city":"Lestards","country":"France"},"contacts":{"email":"mairiedelestards@wanadoo.fr","telephone":"0555940161"},"horaires":"","latitude":45.486282,"longitude":1.9070501,"website":"","hasWebsite":false,"hasHoraires":false,"url":"https://lannuaire.service-public.gouv.fr/nouvelle-aquitaine/correze/e011789b-2fec-4b72-801d-c233b292c0a1"}
{"nom":"Les Trois-Saints","nomNormalise":"lestroissaints","typeCollectivite":"Commune","region":"Nouvelle-Aquitaine","departement":"Corrèze","departementCode":"19","adresse":{"street":"Saint-Ybard","postalCode":"19140","city":"Les Trois-Saints","country":"France"},"contacts":{"email":"secretariat.mairie@lestrois-saints.fr","telephone":"0555989930"},"horaires":"Du Lundi au Vendredi : de 08h30 à 12h00 de 13h30 à 17h00\nLe Samedi : de 08h30 à 12h00","latitude":45.447144,"longitude":1.521336,"website":"https://www.saint-ybard.fr/","hasWebsite":true,"hasHoraires":true,"url":"https://lannuaire.service-public.gouv.fr/nouvelle-aquitaine/correze/657ffe2b-9c86-44e5-ae33-ac673223e07a"}
{"nom":"Liginiac","nomNormalise":"liginiac","typeCollectivite":"Commune","region":"Nouvelle-Aquitaine","departement":"Corrèze","departementCode":"19","adresse":{"street":"1 place de l'Église","postalCode":"19160","city":"Liginiac","country":"France"},"contacts":{"email":"contact@liginiac.fr","telephone":"0555959001"},"horaires":"Du Lundi au Vendredi : de 09h00 à 12h00 de 13h30 à 17h00","latitude":45.416164,"longitude":2.331705,"website":"https://www.liginiac.fr/","hasWebsite":true,"hasHoraires":true,"url":"https://lannuaire.service-public.gouv.fr/nouvelle-aquitaine/correze/58ac8f59-12f3-461a-98a3-fdfbbb52d6e1"}
{"nom":"Lignareix","nomNormalise":"lignareix","typeCollectivite":"Commune","region":"Nouvelle-Aquitaine","departement":"Corrèze","departementCode":"19","adresse":{"street":"Le Bourg","postalCode":"19200","city":"Lignareix","country":"France"},"contacts":{"email":"mairie.de.lignareix@wanadoo.fr","telephone":"0555728996"},"horaires":"Le Mardi : de 14h00 à 17h30\nLe Vendredi : de 14h00 à 17h30","latitude":45.611076,"longitude":2.295829,"website":"","hasWebsite":false,"hasHoraires":true,"url":"https://lannuaire.service-public.gouv.fr/nouvelle-aquitaine/correze/c9778657-a283-463d-9b9e-42b47cad0234"}
{"nom":"Ligneyrac","nomNormalise":"ligneyrac","typeCollectivite":"Commune","region":"Nouvelle-Aquitaine","departement":"Corrèze","departementCode":"19","adresse":{"street":"Le Bourg","postalCode":"19500","city":"Ligneyrac","country":"France"},"contacts":{"email":"mairie@ligneyrac.fr","telephone":"0555254739"},"horaires":"Le Mardi : de 09h00 à 13h00 de 14h00 à 18h00\nLe Vendredi : de 14h00 à 19h00","latitude":45.052166,"longitude":1.619875,"website":"https://www.ligneyrac.fr/","hasWebsite":true,"hasHoraires":true,"url":"https://lannuaire.service-public.gouv.fr/nouvelle-aquitaine/correze/707aa487-3bb8-4fcf-bb4b-4003ba027cc4"}
{"nom":"Liourdres","nomNormalise":"liourdres","typeCollectivite":"Commune","region":"Nouvelle-Aquitaine","departement":"Corrèze","departementCode":"19","adresse":{"street":"Les Esplaces","postalCode":"19120","city":"Liourdres","country":"France"},"contacts":{"email":"liourdres@mairie19.fr","telephone":"0555910357"},"horaires":"Le Mardi : de 09h00 à 12h30 de 13h30 à 16h30\nLe Jeudi : de 09h00 à 12h30 de 13h30 à 16h30\nLe Vendredi : de 14h00 à 17h00","latitude":44.985203,"longitude":1.796362,"website":"","hasWebsite":false,"hasHoraires":true,"url":"https://lannuaire.service-public.gouv.fr/nouvelle-aquitaine/correze/05aacaeb-87c7-4247-8f55-02e8123def95"}
{"nom":"Lissac-sur-Couze","nomNormalise":"lissacsurcouze","typeCollectivite":"Commune","region":"Nouvelle-Aquitaine","departement":"Corrèze","departementCode":"19","adresse":{"street":"2 Place Godin de Lepinay","postalCode":"19600","city":"Lissac-sur-Couze","country":"France"},"contacts":{"email":"mairie@lissacsurcouze.fr","telephone":"0555853321"},"horaires":"Le Lundi : de 08h00 à 12h00 de 14h00 à 18h00\nLe Mardi : de 08h00 à 12h00\nLe Mercredi : de 08h00 à 12h00 de 14h00 à 18h00\nLe Jeudi : de 08h00 à 12h00\nLe Vendredi : de 08h00 à 12h00 de 14h00 à 17h00","latitude":44.856113,"longitude":-0.57344,"website":"http://www.lissacsurcouze.fr/","hasWebsite":true,"hasHoraires":true,"url":"https://lannuaire.service-public.gouv.fr/nouvelle-aquitaine/correze/204318d7-37a9-4df8-b90d-d490f4beba1c"}
{"nom":"Lostanges","nomNormalise":"lostanges","typeCollectivite":"Commune","region":"Nouvelle-Aquitaine","departement":"Corrèze","departementCode":"19","adresse":{"street":"Le Jaladis","postalCode":"19500","city":"Lostanges","country":"France"},"contacts":{"email":"mairie.lostanges@orange.fr","telephone":"0555253379"},"horaires":"Du Mardi au Mercredi : de 13h30 à 17h30","latitude":45.067066,"longitude":1.768288,"website":"","hasWebsite":false,"hasHoraires":true,"url":"https://lannuaire.service-public.gouv.fr/nouvelle-aquitaine/correze/ca6ef2e1-e150-40f9-9d29-2975b27c1fca"}
{"nom":"Louignac","nomNormalise":"louignac","typeCollectivite":"Commune","region":"Nouvelle-Aquitaine","departement":"Corrèze","departementCode":"19","adresse":{"street":"Le Bourg","postalCode":"19310","city":"Louignac","country":"France"},"contacts":{"email":"louignac@mairie19.fr","telephone":"0555251121"},"horaires":"","latitude":45.22724,"longitude":1.280077,"website":"http://www.louignac.fr/","hasWebsite":true,"hasHoraires":false,"url":"https://lannuaire.service-public.gouv.fr/nouvelle-aquitaine/correze/37505358-3f4b-4fdf-9f5a-e28777b06e3c"}
{"nom":"Lubersac","nomNormalise":"lubersac","typeCollectivite":"Commune","region":"Nouvelle-Aquitaine","departement":"Corrèze","departementCode":"19","adresse":{"street":"3 rue du Général-Souham","postalCode":"19210","city":"Lubersac","country":"France"},"contacts":{"email":"secretariat@ville-lubersac.fr","telephone":"0555735014"},"horaires":"Du Lundi au Vendredi : de 09h00 à 12h00 de 14h00 à 17h30\nLe Samedi : de 09h00 à 12h00","latitude":45.44414,"longitude":1.402914,"website":"https://www.ville-lubersac.fr/","hasWebsite":true,"hasHoraires":true,"url":"https://lannuaire.service-public.gouv.fr/nouvelle-aquitaine/correze/c6473f9d-0ad4-416f-9ecd-326fb345fa21"}
{"nom":"Madranges","nomNormalise":"madranges","typeCollectivite":"Commune","region":"Nouvelle-Aquitaine","departement":"Corrèze","departementCode":"19","adresse":{"street":"5 route de Tulle","postalCode":"19470","city":"Madranges","country":"France"},"contacts":{"email":"madranges.lesdeuxeglises@wanadoo.fr","telephone":"0555982876"},"horaires":"Le Lundi : de 09h00 à 12h00\nLe Mercredi : de 09h00 à 12h00 de 13h30 à 17h00\nLe Vendredi : de 09h00 à 12h00 de 13h30 à 17h00\nLe Samedi : de 10h00 à 12h00\n\npermanence des élus de 10h00 à 12h00","latitude":45.473133,"longitude":1.791431,"website":"https://www.madranges.fr/","hasWebsite":true,"hasHoraires":true,"url":"https://lannuaire.service-public.gouv.fr/nouvelle-aquitaine/correze/4dad7d32-9753-4bb5-9692-222cfaa789bf"}
{"nom":"Malemort","nomNormalise":"malemort","typeCollectivite":"Commune","region":"Nouvelle-Aquitaine","departement":"Corrèze","departementCode":"19","adresse":{"street":"14-16 avenue Jean-Jaurès","postalCode":"19360","city":"Malemort","country":"France"},"contacts":{"email":"mairie@malemort.org","telephone":"0555921688"},"horaires":"Le Lundi : de 08h00 à 12h00 de 13h30 à 18h30\nDu Mardi au Vendredi : de 08h00 à 12h00 de 13h30 à 17h00","latitude":45.17014,"longitude":1.564002,"website":"https://www.communedemalemort.fr/fr","hasWebsite":true,"hasHoraires":true,"url":"https://lannuaire.service-public.gouv.fr/nouvelle-aquitaine/correze/5280177e-bcbb-4034-92e1-9b84deed0f97"}
{"nom":"Mansac","nomNormalise":"mansac","typeCollectivite":"Commune","region":"Nouvelle-Aquitaine","departement":"Corrèze","departementCode":"19","adresse":{"street":"2 route de la Mairie","postalCode":"19520","city":"Mansac","country":"France"},"contacts":{"email":"mairie@mansac.fr","telephone":"0555852154"},"horaires":"Du Lundi au Mardi : de 08h30 à 12h00 de 13h30 à 18h00\nLe Mercredi : de 09h00 à 12h00\nLe Jeudi : de 08h30 à 12h00\nLe Vendredi : de 08h30 à 12h00 de 13h30 à 18h00","latitude":45.169712,"longitude":1.38111,"website":"https://www.mansac.fr/","hasWebsite":true,"hasHoraires":true,"url":"https://lannuaire.service-public.gouv.fr/nouvelle-aquitaine/correze/b3994d5f-5057-46bc-9dc4-e46bb8e943a5"}
{"nom":"Marcillac-la-Croisille","nomNormalise":"marcillaclacroisille","typeCollectivite":"Commune","region":"Nouvelle-Aquitaine","departement":"Corrèze","departementCode":"19","adresse":{"street":"4 place de la Mairie","postalCode":"19320","city":"Marcillac-la-Croisille","country":"France"},"contacts":{"email":"mairie.marcillaclacroisille@orange.fr","telephone":"0555278205"},"horaires":"Du Lundi au Vendredi : de 08h30 à 12h00 de 14h00 à 17h30","latitude":45.273277,"longitude":2.03182,"website":"http://www.marcillac-la-croisille.fr/","hasWebsite":true,"hasHoraires":true,"url":"https://lannuaire.service-public.gouv.fr/nouvelle-aquitaine/correze/fae7353d-d789-47fc-bebb-73f6302427fb"}
{"nom":"Marcillac-la-Croze","nomNormalise":"marcillaclacroze","typeCollectivite":"Commune","region":"Nouvelle-Aquitaine","departement":"Corrèze","departementCode":"19","adresse":{"street":"60 impasse de la Mairie","postalCode":"19500","city":"Marcillac-la-Croze","country":"France"},"contacts":{"email":"mairie-de-marcillac-la-croze@wanadoo.fr","telephone":"0555254319"},"horaires":"Le Lundi : de 08h30 à 12h00\nDu Mercredi au Jeudi : de 08h30 à 12h00","latitude":45.036354,"longitude":1.738375,"website":"","hasWebsite":false,"hasHoraires":true,"url":"https://lannuaire.service-public.gouv.fr/nouvelle-aquitaine/correze/223cbb36-6c97-4d0e-9f9a-93a2181bf041"}
{"nom":"Mairie déléguée - Marc-la-Tour","nomNormalise":"mairiedelegueemarclatour","typeCollectivite":"Commune","region":"Nouvelle-Aquitaine","departement":"Corrèze","departementCode":"19","adresse":{"street":"Marc-la-Tour","postalCode":"19150","city":"Lagarde-Marc-la-Tour","country":"France"},"contacts":{"email":"mairiemarclatour@wanadoo.fr","telephone":"0555271198"},"horaires":"Le Mardi : de 09h00 à 12h00\nLe Samedi : de 09h00 à 12h00","latitude":45.2043,"longitude":1.84467,"website":"https://www.lagarde-enval.fr/","hasWebsite":true,"hasHoraires":true,"url":"https://lannuaire.service-public.gouv.fr/nouvelle-aquitaine/correze/59db3e85-4b74-4389-bbcd-ca48bb3f2566"}
{"nom":"Margerides","nomNormalise":"margerides","typeCollectivite":"Commune","region":"Nouvelle-Aquitaine","departement":"Corrèze","departementCode":"19","adresse":{"street":"1901 route de Margerides","postalCode":"19200","city":"Margerides","country":"France"},"contacts":{"email":"contact@margerides.fr","telephone":"0555948014"},"horaires":"Le Mardi : de 13h30 à 17h30\nLe Vendredi : de 13h30 à 17h30","latitude":45.456417,"longitude":2.403527,"website":"http://www.margerides.fr/","hasWebsite":true,"hasHoraires":true,"url":"https://lannuaire.service-public.gouv.fr/nouvelle-aquitaine/correze/888664e8-d25a-4524-800b-dfb09aa00a50"}
{"nom":"Masseret","nomNormalise":"masseret","typeCollectivite":"Commune","region":"Nouvelle-Aquitaine","departement":"Corrèze","departementCode":"19","adresse":{"street":"2 rue de l'Ancien-Presbytère","postalCode":"19510","city":"Masseret","country":"France"},"contacts":{"email":"mairie.masseret@wanadoo.fr","telephone":"0555734042"},"horaires":"Le Lundi : de 09h00 à 12h00 de 14h00 à 17h00\nLe Mardi : de 09h00 à 12h00\nLe Mercredi : de 09h00 à 12h00 de 14h00 à 17h00\nLe Jeudi : de 09h00 à 12h00\nLe Vendredi : de 09h00 à 12h00 de 14h00 à 17h00\nLe Samedi : de 09h00 à 12h00","latitude":45.53984,"longitude":1.520355,"website":"https://www.masseret.fr/","hasWebsite":true,"hasHoraires":true,"url":"https://lannuaire.service-public.gouv.fr/nouvelle-aquitaine/correze/cacdf204-6a1c-4540-b1d6-2cc9c1af6dbb"}
{"nom":"Maussac","nomNormalise":"maussac","typeCollectivite":"Commune","region":"Nouvelle-Aquitaine","departement":"Corrèze","departementCode":"19","adresse":{"street":"10 avenue de la Mairie","postalCode":"19250","city":"Maussac","country":"France"},"contacts":{"email":"mairie@maussac.fr","telephone":"0555942187"},"horaires":"Le Lundi : de 09h00 à 12h00 de 12h45 à 17h45\nLe Mardi : de 12h45 à 17h45\nLe Jeudi : de 12h45 à 17h45\nLe Vendredi : de 12h45 à 17h00","latitude":45.47061,"longitude":2.140715,"website":"https://mairiemaussac.wixsite.com/accueil","hasWebsite":true,"hasHoraires":true,"url":"https://lannuaire.service-public.gouv.fr/nouvelle-aquitaine/correze/ccae7323-7410-4d72-a986-b19e05b66b3d"}
{"nom":"Meilhards","nomNormalise":"meilhards","typeCollectivite":"Commune","region":"Nouvelle-Aquitaine","departement":"Corrèze","departementCode":"19","adresse":{"street":"9 rue du Château","postalCode":"19510","city":"Meilhards","country":"France"},"contacts":{"email":"mairie.meilhards@orange.fr","telephone":"0555983434"},"horaires":"Du Lundi au Vendredi : de 09h00 à 12h00 de 14h00 à 17h00","latitude":45.560295,"longitude":1.649861,"website":"https://www.meilhards.fr/","hasWebsite":true,"hasHoraires":true,"url":"https://lannuaire.service-public.gouv.fr/nouvelle-aquitaine/correze/7e50b0fb-1711-492b-85ac-dddf65ce3a2d"}
{"nom":"Ménoire","nomNormalise":"menoire","typeCollectivite":"Commune","region":"Nouvelle-Aquitaine","departement":"Corrèze","departementCode":"19","adresse":{"street":"1 espace-Simone-Veil","postalCode":"19190","city":"Ménoire","country":"France"},"contacts":{"email":"mairie.menoire@wanadoo.fr","telephone":"0555855665"},"horaires":"Le Mardi : de 13h00 à 18h00\nLe Jeudi : de 13h00 à 18h00","latitude":45.10554,"longitude":1.790869,"website":"https://www.menoire.fr/","hasWebsite":true,"hasHoraires":true,"url":"https://lannuaire.service-public.gouv.fr/nouvelle-aquitaine/correze/906a270a-68b8-452b-9254-3e590a2bc28e"}
{"nom":"Mercoeur","nomNormalise":"mercoeur","typeCollectivite":"Commune","region":"Nouvelle-Aquitaine","departement":"Corrèze","departementCode":"19","adresse":{"street":"4 le Bourg","postalCode":"19430","city":"Mercoeur","country":"France"},"contacts":{"email":"mairiemercoeur@wanadoo.fr","telephone":"0555285178"},"horaires":"Le Lundi : de 14h00 à 16h30\nLe Mardi : de 09h00 à 12h00\nLe Jeudi : de 14h00 à 16h30\nLe Vendredi : de 09h00 à 12h00\nLe Samedi : de 09h00 à 10h00\n\nAccueil fermé le samedi en juillet-août.","latitude":45.0149,"longitude":1.94711,"website":"","hasWebsite":false,"hasHoraires":true,"url":"https://lannuaire.service-public.gouv.fr/nouvelle-aquitaine/correze/68e0a6f2-91b3-406d-b407-3a08fe6e7f27"}
{"nom":"Merlines","nomNormalise":"merlines","typeCollectivite":"Commune","region":"Nouvelle-Aquitaine","departement":"Corrèze","departementCode":"19","adresse":{"street":"1 place de la République","postalCode":"19340","city":"Merlines","country":"France"},"contacts":{"email":"mairie804@orange.fr","telephone":"0555943220"},"horaires":"Du Lundi au Vendredi : de 08h30 à 12h00 de 13h30 à 17h00","latitude":45.646984,"longitude":2.459939,"website":"http://merlines.fr/","hasWebsite":true,"hasHoraires":true,"url":"https://lannuaire.service-public.gouv.fr/nouvelle-aquitaine/correze/94bb363b-cefc-4ef9-b679-a456e30f5216"}
{"nom":"Mestes","nomNormalise":"mestes","typeCollectivite":"Commune","region":"Nouvelle-Aquitaine","departement":"Corrèze","departementCode":"19","adresse":{"street":"19 Grande rue de La Serre","postalCode":"19200","city":"Mestes","country":"France"},"contacts":{"email":"mairie.mestes@gmail.com","telephone":"0555721092"},"horaires":"Du Lundi au Mercredi : de 08h30 à 12h00\nLe Jeudi : de 08h30 à 12h00 de 14h00 à 18h00","latitude":45.49249,"longitude":2.310201,"website":"https://www.mestes-correze.fr/","hasWebsite":true,"hasHoraires":true,"url":"https://lannuaire.service-public.gouv.fr/nouvelle-aquitaine/correze/f7a996b6-a039-405f-b302-04c34b263c97"}
{"nom":"Meymac","nomNormalise":"meymac","typeCollectivite":"Commune","region":"Nouvelle-Aquitaine","departement":"Corrèze","departementCode":"19","adresse":{"street":"20 place de l'Hôtel-de-Ville","postalCode":"19250","city":"Meymac","country":"France"},"contacts":{"email":"mairie@meymac.fr","telephone":"0555461990"},"horaires":"Du Lundi au Vendredi : de 08h30 à 12h00 de 13h00 à 17h00\nLe Samedi : de 09h00 à 12h00","latitude":45.5367,"longitude":2.146351,"website":"https://www.meymac.fr/","hasWebsite":true,"hasHoraires":true,"url":"https://lannuaire.service-public.gouv.fr/nouvelle-aquitaine/correze/95f5a862-5598-4528-997a-23fff7aa2a6b"}
{"nom":"Meyrignac-l'Église","nomNormalise":"meyrignacleglise","typeCollectivite":"Commune","region":"Nouvelle-Aquitaine","departement":"Corrèze","departementCode":"19","adresse":{"street":"Le Bourg","postalCode":"19800","city":"Meyrignac-l'Église","country":"France"},"contacts":{"email":"maire.meyrignacleglise@wanadoo.fr","telephone":"0555214244"},"horaires":"Le Mercredi : de 13h30 à 17h00","latitude":45.400185,"longitude":1.8531,"website":"","hasWebsite":false,"hasHoraires":true,"url":"https://lannuaire.service-public.gouv.fr/nouvelle-aquitaine/correze/b5cbcdd1-8fe5-47ab-be96-7e7ec4f56aa1"}
{"nom":"Meyssac","nomNormalise":"meyssac","typeCollectivite":"Commune","region":"Nouvelle-Aquitaine","departement":"Corrèze","departementCode":"19","adresse":{"street":"9 place de l'Église","postalCode":"19500","city":"Meyssac","country":"France"},"contacts":{"email":"mairie@meyssac.fr","telephone":"0555254020"},"horaires":"Du Mardi au Vendredi : de 08h30 à 12h00 de 13h30 à 16h30\nLe Samedi : de 09h00 à 12h00","latitude":45.05577,"longitude":1.674232,"website":"https://www.meyssac.fr/","hasWebsite":true,"hasHoraires":true,"url":"https://lannuaire.service-public.gouv.fr/nouvelle-aquitaine/correze/6be6d1ec-358e-4918-8ac7-e648147b8609"}
{"nom":"Millevaches","nomNormalise":"millevaches","typeCollectivite":"Commune","region":"Nouvelle-Aquitaine","departement":"Corrèze","departementCode":"19","adresse":{"street":"14 Route d'Aubusson","postalCode":"19290","city":"Millevaches","country":"France"},"contacts":{"email":"mairie.millevaches@orange.fr","telephone":"0555956242"},"horaires":"Le Lundi : de 08h30 à 17h30\nLe Mercredi : de 08h30 à 12h30","latitude":45.64116,"longitude":2.094409,"website":"","hasWebsite":false,"hasHoraires":true,"url":"https://lannuaire.service-public.gouv.fr/nouvelle-aquitaine/correze/779c2620-0367-4bd5-b5e2-d52102ba95d8"}
{"nom":"Monceaux-sur-Dordogne","nomNormalise":"monceauxsurdordogne","typeCollectivite":"Commune","region":"Nouvelle-Aquitaine","departement":"Corrèze","departementCode":"19","adresse":{"street":"34 rue du Vieux Bourg","postalCode":"19400","city":"Monceaux-sur-Dordogne","country":"France"},"contacts":{"email":"mairie@monceaux-sur-dordogne.fr","telephone":"0555280695"},"horaires":"Du Lundi au Vendredi : de 08h15 à 12h00 de 13h30 à 17h30\nLe Samedi : de 08h00 à 12h00","latitude":45.08197,"longitude":1.908792,"website":"http://www.monceaux.correze.net/","hasWebsite":true,"hasHoraires":true,"url":"https://lannuaire.service-public.gouv.fr/nouvelle-aquitaine/correze/11c38a29-b629-4a55-b7de-8e19e369c246"}
{"nom":"Monestier-Merlines","nomNormalise":"monestiermerlines","typeCollectivite":"Commune","region":"Nouvelle-Aquitaine","departement":"Corrèze","departementCode":"19","adresse":{"street":"1 Veyrières","postalCode":"19340","city":"Monestier-Merlines","country":"France"},"contacts":{"email":"mairie@monestiermerlines.fr","telephone":"0555943361"},"horaires":"Le Mardi : de 09h00 à 12h30 de 13h00 à 17h00\nLe Jeudi : de 09h00 à 12h30 de 13h00 à 17h00","latitude":45.659714,"longitude":2.498383,"website":"https://www.monestier-merlines.fr/","hasWebsite":true,"hasHoraires":true,"url":"https://lannuaire.service-public.gouv.fr/nouvelle-aquitaine/correze/6c70e29f-89c5-4192-abc8-2f16f5feaccf"}
{"nom":"Monestier-Port-Dieu","nomNormalise":"monestierportdieu","typeCollectivite":"Commune","region":"Nouvelle-Aquitaine","departement":"Corrèze","departementCode":"19","adresse":{"street":"Le Bourg","postalCode":"19110","city":"Monestier-Port-Dieu","country":"France"},"contacts":{"email":"mairie.monestierportdieu@gmail.com","telephone":"0555943247"},"horaires":"Le Lundi : de 09h00 à 12h00 de 14h00 à 17h00\nLe Mardi : de 09h00 à 12h00\nLe Jeudi : de 14h00 à 17h00\nLe Vendredi : de 09h00 à 12h00","latitude":45.491833,"longitude":2.502702,"website":"https://www.monestier-port-dieu.fr/","hasWebsite":true,"hasHoraires":true,"url":"https://lannuaire.service-public.gouv.fr/nouvelle-aquitaine/correze/32b1a96b-5993-4fd4-9bfb-b5208526537f"}
{"nom":"Montaignac-sur-Doustre","nomNormalise":"montaignacsurdoustre","typeCollectivite":"Commune","region":"Nouvelle-Aquitaine","departement":"Corrèze","departementCode":"19","adresse":{"street":"8 rue des Écoles","postalCode":"19300","city":"Montaignac-sur-Doustre","country":"France"},"contacts":{"email":"mairie@montaignac-sur-doustre.fr","telephone":"0555276142"},"horaires":"Le Lundi : de 14h00 à 17h00\nLe Mardi : de 09h00 à 12h00 de 14h00 à 17h00\nLe Mercredi : de 09h00 à 12h00\nLe Jeudi : de 09h00 à 12h00 de 14h00 à 17h00\nLe Vendredi : de 09h00 à 12h00 de 14h00 à 16h00\nLe Samedi : de 09h00 à 12h00","latitude":45.352467,"longitude":1.977924,"website":"https://www.montaignac-sur-doustre.fr/","hasWebsite":true,"hasHoraires":true,"url":"https://lannuaire.service-public.gouv.fr/nouvelle-aquitaine/correze/2bafd5cb-af91-40de-a25f-fc43a737c227"}
{"nom":"Montgibaud","nomNormalise":"montgibaud","typeCollectivite":"Commune","region":"Nouvelle-Aquitaine","departement":"Corrèze","departementCode":"19","adresse":{"street":"15 place des Tilleuls","postalCode":"19210","city":"Montgibaud","country":"France"},"contacts":{"email":"commune-de-montgibaud@orange.fr","telephone":"0555734302"},"horaires":"Du Lundi au Mardi : de 08h30 à 12h30 de 13h30 à 16h30\nDu Jeudi au Vendredi : de 08h30 à 12h30 de 13h30 à 16h30","latitude":45.518223,"longitude":1.423131,"website":"https://montgibaud.com/","hasWebsite":true,"hasHoraires":true,"url":"https://lannuaire.service-public.gouv.fr/nouvelle-aquitaine/correze/601722c2-33c7-40dc-8e45-7eaa811d6b1d"}
{"nom":"Moustier-Ventadour","nomNormalise":"moustierventadour","typeCollectivite":"Commune","region":"Nouvelle-Aquitaine","departement":"Corrèze","departementCode":"19","adresse":{"street":"Le Bourg","postalCode":"19300","city":"Moustier-Ventadour","country":"France"},"contacts":{"email":"mairie.moustier.ventadour@wanadoo.fr","telephone":"0555930876"},"horaires":"Le Lundi : de 08h00 à 12h00 de 13h30 à 17h30\nLe Mardi : de 13h30 à 17h30\nLe Jeudi : de 08h00 à 12h00 de 13h30 à 18h30\nLe Vendredi : de 08h00 à 12h00 de 13h30 à 17h30","latitude":45.396027,"longitude":2.104495,"website":"https://moustier-ventadour.blog4ever.com/","hasWebsite":true,"hasHoraires":true,"url":"https://lannuaire.service-public.gouv.fr/nouvelle-aquitaine/correze/b56769bd-8f83-46b6-a1ef-2c3c73d3e679"}
{"nom":"Naves","nomNormalise":"naves","typeCollectivite":"Commune","region":"Nouvelle-Aquitaine","departement":"Corrèze","departementCode":"19","adresse":{"street":"1 rue de l'Hôtel-de-Ville","postalCode":"19460","city":"Naves","country":"France"},"contacts":{"email":"mairiedenaves@gmail.com","telephone":"0555266016"},"horaires":"Le Lundi : de 08h30 à 12h00 de 13h30 à 17h00\nLe Mardi : de 08h30 à 12h00\nDu Mercredi au Vendredi : de 08h30 à 12h00 de 13h30 à 17h00\nLe Samedi : de 09h00 à 12h00","latitude":45.312733,"longitude":1.767693,"website":"https://www.naves19.fr/","hasWebsite":true,"hasHoraires":true,"url":"https://lannuaire.service-public.gouv.fr/nouvelle-aquitaine/correze/0d0a4b02-a891-4fe0-8c1f-d22bb0072458"}
{"nom":"Nespouls","nomNormalise":"nespouls","typeCollectivite":"Commune","region":"Nouvelle-Aquitaine","departement":"Corrèze","departementCode":"19","adresse":{"street":"14 place de la Croix Blanche","postalCode":"19600","city":"Nespouls","country":"France"},"contacts":{"email":"mairie@nespouls.fr","telephone":"0555858222"},"horaires":"Le Lundi : de 09h00 à 12h30 de 14h00 à 17h00\nDu Mardi au Jeudi : de 09h00 à 12h30\nLe Vendredi : de 09h00 à 12h30 de 14h00 à 17h00","latitude":45.05191,"longitude":1.496775,"website":"https://www.nespouls.fr/","hasWebsite":true,"hasHoraires":true,"url":"https://lannuaire.service-public.gouv.fr/nouvelle-aquitaine/correze/fca0eb6b-62fb-4fab-aac3-866e2a6a6d6d"}
{"nom":"Neuvic","nomNormalise":"neuvic","typeCollectivite":"Commune","region":"Nouvelle-Aquitaine","departement":"Corrèze","departementCode":"19","adresse":{"street":"Place de la Mairie","postalCode":"19160","city":"Neuvic","country":"France"},"contacts":{"email":"mairie@neuvic19.fr","telephone":"0555958016"},"horaires":"Du Lundi au Vendredi : de 08h30 à 12h00 de 13h30 à 17h00","latitude":45.3828,"longitude":2.27278,"website":"https://www.neuvic-correze.net/","hasWebsite":true,"hasHoraires":true,"url":"https://lannuaire.service-public.gouv.fr/nouvelle-aquitaine/correze/99d87e4f-b62b-43c6-ba9a-0eea20e5ce33"}
{"nom":"Neuville","nomNormalise":"neuville","typeCollectivite":"Commune","region":"Nouvelle-Aquitaine","departement":"Corrèze","departementCode":"19","adresse":{"street":"43 route de la mairie","postalCode":"19380","city":"Neuville","country":"France"},"contacts":{"email":"mairie-neuville@wanadoo.fr","telephone":"0555280988"},"horaires":"Le Lundi : de 09h15 à 12h15 de 14h15 à 17h00\nLe Mercredi : de 12h45 à 15h45\nLe Vendredi : de 09h15 à 12h15","latitude":45.111267,"longitude":1.829803,"website":"https://www.neuville19.fr/","hasWebsite":true,"hasHoraires":true,"url":"https://lannuaire.service-public.gouv.fr/nouvelle-aquitaine/correze/604f5809-2f80-4f8c-8575-159919b89e6c"}
{"nom":"Noailhac","nomNormalise":"noailhac","typeCollectivite":"Commune","region":"Nouvelle-Aquitaine","departement":"Corrèze","departementCode":"19","adresse":{"street":"7 rue des Écoles","postalCode":"19500","city":"Noailhac","country":"France"},"contacts":{"email":"mairie@noailhac19.fr","telephone":"0555254209"},"horaires":"Le Lundi : de 08h30 à 12h30 de 13h30 à 18h00\n\nMme le Maire tient une permanence le lundi de 10h00 à 12h00 ou sur rendez-vous en dehors de ces horaires.\nLe Mercredi : de 08h30 à 11h30\nLe Vendredi : de 09h00 à 12h00\nMme le Maire tient une permanence le lundi de 10h00 à 12h00 ou sur rendez-vous en dehors de ces horaires.","latitude":45.560295,"longitude":1.649861,"website":"https://www.noailhac19.fr/","hasWebsite":true,"hasHoraires":true,"url":"https://lannuaire.service-public.gouv.fr/nouvelle-aquitaine/correze/95bdbd80-4d56-4f53-af7b-0479ef76c001"}
{"nom":"Noailles","nomNormalise":"noailles","typeCollectivite":"Commune","region":"Nouvelle-Aquitaine","departement":"Corrèze","departementCode":"19","adresse":{"street":"5 place de la Mairie","postalCode":"19600","city":"Noailles","country":"France"},"contacts":{"email":"noailles.correze@orange.fr","telephone":"0555858088"},"horaires":"Le Lundi : de 08h00 à 12h00 de 13h30 à 17h00\nLe Mardi : de 08h00 à 12h00 de 13h00 à 18h00\nLe Mercredi : de 13h30 à 16h30\nLe Jeudi : de 08h00 à 12h00 de 13h30 à 18h00\nLe Vendredi : de 08h00 à 12h00 de 13h00 à 17h00","latitude":45.101753,"longitude":1.523595,"website":"https://www.intramuros.org/noailles","hasWebsite":true,"hasHoraires":true,"url":"https://lannuaire.service-public.gouv.fr/nouvelle-aquitaine/correze/9fa75f74-0ba2-49e4-bc51-f8d6ebbedeee"}
{"nom":"Nonards","nomNormalise":"nonards","typeCollectivite":"Commune","region":"Nouvelle-Aquitaine","departement":"Corrèze","departementCode":"19","adresse":{"street":"Laroche","postalCode":"19120","city":"Nonards","country":"France"},"contacts":{"email":"nonards@mairie19.fr","telephone":"0555915008"},"horaires":"Du Lundi au Mardi : de 09h00 à 12h00 de 14h00 à 17h00\nLe Mercredi : de 09h00 à 12h00\nLe Jeudi : de 09h00 à 12h00 de 14h00 à 17h00\nLe Vendredi : de 09h00 à 12h00 de 16h00 à 19h00","latitude":45.021557,"longitude":1.807542,"website":"https://www.mairie-de-nonards.fr/","hasWebsite":true,"hasHoraires":true,"url":"https://lannuaire.service-public.gouv.fr/nouvelle-aquitaine/correze/a3fc70f5-2fed-4b33-9537-0bcdd0f9a2a5"}
{"nom":"Objat","nomNormalise":"objat","typeCollectivite":"Commune","region":"Nouvelle-Aquitaine","departement":"Corrèze","departementCode":"19","adresse":{"street":"Place Charles-de-Gaulle","postalCode":"19130","city":"Objat","country":"France"},"contacts":{"email":"mairie@objat.fr","telephone":"0555258163"},"horaires":"Le Lundi : de 08h30 à 12h00 de 13h30 à 17h00\nLe Mardi : de 08h30 à 12h00 de 13h30 à 18h15\nLe Mercredi : de 08h30 à 12h00 de 13h30 à 17h00\nLe Jeudi : de 08h30 à 12h00 de 13h30 à 18h15\nLe Vendredi : de 08h30 à 12h00 de 13h30 à 17h00","latitude":45.2638,"longitude":1.40928,"website":"https://www.objat.fr/","hasWebsite":true,"hasHoraires":true,"url":"https://lannuaire.service-public.gouv.fr/nouvelle-aquitaine/correze/8a0fa031-acd4-400c-8102-110ccfab1d93"}
{"nom":"Orgnac-sur-Vézère","nomNormalise":"orgnacsurvezere","typeCollectivite":"Commune","region":"Nouvelle-Aquitaine","departement":"Corrèze","departementCode":"19","adresse":{"street":"Le Roulet","postalCode":"19410","city":"Orgnac-sur-Vézère","country":"France"},"contacts":{"email":"mairie@orgnac.fr","telephone":"0555989401"},"horaires":"Du Lundi au Mercredi : de 08h00 à 12h30\nLe Jeudi : de 08h00 à 12h30 de 13h30 à 17h00\nLe Vendredi : de 08h00 à 12h30","latitude":45.335304,"longitude":1.45092,"website":"http://www.orgnac.fr/","hasWebsite":true,"hasHoraires":true,"url":"https://lannuaire.service-public.gouv.fr/nouvelle-aquitaine/correze/80c8b05a-8494-414d-bd3a-a017900d7cd7"}
{"nom":"Orliac-de-Bar","nomNormalise":"orliacdebar","typeCollectivite":"Commune","region":"Nouvelle-Aquitaine","departement":"Corrèze","departementCode":"19","adresse":{"street":"957 route d'Orliac","postalCode":"19390","city":"Orliac-de-Bar","country":"France"},"contacts":{"email":"mairie@orliacdebar.fr","telephone":"0555213237"},"horaires":"Le Lundi : de 09h00 à 12h00\nLe Mardi : de 09h00 à 12h00 de 14h30 à 16h30\nLe Jeudi : de 09h00 à 12h00\nLe Vendredi : de 09h00 à 12h00 de 14h30 à 16h30\nLe Samedi : de 10h00 à 12h00\n\nUniquement l'agence postale","latitude":45.360237,"longitude":1.801329,"website":"https://www.orliac-de-bar.fr/","hasWebsite":true,"hasHoraires":true,"url":"https://lannuaire.service-public.gouv.fr/nouvelle-aquitaine/correze/e644c333-a50b-4d87-aef9-fe8ee0623c4a"}
{"nom":"Palazinges","nomNormalise":"palazinges","typeCollectivite":"Commune","region":"Nouvelle-Aquitaine","departement":"Corrèze","departementCode":"19","adresse":{"street":"46 route de la mairie","postalCode":"19190","city":"Palazinges","country":"France"},"contacts":{"email":"mairie@palazinges.fr","telephone":"0555846062"},"horaires":"Le Mardi : de 09h30 à 12h00 de 13h30 à 18h00\nLe Vendredi : de 09h30 à 12h00 de 13h30 à 18h00","latitude":45.158794,"longitude":1.694271,"website":"https://palazinges.fr/","hasWebsite":true,"hasHoraires":true,"url":"https://lannuaire.service-public.gouv.fr/nouvelle-aquitaine/correze/93d1a8b5-b309-47ae-89e5-bf58a9aa5644"}
{"nom":"Palisse","nomNormalise":"palisse","typeCollectivite":"Commune","region":"Nouvelle-Aquitaine","departement":"Corrèze","departementCode":"19","adresse":{"street":"Le Bourg","postalCode":"19160","city":"Palisse","country":"France"},"contacts":{"email":"mairie-palisse19@wanadoo.fr","telephone":"0555959715"},"horaires":"Du Lundi au Jeudi : de 08h30 à 12h30 de 13h30 à 17h30","latitude":45.41868,"longitude":2.206489,"website":"","hasWebsite":false,"hasHoraires":true,"url":"https://lannuaire.service-public.gouv.fr/nouvelle-aquitaine/correze/b2223a7c-4b22-4292-88dd-cb299c404111"}
{"nom":"Pandrignes","nomNormalise":"pandrignes","typeCollectivite":"Commune","region":"Nouvelle-Aquitaine","departement":"Corrèze","departementCode":"19","adresse":{"street":"Le Bourg","postalCode":"19150","city":"Pandrignes","country":"France"},"contacts":{"email":"pandrignes@wanadoo.fr","telephone":"0555262917"},"horaires":"Le Mardi : de 10h00 à 12h00\nLe Jeudi : de 15h00 à 18h00\nLe Vendredi : de 10h00 à 12h00\nLe Samedi : de 11h30 à 13h00","latitude":45.228745,"longitude":1.855062,"website":"","hasWebsite":false,"hasHoraires":true,"url":"https://lannuaire.service-public.gouv.fr/nouvelle-aquitaine/correze/ec76fa8e-79cd-484c-9a25-3a4077c65de2"}
{"nom":"Péret-Bel-Air","nomNormalise":"peretbelair","typeCollectivite":"Commune","region":"Nouvelle-Aquitaine","departement":"Corrèze","departementCode":"19","adresse":{"street":"3 rue du Moulin de Pére","postalCode":"19300","city":"Péret-Bel-Air","country":"France"},"contacts":{"email":"peret-bel-air@mairie19.fr","telephone":"0555933883"},"horaires":"Le Mardi : de 10h00 à 12h00\nDu Jeudi au Vendredi : de 10h00 à 12h00","latitude":45.476685,"longitude":2.038812,"website":"https://www.peret-bel-air.com/","hasWebsite":true,"hasHoraires":true,"url":"https://lannuaire.service-public.gouv.fr/nouvelle-aquitaine/correze/ae3544bf-47ea-4b88-9cfa-09866952d419"}
{"nom":"Pérols-sur-Vézère","nomNormalise":"perolssurvezere","typeCollectivite":"Commune","region":"Nouvelle-Aquitaine","departement":"Corrèze","departementCode":"19","adresse":{"street":"20 route de Meymac","postalCode":"19170","city":"Pérols-sur-Vézère","country":"France"},"contacts":{"email":"perols-sur-vezere@mairie19.fr","telephone":"0555955733"},"horaires":"Le Lundi : de 08h30 à 12h00\nDu Mardi au Mercredi : de 13h30 à 18h00\nLe Jeudi : de 08h30 à 12h00 de 13h30 à 17h30","latitude":45.586742,"longitude":1.979401,"website":"https://www.perols-sur-vezere.fr/","hasWebsite":true,"hasHoraires":true,"url":"https://lannuaire.service-public.gouv.fr/nouvelle-aquitaine/correze/ec9b5843-1257-4b9d-8d2c-559f06cd9d85"}
{"nom":"Perpezac-le-Blanc","nomNormalise":"perpezacleblanc","typeCollectivite":"Commune","region":"Nouvelle-Aquitaine","departement":"Corrèze","departementCode":"19","adresse":{"street":"12 place de la Mairie","postalCode":"19310","city":"Perpezac-le-Blanc","country":"France"},"contacts":{"email":"mairie.perpezac@orange.fr","telephone":"0555251142"},"horaires":"Du Lundi au Vendredi : de 09h00 à 12h30 de 13h30 à 17h00\nLe Samedi : de 10h00 à 12h00\n\nPermanence des élus le 1er samedi de chaque mois.","latitude":45.22215,"longitude":1.331233,"website":"https://perpezac-le-blanc.com/","hasWebsite":true,"hasHoraires":true,"url":"https://lannuaire.service-public.gouv.fr/nouvelle-aquitaine/correze/a3aa8a2e-7867-49ab-9fc6-74a062bd4c1f"}
{"nom":"Perpezac-le-Noir","nomNormalise":"perpezaclenoir","typeCollectivite":"Commune","region":"Nouvelle-Aquitaine","departement":"Corrèze","departementCode":"19","adresse":{"street":"51 rue Principale","postalCode":"19410","city":"Perpezac-le-Noir","country":"France"},"contacts":{"email":"mairie.pln@orange.fr","telephone":"0555737008"},"horaires":"Le Lundi : de 09h00 à 12h00 de 14h00 à 17h00\nLe Mardi : de 14h00 à 17h00\nLe Mercredi : de 09h00 à 12h00 de 14h00 à 17h00\nLe Vendredi : de 09h00 à 12h00 de 14h00 à 17h00\nLe Samedi : de 09h00 à 12h00","latitude":45.32627,"longitude":1.552518,"website":"https://www.perpezaclenoir.fr/","hasWebsite":true,"hasHoraires":true,"url":"https://lannuaire.service-public.gouv.fr/nouvelle-aquitaine/correze/f4d37d6d-9aac-4b81-9af9-cf81f3ec20e2"}
{"nom":"Peyrelevade","nomNormalise":"peyrelevade","typeCollectivite":"Commune","region":"Nouvelle-Aquitaine","departement":"Corrèze","departementCode":"19","adresse":{"street":"55 rue du Limousin","postalCode":"19290","city":"Peyrelevade","country":"France"},"contacts":{"email":"mairie@peyrelevade.fr","telephone":"0555947313"},"horaires":"Du Lundi au Jeudi : de 08h30 à 12h30 de 13h30 à 17h30\nLe Vendredi : de 08h30 à 12h30","latitude":45.70569,"longitude":2.049952,"website":"https://www.peyrelevade.fr/","hasWebsite":true,"hasHoraires":true,"url":"https://lannuaire.service-public.gouv.fr/nouvelle-aquitaine/correze/42254de3-c58f-4158-ac2d-f84ba77f8253"}
{"nom":"Peyrissac","nomNormalise":"peyrissac","typeCollectivite":"Commune","region":"Nouvelle-Aquitaine","departement":"Corrèze","departementCode":"19","adresse":{"street":"6 route de Treignac","postalCode":"19260","city":"Peyrissac","country":"France"},"contacts":{"email":"mairiedepeyrissac@orange.fr","telephone":"0555982667"},"horaires":"Le Lundi : de 09h00 à 12h30 de 13h00 à 16h30\nLe Vendredi : de 09h00 à 12h30 de 13h00 à 16h30","latitude":45.50271,"longitude":1.700313,"website":"","hasWebsite":false,"hasHoraires":true,"url":"https://lannuaire.service-public.gouv.fr/nouvelle-aquitaine/correze/87b5069e-88f5-46f3-92da-c9e958e27ee9"}
{"nom":"Pierrefitte","nomNormalise":"pierrefitte","typeCollectivite":"Commune","region":"Nouvelle-Aquitaine","departement":"Corrèze","departementCode":"19","adresse":{"street":"Le Bourg","postalCode":"19450","city":"Pierrefitte","country":"France"},"contacts":{"email":"mairie.pierrefitte@wanadoo.fr","telephone":"0555216682"},"horaires":"Le Mardi : de 08h30 à 12h30 de 13h30 à 17h30\nLe Jeudi : de 08h30 à 12h30","latitude":45.42278,"longitude":1.649089,"website":"","hasWebsite":false,"hasHoraires":true,"url":"https://lannuaire.service-public.gouv.fr/nouvelle-aquitaine/correze/9afa3f21-8390-4508-a230-13ab4f56af1c"}
{"nom":"Pradines","nomNormalise":"pradines","typeCollectivite":"Commune","region":"Nouvelle-Aquitaine","departement":"Corrèze","departementCode":"19","adresse":{"street":"Le Bourg","postalCode":"19170","city":"Pradines","country":"France"},"contacts":{"email":"mairiepradines19@orange.fr","telephone":"0555940106"},"horaires":"Du Lundi au Mardi : de 13h00 à 17h00\nDu Jeudi au Vendredi : de 13h00 à 17h00","latitude":45.544724,"longitude":1.910247,"website":"","hasWebsite":false,"hasHoraires":true,"url":"https://lannuaire.service-public.gouv.fr/nouvelle-aquitaine/correze/ccfdeaee-6a3d-4dd7-825e-f281ff59f7bb"}
{"nom":"Puy-d Arnac","nomNormalise":"puydarnac","typeCollectivite":"Commune","region":"Nouvelle-Aquitaine","departement":"Corrèze","departementCode":"19","adresse":{"street":"31 rue Jacques-Favarel","postalCode":"19120","city":"Puy-d'Arnac","country":"France"},"contacts":{"email":"mairie@puy-darnac.fr","telephone":"0555915031"},"horaires":"Le Lundi : de 09h00 à 12h30 de 14h00 à 17h30\nLe Jeudi : de 09h00 à 12h30 de 14h00 à 17h00","latitude":45.02946,"longitude":1.783408,"website":"https://www.puy-darnac.fr/","hasWebsite":true,"hasHoraires":true,"url":"https://lannuaire.service-public.gouv.fr/nouvelle-aquitaine/correze/6fa5072a-3e2c-4dbd-aa8a-51bab65f0125"}
{"nom":"Queyssac-les-Vignes","nomNormalise":"queyssaclesvignes","typeCollectivite":"Commune","region":"Nouvelle-Aquitaine","departement":"Corrèze","departementCode":"19","adresse":{"street":"Le Bourg","postalCode":"19120","city":"Queyssac-les-Vignes","country":"France"},"contacts":{"email":"mairie.queyssaclesvignes@orange.fr","telephone":"0555911134"},"horaires":"Le Lundi : de 13h30 à 17h30\nLe Jeudi : de 10h00 à 12h30","latitude":44.966,"longitude":1.76892,"website":"https://www.queyssac-les-vignes.fr/","hasWebsite":true,"hasHoraires":true,"url":"https://lannuaire.service-public.gouv.fr/nouvelle-aquitaine/correze/c1a83db7-6853-4a60-a5cb-68dfb30d6dec"}
{"nom":"Reygade","nomNormalise":"reygade","typeCollectivite":"Commune","region":"Nouvelle-Aquitaine","departement":"Corrèze","departementCode":"19","adresse":{"street":"17 route de Reygades","postalCode":"19430","city":"Reygade","country":"France"},"contacts":{"email":"mairie.reygades@wanadoo.fr","telephone":"0555285019"},"horaires":"Le Mardi : de 09h00 à 12h00 de 14h00 à 17h00\nLe Jeudi : de 09h00 à 12h00 de 14h00 à 17h00","latitude":45.01453,"longitude":1.909391,"website":"https://www.reygades.fr/","hasWebsite":true,"hasHoraires":true,"url":"https://lannuaire.service-public.gouv.fr/nouvelle-aquitaine/correze/140629c1-96fe-45a3-b0ae-7d23a607bed4"}
{"nom":"Rilhac-Treignac","nomNormalise":"rilhactreignac","typeCollectivite":"Commune","region":"Nouvelle-Aquitaine","departement":"Corrèze","departementCode":"19","adresse":{"street":"6 Place de la Mairie","postalCode":"19260","city":"Rilhac-Treignac","country":"France"},"contacts":{"email":"rilhac.treignac@wanadoo.fr","telephone":"0555982597"},"horaires":"Du Lundi au Mardi : de 13h30 à 17h00\nLe Jeudi : de 13h30 à 17h00\nLe Samedi : de 08h30 à 12h00","latitude":45.526806,"longitude":1.687368,"website":"","hasWebsite":false,"hasHoraires":true,"url":"https://lannuaire.service-public.gouv.fr/nouvelle-aquitaine/correze/68180fa5-620c-436a-ad62-ed5c0f07ad70"}
{"nom":"Rilhac-Xaintrie","nomNormalise":"rilhacxaintrie","typeCollectivite":"Commune","region":"Nouvelle-Aquitaine","departement":"Corrèze","departementCode":"19","adresse":{"street":"6 route de saint-privat","postalCode":"19220","city":"Rilhac-Xaintrie","country":"France"},"contacts":{"email":"rilhac-xaintrie@mairie19.fr","telephone":"0555282586"},"horaires":"Du Lundi au Mardi : de 08h30 à 12h30 de 14h00 à 17h00\nLe Mercredi : de 08h30 à 12h30\nDu Jeudi au Vendredi : de 08h30 à 12h30 de 14h00 à 17h00","latitude":45.166256,"longitude":2.197176,"website":"https://rilhac-xaintrie.fr/","hasWebsite":true,"hasHoraires":true,"url":"https://lannuaire.service-public.gouv.fr/nouvelle-aquitaine/correze/9cdc64ad-9010-43f8-a11e-6e7dfd29dae6"}
{"nom":"Roche-le-Peyroux","nomNormalise":"rochelepeyroux","typeCollectivite":"Commune","region":"Nouvelle-Aquitaine","departement":"Corrèze","departementCode":"19","adresse":{"street":"Le Bourg","postalCode":"19160","city":"Roche-le-Peyroux","country":"France"},"contacts":{"email":"mairie.roche.le.peyroux@wanadoo.fr","telephone":"0555959003"},"horaires":"Le Mardi : de 08h30 à 12h30 de 13h30 à 17h30\nLe Jeudi : de 08h30 à 12h30 de 13h30 à 16h30","latitude":45.4218,"longitude":2.38226,"website":"http://www.roche-le-peyroux.fr/","hasWebsite":true,"hasHoraires":true,"url":"https://lannuaire.service-public.gouv.fr/nouvelle-aquitaine/correze/b2537ab8-5a70-4839-af4e-b758fb292294"}
{"nom":"Rosiers-d Égletons","nomNormalise":"rosiersdegletons","typeCollectivite":"Commune","region":"Nouvelle-Aquitaine","departement":"Corrèze","departementCode":"19","adresse":{"street":"15 rue de l'Ancien-Lavoir","postalCode":"19300","city":"Rosiers-d'Égletons","country":"France"},"contacts":{"email":"mairie.rosiers@wanadoo.fr","telephone":"0555930814"},"horaires":"Du Lundi au Vendredi : de 09h00 à 12h00 de 14h00 à 17h00\nLe Samedi : de 09h00 à 12h00","latitude":45.378475,"longitude":2.008042,"website":"","hasWebsite":false,"hasHoraires":true,"url":"https://lannuaire.service-public.gouv.fr/nouvelle-aquitaine/correze/fb412f33-d31c-4086-bf11-7a71a209dd51"}
{"nom":"Rosiers-de-Juillac","nomNormalise":"rosiersdejuillac","typeCollectivite":"Commune","region":"Nouvelle-Aquitaine","departement":"Corrèze","departementCode":"19","adresse":{"street":"5 place du 19 mars 1962","postalCode":"19350","city":"Rosiers-de-Juillac","country":"France"},"contacts":{"email":"mairie.rosiers-de-juillac@wanadoo.fr","telephone":"0555256101"},"horaires":"Le Mardi : de 08h30 à 12h30\nLe Jeudi : de 08h30 à 12h30 de 13h30 à 17h30","latitude":45.291294,"longitude":1.301173,"website":"","hasWebsite":false,"hasHoraires":true,"url":"https://lannuaire.service-public.gouv.fr/nouvelle-aquitaine/correze/9c159ea2-3895-47ee-a657-a021760cf865"}
{"nom":"Sadroc","nomNormalise":"sadroc","typeCollectivite":"Commune","region":"Nouvelle-Aquitaine","departement":"Corrèze","departementCode":"19","adresse":{"street":"1 place de la Mairie","postalCode":"19270","city":"Sadroc","country":"France"},"contacts":{"email":"mairie.sadroc@wanadoo.fr","telephone":"0555845190"},"horaires":"Le Lundi : de 08h00 à 12h00 de 14h00 à 17h00\nLe Mardi : de 08h00 à 12h00 de 14h00 à 18h00\nLe Mercredi : de 14h30 à 16h00\nLe Jeudi : de 08h00 à 12h00 de 14h00 à 18h00\nLe Vendredi : de 14h00 à 18h00\nLe Samedi : de 10h00 à 12h00","latitude":45.283024,"longitude":1.549112,"website":"https://sadroc.fr/","hasWebsite":true,"hasHoraires":true,"url":"https://lannuaire.service-public.gouv.fr/nouvelle-aquitaine/correze/210066e8-c8ae-4e57-a0db-8e3c58c785dc"}
{"nom":"Saillac","nomNormalise":"saillac","typeCollectivite":"Commune","region":"Nouvelle-Aquitaine","departement":"Corrèze","departementCode":"19","adresse":{"street":"36 place du Cerneau","postalCode":"19500","city":"Saillac","country":"France"},"contacts":{"email":"commune.saillac19@orange.fr","telephone":"0555254137"},"horaires":"Le Mardi : de 10h00 à 12h30\nLe Jeudi : de 10h00 à 12h30","latitude":45.03674,"longitude":1.63867,"website":"https://www.saillac.fr/","hasWebsite":true,"hasHoraires":true,"url":"https://lannuaire.service-public.gouv.fr/nouvelle-aquitaine/correze/74196d9a-8751-4a88-87c3-dcf8f005409d"}
{"nom":"Saint-Angel","nomNormalise":"saintangel","typeCollectivite":"Commune","region":"Nouvelle-Aquitaine","departement":"Corrèze","departementCode":"19","adresse":{"street":"1 place de la Mairie","postalCode":"19200","city":"Saint-Angel","country":"France"},"contacts":{"email":"contact@saint-angel.fr","telephone":"0555961809"},"horaires":"Du Lundi au Mardi : de 09h00 à 12h00 de 14h00 à 16h00\nLe Mercredi : de 09h00 à 12h00\nDu Jeudi au Vendredi : de 09h00 à 12h00 de 14h00 à 16h00\nLe Samedi : de 09h00 à 12h00\n\nMairie ouverte le 1er samedi du mois 9h - 12h et fermée le vendredi après midi qui précède.","latitude":45.50265,"longitude":2.232599,"website":"https://www.saint-angel.fr/","hasWebsite":true,"hasHoraires":true,"url":"https://lannuaire.service-public.gouv.fr/nouvelle-aquitaine/correze/8e6d28b1-6516-44c0-a7dc-ae378b13e3b1"}
{"nom":"Saint-Augustin","nomNormalise":"saintaugustin","typeCollectivite":"Commune","region":"Nouvelle-Aquitaine","departement":"Corrèze","departementCode":"19","adresse":{"street":"Le Bourg","postalCode":"19390","city":"Saint-Augustin","country":"France"},"contacts":{"email":"mairie.saint.augustin@orange.fr","telephone":"0555213277"},"horaires":"Du Lundi au Jeudi : de 09h00 à 12h00\nLe Vendredi : de 09h00 à 12h00 de 16h30 à 18h30","latitude":45.424793,"longitude":1.836179,"website":"https://www.saintaugustin19-mairie.fr/","hasWebsite":true,"hasHoraires":true,"url":"https://lannuaire.service-public.gouv.fr/nouvelle-aquitaine/correze/25912fa7-3a91-4c70-94a4-c498d49fb48e"}
{"nom":"Saint-Aulaire","nomNormalise":"saintaulaire","typeCollectivite":"Commune","region":"Nouvelle-Aquitaine","departement":"Corrèze","departementCode":"19","adresse":{"street":"54 avenue Robert-Golfier","postalCode":"19130","city":"Saint-Aulaire","country":"France"},"contacts":{"email":"mairie@saint-aulaire-correze.fr","telephone":"0555250114"},"horaires":"Le Lundi : de 08h30 à 12h00\nLe Mardi : de 08h30 à 12h00 de 14h00 à 17h30\nLe Mercredi : de 08h30 à 12h00\nLe Jeudi : de 08h30 à 12h00 de 14h00 à 17h30\nLe Vendredi : de 08h30 à 12h00","latitude":45.248512,"longitude":1.397828,"website":"https://saint-aulaire-correze.fr/","hasWebsite":true,"hasHoraires":true,"url":"https://lannuaire.service-public.gouv.fr/nouvelle-aquitaine/correze/4ad958b4-8b47-4b65-be19-5778e22dec83"}
{"nom":"Mairie déléguée - Saint-Bazile-de-la-Roche","nomNormalise":"mairiedelegueesaintbaziledelaroche","typeCollectivite":"Commune","region":"Nouvelle-Aquitaine","departement":"Corrèze","departementCode":"19","adresse":{"street":"Rivière","postalCode":"19320","city":"Argentat-sur-Dordogne","country":"France"},"contacts":{"email":"mairie.st-baziledelaroche@wanadoo.fr","telephone":"0555291211"},"horaires":"Du Lundi au Mardi : de 10h00 à 12h00\nLe Mercredi : de 09h00 à 12h00\n\nPermanence du maire.\nDu Jeudi au Vendredi : de 10h00 à 12h00","latitude":45.093357,"longitude":1.93755,"website":"http://www.argentat-sur-dordogne.fr/","hasWebsite":true,"hasHoraires":true,"url":"https://lannuaire.service-public.gouv.fr/nouvelle-aquitaine/correze/34015225-63e0-487f-835e-1dfb1d5b5f36"}
{"nom":"Saint-Bazile-de-Meyssac","nomNormalise":"saintbaziledemeyssac","typeCollectivite":"Commune","region":"Nouvelle-Aquitaine","departement":"Corrèze","departementCode":"19","adresse":{"street":"Les Sarres","postalCode":"19500","city":"Saint-Bazile-de-Meyssac","country":"France"},"contacts":{"email":"mbazilemeyssac@wanadoo.fr","telephone":"0555254846"},"horaires":"Le Mardi : de 14h00 à 16h30\nLe Jeudi : de 09h00 à 12h00","latitude":45.05383,"longitude":1.728108,"website":"http://www.saint-bazile-de-meyssac.fr/","hasWebsite":true,"hasHoraires":true,"url":"https://lannuaire.service-public.gouv.fr/nouvelle-aquitaine/correze/e4cbb96b-dc6c-44d4-af75-4cc796e539fd"}
{"nom":"Mairie déléguée - Saint-Bonnet-Avalouze","nomNormalise":"mairiedelegueesaintbonnetavalouze","typeCollectivite":"Commune","region":"Nouvelle-Aquitaine","departement":"Corrèze","departementCode":"19","adresse":{"street":"Saint-Bonnet-Avalouze","postalCode":"19150","city":"Laguenne-sur-Avalouze","country":"France"},"contacts":{"email":"mairiesaintbonnetavalouze@wanadoo.fr","telephone":"0555264169"},"horaires":"Le Mardi : de 08h30 à 12h00\n\nPermanence des élus de 17h30 à 18h30 sur rendez-vous.\nLe Jeudi : de 08h30 à 12h00\nPermanence des élus de 17h30 à 18h30 sur rendez-vous.","latitude":45.25493,"longitude":1.831579,"website":"https://laguenne-sur-avalouze.fr/","hasWebsite":true,"hasHoraires":true,"url":"https://lannuaire.service-public.gouv.fr/nouvelle-aquitaine/correze/1704fdb9-3188-4d8a-8c77-0af9c9c39589"}
{"nom":"Saint-Bonnet-Elvert","nomNormalise":"saintbonnetelvert","typeCollectivite":"Commune","region":"Nouvelle-Aquitaine","departement":"Corrèze","departementCode":"19","adresse":{"street":"2 place Louis-Prévôt","postalCode":"19380","city":"Saint-Bonnet-Elvert","country":"France"},"contacts":{"email":"mairiedestbonnetelvert@wanadoo.fr","telephone":"0555286586"},"horaires":"Le Lundi : de 09h00 à 11h30\nLe Mardi : de 14h00 à 16h30\nDu Jeudi au Vendredi : de 09h00 à 11h30","latitude":45.16176,"longitude":1.9033,"website":"","hasWebsite":false,"hasHoraires":true,"url":"https://lannuaire.service-public.gouv.fr/nouvelle-aquitaine/correze/5fd923ef-a08e-4c38-a027-544e273ae4c0"}
{"nom":"Saint-Bonnet-la-Rivière","nomNormalise":"saintbonnetlariviere","typeCollectivite":"Commune","region":"Nouvelle-Aquitaine","departement":"Corrèze","departementCode":"19","adresse":{"street":"13 route d'Objat","postalCode":"19130","city":"Saint-Bonnet-la-Rivière","country":"France"},"contacts":{"email":"mairie@stbonnetlariviere.fr","telephone":"0555256114"},"horaires":"Du Lundi au Mardi : de 08h30 à 12h30 de 13h00 à 17h00\nDu Jeudi au Vendredi : de 08h30 à 12h30 de 13h00 à 16h00","latitude":45.3,"longitude":1.36915,"website":"","hasWebsite":false,"hasHoraires":true,"url":"https://lannuaire.service-public.gouv.fr/nouvelle-aquitaine/correze/860a7422-c4d6-498b-b160-26cb95e5856f"}
{"nom":"Saint-Bonnet-l Enfantier","nomNormalise":"saintbonnetlenfantier","typeCollectivite":"Commune","region":"Nouvelle-Aquitaine","departement":"Corrèze","departementCode":"19","adresse":{"street":"2 place de la Mairie","postalCode":"19410","city":"Saint-Bonnet-l'Enfantier","country":"France"},"contacts":{"email":"mairie.stbonnetenfantier@orange.fr","telephone":"0555984875"},"horaires":"Le Lundi : de 15h00 à 18h00\nLe Mardi : de 09h30 à 12h30\nLe Mercredi : de 09h30 à 12h30 de 13h30 à 17h00\nLe Jeudi : de 09h30 à 12h30\nLe Vendredi : de 09h30 à 12h30 de 13h30 à 17h00\nLe Samedi : de 09h30 à 12h00","latitude":45.299614,"longitude":1.522764,"website":"https://www.stbonnetlenfantier.fr/","hasWebsite":true,"hasHoraires":true,"url":"https://lannuaire.service-public.gouv.fr/nouvelle-aquitaine/correze/fde0d532-16b9-48f6-9671-b2c76fb6fb52"}
{"nom":"Saint-Bonnet-les-Tours-de-Merle","nomNormalise":"saintbonnetlestoursdemerle","typeCollectivite":"Commune","region":"Nouvelle-Aquitaine","departement":"Corrèze","departementCode":"19","adresse":{"street":"1 place de la Paix","postalCode":"19430","city":"Saint-Bonnet-les-Tours-de-Merle","country":"France"},"contacts":{"email":"stbonnettoursmerle@wanadoo.fr","telephone":"0555287317"},"horaires":"Le Lundi : de 09h00 à 12h00 de 14h00 à 18h00","latitude":45.06002,"longitude":2.06251,"website":"","hasWebsite":false,"hasHoraires":true,"url":"https://lannuaire.service-public.gouv.fr/nouvelle-aquitaine/correze/97485d46-fbfc-4bd0-bfe5-e75df6588389"}
{"nom":"Saint-Bonnet-près-Bort","nomNormalise":"saintbonnetpresbort","typeCollectivite":"Commune","region":"Nouvelle-Aquitaine","departement":"Corrèze","departementCode":"19","adresse":{"street":"Le Bourg","postalCode":"19200","city":"Saint-Bonnet-près-Bort","country":"France"},"contacts":{"email":"mairiestbonnetpresbort@wanadoo.fr","telephone":"0555948041"},"horaires":"","latitude":45.50398,"longitude":2.417054,"website":"","hasWebsite":false,"hasHoraires":false,"url":"https://lannuaire.service-public.gouv.fr/nouvelle-aquitaine/correze/1df4a09d-96c2-4f75-add6-8153c1d0c520"}
{"nom":"Saint-Cernin-de-Larche","nomNormalise":"saintcernindelarche","typeCollectivite":"Commune","region":"Nouvelle-Aquitaine","departement":"Corrèze","departementCode":"19","adresse":{"street":"11 rue du Presbytère","postalCode":"19600","city":"Saint-Cernin-de-Larche","country":"France"},"contacts":{"email":"secretariat@saint-cernin-de-larche.fr","telephone":"0555854297"},"horaires":"Le Mardi : de 13h30 à 17h30\nLe Mercredi : de 08h30 à 12h15\nDu Jeudi au Vendredi : de 13h30 à 17h30","latitude":45.102905,"longitude":1.413962,"website":"","hasWebsite":false,"hasHoraires":true,"url":"https://lannuaire.service-public.gouv.fr/nouvelle-aquitaine/correze/7166c9f9-2916-4925-a38a-c3257823f0cb"}
{"nom":"Saint-Chamant","nomNormalise":"saintchamant","typeCollectivite":"Commune","region":"Nouvelle-Aquitaine","departement":"Corrèze","departementCode":"19","adresse":{"street":"1 avenue de la Souvigne","postalCode":"19380","city":"Saint-Chamant","country":"France"},"contacts":{"email":"mairie.saint-chamant@wanadoo.fr","telephone":"0555281526"},"horaires":"Du Lundi au Mercredi : de 09h00 à 12h00\nLe Jeudi : de 09h00 à 12h00 de 14h00 à 17h00\nDu Vendredi au Samedi : de 09h00 à 12h00","latitude":45.126373,"longitude":1.894712,"website":"","hasWebsite":false,"hasHoraires":true,"url":"https://lannuaire.service-public.gouv.fr/nouvelle-aquitaine/correze/9dd71b47-1f6d-494e-aa35-85307849fd18"}
{"nom":"Saint-Cirgues-la-Loutre","nomNormalise":"saintcirgueslaloutre","typeCollectivite":"Commune","region":"Nouvelle-Aquitaine","departement":"Corrèze","departementCode":"19","adresse":{"street":"11 route de saint-Privat","postalCode":"19220","city":"Saint-Cirgues-la-Loutre","country":"France"},"contacts":{"email":"saint-cirgues-la-loutre@mairie19.fr","telephone":"0555282704"},"horaires":"Le Lundi : de 09h00 à 12h00 de 13h30 à 17h00\nLe Mercredi : de 09h00 à 12h00\nLe Vendredi : de 09h00 à 11h30 de 13h30 à 17h00","latitude":45.0787,"longitude":2.09886,"website":"http://www.saint-cirgues.correze.net/","hasWebsite":true,"hasHoraires":true,"url":"https://lannuaire.service-public.gouv.fr/nouvelle-aquitaine/correze/03701759-26fc-4aeb-9e1a-19c8d0de404a"}
{"nom":"Saint-Clément","nomNormalise":"saintclement","typeCollectivite":"Commune","region":"Nouvelle-Aquitaine","departement":"Corrèze","departementCode":"19","adresse":{"street":"1 place de la Mairie","postalCode":"19700","city":"Saint-Clément","country":"France"},"contacts":{"email":"secretariat.mairie@saintclement19.fr","telephone":"0555270054"},"horaires":"Du Lundi au Vendredi : de 08h30 à 12h00 de 14h00 à 17h00\nLe Samedi : de 09h00 à 12h00","latitude":45.34172,"longitude":1.685992,"website":"https://saintclement19.net/","hasWebsite":true,"hasHoraires":true,"url":"https://lannuaire.service-public.gouv.fr/nouvelle-aquitaine/correze/1d05bb6a-f2cb-44bc-9815-ca8dd2c9b953"}
{"nom":"Saint-Cyprien","nomNormalise":"saintcyprien","typeCollectivite":"Commune","region":"Nouvelle-Aquitaine","departement":"Corrèze","departementCode":"19","adresse":{"street":"558 Avenue du bourg","postalCode":"19130","city":"Saint-Cyprien","country":"France"},"contacts":{"email":"saint.cyprien@wanadoo.fr","telephone":"0555251865"},"horaires":"Du Mardi au Jeudi : de 09h00 à 12h00 de 14h00 à 17h00\nLe Vendredi : de 10h00 à 12h00 de 14h00 à 15h30\nLe Samedi : de 10h00 à 12h00\n\nUniquement le 1er samedi du mois","latitude":45.250458,"longitude":1.352214,"website":"https://www.saint-cyprien.fr/","hasWebsite":true,"hasHoraires":true,"url":"https://lannuaire.service-public.gouv.fr/nouvelle-aquitaine/correze/5b606c65-e856-4d32-af03-c0c17394e5f2"}
{"nom":"Saint-Cyr-la-Roche","nomNormalise":"saintcyrlaroche","typeCollectivite":"Commune","region":"Nouvelle-Aquitaine","departement":"Corrèze","departementCode":"19","adresse":{"street":"3 route de Juillac","postalCode":"19130","city":"Saint-Cyr-la-Roche","country":"France"},"contacts":{"email":"commune-de-st-cyr-la-roche2@wanadoo.fr","telephone":"0555250230"},"horaires":"Le Lundi : de 08h00 à 12h30 de 15h15 à 19h00\nLe Mardi : de 08h00 à 12h30 de 14h00 à 17h00\nLe Mercredi : de 08h00 à 12h30\nLe Jeudi : de 08h00 à 12h30 de 14h00 à 17h00","latitude":45.2715,"longitude":1.39043,"website":"https://www.intramuros.org/saint-cyr-la-roche","hasWebsite":true,"hasHoraires":true,"url":"https://lannuaire.service-public.gouv.fr/nouvelle-aquitaine/correze/4b06c67c-393d-4dfb-bea5-faf1c307e597"}
{"nom":"Sainte-Fortunade","nomNormalise":"saintefortunade","typeCollectivite":"Commune","region":"Nouvelle-Aquitaine","departement":"Corrèze","departementCode":"19","adresse":{"street":"1 route du Château-Comtal","postalCode":"19490","city":"Sainte-Fortunade","country":"France"},"contacts":{"email":"","telephone":"0555271419"},"horaires":"Le Lundi : de 09h00 à 12h00 de 14h30 à 17h30\nLe Mardi : de 09h00 à 12h00\nDu Mercredi au Vendredi : de 09h00 à 12h00 de 14h30 à 17h30","latitude":45.20696,"longitude":1.771577,"website":"https://sainte-fortunade19.fr/","hasWebsite":true,"hasHoraires":true,"url":"https://lannuaire.service-public.gouv.fr/nouvelle-aquitaine/correze/6dd7052c-89a3-41d0-85b4-035e339a11a6"}
{"nom":"Saint-Éloy-les-Tuileries","nomNormalise":"sainteloylestuileries","typeCollectivite":"Commune","region":"Nouvelle-Aquitaine","departement":"Corrèze","departementCode":"19","adresse":{"street":"Le Bourg","postalCode":"19210","city":"Saint-Éloy-les-Tuileries","country":"France"},"contacts":{"email":"mairiedesainteloy@wanadoo.fr","telephone":"0555735434"},"horaires":"Du Lundi au Vendredi : de 13h30 à 17h30","latitude":45.44628,"longitude":1.291946,"website":"https://www.saint-eloy-les-tuileries.fr/","hasWebsite":true,"hasHoraires":true,"url":"https://lannuaire.service-public.gouv.fr/nouvelle-aquitaine/correze/57cbac0d-13bb-422b-b18a-50de6d5bd898"}
{"nom":"Sainte-Marie-Lapanouze","nomNormalise":"saintemarielapanouze","typeCollectivite":"Commune","region":"Nouvelle-Aquitaine","departement":"Corrèze","departementCode":"19","adresse":{"street":"5 Le Bourg","postalCode":"19160","city":"Sainte-Marie-Lapanouze","country":"France"},"contacts":{"email":"mairie.stemarielapanouze@gmail.com","telephone":"0555958979"},"horaires":"","latitude":45.43037,"longitude":2.341038,"website":"https://www.sainte-marie-lapanouze.fr/","hasWebsite":true,"hasHoraires":false,"url":"https://lannuaire.service-public.gouv.fr/nouvelle-aquitaine/correze/d3e5ea4b-d1d5-43f6-93c4-624e9b60e7ac"}
{"nom":"Saint-Étienne-la-Geneste","nomNormalise":"saintetiennelageneste","typeCollectivite":"Commune","region":"Nouvelle-Aquitaine","departement":"Corrèze","departementCode":"19","adresse":{"street":"1 route de Liginiac","postalCode":"19160","city":"Saint-Étienne-la-Geneste","country":"France"},"contacts":{"email":"mairie.stetiennelageneste@orange.fr","telephone":"0555959971"},"horaires":"Le Lundi : de 14h00 à 17h30\nLe Jeudi : de 14h00 à 17h30","latitude":45.44821,"longitude":2.34289,"website":"","hasWebsite":false,"hasHoraires":true,"url":"https://lannuaire.service-public.gouv.fr/nouvelle-aquitaine/correze/afc031e8-2a77-4830-b35b-1a39e68b195a"}
{"nom":"Saint-Exupéry-les-Roches","nomNormalise":"saintexuperylesroches","typeCollectivite":"Commune","region":"Nouvelle-Aquitaine","departement":"Corrèze","departementCode":"19","adresse":{"street":"2 rue Antoine-de-Saint-Exupéry","postalCode":"19200","city":"Saint-Exupéry-les-Roches","country":"France"},"contacts":{"email":"mairie.stexuperylesroches@wanadoo.fr","telephone":"0555728159"},"horaires":"Le Lundi : de 16h00 à 17h30\nDu Mardi au Mercredi : de 14h30 à 17h30\nLe Jeudi : de 10h00 à 12h00 de 14h30 à 17h30\nLe Vendredi : de 14h30 à 17h00","latitude":45.515644,"longitude":2.370036,"website":"","hasWebsite":false,"hasHoraires":true,"url":"https://lannuaire.service-public.gouv.fr/nouvelle-aquitaine/correze/60af7a11-192f-410d-9f6d-e879a2c2b742"}
{"nom":"Saint-Fréjoux","nomNormalise":"saintfrejoux","typeCollectivite":"Commune","region":"Nouvelle-Aquitaine","departement":"Corrèze","departementCode":"19","adresse":{"street":"Le Bourg","postalCode":"19200","city":"Saint-Fréjoux","country":"France"},"contacts":{"email":"mairie.stfrejoux@gmail.com","telephone":"0555722787"},"horaires":"Le Lundi : de 09h00 à 13h00 de 13h30 à 17h30\nLe Jeudi : de 13h30 à 17h00\nLe Vendredi : de 09h00 à 12h00 de 13h30 à 16h30","latitude":45.544453,"longitude":2.372709,"website":"","hasWebsite":false,"hasHoraires":true,"url":"https://lannuaire.service-public.gouv.fr/nouvelle-aquitaine/correze/5b4bf84c-ca47-4b0d-abc6-21fde7d94c0a"}
{"nom":"Saint-Geniez-ô-Merle","nomNormalise":"saintgeniezomerle","typeCollectivite":"Commune","region":"Nouvelle-Aquitaine","departement":"Corrèze","departementCode":"19","adresse":{"street":"10 Soult","postalCode":"19220","city":"Saint-Geniez-ô-Merle","country":"France"},"contacts":{"email":"st.geniez.o.merle@wanadoo.fr","telephone":"0555282186"},"horaires":"Le Lundi : de 09h00 à 12h30 de 13h30 à 17h00\nLe Mercredi : de 09h00 à 12h30 de 13h30 à 17h00\nLe Vendredi : de 09h00 à 12h30 de 13h30 à 16h00","latitude":45.083088,"longitude":2.064571,"website":"http://www.saint-geniez-o-merle-mairie.fr/","hasWebsite":true,"hasHoraires":true,"url":"https://lannuaire.service-public.gouv.fr/nouvelle-aquitaine/correze/75df9078-89c4-4525-86fa-e28285fbcf56"}
{"nom":"Saint-Germain-Lavolps","nomNormalise":"saintgermainlavolps","typeCollectivite":"Commune","region":"Nouvelle-Aquitaine","departement":"Corrèze","departementCode":"19","adresse":{"street":"6 Le Bourg","postalCode":"19290","city":"Saint-Germain-Lavolps","country":"France"},"contacts":{"email":"commune-st-germain-lavolps@orange.fr","telephone":"0555946324"},"horaires":"Le Mercredi : de 08h30 à 12h00\n\n(semaine paire)\nLe Samedi : de 08h45 à 12h00\n(semaine paire)","latitude":45.61263,"longitude":2.204662,"website":"","hasWebsite":false,"hasHoraires":true,"url":"https://lannuaire.service-public.gouv.fr/nouvelle-aquitaine/correze/8e08bd50-f3b7-40da-b91a-3abe3a9b0d9d"}
{"nom":"Saint-Germain-les-Vergnes","nomNormalise":"saintgermainlesvergnes","typeCollectivite":"Commune","region":"Nouvelle-Aquitaine","departement":"Corrèze","departementCode":"19","adresse":{"street":"Le Bourg","postalCode":"19330","city":"Saint-Germain-les-Vergnes","country":"France"},"contacts":{"email":"mairie.st.germain.les.vergnes@wanadoo.fr","telephone":"0555293233"},"horaires":"Du Lundi au Mardi : de 09h00 à 12h00 de 14h00 à 17h00\nDu Mercredi au Jeudi : de 09h00 à 12h00\nLe Vendredi : de 09h00 à 12h00 de 14h00 à 17h00\nLe Samedi : de 09h00 à 12h00","latitude":45.2734,"longitude":1.63477,"website":"https://www.mairiesaintgermainlesvergnes19.com/","hasWebsite":true,"hasHoraires":true,"url":"https://lannuaire.service-public.gouv.fr/nouvelle-aquitaine/correze/17976c45-80f6-4f26-a189-136ef7fc78a0"}
{"nom":"Saint-Hilaire-Foissac","nomNormalise":"sainthilairefoissac","typeCollectivite":"Commune","region":"Nouvelle-Aquitaine","departement":"Corrèze","departementCode":"19","adresse":{"street":"8 rue de la Mairie","postalCode":"19550","city":"Saint-Hilaire-Foissac","country":"France"},"contacts":{"email":"mairesthilairefoissac@wanadoo.fr","telephone":"0555275163"},"horaires":"Le Lundi : de 08h00 à 12h00\nLe Mardi : de 08h00 à 12h00 de 13h30 à 16h30\nDu Jeudi au Vendredi : de 08h00 à 12h00","latitude":45.33264,"longitude":2.125683,"website":"https://www.saint-hilaire-foissac.fr/","hasWebsite":true,"hasHoraires":true,"url":"https://lannuaire.service-public.gouv.fr/nouvelle-aquitaine/correze/91092ea0-6da0-47ee-ba71-d49c103f71d3"}
{"nom":"Saint-Hilaire-les-Courbes","nomNormalise":"sainthilairelescourbes","typeCollectivite":"Commune","region":"Nouvelle-Aquitaine","departement":"Corrèze","departementCode":"19","adresse":{"street":"RD 940 Le Bourg","postalCode":"19170","city":"Saint-Hilaire-les-Courbes","country":"France"},"contacts":{"email":"mairie-saint-hilairelescourbes@orange.fr","telephone":"0555956810"},"horaires":"Le Mardi : de 14h00 à 17h00\nLe Jeudi : de 14h00 à 17h00\nLe Samedi : de 09h00 à 12h00","latitude":45.6099,"longitude":1.83262,"website":"http://www.sainthilairelescourbes.fr/","hasWebsite":true,"hasHoraires":true,"url":"https://lannuaire.service-public.gouv.fr/nouvelle-aquitaine/correze/5c5b5608-6caf-40da-a39f-6099a75dffb4"}
{"nom":"Saint-Hilaire-Luc","nomNormalise":"sainthilaireluc","typeCollectivite":"Commune","region":"Nouvelle-Aquitaine","departement":"Corrèze","departementCode":"19","adresse":{"street":"4 route du Vianon","postalCode":"19160","city":"Saint-Hilaire-Luc","country":"France"},"contacts":{"email":"mairiesthilaireluc@gmail.com","telephone":"0555959723"},"horaires":"Le Mardi : de 09h00 à 12h30 de 14h00 à 17h00\nLe Jeudi : de 09h00 à 12h30 de 14h00 à 17h00","latitude":45.36183,"longitude":2.206679,"website":"https://sainthilaireluc.fr/","hasWebsite":true,"hasHoraires":true,"url":"https://lannuaire.service-public.gouv.fr/nouvelle-aquitaine/correze/f82c3fec-2871-449c-a620-4671cb8571cd"}
{"nom":"Saint-Hilaire-Peyroux","nomNormalise":"sainthilairepeyroux","typeCollectivite":"Commune","region":"Nouvelle-Aquitaine","departement":"Corrèze","departementCode":"19","adresse":{"street":"Le Bourg","postalCode":"19560","city":"Saint-Hilaire-Peyroux","country":"France"},"contacts":{"email":"mairie-st-hilaire-peyroux@wanadoo.fr","telephone":"0555257211"},"horaires":"Du Lundi au Mercredi : de 09h00 à 12h00 de 14h00 à 17h00\nLe Jeudi : de 09h00 à 12h00\nLe Vendredi : de 09h00 à 12h00 de 14h00 à 17h00\nLe Samedi : de 09h00 à 12h00","latitude":45.21345,"longitude":1.64889,"website":"http://www.mairie-saint-hilaire-peyroux.fr/","hasWebsite":true,"hasHoraires":true,"url":"https://lannuaire.service-public.gouv.fr/nouvelle-aquitaine/correze/0ab5b464-b5f5-42c5-9559-9f07754a5e88"}
{"nom":"Saint-Hilaire-Taurieux","nomNormalise":"sainthilairetaurieux","typeCollectivite":"Commune","region":"Nouvelle-Aquitaine","departement":"Corrèze","departementCode":"19","adresse":{"street":"Chassat","postalCode":"19400","city":"Saint-Hilaire-Taurieux","country":"France"},"contacts":{"email":"mairie.sainthilairetaurieux@orange.fr","telephone":"0555281798"},"horaires":"Le Mardi : de 13h30 à 17h30\nLe Vendredi : de 08h00 à 12h00","latitude":45.083687,"longitude":1.832571,"website":"","hasWebsite":false,"hasHoraires":true,"url":"https://lannuaire.service-public.gouv.fr/nouvelle-aquitaine/correze/e53b4028-f464-46b2-bd1a-d0b4bfc4b66b"}
{"nom":"Saint-Jal","nomNormalise":"saintjal","typeCollectivite":"Commune","region":"Nouvelle-Aquitaine","departement":"Corrèze","departementCode":"19","adresse":{"street":"2 route Henry-de-Bournazel","postalCode":"19700","city":"Saint-Jal","country":"France"},"contacts":{"email":"mairie.stjal@wanadoo.fr","telephone":"0555731609"},"horaires":"Du Lundi au Vendredi : de 09h00 à 12h00 de 14h00 à 16h00\nLe Samedi : de 10h00 à 12h00","latitude":45.016552,"longitude":1.909183,"website":"","hasWebsite":false,"hasHoraires":true,"url":"https://lannuaire.service-public.gouv.fr/nouvelle-aquitaine/correze/1bc17752-5b45-4cbf-8bc9-2edc5f774089"}
{"nom":"Saint-Julien-le-Pèlerin","nomNormalise":"saintjulienlepelerin","typeCollectivite":"Commune","region":"Nouvelle-Aquitaine","departement":"Corrèze","departementCode":"19","adresse":{"street":"16 Rue des Monts-d'Auvergne","postalCode":"19430","city":"Saint-Julien-le-Pèlerin","country":"France"},"contacts":{"email":"stjulienlepelerin@wanadoo.fr","telephone":"0555287226"},"horaires":"Le Lundi : de 09h00 à 12h30 de 14h00 à 17h00\nLe Mardi : de 09h00 à 12h30\nLe Jeudi : de 09h00 à 12h30 de 14h00 à 17h00\nDu Vendredi au Samedi : de 09h00 à 12h30","latitude":45.017532,"longitude":2.076734,"website":"","hasWebsite":false,"hasHoraires":true,"url":"https://lannuaire.service-public.gouv.fr/nouvelle-aquitaine/correze/7cc1a969-1e3b-483e-8945-840f6d221cfa"}
{"nom":"Saint-Julien-le-Vendômois","nomNormalise":"saintjulienlevendomois","typeCollectivite":"Commune","region":"Nouvelle-Aquitaine","departement":"Corrèze","departementCode":"19","adresse":{"street":"4 place de l'Église","postalCode":"19210","city":"Saint-Julien-le-Vendômois","country":"France"},"contacts":{"email":"mairie@stjulienlevendomois.fr","telephone":"0555735494"},"horaires":"Le Lundi : de 13h00 à 17h30\nLe Mardi : de 13h00 à 18h30\nLe Jeudi : de 13h00 à 17h30\nLe Vendredi : de 10h00 à 12h30 de 13h00 à 17h30","latitude":45.461414,"longitude":1.328948,"website":"","hasWebsite":false,"hasHoraires":true,"url":"https://lannuaire.service-public.gouv.fr/nouvelle-aquitaine/correze/ce7082eb-2b8b-42d6-909d-bdde218d5d0d"}
{"nom":"Saint-Julien-Maumont","nomNormalise":"saintjulienmaumont","typeCollectivite":"Commune","region":"Nouvelle-Aquitaine","departement":"Corrèze","departementCode":"19","adresse":{"street":"333 route du bourg","postalCode":"19500","city":"Saint-Julien-Maumont","country":"France"},"contacts":{"email":"mairie-saint-julien-maumon@wanadoo.fr","telephone":"0555253025"},"horaires":"Le Mardi : de 10h00 à 12h00\nLe Vendredi : de 10h00 à 12h00","latitude":45.03793,"longitude":1.706126,"website":"","hasWebsite":false,"hasHoraires":true,"url":"https://lannuaire.service-public.gouv.fr/nouvelle-aquitaine/correze/f59a339d-5952-4716-9041-8f348b1e2572"}
{"nom":"Saint-Martial-de-Gimel","nomNormalise":"saintmartialdegimel","typeCollectivite":"Commune","region":"Nouvelle-Aquitaine","departement":"Corrèze","departementCode":"19","adresse":{"street":"12 route de Saint-Priest","postalCode":"19150","city":"Saint-Martial-de-Gimel","country":"France"},"contacts":{"email":"mairie.st.martial.gimel@wanadoo.fr","telephone":"0555267003"},"horaires":"Du Mardi au Vendredi : de 09h00 à 12h00","latitude":45.26722,"longitude":1.872921,"website":"","hasWebsite":false,"hasHoraires":true,"url":"https://lannuaire.service-public.gouv.fr/nouvelle-aquitaine/correze/2c5eda92-4dce-4b04-97ef-b1433cd3fb67"}
{"nom":"Saint-Martial-Entraygues","nomNormalise":"saintmartialentraygues","typeCollectivite":"Commune","region":"Nouvelle-Aquitaine","departement":"Corrèze","departementCode":"19","adresse":{"street":"17 Le Bourg","postalCode":"19400","city":"Saint-Martial-Entraygues","country":"France"},"contacts":{"email":"mairie-stmartialentraygues@wanadoo.fr","telephone":"0555280654"},"horaires":"Le Lundi : de 09h00 à 12h00 de 14h00 à 17h00\nLe Vendredi : de 09h00 à 12h00","latitude":45.120274,"longitude":1.97301,"website":"","hasWebsite":false,"hasHoraires":true,"url":"https://lannuaire.service-public.gouv.fr/nouvelle-aquitaine/correze/2702c412-7f36-47bd-933e-eaf9b2339291"}
{"nom":"Saint-Martin-la-Méanne","nomNormalise":"saintmartinlameanne","typeCollectivite":"Commune","region":"Nouvelle-Aquitaine","departement":"Corrèze","departementCode":"19","adresse":{"street":"1 place de la République","postalCode":"19320","city":"Saint-Martin-la-Méanne","country":"France"},"contacts":{"email":"mairie.saintmartinlameanne@wanadoo.fr","telephone":"0555291275"},"horaires":"Le Lundi : de 09h30 à 11h30\nDu Mardi au Mercredi : de 09h00 à 12h00\nLe Vendredi : de 09h00 à 12h00","latitude":45.170876,"longitude":1.987055,"website":"https://stmartinlameanne.fr/","hasWebsite":true,"hasHoraires":true,"url":"https://lannuaire.service-public.gouv.fr/nouvelle-aquitaine/correze/edede7ca-a643-4f95-8df8-bfeccef4003b"}
{"nom":"Mairie déléguée - Saint-Martin-Sepert","nomNormalise":"mairiedelegueesaintmartinsepert","typeCollectivite":"Commune","region":"Nouvelle-Aquitaine","departement":"Corrèze","departementCode":"19","adresse":{"street":"Saint-Martin-Sepert","postalCode":"19210","city":"Les Trois-Saints","country":"France"},"contacts":{"email":"secretariat.mairie@lestrois-saints","telephone":"0555735375"},"horaires":"Le Mardi : de 08h30 à 12h30\nLe Jeudi : de 08h30 à 12h30","latitude":45.434162,"longitude":1.471681,"website":"","hasWebsite":false,"hasHoraires":true,"url":"https://lannuaire.service-public.gouv.fr/nouvelle-aquitaine/correze/0358843e-d144-4131-8574-9aedb8aecff4"}
{"nom":"Saint-Merd-de-Lapleau","nomNormalise":"saintmerddelapleau","typeCollectivite":"Commune","region":"Nouvelle-Aquitaine","departement":"Corrèze","departementCode":"19","adresse":{"street":"Le Bourg","postalCode":"19320","city":"Saint-Merd-de-Lapleau","country":"France"},"contacts":{"email":"secretariat@mairie-stmerd.fr","telephone":"0555278370"},"horaires":"Le Lundi : de 08h30 à 12h30 de 14h00 à 16h30\nLe Mardi : de 09h30 à 12h00\nLe Mercredi : de 08h30 à 12h30 de 14h00 à 17h00\nLe Jeudi : de 08h30 à 12h30\nLe Vendredi : de 09h00 à 12h00\n\nLes soirs et le samedi permanence des élus uniquement sur rendez-vous.","latitude":45.256966,"longitude":2.083781,"website":"","hasWebsite":false,"hasHoraires":true,"url":"https://lannuaire.service-public.gouv.fr/nouvelle-aquitaine/correze/e9f0bdaf-2b21-45b0-9ae7-06a132a71d3d"}
{"nom":"Saint-Merd-les-Oussines","nomNormalise":"saintmerdlesoussines","typeCollectivite":"Commune","region":"Nouvelle-Aquitaine","departement":"Corrèze","departementCode":"19","adresse":{"street":"Le Bourg","postalCode":"19170","city":"Saint-Merd-les-Oussines","country":"France"},"contacts":{"email":"mairie-st-merd-les-oussines@wanadoo.fr","telephone":"0555955765"},"horaires":"Le Mardi : de 09h00 à 17h30\nLe Jeudi : de 09h00 à 17h30\nLe Vendredi : de 09h00 à 12h30","latitude":45.633034,"longitude":2.039808,"website":"","hasWebsite":false,"hasHoraires":true,"url":"https://lannuaire.service-public.gouv.fr/nouvelle-aquitaine/correze/b9e908a6-b0ed-44e1-8c11-fe38675219e6"}
{"nom":"Saint-Mexant","nomNormalise":"saintmexant","typeCollectivite":"Commune","region":"Nouvelle-Aquitaine","departement":"Corrèze","departementCode":"19","adresse":{"street":"Le Bourg","postalCode":"19330","city":"Saint-Mexant","country":"France"},"contacts":{"email":"mairie-saint-mexant@wanadoo.fr","telephone":"0555293003"},"horaires":"Le Lundi : de 08h30 à 12h00 de 13h30 à 17h00\nLe Mardi : de 08h30 à 12h00\nLe Mercredi : de 08h30 à 12h00 de 13h30 à 17h00\nLe Jeudi : de 08h30 à 12h00\nLe Vendredi : de 08h30 à 12h00 de 13h30 à 17h00\nLe Samedi : de 08h30 à 12h00","latitude":45.285034,"longitude":1.657498,"website":"https://www.saint-mexant-19.com/","hasWebsite":true,"hasHoraires":true,"url":"https://lannuaire.service-public.gouv.fr/nouvelle-aquitaine/correze/c0118150-f598-4a42-a341-7935c481de17"}
{"nom":"Saint-Pantaléon-de-Lapleau","nomNormalise":"saintpantaleondelapleau","typeCollectivite":"Commune","region":"Nouvelle-Aquitaine","departement":"Corrèze","departementCode":"19","adresse":{"street":"1 Le Bourg","postalCode":"19160","city":"Saint-Pantaléon-de-Lapleau","country":"France"},"contacts":{"email":"mairie.spdl19@gmail.com","telephone":"0555275158"},"horaires":"Le Lundi : de 14h00 à 18h00\nLe Mercredi : de 14h00 à 18h00","latitude":45.32413,"longitude":2.204907,"website":"https://www.saint-pantaleon-de-lapleau.fr/","hasWebsite":true,"hasHoraires":true,"url":"https://lannuaire.service-public.gouv.fr/nouvelle-aquitaine/correze/cd3309eb-93f8-4707-9307-24fd3237e236"}
{"nom":"Saint-Pantaléon-de-Larche","nomNormalise":"saintpantaleondelarche","typeCollectivite":"Commune","region":"Nouvelle-Aquitaine","departement":"Corrèze","departementCode":"19","adresse":{"street":"2 place du Général-Couloumy","postalCode":"19600","city":"Saint-Pantaléon-de-Larche","country":"France"},"contacts":{"email":"accueil@mairiesaintpantaleon.fr","telephone":"0555868351"},"horaires":"Du Lundi au Vendredi : de 08h30 à 12h00 de 13h30 à 17h00","latitude":45.140762,"longitude":1.44654,"website":"http://www.st-pantaleon-larche.correze.net/","hasWebsite":true,"hasHoraires":true,"url":"https://lannuaire.service-public.gouv.fr/nouvelle-aquitaine/correze/6083217d-391b-4f4b-af50-bb5d39fdedbb"}
{"nom":"Saint-Pardoux-la-Croisille","nomNormalise":"saintpardouxlacroisille","typeCollectivite":"Commune","region":"Nouvelle-Aquitaine","departement":"Corrèze","departementCode":"19","adresse":{"street":"55 route du fer à cheval","postalCode":"19320","city":"Saint-Pardoux-la-Croisille","country":"France"},"contacts":{"email":"mairie-splc@orange.fr","telephone":"0555277994"},"horaires":"Le Lundi : de 08h30 à 12h30\nLe Mardi : de 08h30 à 12h30 de 13h30 à 17h30\nDu Mercredi au Vendredi : de 08h30 à 12h30\n\nL'agence postale est ouverte au même horaires, permanence des élus le samedi de 10h à 12h.\nLe Samedi : de 10h00 à 12h00\n\nPermanence des élus le samedi de 10h à midi.","latitude":45.245632,"longitude":1.983171,"website":"http://mairie-splc.fr/","hasWebsite":true,"hasHoraires":true,"url":"https://lannuaire.service-public.gouv.fr/nouvelle-aquitaine/correze/d31888b2-388e-4862-9df5-0b107543a3cb"}
{"nom":"Saint-Pardoux-le-Neuf","nomNormalise":"saintpardouxleneuf","typeCollectivite":"Commune","region":"Nouvelle-Aquitaine","departement":"Corrèze","departementCode":"19","adresse":{"street":"Le Bourg","postalCode":"19200","city":"Saint-Pardoux-le-Neuf","country":"France"},"contacts":{"email":"mairie-stpardouxleneuf@orange.fr","telephone":"0555721874"},"horaires":"Le Mardi : de 13h00 à 18h00\nLe Mercredi : de 08h00 à 12h00","latitude":45.611458,"longitude":2.331119,"website":"","hasWebsite":false,"hasHoraires":true,"url":"https://lannuaire.service-public.gouv.fr/nouvelle-aquitaine/correze/2743c94e-7b64-40ed-991c-e2a4a11df5b1"}
{"nom":"Saint-Pardoux-le-Vieux","nomNormalise":"saintpardouxlevieux","typeCollectivite":"Commune","region":"Nouvelle-Aquitaine","departement":"Corrèze","departementCode":"19","adresse":{"street":"7 rue des chênes","postalCode":"19200","city":"Saint-Pardoux-le-Vieux","country":"France"},"contacts":{"email":"mairie.saint.pardoux.le.vieux@wanadoo.fr","telephone":"0555721654"},"horaires":"Le Lundi : de 13h30 à 18h30\nLe Mercredi : de 13h30 à 18h00\nLe Jeudi : de 08h30 à 12h30","latitude":45.60588,"longitude":2.275295,"website":"https://saint-pardoux-le-vieux.fr/","hasWebsite":true,"hasHoraires":true,"url":"https://lannuaire.service-public.gouv.fr/nouvelle-aquitaine/correze/7cd38157-67be-4712-84b1-0c1496a8a629"}
{"nom":"Saint-Pardoux-l Ortigier","nomNormalise":"saintpardouxlortigier","typeCollectivite":"Commune","region":"Nouvelle-Aquitaine","departement":"Corrèze","departementCode":"19","adresse":{"street":"Le Bourg","postalCode":"19270","city":"Saint-Pardoux-l'Ortigier","country":"France"},"contacts":{"email":"saint-pardoux-lortigier@mairie19.fr","telephone":"0555845106"},"horaires":"Du Mardi au Vendredi : de 09h00 à 12h00\nLe Samedi : de 09h00 à 12h00","latitude":45.298435,"longitude":1.579137,"website":"https://www.saint-pardoux-lortigier.com/","hasWebsite":true,"hasHoraires":true,"url":"https://lannuaire.service-public.gouv.fr/nouvelle-aquitaine/correze/4895c5fc-489a-4862-a2a7-b8d973b506eb"}
{"nom":"Saint-Paul","nomNormalise":"saintpaul","typeCollectivite":"Commune","region":"Nouvelle-Aquitaine","departement":"Corrèze","departementCode":"19","adresse":{"street":"1 place Henri-Monteil","postalCode":"19150","city":"Saint-Paul","country":"France"},"contacts":{"email":"mairiesaintpaul19@orange.fr","telephone":"0555291030"},"horaires":"Le Lundi : de 09h00 à 12h00 de 13h30 à 17h00\nLe Mercredi : de 09h00 à 12h00\nLe Vendredi : de 09h00 à 12h00\nLe Samedi : de 10h00 à 12h00\n\nPermanence des élus.","latitude":45.219707,"longitude":1.895464,"website":"http://saintpaul19.fr/","hasWebsite":true,"hasHoraires":true,"url":"https://lannuaire.service-public.gouv.fr/nouvelle-aquitaine/correze/e1d7e53b-d2c6-4bd0-aef7-92d3047b38e1"}
{"nom":"Saint-Priest-de-Gimel","nomNormalise":"saintpriestdegimel","typeCollectivite":"Commune","region":"Nouvelle-Aquitaine","departement":"Corrèze","departementCode":"19","adresse":{"street":"Place de la Liberté","postalCode":"19800","city":"Saint-Priest-de-Gimel","country":"France"},"contacts":{"email":"mairie.stpriest@gmail.com","telephone":"0555213149"},"horaires":"Le Lundi : de 08h30 à 12h00 de 14h00 à 17h00\nLe Mardi : de 08h30 à 12h00\nLe Mercredi : de 08h30 à 12h00 de 14h00 à 17h00\nLe Jeudi : de 08h30 à 12h00\nLe Vendredi : de 08h30 à 12h00 de 14h00 à 17h00","latitude":45.300755,"longitude":1.868486,"website":"https://www.saint-priest-de-gimel.fr/","hasWebsite":true,"hasHoraires":true,"url":"https://lannuaire.service-public.gouv.fr/nouvelle-aquitaine/correze/c6b8d075-ef48-4b3e-908d-441ba66c93bc"}
{"nom":"Saint-Privat","nomNormalise":"saintprivat","typeCollectivite":"Commune","region":"Nouvelle-Aquitaine","departement":"Corrèze","departementCode":"19","adresse":{"street":"Place de l'Église","postalCode":"19220","city":"Saint-Privat","country":"France"},"contacts":{"email":"mairie@saint-privat-19.fr","telephone":"0555282877"},"horaires":"Du Lundi au Vendredi : de 08h30 à 12h00 de 13h30 à 18h00","latitude":45.1367,"longitude":2.09903,"website":"http://www.saint-privat-19.fr/","hasWebsite":true,"hasHoraires":true,"url":"https://lannuaire.service-public.gouv.fr/nouvelle-aquitaine/correze/1808c6a5-76a8-49d3-8cf7-fed8095ca9ef"}
{"nom":"Saint-Rémy","nomNormalise":"saintremy","typeCollectivite":"Commune","region":"Nouvelle-Aquitaine","departement":"Corrèze","departementCode":"19","adresse":{"street":"Le Bourg","postalCode":"19290","city":"Saint-Rémy","country":"France"},"contacts":{"email":"mairie.saintremy@orange.fr","telephone":"0555946598"},"horaires":"Le Lundi : de 10h00 à 12h00 de 14h30 à 18h00\nDu Mercredi au Jeudi : de 08h30 à 12h00\nLe Vendredi : de 14h00 à 18h00","latitude":45.654743,"longitude":2.271329,"website":"","hasWebsite":false,"hasHoraires":true,"url":"https://lannuaire.service-public.gouv.fr/nouvelle-aquitaine/correze/ad3e15e4-6873-4138-ab5b-8f06486ba734"}
{"nom":"Saint-Robert","nomNormalise":"saintrobert","typeCollectivite":"Commune","region":"Nouvelle-Aquitaine","departement":"Corrèze","departementCode":"19","adresse":{"street":"Place de la Prévôté","postalCode":"19310","city":"Saint-Robert","country":"France"},"contacts":{"email":"commune.saint-robert@wanadoo.fr","telephone":"0555251112"},"horaires":"Du Lundi au Mardi : de 09h00 à 12h00\nDu Jeudi au Vendredi : de 09h00 à 12h00","latitude":45.255066,"longitude":1.29378,"website":"https://www.saintrobert.fr/","hasWebsite":true,"hasHoraires":true,"url":"https://lannuaire.service-public.gouv.fr/nouvelle-aquitaine/correze/accedf60-dd06-47d1-a6f8-2e22394af350"}
{"nom":"Saint-Salvadour","nomNormalise":"saintsalvadour","typeCollectivite":"Commune","region":"Nouvelle-Aquitaine","departement":"Corrèze","departementCode":"19","adresse":{"street":"39 rue Antoine Paucard","postalCode":"19700","city":"Saint-Salvadour","country":"France"},"contacts":{"email":"mairie@saint-salvadour.fr","telephone":"0555216394"},"horaires":"Le Mardi : de 09h00 à 12h00 de 14h00 à 17h00\nLe Mercredi : de 09h00 à 12h00\nLe Jeudi : de 09h00 à 12h00 de 14h00 à 17h00\nLe Vendredi : de 09h00 à 12h00 de 14h00 à 16h30\nLe Samedi : de 09h00 à 12h00","latitude":45.392937,"longitude":1.766401,"website":"https://saint-salvadour.fr/","hasWebsite":true,"hasHoraires":true,"url":"https://lannuaire.service-public.gouv.fr/nouvelle-aquitaine/correze/6b33c3be-3b7f-46c9-aa85-d44a8e4ec8ec"}
{"nom":"Saint-Setiers","nomNormalise":"saintsetiers","typeCollectivite":"Commune","region":"Nouvelle-Aquitaine","departement":"Corrèze","departementCode":"19","adresse":{"street":"2 rue de la Mairie","postalCode":"19290","city":"Saint-Setiers","country":"France"},"contacts":{"email":"mairie.stsetiers@wanadoo.fr","telephone":"0555956151"},"horaires":"Le Lundi : de 09h00 à 12h00 de 14h00 à 18h00\nLe Mardi : de 09h00 à 12h00\nLe Mercredi : de 09h00 à 12h00 de 14h00 à 17h00\nLe Vendredi : de 09h00 à 12h00","latitude":45.69787,"longitude":2.130193,"website":"https://www.st-setiers.fr/","hasWebsite":true,"hasHoraires":true,"url":"https://lannuaire.service-public.gouv.fr/nouvelle-aquitaine/correze/f8b46ecf-b160-49c1-b08e-782eb82cb600"}
{"nom":"Saint-Solve","nomNormalise":"saintsolve","typeCollectivite":"Commune","region":"Nouvelle-Aquitaine","departement":"Corrèze","departementCode":"19","adresse":{"street":"2 route de la Gare","postalCode":"19130","city":"Saint-Solve","country":"France"},"contacts":{"email":"mairie@saint-solve.fr","telephone":"0555258493"},"horaires":"Le Lundi : de 08h15 à 12h45 de 13h30 à 16h15\nLe Mardi : de 08h15 à 12h45\nLe Jeudi : de 13h30 à 16h15\nLe Vendredi : de 08h15 à 12h45 de 13h30 à 16h15","latitude":45.307903,"longitude":1.401723,"website":"https://saint-solve.fr/","hasWebsite":true,"hasHoraires":true,"url":"https://lannuaire.service-public.gouv.fr/nouvelle-aquitaine/correze/89a848f8-52cb-479f-b8d2-7d6bb957d1f9"}
{"nom":"Saint-Sornin-Lavolps","nomNormalise":"saintsorninlavolps","typeCollectivite":"Commune","region":"Nouvelle-Aquitaine","departement":"Corrèze","departementCode":"19","adresse":{"street":"1 Grande-Rue","postalCode":"19230","city":"Saint-Sornin-Lavolps","country":"France"},"contacts":{"email":"mairie@saintsornin.fr","telephone":"0555733261"},"horaires":"Du Lundi au Vendredi : de 09h00 à 12h00 de 14h00 à 17h30","latitude":45.378204,"longitude":1.38251,"website":"https://www.saint-sornin-lavolps.fr/","hasWebsite":true,"hasHoraires":true,"url":"https://lannuaire.service-public.gouv.fr/nouvelle-aquitaine/correze/842d8206-9ee2-4a9c-a02a-ae8fd4392a58"}
{"nom":"Saint-Sulpice-les-Bois","nomNormalise":"saintsulpicelesbois","typeCollectivite":"Commune","region":"Nouvelle-Aquitaine","departement":"Corrèze","departementCode":"19","adresse":{"street":"1 route de Millevaches","postalCode":"19250","city":"Saint-Sulpice-les-Bois","country":"France"},"contacts":{"email":"mairie@stsulpicelesbois.fr","telephone":"0555952110"},"horaires":"Le Lundi : de 14h00 à 18h00\nLe Jeudi : de 14h00 à 17h00","latitude":45.615,"longitude":2.14543,"website":"","hasWebsite":false,"hasHoraires":true,"url":"https://lannuaire.service-public.gouv.fr/nouvelle-aquitaine/correze/640255fc-4971-4d0a-a6f3-d64edd493c10"}
{"nom":"Saint-Sylvain","nomNormalise":"saintsylvain","typeCollectivite":"Commune","region":"Nouvelle-Aquitaine","departement":"Corrèze","departementCode":"19","adresse":{"street":"2 Route de Forgès","postalCode":"19380","city":"Saint-Sylvain","country":"France"},"contacts":{"email":"mairie.saint.sylvain@orange.fr","telephone":"0555286303"},"horaires":"Le Lundi : de 13h30 à 17h30\nDu Mardi au Mercredi : de 08h00 à 12h00\nLe Vendredi : de 08h00 à 12h00","latitude":45.17568,"longitude":1.875535,"website":"","hasWebsite":false,"hasHoraires":true,"url":"https://lannuaire.service-public.gouv.fr/nouvelle-aquitaine/correze/90ac9edc-6ae2-4d4d-b706-542e4893f553"}
{"nom":"Saint-Viance","nomNormalise":"saintviance","typeCollectivite":"Commune","region":"Nouvelle-Aquitaine","departement":"Corrèze","departementCode":"19","adresse":{"street":"1 rue du Pontel","postalCode":"19240","city":"Saint-Viance","country":"France"},"contacts":{"email":"mairie@saintviance.fr","telephone":"0555850182"},"horaires":"Le Lundi : de 09h00 à 12h30\nDu Mardi au Vendredi : de 09h00 à 12h30 de 14h00 à 17h00\nLe Samedi : de 09h00 à 12h30","latitude":45.2176,"longitude":1.452536,"website":"https://saintviance.fr/","hasWebsite":true,"hasHoraires":true,"url":"https://lannuaire.service-public.gouv.fr/nouvelle-aquitaine/correze/cd74d44a-15a5-474d-b2c6-f9b15cb3407a"}
{"nom":"Saint-Victour","nomNormalise":"saintvictour","typeCollectivite":"Commune","region":"Nouvelle-Aquitaine","departement":"Corrèze","departementCode":"19","adresse":{"street":"2 Le Bourg","postalCode":"19200","city":"Saint-Victour","country":"France"},"contacts":{"email":"saint-victour@mairie19.fr","telephone":"0555948063"},"horaires":"Le Mardi : de 09h30 à 17h30\nLe Jeudi : de 09h30 à 17h30","latitude":45.466576,"longitude":2.383322,"website":"https://www.intramuros.org/saint-victour","hasWebsite":true,"hasHoraires":true,"url":"https://lannuaire.service-public.gouv.fr/nouvelle-aquitaine/correze/77ec0f9d-af9f-46cf-bcf5-6abe2c4320f7"}
{"nom":"Saint-Yrieix-le-Déjalat","nomNormalise":"saintyrieixledejalat","typeCollectivite":"Commune","region":"Nouvelle-Aquitaine","departement":"Corrèze","departementCode":"19","adresse":{"street":"6 rue de la Mairie","postalCode":"19300","city":"Saint-Yrieix-le-Déjalat","country":"France"},"contacts":{"email":"mairie@saintyrieixledejalat.fr","telephone":"0555930994"},"horaires":"Le Lundi : de 08h30 à 12h30\nLe Mercredi : de 08h30 à 12h30\nLe Vendredi : de 08h30 à 12h30 de 13h30 à 17h30","latitude":45.45747,"longitude":1.972251,"website":"https://saintyrieixledejalat.fr/","hasWebsite":true,"hasHoraires":true,"url":"https://lannuaire.service-public.gouv.fr/nouvelle-aquitaine/correze/28fb6c27-06be-4382-84ed-d31def1ba05d"}
{"nom":"Salon-la-Tour","nomNormalise":"salonlatour","typeCollectivite":"Commune","region":"Nouvelle-Aquitaine","departement":"Corrèze","departementCode":"19","adresse":{"street":"9 place de la Mairie","postalCode":"19510","city":"Salon-la-Tour","country":"France"},"contacts":{"email":"mairie@salonlatour.fr","telephone":"0555988813"},"horaires":"Du Lundi au Mardi : de 09h00 à 12h00 de 13h00 à 17h00\nLe Mercredi : de 09h00 à 12h00\nDu Jeudi au Vendredi : de 09h00 à 12h00 de 13h00 à 17h00\nLe Samedi : de 09h00 à 12h00\n\nPermanence des adjoints","latitude":45.5045,"longitude":1.53945,"website":"https://www.salonlatour.fr/","hasWebsite":true,"hasHoraires":true,"url":"https://lannuaire.service-public.gouv.fr/nouvelle-aquitaine/correze/7b77e71d-7833-4626-98dd-1a6c9017473c"}
{"nom":"Sarran","nomNormalise":"sarran","typeCollectivite":"Commune","region":"Nouvelle-Aquitaine","departement":"Corrèze","departementCode":"19","adresse":{"street":"9 route de Corrèze","postalCode":"19800","city":"Sarran","country":"France"},"contacts":{"email":"contact@villagedesarran.fr","telephone":"0555213305"},"horaires":"Le Lundi : de 09h30 à 12h00\nLe Mardi : de 09h30 à 12h00 de 14h00 à 17h00\nLe Jeudi : de 09h30 à 12h00 de 14h00 à 18h30\nLe Vendredi : de 09h30 à 12h00","latitude":45.40817,"longitude":1.935675,"website":"https://www.villagedesarran.fr/","hasWebsite":true,"hasHoraires":true,"url":"https://lannuaire.service-public.gouv.fr/nouvelle-aquitaine/correze/a1ec2cc1-bb1d-40f4-a6b7-3ebbdae98b68"}
{"nom":"Sarroux-Saint-Julien","nomNormalise":"sarrouxsaintjulien","typeCollectivite":"Commune","region":"Nouvelle-Aquitaine","departement":"Corrèze","departementCode":"19","adresse":{"street":"76 Le Bourg de Sarroux","postalCode":"19110","city":"Sarroux-Saint-Julien","country":"France"},"contacts":{"email":"sarrouxsaintjulien@orange.fr","telephone":"0555960407"},"horaires":"Du Lundi au Mardi : de 09h00 à 12h00 de 14h00 à 17h00\nLe Mercredi : de 09h00 à 12h00\nDu Jeudi au Vendredi : de 09h00 à 12h00 de 14h00 à 17h00","latitude":45.416794,"longitude":2.402582,"website":"http://www.sarroux-saint-julien.fr/","hasWebsite":true,"hasHoraires":true,"url":"https://lannuaire.service-public.gouv.fr/nouvelle-aquitaine/correze/cffd222b-8bd3-45d4-bfd2-1a6eaeb1801b"}
{"nom":"Segonzac","nomNormalise":"segonzac","typeCollectivite":"Commune","region":"Nouvelle-Aquitaine","departement":"Corrèze","departementCode":"19","adresse":{"street":"52 rue des Écoles","postalCode":"19310","city":"Segonzac","country":"France"},"contacts":{"email":"segonzac19.mairie@orange.fr","telephone":"0555251116"},"horaires":"Du Lundi au Vendredi : de 08h45 à 12h30 de 13h45 à 16h30","latitude":45.27552,"longitude":1.277461,"website":"https://www.segonzac19.fr/","hasWebsite":true,"hasHoraires":true,"url":"https://lannuaire.service-public.gouv.fr/nouvelle-aquitaine/correze/0677163b-0b1c-490f-940b-1c0c0fe67de4"}
{"nom":"Ségur-le-Château","nomNormalise":"segurlechateau","typeCollectivite":"Commune","region":"Nouvelle-Aquitaine","departement":"Corrèze","departementCode":"19","adresse":{"street":"3 Place du Champ-de-Foire","postalCode":"19230","city":"Ségur-le-Château","country":"France"},"contacts":{"email":"mairiedesegurlechateau@orange.fr","telephone":"0555735321"},"horaires":"Du Lundi au Mardi : de 09h00 à 12h00\nDu Jeudi au Vendredi : de 09h00 à 12h00","latitude":45.428696,"longitude":1.305319,"website":"https://www.segurlechateau.org/","hasWebsite":true,"hasHoraires":true,"url":"https://lannuaire.service-public.gouv.fr/nouvelle-aquitaine/correze/776d2e00-e273-4d2f-a90e-0ad5c1426edf"}
{"nom":"Seilhac","nomNormalise":"seilhac","typeCollectivite":"Commune","region":"Nouvelle-Aquitaine","departement":"Corrèze","departementCode":"19","adresse":{"street":"4 avenue Jean-Vinatier","postalCode":"19700","city":"Seilhac","country":"France"},"contacts":{"email":"accueil@ville-seilhac.com","telephone":"0555270526"},"horaires":"Du Lundi au Vendredi : de 08h30 à 12h00 de 14h00 à 17h00\nLe Samedi : de 09h00 à 12h00","latitude":45.367466,"longitude":1.71394,"website":"http://www.ville-seilhac.com/","hasWebsite":true,"hasHoraires":true,"url":"https://lannuaire.service-public.gouv.fr/nouvelle-aquitaine/correze/835cbfc5-acea-4e57-9441-e9b0081ec400"}
{"nom":"Sérandon","nomNormalise":"serandon","typeCollectivite":"Commune","region":"Nouvelle-Aquitaine","departement":"Corrèze","departementCode":"19","adresse":{"street":"3 route du Moulin de Barrié","postalCode":"19160","city":"Sérandon","country":"France"},"contacts":{"email":"mairie@serandon.fr","telephone":"0555958833"},"horaires":"Du Lundi au Mardi : de 08h30 à 12h30 de 13h30 à 17h00\nLe Mercredi : de 08h30 à 12h30\nLe Vendredi : de 08h30 à 12h30 de 13h30 à 17h00","latitude":45.360203,"longitude":2.337295,"website":"https://www.serandon.fr/","hasWebsite":true,"hasHoraires":true,"url":"https://lannuaire.service-public.gouv.fr/nouvelle-aquitaine/correze/a7101917-1376-476c-a73a-622a34ba1f38"}
{"nom":"Sérilhac","nomNormalise":"serilhac","typeCollectivite":"Commune","region":"Nouvelle-Aquitaine","departement":"Corrèze","departementCode":"19","adresse":{"street":"Le Bourg","postalCode":"19190","city":"Sérilhac","country":"France"},"contacts":{"email":"mairie@serilhac.fr","telephone":"0555840476"},"horaires":"Le Lundi : de 10h00 à 12h30\nLe Mercredi : de 16h00 à 18h00\nLe Vendredi : de 10h00 à 12h30","latitude":45.088802,"longitude":1.725985,"website":"","hasWebsite":false,"hasHoraires":true,"url":"https://lannuaire.service-public.gouv.fr/nouvelle-aquitaine/correze/7bfe174c-6f2f-48a5-bf89-c1d527bede26"}
{"nom":"Servières-le-Château","nomNormalise":"serviereslechateau","typeCollectivite":"Commune","region":"Nouvelle-Aquitaine","departement":"Corrèze","departementCode":"19","adresse":{"street":"2 rue du Vieux-Bourg","postalCode":"19220","city":"Servières-le-Château","country":"France"},"contacts":{"email":"mairieserviereslechateau@orange.fr","telephone":"0555282192"},"horaires":"Du Lundi au Vendredi : de 08h00 à 12h00 de 13h30 à 17h15","latitude":45.132122,"longitude":2.022989,"website":"https://servieres-le-chateau.fr/","hasWebsite":true,"hasHoraires":true,"url":"https://lannuaire.service-public.gouv.fr/nouvelle-aquitaine/correze/53f50fe5-1d70-4baf-afb2-2950e22406b2"}
{"nom":"Sexcles","nomNormalise":"sexcles","typeCollectivite":"Commune","region":"Nouvelle-Aquitaine","departement":"Corrèze","departementCode":"19","adresse":{"street":"2 place des Xaintries","postalCode":"19430","city":"Sexcles","country":"France"},"contacts":{"email":"mairie@sexcles.fr","telephone":"0555287165"},"horaires":"Du Lundi au Vendredi : de 08h30 à 12h30","latitude":45.04768,"longitude":2.008993,"website":"","hasWebsite":false,"hasHoraires":true,"url":"https://lannuaire.service-public.gouv.fr/nouvelle-aquitaine/correze/18a28d4c-13dd-4cec-a972-f45738934cc3"}
{"nom":"Sioniac","nomNormalise":"sioniac","typeCollectivite":"Commune","region":"Nouvelle-Aquitaine","departement":"Corrèze","departementCode":"19","adresse":{"street":"594 route du Bourg","postalCode":"19120","city":"Sioniac","country":"France"},"contacts":{"email":"mairie@sioniac.fr","telephone":"0555911361"},"horaires":"Le Lundi : de 09h00 à 12h30 de 13h30 à 16h30\nLe Mercredi : de 09h00 à 12h30 de 13h30 à 16h30\nLe Vendredi : de 09h00 à 12h30","latitude":44.974678,"longitude":1.812935,"website":"https://www.intramuros.org/sioniac","hasWebsite":true,"hasHoraires":true,"url":"https://lannuaire.service-public.gouv.fr/nouvelle-aquitaine/correze/20b74d57-176c-4af0-b34c-c03d3c9c5f32"}
{"nom":"Sornac","nomNormalise":"sornac","typeCollectivite":"Commune","region":"Nouvelle-Aquitaine","departement":"Corrèze","departementCode":"19","adresse":{"street":"5 place de l'Église","postalCode":"19290","city":"Sornac","country":"France"},"contacts":{"email":"commune@sornac.fr","telephone":"0555946127"},"horaires":"Du Lundi au Mardi : de 08h30 à 12h00 de 13h30 à 17h00\nLe Mercredi : de 08h30 à 12h00\nDu Jeudi au Vendredi : de 08h30 à 12h00 de 13h30 à 17h00\nLe Samedi : de 09h00 à 12h00\n\nFermée les samedis en juillet et en août.","latitude":45.66661,"longitude":2.193784,"website":"https://sornac.fr/","hasWebsite":true,"hasHoraires":true,"url":"https://lannuaire.service-public.gouv.fr/nouvelle-aquitaine/correze/373f7d45-6c81-48e7-aed4-6525cce48c29"}
{"nom":"Soudaine-Lavinadière","nomNormalise":"soudainelavinadiere","typeCollectivite":"Commune","region":"Nouvelle-Aquitaine","departement":"Corrèze","departementCode":"19","adresse":{"street":"3 rue Grande","postalCode":"19370","city":"Soudaine-Lavinadière","country":"France"},"contacts":{"email":"mairie@soudaine.fr","telephone":"0555980753"},"horaires":"Le Lundi : de 08h45 à 12h00 de 13h30 à 17h00\nLe Mercredi : de 08h45 à 12h00 de 13h30 à 17h00\nLe Vendredi : de 08h45 à 12h00 de 13h30 à 16h45","latitude":45.556686,"longitude":1.74138,"website":"","hasWebsite":false,"hasHoraires":true,"url":"https://lannuaire.service-public.gouv.fr/nouvelle-aquitaine/correze/a2019923-c180-4ec7-9f0d-ea6bcb78c6db"}
{"nom":"Soudeilles","nomNormalise":"soudeilles","typeCollectivite":"Commune","region":"Nouvelle-Aquitaine","departement":"Corrèze","departementCode":"19","adresse":{"street":"Le Bourg","postalCode":"19300","city":"Soudeilles","country":"France"},"contacts":{"email":"mairiesoudeille@wanadoo.fr","telephone":"0555930838"},"horaires":"Le Mardi : de 09h00 à 12h00 de 14h00 à 17h00\nLe Jeudi : de 09h00 à 12h00\nLe Vendredi : de 09h00 à 12h00 de 14h00 à 17h00\nLe Samedi : de 10h00 à 12h00\n\nPermanence des élus.","latitude":45.39925,"longitude":2.00545,"website":"https://mairie-soudeilles.fr/","hasWebsite":true,"hasHoraires":true,"url":"https://lannuaire.service-public.gouv.fr/nouvelle-aquitaine/correze/f6017fbc-4e4e-48a1-a361-68fb668886ba"}
{"nom":"Soursac","nomNormalise":"soursac","typeCollectivite":"Commune","region":"Nouvelle-Aquitaine","departement":"Corrèze","departementCode":"19","adresse":{"street":"59 Grand'rue","postalCode":"19550","city":"Soursac","country":"France"},"contacts":{"email":"mairie.soursac@wanadoo.fr","telephone":"0555275261"},"horaires":"Du Lundi au Vendredi : de 08h00 à 12h00 de 14h00 à 17h00","latitude":45.275726,"longitude":2.200996,"website":"https://www.soursac.fr/","hasWebsite":true,"hasHoraires":true,"url":"https://lannuaire.service-public.gouv.fr/nouvelle-aquitaine/correze/200e3894-8cef-4595-917a-fcff3933e5b1"}
{"nom":"Tarnac","nomNormalise":"tarnac","typeCollectivite":"Commune","region":"Nouvelle-Aquitaine","departement":"Corrèze","departementCode":"19","adresse":{"street":"1 place de l'Église","postalCode":"19170","city":"Tarnac","country":"France"},"contacts":{"email":"mairie.tarnac@orange.fr","telephone":"0555955301"},"horaires":"Du Lundi au Mardi : de 09h00 à 12h00\nDu Jeudi au Samedi : de 09h00 à 12h00","latitude":45.681046,"longitude":1.946009,"website":"","hasWebsite":false,"hasHoraires":true,"url":"https://lannuaire.service-public.gouv.fr/nouvelle-aquitaine/correze/5c747e2d-aef3-4b21-86a2-716aa3c98a0f"}
{"nom":"Thalamy","nomNormalise":"thalamy","typeCollectivite":"Commune","region":"Nouvelle-Aquitaine","departement":"Corrèze","departementCode":"19","adresse":{"street":"Le Bourg","postalCode":"19200","city":"Thalamy","country":"France"},"contacts":{"email":"mairie.thalamy@gmail.com","telephone":"0555945014"},"horaires":"Le Mercredi : de 09h00 à 12h00\nLe Vendredi : de 14h00 à 16h00","latitude":45.513416,"longitude":2.45973,"website":"","hasWebsite":false,"hasHoraires":true,"url":"https://lannuaire.service-public.gouv.fr/nouvelle-aquitaine/correze/1b798890-a634-4cc3-ad43-46236d585305"}
{"nom":"Toy-Viam","nomNormalise":"toyviam","typeCollectivite":"Commune","region":"Nouvelle-Aquitaine","departement":"Corrèze","departementCode":"19","adresse":{"street":"Le Bourg","postalCode":"19170","city":"Toy-Viam","country":"France"},"contacts":{"email":"mairie.toy-viam@wanadoo.fr","telephone":"0555954410"},"horaires":"Le Mardi : de 08h30 à 12h00 de 13h30 à 16h30\nLe Vendredi : de 08h30 à 11h30","latitude":45.648426,"longitude":1.931389,"website":"","hasWebsite":false,"hasHoraires":true,"url":"https://lannuaire.service-public.gouv.fr/nouvelle-aquitaine/correze/dc41cadb-6944-4c0a-bad4-98010117c904"}
{"nom":"Treignac","nomNormalise":"treignac","typeCollectivite":"Commune","region":"Nouvelle-Aquitaine","departement":"Corrèze","departementCode":"19","adresse":{"street":"1 place de la Halle","postalCode":"19260","city":"Treignac","country":"France"},"contacts":{"email":"secretariat@mairietreignac.fr","telephone":"0555980049"},"horaires":"Le Lundi : de 13h30 à 17h30\nDu Mardi au Mercredi : de 09h00 à 12h00 de 13h30 à 17h30\nLe Jeudi : de 09h00 à 12h00\nLe Vendredi : de 09h00 à 12h00 de 13h30 à 17h30","latitude":45.5372,"longitude":1.7949,"website":"https://www.mairietreignac.fr/","hasWebsite":true,"hasHoraires":true,"url":"https://lannuaire.service-public.gouv.fr/nouvelle-aquitaine/correze/d0909834-8312-4153-af7a-e31049f81e04"}
{"nom":"Troche","nomNormalise":"troche","typeCollectivite":"Commune","region":"Nouvelle-Aquitaine","departement":"Corrèze","departementCode":"19","adresse":{"street":"14 place de la République","postalCode":"19230","city":"Troche","country":"France"},"contacts":{"email":"mairie.troche@wanadoo.fr","telephone":"0555733619"},"horaires":"Du Lundi au Mardi : de 09h00 à 16h00\nLe Mercredi : de 09h00 à 13h00\nDu Jeudi au Vendredi : de 09h00 à 16h00\nLe Samedi : de 09h00 à 12h00","latitude":45.389065,"longitude":1.437728,"website":"http://www.troche.fr/","hasWebsite":true,"hasHoraires":true,"url":"https://lannuaire.service-public.gouv.fr/nouvelle-aquitaine/correze/d655baf5-4798-459c-9599-55400c08f283"}
{"nom":"Tudeils","nomNormalise":"tudeils","typeCollectivite":"Commune","region":"Nouvelle-Aquitaine","departement":"Corrèze","departementCode":"19","adresse":{"street":"51 route de Jeanne","postalCode":"19120","city":"Tudeils","country":"France"},"contacts":{"email":"tudeils@mairie19.fr","telephone":"0555915081"},"horaires":"Le Lundi : de 14h00 à 17h15\nLe Jeudi : de 09h00 à 12h00 de 14h00 à 17h15\nLe Vendredi : de 13h30 à 16h30\nLe Samedi : de 10h00 à 12h00\n\nPermanence des élus.","latitude":45.049717,"longitude":1.793794,"website":"https://www.mairie-tudeils.fr/","hasWebsite":true,"hasHoraires":true,"url":"https://lannuaire.service-public.gouv.fr/nouvelle-aquitaine/correze/6426680a-e982-48fb-afa3-712563bc6bc6"}
{"nom":"Tulle","nomNormalise":"tulle","typeCollectivite":"Commune","region":"Nouvelle-Aquitaine","departement":"Corrèze","departementCode":"19","adresse":{"street":"10 rue Félix-Vidalin","postalCode":"19000","city":"Tulle","country":"France"},"contacts":{"email":"admin@ville-tulle.fr","telephone":"0555217300"},"horaires":"Du Lundi au Mardi : de 08h30 à 12h00 de 13h30 à 17h30\nLe Mercredi : de 08h30 à 19h00\n\nJournée continue.\nLe Jeudi : de 08h30 à 12h00 de 13h30 à 17h30\nLe Vendredi : de 08h30 à 12h00 de 13h30 à 17h00\n\nAccueil ouvert le mercredi de 8h30 à 19h pour la plateforme d'accueil.","latitude":45.265903,"longitude":1.772093,"website":"https://www.ville-tulle.fr/","hasWebsite":true,"hasHoraires":true,"url":"https://lannuaire.service-public.gouv.fr/nouvelle-aquitaine/correze/957fa468-a094-47ba-b731-17a1684923cf"}
{"nom":"Turenne","nomNormalise":"turenne","typeCollectivite":"Commune","region":"Nouvelle-Aquitaine","departement":"Corrèze","departementCode":"19","adresse":{"street":"150 Rue François Leymarie","postalCode":"19500","city":"Turenne","country":"France"},"contacts":{"email":"mairie@turenne.fr","telephone":"0555859115"},"horaires":"Le Lundi : de 08h30 à 12h30\nLe Mardi : de 08h30 à 12h30 de 13h30 à 16h30\nLe Mercredi : de 08h30 à 12h30\nLe Jeudi : de 09h30 à 12h30 de 13h30 à 17h30\nLe Vendredi : de 08h30 à 12h30 de 13h30 à 16h30","latitude":45.053486,"longitude":1.581755,"website":"https://www.turenne.fr/","hasWebsite":true,"hasHoraires":true,"url":"https://lannuaire.service-public.gouv.fr/nouvelle-aquitaine/correze/c4cb1f89-7dc0-4b18-83ad-a991f0b5c1fc"}
{"nom":"Ussac","nomNormalise":"ussac","typeCollectivite":"Commune","region":"Nouvelle-Aquitaine","departement":"Corrèze","departementCode":"19","adresse":{"street":"Place de la Mairie","postalCode":"19270","city":"Ussac","country":"France"},"contacts":{"email":"ussacmairie@orange.fr","telephone":"0555881708"},"horaires":"Du Lundi au Vendredi : de 08h00 à 12h00 de 13h30 à 17h30","latitude":45.19152,"longitude":1.5083216,"website":"https://www.ussac.fr/","hasWebsite":true,"hasHoraires":true,"url":"https://lannuaire.service-public.gouv.fr/nouvelle-aquitaine/correze/20eec0f8-e735-4f5b-8500-709fada544df"}
{"nom":"Ussel","nomNormalise":"ussel","typeCollectivite":"Commune","region":"Nouvelle-Aquitaine","departement":"Corrèze","departementCode":"19","adresse":{"street":"26 avenue Marmontel","postalCode":"19200","city":"Ussel","country":"France"},"contacts":{"email":"mairie@ussel19.fr","telephone":"0555465400"},"horaires":"Le Lundi : de 08h30 à 12h00 de 13h30 à 17h00\nLe Mardi : de 08h30 à 12h00 de 13h30 à 18h30\nDu Mercredi au Vendredi : de 08h30 à 12h00 de 13h30 à 17h00","latitude":45.54484,"longitude":2.313825,"website":"https://www.ussel19.fr/","hasWebsite":true,"hasHoraires":true,"url":"https://lannuaire.service-public.gouv.fr/nouvelle-aquitaine/correze/97798b4f-22f7-4efa-a8c5-bf05d6715b20"}
{"nom":"Uzerche","nomNormalise":"uzerche","typeCollectivite":"Commune","region":"Nouvelle-Aquitaine","departement":"Corrèze","departementCode":"19","adresse":{"street":"Place de la Libération","postalCode":"19140","city":"Uzerche","country":"France"},"contacts":{"email":"contact@uzerche.fr","telephone":"0555731700"},"horaires":"Du Lundi au Vendredi : de 09h00 à 12h00 de 13h30 à 17h30\nLe Samedi : de 09h00 à 12h00\n\nAccueil ouvert uniquement les 2e et 4e samedi du mois.","latitude":45.4244,"longitude":1.56376,"website":"http://www.uzerche.fr/","hasWebsite":true,"hasHoraires":true,"url":"https://lannuaire.service-public.gouv.fr/nouvelle-aquitaine/correze/c10b6f9b-1fc9-4fd3-b6f4-137d736b854e"}
{"nom":"Valiergues","nomNormalise":"valiergues","typeCollectivite":"Commune","region":"Nouvelle-Aquitaine","departement":"Corrèze","departementCode":"19","adresse":{"street":"3 Le Bourg","postalCode":"19200","city":"Valiergues","country":"France"},"contacts":{"email":"mairiedevaliergues@wanadoo.fr","telephone":"0555723320"},"horaires":"Le Jeudi : de 14h00 à 16h00\nLe Vendredi : de 09h00 à 12h30 de 13h30 à 17h00","latitude":45.477074,"longitude":2.291674,"website":"","hasWebsite":false,"hasHoraires":true,"url":"https://lannuaire.service-public.gouv.fr/nouvelle-aquitaine/correze/29a570d0-2c2a-42f4-af22-c0e785302da9"}
{"nom":"Varetz","nomNormalise":"varetz","typeCollectivite":"Commune","region":"Nouvelle-Aquitaine","departement":"Corrèze","departementCode":"19","adresse":{"street":"12 Avenue du 11-Novembre","postalCode":"19240","city":"Varetz","country":"France"},"contacts":{"email":"mairie@varetz.com","telephone":"0555850619"},"horaires":"Du Lundi au Mercredi : de 08h30 à 12h30 de 14h00 à 17h00\nLe Jeudi : de 08h30 à 12h30\nLe Vendredi : de 08h30 à 12h30 de 14h00 à 17h00\nLe Samedi : de 09h00 à 12h00","latitude":45.193394,"longitude":1.451052,"website":"https://varetz.com/varetz/","hasWebsite":true,"hasHoraires":true,"url":"https://lannuaire.service-public.gouv.fr/nouvelle-aquitaine/correze/85d84f3a-a117-4da2-9723-87ea5d4809dd"}
{"nom":"Vars-sur-Roseix","nomNormalise":"varssurroseix","typeCollectivite":"Commune","region":"Nouvelle-Aquitaine","departement":"Corrèze","departementCode":"19","adresse":{"street":"4 rue des Écoles","postalCode":"19130","city":"Vars-sur-Roseix","country":"France"},"contacts":{"email":"","telephone":"0555251256"},"horaires":"Du Lundi au Vendredi : de 09h00 à 12h00","latitude":45.25942,"longitude":1.364073,"website":"https://www.vars-sur-roseix.fr/","hasWebsite":true,"hasHoraires":true,"url":"https://lannuaire.service-public.gouv.fr/nouvelle-aquitaine/correze/bda72f2a-34f2-40e2-891c-a50051e4758f"}
{"nom":"Végennes","nomNormalise":"vegennes","typeCollectivite":"Commune","region":"Nouvelle-Aquitaine","departement":"Corrèze","departementCode":"19","adresse":{"street":"26 place Sainte-Christine","postalCode":"19120","city":"Végennes","country":"France"},"contacts":{"email":"mairie.vegennes@wanadoo.fr","telephone":"0555911889"},"horaires":"Le Mardi : de 13h30 à 18h00\nLe Mercredi : de 09h30 à 12h30\nLe Vendredi : de 13h30 à 15h00","latitude":44.981453,"longitude":1.739126,"website":"https://www.vegennes.fr/","hasWebsite":true,"hasHoraires":true,"url":"https://lannuaire.service-public.gouv.fr/nouvelle-aquitaine/correze/279e50f0-cfc2-41be-9e4a-8124d4cb02c8"}
{"nom":"Veix","nomNormalise":"veix","typeCollectivite":"Commune","region":"Nouvelle-Aquitaine","departement":"Corrèze","departementCode":"19","adresse":{"street":"Le Bourg","postalCode":"19260","city":"Veix","country":"France"},"contacts":{"email":"mairie.veix@wanadoo.fr","telephone":"0555980403"},"horaires":"Du Lundi au Mardi : de 13h30 à 16h30\nLe Jeudi : de 13h30 à 16h30\nLe Vendredi : de 08h30 à 12h30 de 13h00 à 16h30","latitude":45.509556,"longitude":1.836571,"website":"","hasWebsite":false,"hasHoraires":true,"url":"https://lannuaire.service-public.gouv.fr/nouvelle-aquitaine/correze/888f7695-d60f-4d3c-9740-c6d0d7885ab9"}
{"nom":"Veyrières","nomNormalise":"veyrieres","typeCollectivite":"Commune","region":"Nouvelle-Aquitaine","departement":"Corrèze","departementCode":"19","adresse":{"street":"10 le parel","postalCode":"19200","city":"Veyrières","country":"France"},"contacts":{"email":"commune.veyrieres19@wanadoo.fr","telephone":"0555948135"},"horaires":"Le Lundi : de 09h00 à 12h00 de 14h00 à 17h00","latitude":45.48936,"longitude":2.392437,"website":"","hasWebsite":false,"hasHoraires":true,"url":"https://lannuaire.service-public.gouv.fr/nouvelle-aquitaine/correze/15afa693-64fb-4a11-b2c6-7913ffb3b66d"}
{"nom":"Viam","nomNormalise":"viam","typeCollectivite":"Commune","region":"Nouvelle-Aquitaine","departement":"Corrèze","departementCode":"19","adresse":{"street":"2 Route de La Fontaine Saint-Martin","postalCode":"19170","city":"Viam","country":"France"},"contacts":{"email":"viam@mairie19.fr","telephone":"0555955205"},"horaires":"Le Lundi : de 13h30 à 18h00\nDu Mardi au Mercredi : de 08h30 à 12h00\nLe Vendredi : de 08h30 à 12h00","latitude":45.608913,"longitude":1.884363,"website":"https://www.communedeviam.fr/","hasWebsite":true,"hasHoraires":true,"url":"https://lannuaire.service-public.gouv.fr/nouvelle-aquitaine/correze/bb31cdd6-8e36-4bb4-98ea-d85c67d4eeba"}
{"nom":"Vigeois","nomNormalise":"vigeois","typeCollectivite":"Commune","region":"Nouvelle-Aquitaine","departement":"Corrèze","departementCode":"19","adresse":{"street":"1 place de la Mairie","postalCode":"19410","city":"Vigeois","country":"France"},"contacts":{"email":"mairie@vigeois.fr","telephone":"0555989193"},"horaires":"Du Lundi au Mercredi : de 09h00 à 12h00 de 14h00 à 17h00\nLe Jeudi : de 09h00 à 12h00\nLe Vendredi : de 09h00 à 12h00 de 14h00 à 17h00\nLe Samedi : de 09h00 à 12h00","latitude":45.3793,"longitude":1.51619,"website":"https://www.vigeois.fr/","hasWebsite":true,"hasHoraires":true,"url":"https://lannuaire.service-public.gouv.fr/nouvelle-aquitaine/correze/4ab574a5-ed47-4df1-82af-d2abe1a4ddc3"}
{"nom":"Vignols","nomNormalise":"vignols","typeCollectivite":"Commune","region":"Nouvelle-Aquitaine","departement":"Corrèze","departementCode":"19","adresse":{"street":"1 place du 11 Novembre","postalCode":"19130","city":"Vignols","country":"France"},"contacts":{"email":"info@vignols.com","telephone":"0555258199"},"horaires":"Le Lundi : de 09h00 à 12h00\nLe Mardi : de 09h00 à 12h00 de 13h30 à 17h00\nLe Jeudi : de 09h00 à 12h00\nLe Vendredi : de 09h00 à 12h00 de 13h30 à 18h00\nLe Samedi : de 09h00 à 12h00\n\nAccueil uniquement les 1er et 3e samedis du mois.","latitude":45.31903,"longitude":1.389558,"website":"http://www.vignols.com/","hasWebsite":true,"hasHoraires":true,"url":"https://lannuaire.service-public.gouv.fr/nouvelle-aquitaine/correze/bea6b15d-4445-4411-979c-16b73d2bfb56"}
{"nom":"Vitrac-sur-Montane","nomNormalise":"vitracsurmontane","typeCollectivite":"Commune","region":"Nouvelle-Aquitaine","departement":"Corrèze","departementCode":"19","adresse":{"street":"Le Bourg","postalCode":"19800","city":"Vitrac-sur-Montane","country":"France"},"contacts":{"email":"mairie@vitracsurmontane.fr","telephone":"0555213351"},"horaires":"Du Mardi au Mercredi : de 08h30 à 12h30 de 13h30 à 17h30","latitude":45.376377,"longitude":1.934924,"website":"https://www.mairie-vitracsurmontane.fr/","hasWebsite":true,"hasHoraires":true,"url":"https://lannuaire.service-public.gouv.fr/nouvelle-aquitaine/correze/2fefaa7c-c242-4ce8-ad8a-0d69d2a36dcc"}
{"nom":"Voutezac","nomNormalise":"voutezac","typeCollectivite":"Commune","region":"Nouvelle-Aquitaine","departement":"Corrèze","departementCode":"19","adresse":{"street":"Place de la République","postalCode":"19130","city":"Voutezac","country":"France"},"contacts":{"email":"mairie@voutezac.fr","telephone":"0555250647"},"horaires":"Du Lundi au Jeudi : de 09h00 à 12h00 de 14h00 à 17h00\nDu Vendredi au Samedi : de 09h00 à 12h00","latitude":45.292244,"longitude":1.437746,"website":"https://www.voutezac.fr/","hasWebsite":true,"hasHoraires":true,"url":"https://lannuaire.service-public.gouv.fr/nouvelle-aquitaine/correze/8705dbdb-1d84-4373-b34f-1398cb2d9434"}
{"nom":"Yssandon","nomNormalise":"yssandon","typeCollectivite":"Commune","region":"Nouvelle-Aquitaine","departement":"Corrèze","departementCode":"19","adresse":{"street":"La Prodelie","postalCode":"19310","city":"Yssandon","country":"France"},"contacts":{"email":"yssandon@mairie19.fr","telephone":"0555251173"},"horaires":"Le Lundi : de 09h00 à 12h00 de 14h00 à 17h00\nDu Mardi au Jeudi : de 09h00 à 12h00\nLe Vendredi : de 09h00 à 12h00 de 14h00 à 17h00\nLe Samedi : de 09h00 à 12h00","latitude":45.406044,"longitude":2.046285,"website":"http://www.yssandon.fr/","hasWebsite":true,"hasHoraires":true,"url":"https://lannuaire.service-public.gouv.fr/nouvelle-aquitaine/correze/12eb4a80-bd86-4f8c-a964-5e161a33c10b"}
