{"nom":"Ahun","nomNormalise":"ahun","typeCollectivite":"Commune","region":"Nouvelle-Aquitaine","departement":"Creuse","departementCode":"23","adresse":{"street":"1 place Albert-Giraud","postalCode":"23150","city":"Ahun","country":"France"},"contacts":{"email":"mairie@ahun.fr","telephone":"0555624024"},"horaires":"Le Lundi : de 09h00 à 12h00 de 14h00 à 17h00\nLe Mardi : de 09h00 à 12h00\nLe Mercredi : de 09h00 à 12h00 de 14h00 à 18h00\nLe Jeudi : de 09h00 à 12h00\nLe Vendredi : de 09h00 à 12h00 de 14h00 à 17h00","latitude":46.08645,"longitude":2.044867,"website":"https://www.ahun.fr/","hasWebsite":true,"hasHoraires":true,"url":"https://lannuaire.service-public.gouv.fr/nouvelle-aquitaine/creuse/d25dffe5-71b3-4f4e-956c-9cf50beeee12"}
{"nom":"Ajain","nomNormalise":"ajain","typeCollectivite":"Commune","region":"Nouvelle-Aquitaine","departement":"Creuse","departementCode":"23","adresse":{"street":"51 route de Guéret","postalCode":"23380","city":"Ajain","country":"France"},"contacts":{"email":"mairie-ajain@orange.fr","telephone":"0555809619"},"horaires":"Du Lundi au Vendredi : de 08h30 à 12h00","latitude":46.20663,"longitude":1.994763,"website":"https://www.ajain.fr/","hasWebsite":true,"hasHoraires":true,"url":"https://lannuaire.service-public.gouv.fr/nouvelle-aquitaine/creuse/a6d22f6a-4c3c-45e6-8827-4e5ecf6099cd"}
{"nom":"Alleyrat","nomNormalise":"alleyrat","typeCollectivite":"Commune","region":"Nouvelle-Aquitaine","departement":"Creuse","departementCode":"23","adresse":{"street":"12 La Ribière","postalCode":"23200","city":"Alleyrat","country":"France"},"contacts":{"email":"mairie.alleyrat0987@orange.fr","telephone":"0555668950"},"horaires":"Le Lundi : de 09h00 à 13h00 de 13h30 à 17h00\nLe Jeudi : de 09h00 à 13h00 de 13h30 à 17h00","latitude":45.989674,"longitude":2.153152,"website":"","hasWebsite":false,"hasHoraires":true,"url":"https://lannuaire.service-public.gouv.fr/nouvelle-aquitaine/creuse/55caaab9-f02e-49c0-8b6d-c5a64f308bce"}
{"nom":"Anzême","nomNormalise":"anzeme","typeCollectivite":"Commune","region":"Nouvelle-Aquitaine","departement":"Creuse","departementCode":"23","adresse":{"street":"4 place de la Mairie","postalCode":"23000","city":"Anzême","country":"France"},"contacts":{"email":"contact@anzeme.fr","telephone":"0555522008"},"horaires":"Le Lundi : de 08h00 à 12h00 de 13h30 à 17h30\nLe Mardi : de 13h00 à 16h30\nLe Mercredi : de 08h00 à 12h00 de 13h30 à 16h30\nLe Jeudi : de 08h00 à 12h00 de 13h30 à 17h30\nLe Vendredi : de 08h00 à 12h00","latitude":46.267723,"longitude":1.864443,"website":"https://www.anzeme.fr/","hasWebsite":true,"hasHoraires":true,"url":"https://lannuaire.service-public.gouv.fr/nouvelle-aquitaine/creuse/60655997-8aba-497a-baa0-ef71fd46a469"}
{"nom":"Arfeuille-Châtain","nomNormalise":"arfeuillechatain","typeCollectivite":"Commune","region":"Nouvelle-Aquitaine","departement":"Creuse","departementCode":"23","adresse":{"street":"2 Châtain","postalCode":"23700","city":"Arfeuille-Châtain","country":"France"},"contacts":{"email":"communearfeuille-chatain@orange.fr","telephone":"0555831137"},"horaires":"Le Lundi : de 13h30 à 17h30\nDu Mardi au Jeudi : de 09h00 à 12h00","latitude":46.07728,"longitude":2.4144855,"website":"","hasWebsite":false,"hasHoraires":true,"url":"https://lannuaire.service-public.gouv.fr/nouvelle-aquitaine/creuse/805364a9-de49-4eeb-acca-8aeec515a54a"}
{"nom":"Arrènes","nomNormalise":"arrenes","typeCollectivite":"Commune","region":"Nouvelle-Aquitaine","departement":"Creuse","departementCode":"23","adresse":{"street":"1 rue de la Mairie","postalCode":"23210","city":"Arrènes","country":"France"},"contacts":{"email":"mairie.arrenes@orange.fr","telephone":"0555626073"},"horaires":"Le Lundi : de 13h00 à 17h00\nLe Mercredi : de 09h00 à 12h00 de 14h00 à 17h00\nLe Vendredi : de 13h00 à 17h00","latitude":46.072308,"longitude":1.569796,"website":"","hasWebsite":false,"hasHoraires":true,"url":"https://lannuaire.service-public.gouv.fr/nouvelle-aquitaine/creuse/ecba7e9b-a2ab-4aae-a560-fb47bf222be7"}
{"nom":"Ars","nomNormalise":"ars","typeCollectivite":"Commune","region":"Nouvelle-Aquitaine","departement":"Creuse","departementCode":"23","adresse":{"street":"13 le Bourg","postalCode":"23480","city":"Ars","country":"France"},"contacts":{"email":"commune-d-ars@orange.fr","telephone":"0555666719"},"horaires":"Le Lundi : de 09h00 à 12h00\nLe Mardi : de 09h00 à 12h00 de 14h00 à 17h00\nLe Vendredi : de 09h00 à 12h00 de 14h00 à 16h00","latitude":46.003696,"longitude":2.078076,"website":"","hasWebsite":false,"hasHoraires":true,"url":"https://lannuaire.service-public.gouv.fr/nouvelle-aquitaine/creuse/6ab5a96c-3674-4cda-aab4-8abd9bae387d"}
{"nom":"Aubusson","nomNormalise":"aubusson","typeCollectivite":"Commune","region":"Nouvelle-Aquitaine","departement":"Creuse","departementCode":"23","adresse":{"street":"3ème étage","postalCode":"23200","city":"Aubusson","country":"France"},"contacts":{"email":"contact@aubusson.fr","telephone":"0555830800"},"horaires":"Du Lundi au Mardi : de 09h00 à 13h00\nLe Mercredi : de 09h00 à 13h00 de 14h00 à 17h30\nLe Jeudi : de 09h00 à 13h00\nLe Vendredi : de 09h00 à 13h00 de 14h00 à 17h30","latitude":45.95686,"longitude":2.170132,"website":"https://www.aubusson.fr/","hasWebsite":true,"hasHoraires":true,"url":"https://lannuaire.service-public.gouv.fr/nouvelle-aquitaine/creuse/eb753128-9974-42b4-bd40-ca1805970c22"}
{"nom":"Auge","nomNormalise":"auge","typeCollectivite":"Commune","region":"Nouvelle-Aquitaine","departement":"Creuse","departementCode":"23","adresse":{"street":"Le Bourg","postalCode":"23170","city":"Auge","country":"France"},"contacts":{"email":"communedauge@orange.fr","telephone":"0555657334"},"horaires":"","latitude":46.241947,"longitude":2.323249,"website":"","hasWebsite":false,"hasHoraires":false,"url":"https://lannuaire.service-public.gouv.fr/nouvelle-aquitaine/creuse/a137c217-42f5-4696-91b4-85d4387a8e07"}
{"nom":"Augères","nomNormalise":"augeres","typeCollectivite":"Commune","region":"Nouvelle-Aquitaine","departement":"Creuse","departementCode":"23","adresse":{"street":"6 Le tilleul de Villard","postalCode":"23210","city":"Augères","country":"France"},"contacts":{"email":"mairie.augeres@wanadoo.fr","telephone":"0988993743"},"horaires":"Le Mardi : de 08h30 à 17h00\nLe Vendredi : de 08h30 à 12h00","latitude":46.082825,"longitude":1.734674,"website":"https://www.augeres23.fr/","hasWebsite":true,"hasHoraires":true,"url":"https://lannuaire.service-public.gouv.fr/nouvelle-aquitaine/creuse/5d461ac4-e9e9-4514-be51-793f031be8a0"}
{"nom":"Aulon","nomNormalise":"aulon","typeCollectivite":"Commune","region":"Nouvelle-Aquitaine","departement":"Creuse","departementCode":"23","adresse":{"street":"1 place Jean-Caillaud","postalCode":"23210","city":"Aulon","country":"France"},"contacts":{"email":"commune.aulon@wanadoo.fr","telephone":"0555620134"},"horaires":"Le Lundi : de 08h30 à 16h00\nLe Jeudi : de 08h30 à 16h00","latitude":46.08008,"longitude":1.68918,"website":"http://www.aulon.fr/","hasWebsite":true,"hasHoraires":true,"url":"https://lannuaire.service-public.gouv.fr/nouvelle-aquitaine/creuse/d8a050c8-d4ce-4d5f-a3c2-2cd085909517"}
{"nom":"Auriat","nomNormalise":"auriat","typeCollectivite":"Commune","region":"Nouvelle-Aquitaine","departement":"Creuse","departementCode":"23","adresse":{"street":"1 route de la Mairie","postalCode":"23400","city":"Auriat","country":"France"},"contacts":{"email":"mairie.auriat@orange.fr","telephone":"0555549410"},"horaires":"Du Lundi au Mardi : de 09h00 à 12h30\nDu Jeudi au Vendredi : de 09h00 à 12h30","latitude":45.87347,"longitude":1.6449149,"website":"","hasWebsite":false,"hasHoraires":true,"url":"https://lannuaire.service-public.gouv.fr/nouvelle-aquitaine/creuse/4c1c5b1b-5bee-4f1f-bf98-8f6bcc22aa7f"}
{"nom":"Auzances","nomNormalise":"auzances","typeCollectivite":"Commune","region":"Nouvelle-Aquitaine","departement":"Creuse","departementCode":"23","adresse":{"street":"Place Jean-Moulin","postalCode":"23700","city":"Auzances","country":"France"},"contacts":{"email":"commune-auzances@auzances.fr","telephone":"0555670017"},"horaires":"Le Lundi : de 08h30 à 12h00\nDu Mardi au Vendredi : de 08h30 à 12h00 de 13h30 à 18h00","latitude":46.025112,"longitude":2.500712,"website":"https://www.ville-auzances.fr/","hasWebsite":true,"hasHoraires":true,"url":"https://lannuaire.service-public.gouv.fr/nouvelle-aquitaine/creuse/6a1c1f08-e68b-424e-a335-e6ac98f67d9f"}
{"nom":"Azat-Châtenet","nomNormalise":"azatchatenet","typeCollectivite":"Commune","region":"Nouvelle-Aquitaine","departement":"Creuse","departementCode":"23","adresse":{"street":"1 rue Principale","postalCode":"23210","city":"Azat-Châtenet","country":"France"},"contacts":{"email":"mairie.azat-chatenet@wanadoo.fr","telephone":"0555813351"},"horaires":"Le Mercredi : de 08h30 à 17h00\nLe Vendredi : de 12h30 à 16h30","latitude":46.077797,"longitude":1.761077,"website":"https://www.azat-chatenet.fr/","hasWebsite":true,"hasHoraires":true,"url":"https://lannuaire.service-public.gouv.fr/nouvelle-aquitaine/creuse/1aa0c350-5269-41ef-a51e-b6a1f45da830"}
{"nom":"Azerables","nomNormalise":"azerables","typeCollectivite":"Commune","region":"Nouvelle-Aquitaine","departement":"Creuse","departementCode":"23","adresse":{"street":"3 place des Érables","postalCode":"23160","city":"Azerables","country":"France"},"contacts":{"email":"mairie.azerables@wanadoo.fr","telephone":"0555635150"},"horaires":"Du Lundi au Vendredi : de 08h30 à 12h00 de 13h30 à 18h00","latitude":46.353718,"longitude":1.475734,"website":"http://www.azerables-mairie.fr/","hasWebsite":true,"hasHoraires":true,"url":"https://lannuaire.service-public.gouv.fr/nouvelle-aquitaine/creuse/c2c7b7f4-be7b-4438-93d9-b9b2cec0044f"}
{"nom":"Banize","nomNormalise":"banize","typeCollectivite":"Commune","region":"Nouvelle-Aquitaine","departement":"Creuse","departementCode":"23","adresse":{"street":"11 rue de la Mairie","postalCode":"23120","city":"Banize","country":"France"},"contacts":{"email":"communedebanize@orange.fr","telephone":"0555660207"},"horaires":"Le Mardi : de 09h30 à 12h30 de 13h30 à 17h30\nLe Jeudi : de 09h30 à 12h30 de 13h30 à 17h30","latitude":45.931858,"longitude":1.997896,"website":"https://www.banize.fr/","hasWebsite":true,"hasHoraires":true,"url":"https://lannuaire.service-public.gouv.fr/nouvelle-aquitaine/creuse/80a45c51-c012-46bd-8a93-ec76910897db"}
{"nom":"Basville","nomNormalise":"basville","typeCollectivite":"Commune","region":"Nouvelle-Aquitaine","departement":"Creuse","departementCode":"23","adresse":{"street":"6 rue de la Mairie","postalCode":"23260","city":"Basville","country":"France"},"contacts":{"email":"mairie.basville@orange.fr","telephone":"0555674306"},"horaires":"Le Mardi : de 08h30 à 12h00 de 13h30 à 17h30\nLe Mercredi : de 08h30 à 12h30\nLe Vendredi : de 08h30 à 12h00","latitude":45.871933,"longitude":2.397984,"website":"","hasWebsite":false,"hasHoraires":true,"url":"https://lannuaire.service-public.gouv.fr/nouvelle-aquitaine/creuse/1a39f55c-efc0-49f8-9c98-c2768a1802ba"}
{"nom":"Bazelat","nomNormalise":"bazelat","typeCollectivite":"Commune","region":"Nouvelle-Aquitaine","departement":"Creuse","departementCode":"23","adresse":{"street":"31 le Bourg","postalCode":"23160","city":"Bazelat","country":"France"},"contacts":{"email":"mairie-bazelat@wanadoo.fr","telephone":"0555635368"},"horaires":"Le Mardi : de 08h30 à 12h00\nDu Mercredi au Jeudi : de 14h00 à 17h30\nDu Vendredi au Samedi : de 08h30 à 12h00","latitude":46.351425,"longitude":1.538827,"website":"","hasWebsite":false,"hasHoraires":true,"url":"https://lannuaire.service-public.gouv.fr/nouvelle-aquitaine/creuse/3796a0b3-c85f-4f78-bad5-dcf3b13de830"}
{"nom":"Beissat","nomNormalise":"beissat","typeCollectivite":"Commune","region":"Nouvelle-Aquitaine","departement":"Creuse","departementCode":"23","adresse":{"street":"Le Bourg","postalCode":"23260","city":"Beissat","country":"France"},"contacts":{"email":"","telephone":"0555678633"},"horaires":"","latitude":45.77295,"longitude":2.276901,"website":"","hasWebsite":false,"hasHoraires":false,"url":"https://lannuaire.service-public.gouv.fr/nouvelle-aquitaine/creuse/5fd6435a-94d0-4d1d-8a5b-72e6c80b9516"}
{"nom":"Bellegarde-en-Marche","nomNormalise":"bellegardeenmarche","typeCollectivite":"Commune","region":"Nouvelle-Aquitaine","departement":"Creuse","departementCode":"23","adresse":{"street":"1 place de la Poste","postalCode":"23190","city":"Bellegarde-en-Marche","country":"France"},"contacts":{"email":"mairie.bellegarde23@orange.fr","telephone":"0555676527"},"horaires":"Du Lundi au Jeudi : de 14h00 à 17h00","latitude":45.9811,"longitude":2.2939,"website":"","hasWebsite":false,"hasHoraires":true,"url":"https://lannuaire.service-public.gouv.fr/nouvelle-aquitaine/creuse/85e86360-7d6b-4c92-9f57-e3ed974002c1"}
{"nom":"Bénévent-l Abbaye","nomNormalise":"beneventlabbaye","typeCollectivite":"Commune","region":"Nouvelle-Aquitaine","departement":"Creuse","departementCode":"23","adresse":{"street":"1 rue Sarrazine","postalCode":"23210","city":"Bénévent-l'Abbaye","country":"France"},"contacts":{"email":"mairie.benevent@gmail.com","telephone":"0555626143"},"horaires":"Du Lundi au Mardi : de 08h30 à 12h00 de 14h00 à 17h00\nLe Mercredi : de 08h30 à 12h00\nDu Jeudi au Vendredi : de 08h30 à 12h00 de 14h00 à 17h00","latitude":46.1181,"longitude":1.62853,"website":"https://beneventlabbaye.fr/","hasWebsite":true,"hasHoraires":true,"url":"https://lannuaire.service-public.gouv.fr/nouvelle-aquitaine/creuse/2ba460a0-182b-4a44-9886-98cf1c703cb5"}
{"nom":"Bétête","nomNormalise":"betete","typeCollectivite":"Commune","region":"Nouvelle-Aquitaine","departement":"Creuse","departementCode":"23","adresse":{"street":"1 place du 18-Juin-1940","postalCode":"23270","city":"Bétête","country":"France"},"contacts":{"email":"mairie.betete@wanadoo.fr","telephone":"0555807268"},"horaires":"Le Lundi : de 08h30 à 12h00\nLe Mardi : de 09h00 à 12h00\nLe Jeudi : de 14h00 à 17h30","latitude":46.35874,"longitude":2.0771916,"website":"","hasWebsite":false,"hasHoraires":true,"url":"https://lannuaire.service-public.gouv.fr/nouvelle-aquitaine/creuse/95bda508-2936-471b-8a49-35931003d92b"}
{"nom":"Mairie déléguée - Blaudeix","nomNormalise":"mairiedelegueeblaudeix","typeCollectivite":"Commune","region":"Nouvelle-Aquitaine","departement":"Creuse","departementCode":"23","adresse":{"street":"Blaudeix","postalCode":"23140","city":"Parsac","country":"France"},"contacts":{"email":"mairie.blaudeix@orange.fr","telephone":"0555808628"},"horaires":"Le Mercredi : de 14h00 à 16h30\n\nouvert au public : le 3e mercredi du mois de 14 h à 16 h 30\nouvert au public : le 3e mercredi du mois de 14 h à 16 h 30","latitude":46.2307,"longitude":2.084063,"website":"","hasWebsite":false,"hasHoraires":true,"url":"https://lannuaire.service-public.gouv.fr/nouvelle-aquitaine/creuse/6f17c2f4-9c04-45f7-963b-94e3dd4c0575"}
{"nom":"Blessac","nomNormalise":"blessac","typeCollectivite":"Commune","region":"Nouvelle-Aquitaine","departement":"Creuse","departementCode":"23","adresse":{"street":"4 rue du Château","postalCode":"23200","city":"Blessac","country":"France"},"contacts":{"email":"mairie.blessac@wanadoo.fr","telephone":"0555661740"},"horaires":"Du Mardi au Vendredi : de 13h30 à 17h30\nLe Samedi : de 09h00 à 12h00","latitude":45.958504,"longitude":2.12781,"website":"https://blessac.creuse-grand-sud.fr/","hasWebsite":true,"hasHoraires":true,"url":"https://lannuaire.service-public.gouv.fr/nouvelle-aquitaine/creuse/49aaa57e-3ee8-4ae3-ab63-a88c7cae694b"}
{"nom":"Bonnat","nomNormalise":"bonnat","typeCollectivite":"Commune","region":"Nouvelle-Aquitaine","departement":"Creuse","departementCode":"23","adresse":{"street":"2 place de la Fontaine","postalCode":"23220","city":"Bonnat","country":"France"},"contacts":{"email":"mairie.bonnat@orange.fr","telephone":"0555621038"},"horaires":"Du Lundi au Jeudi : de 08h30 à 12h30 de 13h45 à 17h00\nLe Vendredi : de 08h30 à 12h30 de 14h00 à 16h00","latitude":46.3278,"longitude":1.90405,"website":"https://mairiedebonnat.portesdelacreuseenmarche.fr/mairiedebonnat-2023/","hasWebsite":true,"hasHoraires":true,"url":"https://lannuaire.service-public.gouv.fr/nouvelle-aquitaine/creuse/74dccf68-6443-4774-bedd-a55d62ba5161"}
{"nom":"Bord-Saint-Georges","nomNormalise":"bordsaintgeorges","typeCollectivite":"Commune","region":"Nouvelle-Aquitaine","departement":"Creuse","departementCode":"23","adresse":{"street":"5 place de la Mairie","postalCode":"23230","city":"Bord-Saint-Georges","country":"France"},"contacts":{"email":"mairiebordsaintgeorges@orange.fr","telephone":"0555657198"},"horaires":"Du Lundi au Mardi : de 13h30 à 17h00\nDu Jeudi au Vendredi : de 13h30 à 17h00","latitude":46.2629,"longitude":2.30015,"website":"","hasWebsite":false,"hasHoraires":true,"url":"https://lannuaire.service-public.gouv.fr/nouvelle-aquitaine/creuse/5dcd8ba8-53ee-4e74-8f3f-208c124519a5"}
{"nom":"Bosmoreau-les-Mines","nomNormalise":"bosmoreaulesmines","typeCollectivite":"Commune","region":"Nouvelle-Aquitaine","departement":"Creuse","departementCode":"23","adresse":{"street":"28 rue de la Mairie","postalCode":"23400","city":"Bosmoreau-les-Mines","country":"France"},"contacts":{"email":"mairie.bosmoreau@orange.fr","telephone":"0555640816"},"horaires":"Le Lundi : de 14h30 à 19h30\nLe Mercredi : de 14h30 à 19h30\nLe Vendredi : de 14h30 à 19h30","latitude":46.0015,"longitude":1.75656,"website":"","hasWebsite":false,"hasHoraires":true,"url":"https://lannuaire.service-public.gouv.fr/nouvelle-aquitaine/creuse/a399f394-4589-4369-8b5a-47f911a130b1"}
{"nom":"Bosroger","nomNormalise":"bosroger","typeCollectivite":"Commune","region":"Nouvelle-Aquitaine","departement":"Creuse","departementCode":"23","adresse":{"street":"1 le Bourg","postalCode":"23200","city":"Bosroger","country":"France"},"contacts":{"email":"mairie.bosroger@wanadoo.fr","telephone":"0555833197"},"horaires":"Le Mardi : de 09h30 à 12h00\nLe Jeudi : de 09h30 à 12h00\nLe Vendredi : de 14h00 à 16h00","latitude":45.992832,"longitude":2.251043,"website":"http://www.bosroger.fr/","hasWebsite":true,"hasHoraires":true,"url":"https://lannuaire.service-public.gouv.fr/nouvelle-aquitaine/creuse/ee629a1a-7d37-40fa-b018-df7e58462fe5"}
{"nom":"Bourganeuf","nomNormalise":"bourganeuf","typeCollectivite":"Commune","region":"Nouvelle-Aquitaine","departement":"Creuse","departementCode":"23","adresse":{"street":"Place de l'Hôtel-de-Ville","postalCode":"23400","city":"Bourganeuf","country":"France"},"contacts":{"email":"contact@bourganeuf.fr","telephone":"0555640761"},"horaires":"Le Lundi : de 08h30 à 12h30\nDu Mardi au Mercredi : de 08h30 à 12h30 de 13h15 à 17h00\nLe Jeudi : de 08h30 à 12h30\nLe Vendredi : de 08h30 à 12h30 de 13h15 à 17h00","latitude":45.953472,"longitude":1.757007,"website":"http://www.bourganeuf.fr/","hasWebsite":true,"hasHoraires":true,"url":"https://lannuaire.service-public.gouv.fr/nouvelle-aquitaine/creuse/b9a9caf7-438b-4334-b457-8a2bd0023167"}
{"nom":"Boussac","nomNormalise":"boussac","typeCollectivite":"Commune","region":"Nouvelle-Aquitaine","departement":"Creuse","departementCode":"23","adresse":{"street":"Place de l'Hôtel-de-Ville","postalCode":"23600","city":"Boussac","country":"France"},"contacts":{"email":"mairie@boussac23.fr","telephone":"0555650109"},"horaires":"Du Lundi au Vendredi : de 08h30 à 12h00 de 14h00 à 17h30\nLe Samedi : de 09h00 à 12h00\n\nPermanence administrative et du maire, accueil fermé du 15 juillet au 15 août.","latitude":46.3485,"longitude":2.21448,"website":"https://www.boussac.fr/","hasWebsite":true,"hasHoraires":true,"url":"https://lannuaire.service-public.gouv.fr/nouvelle-aquitaine/creuse/f027556f-21b5-4cb3-9a84-f15ad68c5c05"}
{"nom":"Boussac-Bourg","nomNormalise":"boussacbourg","typeCollectivite":"Commune","region":"Nouvelle-Aquitaine","departement":"Creuse","departementCode":"23","adresse":{"street":"14 rue Grande","postalCode":"23600","city":"Boussac-Bourg","country":"France"},"contacts":{"email":"commune@boussac-bourg.fr","telephone":"0555650393"},"horaires":"Du Lundi au Vendredi : de 09h00 à 12h00","latitude":46.360565,"longitude":2.232741,"website":"","hasWebsite":false,"hasHoraires":true,"url":"https://lannuaire.service-public.gouv.fr/nouvelle-aquitaine/creuse/c9094bd4-b6d7-454e-8cb4-d9971c179158"}
{"nom":"Brousse","nomNormalise":"brousse","typeCollectivite":"Commune","region":"Nouvelle-Aquitaine","departement":"Creuse","departementCode":"23","adresse":{"street":"2 le Bourg","postalCode":"23700","city":"Brousse","country":"France"},"contacts":{"email":"mairie.brousse@orange.fr","telephone":"0555670925"},"horaires":"Le Mercredi : de 13h30 à 16h30","latitude":45.972023,"longitude":2.455818,"website":"","hasWebsite":false,"hasHoraires":true,"url":"https://lannuaire.service-public.gouv.fr/nouvelle-aquitaine/creuse/f21c1138-b1f6-4bce-a078-7b415f915ee9"}
{"nom":"Budelière","nomNormalise":"budeliere","typeCollectivite":"Commune","region":"Nouvelle-Aquitaine","departement":"Creuse","departementCode":"23","adresse":{"street":"7 rue Pont-la-Guise","postalCode":"23170","city":"Budelière","country":"France"},"contacts":{"email":"mairie-budeliere@orange.fr","telephone":"0555828198"},"horaires":"Le Lundi : de 09h00 à 12h30 de 13h30 à 17h30\nLe Mardi : de 09h00 à 12h30 de 13h30 à 16h30\nLe Mercredi : de 09h00 à 12h30\nLe Jeudi : de 08h30 à 12h30 de 13h30 à 17h30\nLe Vendredi : de 09h00 à 12h30 de 13h30 à 16h30","latitude":46.223457,"longitude":2.4627433,"website":"","hasWebsite":false,"hasHoraires":true,"url":"https://lannuaire.service-public.gouv.fr/nouvelle-aquitaine/creuse/4c2b1130-8e5d-4ca2-b240-d29b2aaef3e3"}
{"nom":"Bussière-Dunoise","nomNormalise":"bussieredunoise","typeCollectivite":"Commune","region":"Nouvelle-Aquitaine","departement":"Creuse","departementCode":"23","adresse":{"street":"Place de l'Église","postalCode":"23320","city":"Bussière-Dunoise","country":"France"},"contacts":{"email":"bussieredunoise@wanadoo.fr","telephone":"0555816216"},"horaires":"Du Lundi au Mardi : de 09h00 à 12h00 de 14h00 à 18h00\nLe Mercredi : de 09h00 à 12h00\nLe Jeudi : de 09h00 à 12h00 de 14h00 à 18h00\nLe Vendredi : de 09h00 à 12h00","latitude":46.2584,"longitude":1.76285,"website":"http://www.bussieredunoise.fr/","hasWebsite":true,"hasHoraires":true,"url":"https://lannuaire.service-public.gouv.fr/nouvelle-aquitaine/creuse/b7a3cd7f-588d-4004-bd62-7c9fc46973e5"}
{"nom":"Bussière-Nouvelle","nomNormalise":"bussierenouvelle","typeCollectivite":"Commune","region":"Nouvelle-Aquitaine","departement":"Creuse","departementCode":"23","adresse":{"street":"1 place de la Mairie","postalCode":"23700","city":"Bussière-Nouvelle","country":"France"},"contacts":{"email":"bussiere-nouvelle@wanadoo.fr","telephone":"0555671549"},"horaires":"Le Lundi : de 15h30 à 18h15\nLe Mardi : de 13h00 à 18h15\nLe Mercredi : de 09h00 à 17h00","latitude":46.018524,"longitude":2.427073,"website":"","hasWebsite":false,"hasHoraires":true,"url":"https://lannuaire.service-public.gouv.fr/nouvelle-aquitaine/creuse/1a6603da-cf04-4e66-9f9c-8b06375580a8"}
{"nom":"Bussière-Saint-Georges","nomNormalise":"bussieresaintgeorges","typeCollectivite":"Commune","region":"Nouvelle-Aquitaine","departement":"Creuse","departementCode":"23","adresse":{"street":"Le Bourg","postalCode":"23600","city":"Bussière-Saint-Georges","country":"France"},"contacts":{"email":"mairie.bussiere@orange.fr","telephone":"0555820078"},"horaires":"Le Mardi : de 08h30 à 12h30 de 14h00 à 18h00\nLe Jeudi : de 08h30 à 12h30 de 14h00 à 18h00\nLe Samedi : de 09h00 à 12h00","latitude":46.402107,"longitude":2.133965,"website":"","hasWebsite":false,"hasHoraires":true,"url":"https://lannuaire.service-public.gouv.fr/nouvelle-aquitaine/creuse/967858c0-6ab7-4480-9a35-ccb8de767ccd"}
{"nom":"Ceyroux","nomNormalise":"ceyroux","typeCollectivite":"Commune","region":"Nouvelle-Aquitaine","departement":"Creuse","departementCode":"23","adresse":{"street":"Le Bourg","postalCode":"23210","city":"Ceyroux","country":"France"},"contacts":{"email":"mairie.ceyroux@wanadoo.fr","telephone":"0555620205"},"horaires":"Le Mardi : de 08h00 à 17h00\nLe Vendredi : de 08h00 à 17h00","latitude":46.0939,"longitude":1.6757,"website":"","hasWebsite":false,"hasHoraires":true,"url":"https://lannuaire.service-public.gouv.fr/nouvelle-aquitaine/creuse/5e36cfb8-6846-4681-9e95-1bdb49fd4289"}
{"nom":"Chamberaud","nomNormalise":"chamberaud","typeCollectivite":"Commune","region":"Nouvelle-Aquitaine","departement":"Creuse","departementCode":"23","adresse":{"street":"1 place André-Roudier","postalCode":"23480","city":"Chamberaud","country":"France"},"contacts":{"email":"maire.chamberaud@laposte.net","telephone":"0555625442"},"horaires":"Le Mercredi : de 09h30 à 12h30 de 13h30 à 18h00\nLe Vendredi : de 09h00 à 13h00 de 14h00 à 17h30","latitude":46.047558,"longitude":2.047231,"website":"","hasWebsite":false,"hasHoraires":true,"url":"https://lannuaire.service-public.gouv.fr/nouvelle-aquitaine/creuse/81f6c0a3-2ba1-46c0-b7c6-f9a692295517"}
{"nom":"Chambonchard","nomNormalise":"chambonchard","typeCollectivite":"Commune","region":"Nouvelle-Aquitaine","departement":"Creuse","departementCode":"23","adresse":{"street":"17 le Bourg","postalCode":"23110","city":"Chambonchard","country":"France"},"contacts":{"email":"mairie.chambonchard@orange.fr","telephone":"0555655414"},"horaires":"Le Mardi : de 08h30 à 12h30\nLe Jeudi : de 13h30 à 17h30","latitude":46.1764,"longitude":2.55134,"website":"","hasWebsite":false,"hasHoraires":true,"url":"https://lannuaire.service-public.gouv.fr/nouvelle-aquitaine/creuse/e184f065-0f94-4a6c-bf2a-df0a3d80a8d2"}
{"nom":"Chambon-Sainte-Croix","nomNormalise":"chambonsaintecroix","typeCollectivite":"Commune","region":"Nouvelle-Aquitaine","departement":"Creuse","departementCode":"23","adresse":{"street":"13 rue de la Mairie","postalCode":"23220","city":"Chambon-Sainte-Croix","country":"France"},"contacts":{"email":"mairie-chambon.sainte.croix@orange.fr","telephone":"0555898484"},"horaires":"Le Lundi : de 13h30 à 17h30\nDu Mardi au Vendredi : de 13h30 à 17h00","latitude":46.354,"longitude":1.775359,"website":"","hasWebsite":false,"hasHoraires":true,"url":"https://lannuaire.service-public.gouv.fr/nouvelle-aquitaine/creuse/db0bce1e-3e4b-4a98-8f10-790de4424112"}
{"nom":"Chambon-sur-Voueize","nomNormalise":"chambonsurvoueize","typeCollectivite":"Commune","region":"Nouvelle-Aquitaine","departement":"Creuse","departementCode":"23","adresse":{"street":"7 place Delamarre","postalCode":"23170","city":"Chambon-sur-Voueize","country":"France"},"contacts":{"email":"mairie.chambonsurvoueize@wanadoo.fr","telephone":"0555821136"},"horaires":"Du Lundi au Vendredi : de 09h00 à 12h00 de 13h30 à 16h30","latitude":46.1896,"longitude":2.42495,"website":"http://www.ville-chambonsurvoueize.fr/","hasWebsite":true,"hasHoraires":true,"url":"https://lannuaire.service-public.gouv.fr/nouvelle-aquitaine/creuse/0f7f5b58-1c7f-44cd-97fc-2d6a88b2f7cd"}
{"nom":"Chamborand","nomNormalise":"chamborand","typeCollectivite":"Commune","region":"Nouvelle-Aquitaine","departement":"Creuse","departementCode":"23","adresse":{"street":"6 rue de la Tour","postalCode":"23240","city":"Chamborand","country":"France"},"contacts":{"email":"commune.de.chamborand@wanadoo.fr","telephone":"0555804467"},"horaires":"Du Lundi au Vendredi : de 08h00 à 12h00","latitude":46.156322,"longitude":1.572317,"website":"https://chamborand.com/","hasWebsite":true,"hasHoraires":true,"url":"https://lannuaire.service-public.gouv.fr/nouvelle-aquitaine/creuse/abbef724-092a-4109-b019-e32b35ad1d2d"}
{"nom":"Champagnat","nomNormalise":"champagnat","typeCollectivite":"Commune","region":"Nouvelle-Aquitaine","departement":"Creuse","departementCode":"23","adresse":{"street":"6 rue de la Marche","postalCode":"23190","city":"Champagnat","country":"France"},"contacts":{"email":"mairie-champagnat@orange.fr","telephone":"0555676634"},"horaires":"Du Lundi au Vendredi : de 08h00 à 12h00","latitude":46.0195,"longitude":2.28109,"website":"","hasWebsite":false,"hasHoraires":true,"url":"https://lannuaire.service-public.gouv.fr/nouvelle-aquitaine/creuse/baaa66b8-2400-4baa-befe-b2981eb2c2c1"}
{"nom":"Champsanglard","nomNormalise":"champsanglard","typeCollectivite":"Commune","region":"Nouvelle-Aquitaine","departement":"Creuse","departementCode":"23","adresse":{"street":"1 rue de la Mairie","postalCode":"23220","city":"Champsanglard","country":"France"},"contacts":{"email":"mairie.champsanglard@orange.fr","telephone":"0555512194"},"horaires":"Le Lundi : de 09h00 à 12h00 de 13h30 à 17h00\nLe Mardi : de 13h30 à 17h00\nLe Mercredi : de 09h00 à 12h00\nLe Vendredi : de 09h00 à 12h00 de 13h30 à 17h00","latitude":46.274696,"longitude":1.883055,"website":"","hasWebsite":false,"hasHoraires":true,"url":"https://lannuaire.service-public.gouv.fr/nouvelle-aquitaine/creuse/1f28d7a9-047b-425a-92ba-0c6a6e135770"}
{"nom":"Chard","nomNormalise":"chard","typeCollectivite":"Commune","region":"Nouvelle-Aquitaine","departement":"Creuse","departementCode":"23","adresse":{"street":"11 route du Cher","postalCode":"23700","city":"Chard","country":"France"},"contacts":{"email":"mairiechard@wanadoo.fr","telephone":"0555672484"},"horaires":"Le Lundi : de 09h00 à 12h00 de 13h30 à 17h00\nLe Vendredi : de 09h00 à 12h00","latitude":45.946075,"longitude":2.477056,"website":"","hasWebsite":false,"hasHoraires":true,"url":"https://lannuaire.service-public.gouv.fr/nouvelle-aquitaine/creuse/c70a1b0b-12ce-4339-be37-ab6bb6d31235"}
{"nom":"Charron","nomNormalise":"charron","typeCollectivite":"Commune","region":"Nouvelle-Aquitaine","departement":"Creuse","departementCode":"23","adresse":{"street":"Le Bourg","postalCode":"23700","city":"Charron","country":"France"},"contacts":{"email":"mairiecharron@wanadoo.fr","telephone":"0555670459"},"horaires":"Le Lundi : de 08h30 à 12h30 de 13h00 à 17h30\nDu Mardi au Vendredi : de 08h30 à 12h30","latitude":46.060345,"longitude":2.562504,"website":"","hasWebsite":false,"hasHoraires":true,"url":"https://lannuaire.service-public.gouv.fr/nouvelle-aquitaine/creuse/8c33a75b-ab04-46f4-bc03-706f92b1f01b"}
{"nom":"Châtelard","nomNormalise":"chatelard","typeCollectivite":"Commune","region":"Nouvelle-Aquitaine","departement":"Creuse","departementCode":"23","adresse":{"street":"Le Bourg","postalCode":"23700","city":"Châtelard","country":"France"},"contacts":{"email":"mairie-chatelard@orange.fr","telephone":"0555672704"},"horaires":"Le Jeudi : de 09h00 à 12h00","latitude":45.96377,"longitude":2.470108,"website":"","hasWebsite":false,"hasHoraires":true,"url":"https://lannuaire.service-public.gouv.fr/nouvelle-aquitaine/creuse/dcbb1020-0ec2-4571-9c59-36e223b3e028"}
{"nom":"Châtelus-le-Marcheix","nomNormalise":"chateluslemarcheix","typeCollectivite":"Commune","region":"Nouvelle-Aquitaine","departement":"Creuse","departementCode":"23","adresse":{"street":"1 rue des Écoliers","postalCode":"23430","city":"Châtelus-le-Marcheix","country":"France"},"contacts":{"email":"mairie.chatelus.lemeix@wanadoo.fr","telephone":"0555643009"},"horaires":"Le Lundi : de 09h00 à 12h00\nLe Mercredi : de 09h00 à 12h00\nLe Vendredi : de 09h00 à 12h00","latitude":46.0065,"longitude":1.60949,"website":"http://www.chateluslemarcheix.fr/","hasWebsite":true,"hasHoraires":true,"url":"https://lannuaire.service-public.gouv.fr/nouvelle-aquitaine/creuse/a292569d-6765-4663-b44a-7795ab4bf883"}
{"nom":"Châtelus-Malvaleix","nomNormalise":"chatelusmalvaleix","typeCollectivite":"Commune","region":"Nouvelle-Aquitaine","departement":"Creuse","departementCode":"23","adresse":{"street":"10 place de la Fontaine","postalCode":"23270","city":"Châtelus-Malvaleix","country":"France"},"contacts":{"email":"mairie-chatelusmalvaleix@wanadoo.fr","telephone":"0555807031"},"horaires":"Du Lundi au Vendredi : de 10h00 à 12h00 de 14h00 à 16h00","latitude":46.30482,"longitude":2.024066,"website":"https://www.chatelus-malvaleix.fr/","hasWebsite":true,"hasHoraires":true,"url":"https://lannuaire.service-public.gouv.fr/nouvelle-aquitaine/creuse/58683bf9-b63a-41ba-9af0-765355afabaf"}
{"nom":"Chavanat","nomNormalise":"chavanat","typeCollectivite":"Commune","region":"Nouvelle-Aquitaine","departement":"Creuse","departementCode":"23","adresse":{"street":"9 rue du Longis","postalCode":"23250","city":"Chavanat","country":"France"},"contacts":{"email":"mairie.chavanat@orange.fr","telephone":"0555666749"},"horaires":"Le Mercredi : de 09h00 à 12h00 de 13h30 à 16h00\nLe Vendredi : de 10h00 à 12h00 de 13h30 à 18h00","latitude":45.953835,"longitude":1.96454,"website":"","hasWebsite":false,"hasHoraires":true,"url":"https://lannuaire.service-public.gouv.fr/nouvelle-aquitaine/creuse/37a364ec-bd9e-4386-8234-f867a358a222"}
{"nom":"Chénérailles","nomNormalise":"chenerailles","typeCollectivite":"Commune","region":"Nouvelle-Aquitaine","departement":"Creuse","departementCode":"23","adresse":{"street":"10 rue de l'Église","postalCode":"23130","city":"Chénérailles","country":"France"},"contacts":{"email":"mairie.chenerailles@wanadoo.fr","telephone":"0555623722"},"horaires":"Du Lundi au Mardi : de 09h00 à 12h00 de 14h00 à 16h00\nLe Mercredi : de 09h00 à 12h00\nDu Jeudi au Vendredi : de 09h00 à 12h00 de 14h00 à 16h00","latitude":46.1138,"longitude":2.17505,"website":"http://www.chenerailles.fr/","hasWebsite":true,"hasHoraires":true,"url":"https://lannuaire.service-public.gouv.fr/nouvelle-aquitaine/creuse/7fc14d59-8409-479f-b562-36165f808938"}
{"nom":"Chéniers","nomNormalise":"cheniers","typeCollectivite":"Commune","region":"Nouvelle-Aquitaine","departement":"Creuse","departementCode":"23","adresse":{"street":"13 rue de la Liberté","postalCode":"23220","city":"Chéniers","country":"France"},"contacts":{"email":"mairie.cheniers@orange.fr","telephone":"0555621308"},"horaires":"Du Lundi au Vendredi : de 08h30 à 12h30","latitude":46.35404,"longitude":1.8268204,"website":"https://www.mairie-cheniers-creuse.com/","hasWebsite":true,"hasHoraires":true,"url":"https://lannuaire.service-public.gouv.fr/nouvelle-aquitaine/creuse/319de3c8-8cec-4aa7-bc52-2c9c29311ba9"}
{"nom":"Clairavaux","nomNormalise":"clairavaux","typeCollectivite":"Commune","region":"Nouvelle-Aquitaine","departement":"Creuse","departementCode":"23","adresse":{"street":"23 le Bourg","postalCode":"23500","city":"Clairavaux","country":"France"},"contacts":{"email":"mairie-clairavaux23@orange.fr","telephone":"0555669113"},"horaires":"Du Lundi au Mardi : de 14h00 à 18h00\nLe Vendredi : de 14h00 à 18h00","latitude":45.78262,"longitude":2.166363,"website":"https://www.clairavaux23.fr/","hasWebsite":true,"hasHoraires":true,"url":"https://lannuaire.service-public.gouv.fr/nouvelle-aquitaine/creuse/95760ed0-ec83-401e-93ec-17b2dba3fb01"}
{"nom":"Clugnat","nomNormalise":"clugnat","typeCollectivite":"Commune","region":"Nouvelle-Aquitaine","departement":"Creuse","departementCode":"23","adresse":{"street":"16 rue Jules-Ferry","postalCode":"23270","city":"Clugnat","country":"France"},"contacts":{"email":"mairie.clugnat@orange.fr","telephone":"0555650056"},"horaires":"Du Lundi au Mercredi : de 08h30 à 12h00\nLe Jeudi : de 13h30 à 17h00\nLe Vendredi : de 08h30 à 12h00","latitude":46.30764,"longitude":2.116553,"website":"","hasWebsite":false,"hasHoraires":true,"url":"https://lannuaire.service-public.gouv.fr/nouvelle-aquitaine/creuse/0432da66-42a6-43f5-ba7e-bb359feb5e61"}
{"nom":"Colondannes","nomNormalise":"colondannes","typeCollectivite":"Commune","region":"Nouvelle-Aquitaine","departement":"Creuse","departementCode":"23","adresse":{"street":"7 rue de la Mairie","postalCode":"23800","city":"Colondannes","country":"France"},"contacts":{"email":"mairie.colondannes@wanadoo.fr","telephone":"0555890036"},"horaires":"Le Lundi : de 14h00 à 18h00\nLe Mardi : de 12h30 à 17h00\nLe Mercredi : de 14h00 à 18h00\nLe Jeudi : de 13h30 à 17h30\nLe Vendredi : de 14h00 à 18h00","latitude":46.289196,"longitude":1.6110387,"website":"","hasWebsite":false,"hasHoraires":true,"url":"https://lannuaire.service-public.gouv.fr/nouvelle-aquitaine/creuse/64f814d0-3901-40b9-a1ec-1c2321d79aa6"}
{"nom":"Cressat","nomNormalise":"cressat","typeCollectivite":"Commune","region":"Nouvelle-Aquitaine","departement":"Creuse","departementCode":"23","adresse":{"street":"2 rue du Capitaine-Moure","postalCode":"23140","city":"Cressat","country":"France"},"contacts":{"email":"mairie.cressat@orange.fr","telephone":"0555623089"},"horaires":"Le Lundi : de 09h00 à 12h00\nLe Mercredi : de 09h00 à 12h00 de 14h00 à 17h00\nLe Jeudi : de 09h00 à 12h00\nLe Vendredi : de 09h00 à 12h00 de 13h30 à 17h00","latitude":46.13994,"longitude":2.10819,"website":"https://cressat.fr/","hasWebsite":true,"hasHoraires":true,"url":"https://lannuaire.service-public.gouv.fr/nouvelle-aquitaine/creuse/e96a555f-bbfa-4de0-9a7b-73615266bfa5"}
{"nom":"Crocq","nomNormalise":"crocq","typeCollectivite":"Commune","region":"Nouvelle-Aquitaine","departement":"Creuse","departementCode":"23","adresse":{"street":"2 place Marie-Thérèse-Goumy","postalCode":"23260","city":"Crocq","country":"France"},"contacts":{"email":"mairiedecrocq@orange.fr","telephone":"0555674032"},"horaires":"Le Lundi : de 09h00 à 12h00\nDu Mardi au Jeudi : de 09h00 à 12h00 de 14h00 à 17h00\nLe Vendredi : de 09h00 à 12h00","latitude":45.86821,"longitude":2.367235,"website":"https://www.crocq23.fr/","hasWebsite":true,"hasHoraires":true,"url":"https://lannuaire.service-public.gouv.fr/nouvelle-aquitaine/creuse/2e599bca-7c1c-4920-8b72-add3bfea6e0b"}
{"nom":"Crozant","nomNormalise":"crozant","typeCollectivite":"Commune","region":"Nouvelle-Aquitaine","departement":"Creuse","departementCode":"23","adresse":{"street":"30 rue Armand-Guillaumin","postalCode":"23160","city":"Crozant","country":"France"},"contacts":{"email":"mairie-crozant@wanadoo.fr","telephone":"0555898012"},"horaires":"Du Lundi au Vendredi : de 08h00 à 12h00 de 14h00 à 16h00","latitude":46.3919,"longitude":1.621726,"website":"","hasWebsite":false,"hasHoraires":true,"url":"https://lannuaire.service-public.gouv.fr/nouvelle-aquitaine/creuse/62d2a3d9-7201-40bd-83a2-3ec80fbf5108"}
{"nom":"Croze","nomNormalise":"croze","typeCollectivite":"Commune","region":"Nouvelle-Aquitaine","departement":"Creuse","departementCode":"23","adresse":{"street":"18 la Grattade","postalCode":"23500","city":"Croze","country":"France"},"contacts":{"email":"mairie-croze23@orange.fr","telephone":"0555669352"},"horaires":"Le Lundi : de 09h00 à 12h00\nLe Mardi : de 09h00 à 12h00 de 14h00 à 17h00\nLe Mercredi : de 14h00 à 17h00\nLe Vendredi : de 09h00 à 12h00","latitude":45.819073,"longitude":2.169571,"website":"http://www.croze-en-creuse.fr/","hasWebsite":true,"hasHoraires":true,"url":"https://lannuaire.service-public.gouv.fr/nouvelle-aquitaine/creuse/7dd23ebd-8fd0-4a54-a0d3-9ca96bd5c027"}
{"nom":"Domeyrot","nomNormalise":"domeyrot","typeCollectivite":"Commune","region":"Nouvelle-Aquitaine","departement":"Creuse","departementCode":"23","adresse":{"street":"8 rue de la Mairie","postalCode":"23140","city":"Domeyrot","country":"France"},"contacts":{"email":"commune.domeyrot@creuseconfluence.com","telephone":"0555622433"},"horaires":"Le Lundi : de 14h00 à 18h15\nLe Mardi : de 08h45 à 12h15\nDu Jeudi au Vendredi : de 08h45 à 12h15","latitude":46.24967,"longitude":2.156493,"website":"","hasWebsite":false,"hasHoraires":true,"url":"https://lannuaire.service-public.gouv.fr/nouvelle-aquitaine/creuse/ea067205-c4bf-418d-9a0a-7099c928ce7e"}
{"nom":"Dontreix","nomNormalise":"dontreix","typeCollectivite":"Commune","region":"Nouvelle-Aquitaine","departement":"Creuse","departementCode":"23","adresse":{"street":"2 rue de la Mairie","postalCode":"23700","city":"Dontreix","country":"France"},"contacts":{"email":"mairie.dontreix@orange.fr","telephone":"0555670419"},"horaires":"Le Lundi : de 13h30 à 17h00\nLe Mardi : de 09h00 à 12h00 de 13h30 à 17h00\nLe Mercredi : de 09h00 à 12h00\nLe Jeudi : de 09h00 à 12h00 de 13h30 à 17h00\nLe Vendredi : de 09h00 à 12h00","latitude":45.986855,"longitude":2.559087,"website":"http://www.dontreix23.e-monsite.com/","hasWebsite":true,"hasHoraires":true,"url":"https://lannuaire.service-public.gouv.fr/nouvelle-aquitaine/creuse/fb27f7f9-66b9-4253-bac6-5a62175752c1"}
{"nom":"Dun-le-Palestel","nomNormalise":"dunlepalestel","typeCollectivite":"Commune","region":"Nouvelle-Aquitaine","departement":"Creuse","departementCode":"23","adresse":{"street":"6 place de la Mairie","postalCode":"23800","city":"Dun-le-Palestel","country":"France"},"contacts":{"email":"mairie-dunlepalestel@orange.fr","telephone":"0555890130"},"horaires":"Du Lundi au Vendredi : de 08h30 à 12h00 de 13h30 à 18h00","latitude":46.30499,"longitude":1.6638288,"website":"https://www.dun-le-palestel.com/","hasWebsite":true,"hasHoraires":true,"url":"https://lannuaire.service-public.gouv.fr/nouvelle-aquitaine/creuse/2bc66e5f-3e49-44aa-aac4-6f343c929ef1"}
{"nom":"Évaux-les-Bains","nomNormalise":"evauxlesbains","typeCollectivite":"Commune","region":"Nouvelle-Aquitaine","departement":"Creuse","departementCode":"23","adresse":{"street":"Rue de l'Hôtel-de-Ville","postalCode":"23110","city":"Évaux-les-Bains","country":"France"},"contacts":{"email":"mairie23evauxlesbains@wanadoo.fr","telephone":"0555655020"},"horaires":"Le Lundi : de 09h00 à 12h00 de 14h00 à 17h30\nLe Mardi : de 09h00 à 12h00 de 13h30 à 17h00\nLe Mercredi : de 09h00 à 12h00 de 14h00 à 17h30\nLe Jeudi : de 09h00 à 12h00 de 13h30 à 17h00\nLe Vendredi : de 09h00 à 12h00 de 14h00 à 16h00","latitude":46.1746,"longitude":2.48727,"website":"https://www.evaux-les-bains.fr/","hasWebsite":true,"hasHoraires":true,"url":"https://lannuaire.service-public.gouv.fr/nouvelle-aquitaine/creuse/bd2cea2f-25d4-4f8a-a97c-c3add2db719b"}
{"nom":"Faux-la-Montagne","nomNormalise":"fauxlamontagne","typeCollectivite":"Commune","region":"Nouvelle-Aquitaine","departement":"Creuse","departementCode":"23","adresse":{"street":"1 Esplanade Andrée-Orluc","postalCode":"23340","city":"Faux-la-Montagne","country":"France"},"contacts":{"email":"mairie@fauxlamontagne.fr","telephone":"0555679215"},"horaires":"Le Lundi : de 09h00 à 12h00 de 14h00 à 18h00\nLe Mardi : de 09h00 à 12h00\nDu Jeudi au Vendredi : de 09h00 à 12h00","latitude":45.750046,"longitude":1.936592,"website":"https://fauxlamontagne.fr/","hasWebsite":true,"hasHoraires":true,"url":"https://lannuaire.service-public.gouv.fr/nouvelle-aquitaine/creuse/43eaf724-eddd-4cb8-a663-01cafcf6c5ee"}
{"nom":"Faux-Mazuras","nomNormalise":"fauxmazuras","typeCollectivite":"Commune","region":"Nouvelle-Aquitaine","departement":"Creuse","departementCode":"23","adresse":{"street":"1 Mourne","postalCode":"23400","city":"Faux-Mazuras","country":"France"},"contacts":{"email":"mairie.fauxmazuras@orange.fr","telephone":"0555640698"},"horaires":"Le Lundi : de 09h00 à 12h00 de 14h00 à 17h00\nLe Mercredi : de 09h00 à 12h00\nLe Jeudi : de 09h00 à 12h00 de 14h00 à 17h00","latitude":45.923706,"longitude":1.783688,"website":"https://www.faux-mazuras.fr/","hasWebsite":true,"hasHoraires":true,"url":"https://lannuaire.service-public.gouv.fr/nouvelle-aquitaine/creuse/e81f9ba6-a81f-42f2-83ff-b15973a8764b"}
{"nom":"Felletin","nomNormalise":"felletin","typeCollectivite":"Commune","region":"Nouvelle-Aquitaine","departement":"Creuse","departementCode":"23","adresse":{"street":"12 place Charles-de-Gaulle","postalCode":"23500","city":"Felletin","country":"France"},"contacts":{"email":"contact@felletin.fr","telephone":"0555665111"},"horaires":"Le Lundi : de 09h30 à 12h00 de 13h30 à 17h00\nLe Mardi : de 08h30 à 12h00\nLe Mercredi : de 08h30 à 12h00 de 13h30 à 17h00\nLe Jeudi : de 08h30 à 12h00 de 13h30 à 18h00\nLe Vendredi : de 08h30 à 12h00 de 13h30 à 17h00","latitude":45.884903,"longitude":2.173311,"website":"https://www.felletin.fr/","hasWebsite":true,"hasHoraires":true,"url":"https://lannuaire.service-public.gouv.fr/nouvelle-aquitaine/creuse/9d82e4ad-eaf0-42ce-9758-787d91601ebe"}
{"nom":"Féniers","nomNormalise":"feniers","typeCollectivite":"Commune","region":"Nouvelle-Aquitaine","departement":"Creuse","departementCode":"23","adresse":{"street":"1 allée de la Commanderie","postalCode":"23100","city":"Féniers","country":"France"},"contacts":{"email":"mairie.feniers@gmail.com","telephone":"0555669151"},"horaires":"Le Lundi : de 08h30 à 12h00\nLe Mercredi : de 08h30 à 12h00\nLe Vendredi : de 14h00 à 16h00","latitude":45.749733,"longitude":2.125388,"website":"","hasWebsite":false,"hasHoraires":true,"url":"https://lannuaire.service-public.gouv.fr/nouvelle-aquitaine/creuse/67bfbce1-b079-4442-bda1-e9274dfa2c0f"}
{"nom":"Flayat","nomNormalise":"flayat","typeCollectivite":"Commune","region":"Nouvelle-Aquitaine","departement":"Creuse","departementCode":"23","adresse":{"street":"6 rue du Puy-de-la-Belle","postalCode":"23260","city":"Flayat","country":"France"},"contacts":{"email":"mairie@flayat.fr","telephone":"0555678104"},"horaires":"Du Lundi au Mardi : de 09h00 à 12h00 de 13h30 à 16h30\nDu Jeudi au Vendredi : de 09h00 à 12h00 de 13h30 à 16h30","latitude":45.775043,"longitude":2.381759,"website":"https://www.flayat.fr/","hasWebsite":true,"hasHoraires":true,"url":"https://lannuaire.service-public.gouv.fr/nouvelle-aquitaine/creuse/db3f8f20-b2cb-4bd6-ac78-5e71960624f3"}
{"nom":"Fleurat","nomNormalise":"fleurat","typeCollectivite":"Commune","region":"Nouvelle-Aquitaine","departement":"Creuse","departementCode":"23","adresse":{"street":"8 rue Jules-Marouzeau","postalCode":"23320","city":"Fleurat","country":"France"},"contacts":{"email":"fleurat.mairie@gmail.com","telephone":"0555510028"},"horaires":"Du Lundi au Jeudi : de 14h30 à 17h30\nLe Vendredi : de 08h30 à 12h15","latitude":46.240093,"longitude":1.678332,"website":"https://fleurat.fr/","hasWebsite":true,"hasHoraires":true,"url":"https://lannuaire.service-public.gouv.fr/nouvelle-aquitaine/creuse/fa32c57a-af12-4a0b-bacd-02ee4c6afb4c"}
{"nom":"Fontanières","nomNormalise":"fontanieres","typeCollectivite":"Commune","region":"Nouvelle-Aquitaine","departement":"Creuse","departementCode":"23","adresse":{"street":"1 place de la Mairie","postalCode":"23110","city":"Fontanières","country":"France"},"contacts":{"email":"mairiedefontanieres@orange.fr","telephone":"0555823428"},"horaires":"Du Lundi au Mardi : de 09h00 à 12h00\nDu Jeudi au Vendredi : de 09h00 à 12h00","latitude":46.1062,"longitude":2.4997427,"website":"","hasWebsite":false,"hasHoraires":true,"url":"https://lannuaire.service-public.gouv.fr/nouvelle-aquitaine/creuse/9db34883-d472-4bf3-b645-a3d77be14476"}
{"nom":"Fransèches","nomNormalise":"franseches","typeCollectivite":"Commune","region":"Nouvelle-Aquitaine","departement":"Creuse","departementCode":"23","adresse":{"street":"11 le Bourg","postalCode":"23480","city":"Fransèches","country":"France"},"contacts":{"email":"mairie.franseches@orange.fr","telephone":"0555666704"},"horaires":"Le Mardi : de 14h00 à 18h00\nLe Jeudi : de 08h00 à 12h00 de 14h00 à 18h00\nLe Vendredi : de 08h00 à 12h00","latitude":46.01879,"longitude":2.049916,"website":"","hasWebsite":false,"hasHoraires":true,"url":"https://lannuaire.service-public.gouv.fr/nouvelle-aquitaine/creuse/c6d66c0a-d6fd-4bba-ac33-c878b8c07277"}
{"nom":"Fresselines","nomNormalise":"fresselines","typeCollectivite":"Commune","region":"Nouvelle-Aquitaine","departement":"Creuse","departementCode":"23","adresse":{"street":"6 rue Maurice-Rollinat","postalCode":"23450","city":"Fresselines","country":"France"},"contacts":{"email":"mairie@fresselines.fr","telephone":"0555897046"},"horaires":"Du Lundi au Mercredi : de 09h00 à 12h00 de 14h00 à 17h00\nLe Jeudi : de 09h00 à 12h00\nLe Vendredi : de 09h00 à 12h00 de 14h00 à 17h00","latitude":46.383,"longitude":1.68408,"website":"https://paysdunois.fr/","hasWebsite":true,"hasHoraires":true,"url":"https://lannuaire.service-public.gouv.fr/nouvelle-aquitaine/creuse/fc7f6856-cf6d-458d-aca3-22381ccfd380"}
{"nom":"Fursac","nomNormalise":"fursac","typeCollectivite":"Commune","region":"Nouvelle-Aquitaine","departement":"Creuse","departementCode":"23","adresse":{"street":"2 place de la Mairie","postalCode":"23290","city":"Fursac","country":"France"},"contacts":{"email":"mairie@commune-fursac.fr","telephone":"0555636087"},"horaires":"Du Lundi au Vendredi : de 09h00 à 12h30 de 13h30 à 17h00","latitude":46.14657,"longitude":1.512578,"website":"https://www.commune-fursac.fr/","hasWebsite":true,"hasHoraires":true,"url":"https://lannuaire.service-public.gouv.fr/nouvelle-aquitaine/creuse/b013c5c8-7f0c-4afe-9052-6a0233092c38"}
{"nom":"Fursac","nomNormalise":"fursac","typeCollectivite":"Commune","region":"Nouvelle-Aquitaine","departement":"Creuse","departementCode":"23","adresse":{"street":"2 place de la Mairie","postalCode":"23290","city":"Fursac","country":"France"},"contacts":{"email":"mairie@commune-fursac.fr","telephone":"0555636087"},"horaires":"Du Lundi au Vendredi : de 09h00 à 12h00 de 13h30 à 17h00","latitude":46.14445,"longitude":1.514122,"website":"https://www.commune-fursac.fr/","hasWebsite":true,"hasHoraires":true,"url":"https://lannuaire.service-public.gouv.fr/nouvelle-aquitaine/creuse/cb14ed9c-bf70-426c-a8c5-ce1aca0ff837"}
{"nom":"Gartempe","nomNormalise":"gartempe","typeCollectivite":"Commune","region":"Nouvelle-Aquitaine","departement":"Creuse","departementCode":"23","adresse":{"street":"1 rue du Bois-Sergent","postalCode":"23320","city":"Gartempe","country":"France"},"contacts":{"email":"mairie-gartempe@orange.fr","telephone":"0555813882"},"horaires":"Le Mardi : de 13h15 à 17h15\nDu Jeudi au Vendredi : de 13h15 à 17h15","latitude":46.150223,"longitude":1.73697,"website":"","hasWebsite":false,"hasHoraires":true,"url":"https://lannuaire.service-public.gouv.fr/nouvelle-aquitaine/creuse/db1643c6-b028-4ec5-8f75-b5893ff2ae0c"}
{"nom":"Genouillac","nomNormalise":"genouillac","typeCollectivite":"Commune","region":"Nouvelle-Aquitaine","departement":"Creuse","departementCode":"23","adresse":{"street":"2 place de l'École-d'Agriculture","postalCode":"23350","city":"Genouillac","country":"France"},"contacts":{"email":"mairie@genouillac-23.fr","telephone":"0555807425"},"horaires":"Du Lundi au Vendredi : de 08h30 à 12h30 de 13h30 à 17h30","latitude":46.351974,"longitude":1.994003,"website":"https://genouillac-23.fr/","hasWebsite":true,"hasHoraires":true,"url":"https://lannuaire.service-public.gouv.fr/nouvelle-aquitaine/creuse/1d000790-aeed-4f1f-8b68-e157450fd37c"}
{"nom":"Gentioux-Pigerolles","nomNormalise":"gentiouxpigerolles","typeCollectivite":"Commune","region":"Nouvelle-Aquitaine","departement":"Creuse","departementCode":"23","adresse":{"street":"3 place du Monument","postalCode":"23340","city":"Gentioux-Pigerolles","country":"France"},"contacts":{"email":"mairie.gentioux@wanadoo.fr","telephone":"0555679014"},"horaires":"Le Lundi : de 09h00 à 12h30\nDu Mardi au Mercredi : de 09h00 à 12h30 de 14h00 à 17h30\nLe Vendredi : de 09h00 à 12h30","latitude":45.784935,"longitude":1.995917,"website":"https://gentioux-pigerolles.fr/","hasWebsite":true,"hasHoraires":true,"url":"https://lannuaire.service-public.gouv.fr/nouvelle-aquitaine/creuse/f7eb640a-74d6-486e-9496-32d507d69113"}
{"nom":"Gioux","nomNormalise":"gioux","typeCollectivite":"Commune","region":"Nouvelle-Aquitaine","departement":"Creuse","departementCode":"23","adresse":{"street":"Le Bourg","postalCode":"23500","city":"Gioux","country":"France"},"contacts":{"email":"mairie-de-gioux@wanadoo.fr","telephone":"0555669171"},"horaires":"Le Lundi : de 09h00 à 12h00 de 13h30 à 16h00\nLe Mardi : de 09h00 à 12h00 de 13h30 à 18h15\nLe Vendredi : de 09h00 à 12h00 de 13h30 à 16h00\n\nPermanence téléphonique le jeudi.","latitude":45.809906,"longitude":2.12149,"website":"","hasWebsite":false,"hasHoraires":true,"url":"https://lannuaire.service-public.gouv.fr/nouvelle-aquitaine/creuse/30669a0a-398b-410f-99bb-b535b7e46af1"}
{"nom":"Glénic","nomNormalise":"glenic","typeCollectivite":"Commune","region":"Nouvelle-Aquitaine","departement":"Creuse","departementCode":"23","adresse":{"street":"7 rue de l'Église","postalCode":"23380","city":"Glénic","country":"France"},"contacts":{"email":"mairie.glenic@wanadoo.fr","telephone":"0555522209"},"horaires":"Le Lundi : de 08h00 à 12h00\nDu Mardi au Mercredi : de 08h00 à 12h00 de 13h00 à 17h30\nLe Jeudi : de 08h00 à 12h00\nLe Vendredi : de 08h00 à 12h00 de 13h00 à 16h30","latitude":46.2479,"longitude":1.90479,"website":"http://www.glenic.fr/","hasWebsite":true,"hasHoraires":true,"url":"https://lannuaire.service-public.gouv.fr/nouvelle-aquitaine/creuse/e010baa9-726e-40a3-b5b8-ae20488ade77"}
{"nom":"Gouzon","nomNormalise":"gouzon","typeCollectivite":"Commune","region":"Nouvelle-Aquitaine","departement":"Creuse","departementCode":"23","adresse":{"street":"4 avenue Général-de-Gaulle","postalCode":"23230","city":"Gouzon","country":"France"},"contacts":{"email":"mairie@gouzon23.com","telephone":"0555622039"},"horaires":"Du Lundi au Vendredi : de 08h30 à 12h00 de 14h00 à 17h30","latitude":46.191772,"longitude":2.236845,"website":"https://www.gouzon23.com/","hasWebsite":true,"hasHoraires":true,"url":"https://lannuaire.service-public.gouv.fr/nouvelle-aquitaine/creuse/1f532de1-7c9f-4509-adb3-bc789cd56097"}
{"nom":"Guéret","nomNormalise":"gueret","typeCollectivite":"Commune","region":"Nouvelle-Aquitaine","departement":"Creuse","departementCode":"23","adresse":{"street":"Esplanade François-Mitterrand","postalCode":"23000","city":"Guéret","country":"France"},"contacts":{"email":"mairie@ville-gueret.fr","telephone":"0555514700"},"horaires":"Du Lundi au Vendredi : de 08h30 à 12h00 de 13h30 à 17h00","latitude":46.169598,"longitude":1.871452,"website":"https://www.ville-gueret.fr/","hasWebsite":true,"hasHoraires":true,"url":"https://lannuaire.service-public.gouv.fr/nouvelle-aquitaine/creuse/3b429b25-0903-4cc6-8f9d-1bc71aadbc5f"}
{"nom":"Issoudun-Létrieix","nomNormalise":"issoudunletrieix","typeCollectivite":"Commune","region":"Nouvelle-Aquitaine","departement":"Creuse","departementCode":"23","adresse":{"street":"Le bourg","postalCode":"23130","city":"Issoudun-Létrieix","country":"France"},"contacts":{"email":"mairie.issoudun.letrieix@wanadoo.fr","telephone":"0555623068"},"horaires":"Le Lundi : de 08h30 à 12h30 de 13h30 à 17h30\nLe Mercredi : de 08h30 à 12h30\nLe Jeudi : de 08h30 à 12h30 de 13h30 à 17h30","latitude":46.060493,"longitude":2.14322,"website":"","hasWebsite":false,"hasHoraires":true,"url":"https://lannuaire.service-public.gouv.fr/nouvelle-aquitaine/creuse/65284445-be28-47c4-9dd9-245a17c90582"}
{"nom":"Jalesches","nomNormalise":"jalesches","typeCollectivite":"Commune","region":"Nouvelle-Aquitaine","departement":"Creuse","departementCode":"23","adresse":{"street":"Le Bourg","postalCode":"23270","city":"Jalesches","country":"France"},"contacts":{"email":"communedejalesches@orange.fr","telephone":"0555651189"},"horaires":"","latitude":46.300457,"longitude":2.0991209,"website":"","hasWebsite":false,"hasHoraires":false,"url":"https://lannuaire.service-public.gouv.fr/nouvelle-aquitaine/creuse/b7a05ff3-9bfc-4814-9cbc-a4dc00360bf0"}
{"nom":"Janaillat","nomNormalise":"janaillat","typeCollectivite":"Commune","region":"Nouvelle-Aquitaine","departement":"Creuse","departementCode":"23","adresse":{"street":"6 route de Bosmoreau-les-Mines","postalCode":"23250","city":"Janaillat","country":"France"},"contacts":{"email":"mairiejanaillat@wanadoo.fr","telephone":"0555644099"},"horaires":"Le Lundi : de 08h30 à 12h30 de 14h00 à 18h00\nLe Mardi : de 08h30 à 12h30 de 13h15 à 17h15\nLe Mercredi : de 08h30 à 12h30\nLe Jeudi : de 08h30 à 12h30 de 13h15 à 17h15\nLe Vendredi : de 08h30 à 12h30","latitude":46.05597,"longitude":1.744656,"website":"","hasWebsite":false,"hasHoraires":true,"url":"https://lannuaire.service-public.gouv.fr/nouvelle-aquitaine/creuse/7295d1b4-6fe4-4c03-b335-0a859ebe4981"}
{"nom":"Jarnages","nomNormalise":"jarnages","typeCollectivite":"Commune","region":"Nouvelle-Aquitaine","departement":"Creuse","departementCode":"23","adresse":{"street":"42 Grande rue","postalCode":"23140","city":"Jarnages","country":"France"},"contacts":{"email":"commune-de-jarnages@orange.fr","telephone":"0555809046"},"horaires":"Le Lundi : de 13h30 à 18h30\nLe Mardi : de 09h00 à 16h00\nLe Jeudi : de 09h00 à 16h00\nLe Vendredi : de 09h00 à 12h00","latitude":46.18073,"longitude":2.085048,"website":"http://www.jarnages.fr/","hasWebsite":true,"hasHoraires":true,"url":"https://lannuaire.service-public.gouv.fr/nouvelle-aquitaine/creuse/09cc00cc-7d57-45bd-81af-59b015026301"}
{"nom":"Jouillat","nomNormalise":"jouillat","typeCollectivite":"Commune","region":"Nouvelle-Aquitaine","departement":"Creuse","departementCode":"23","adresse":{"street":"7 rue de la Mairie","postalCode":"23220","city":"Jouillat","country":"France"},"contacts":{"email":"mairie.jouillat@orange.fr","telephone":"0555512054"},"horaires":"Du Lundi au Mardi : de 08h00 à 12h00\nLe Jeudi : de 09h00 à 12h00 de 14h00 à 18h00\nLe Vendredi : de 08h00 à 12h00","latitude":46.2572,"longitude":1.9353,"website":"","hasWebsite":false,"hasHoraires":true,"url":"https://lannuaire.service-public.gouv.fr/nouvelle-aquitaine/creuse/b56cbaac-be06-4a0a-9d37-6a4913e4bbbb"}
{"nom":"La Brionne","nomNormalise":"labrionne","typeCollectivite":"Commune","region":"Nouvelle-Aquitaine","departement":"Creuse","departementCode":"23","adresse":{"street":"1 rue de la Mairie","postalCode":"23000","city":"La Brionne","country":"France"},"contacts":{"email":"mairie.labrionne@wanadoo.fr","telephone":"0555802515"},"horaires":"Du Lundi au Mardi : de 08h00 à 11h00 de 13h30 à 17h00\nDu Jeudi au Vendredi : de 08h00 à 11h00 de 13h30 à 17h00","latitude":46.16883,"longitude":1.787325,"website":"https://www.labrionne.fr/","hasWebsite":true,"hasHoraires":true,"url":"https://lannuaire.service-public.gouv.fr/nouvelle-aquitaine/creuse/5838f4bd-d359-412e-aab3-e447fa749096"}
{"nom":"La Celle-Dunoise","nomNormalise":"lacelledunoise","typeCollectivite":"Commune","region":"Nouvelle-Aquitaine","departement":"Creuse","departementCode":"23","adresse":{"street":"1 route des Peintres","postalCode":"23800","city":"La Celle-Dunoise","country":"France"},"contacts":{"email":"mairie@lacelledunoise.fr","telephone":"0555891077"},"horaires":"Le Lundi : de 08h00 à 12h00\nLe Mardi : de 13h00 à 17h30\nLe Mercredi : de 08h00 à 12h00\nLe Jeudi : de 13h00 à 17h30\nLe Vendredi : de 08h00 à 12h00","latitude":46.311,"longitude":1.76878,"website":"http://www.lacelledunoise.fr/","hasWebsite":true,"hasHoraires":true,"url":"https://lannuaire.service-public.gouv.fr/nouvelle-aquitaine/creuse/b0b6c9a2-f5af-4138-9e47-4cb43a56c163"}
{"nom":"La Celle-sous-Gouzon","nomNormalise":"lacellesousgouzon","typeCollectivite":"Commune","region":"Nouvelle-Aquitaine","departement":"Creuse","departementCode":"23","adresse":{"street":"1 rue du Tilleul","postalCode":"23230","city":"La Celle-sous-Gouzon","country":"France"},"contacts":{"email":"mairielacellesousgouzon@wanadoo.fr","telephone":"0555622719"},"horaires":"Du Lundi au Mardi : de 14h00 à 17h00\nLe Jeudi : de 14h00 à 17h00\nLe Vendredi : de 14h00 à 16h00","latitude":46.214096,"longitude":2.209942,"website":"","hasWebsite":false,"hasHoraires":true,"url":"https://lannuaire.service-public.gouv.fr/nouvelle-aquitaine/creuse/58a92a2c-c5f5-4fd0-9855-af12c856cf74"}
{"nom":"La Cellette","nomNormalise":"lacellette","typeCollectivite":"Commune","region":"Nouvelle-Aquitaine","departement":"Creuse","departementCode":"23","adresse":{"street":"8 rue de la Cascade","postalCode":"23350","city":"La Cellette","country":"France"},"contacts":{"email":"mairie@lacellette23.fr","telephone":"0555806297"},"horaires":"Du Lundi au Mardi : de 08h00 à 12h00\nDu Jeudi au Vendredi : de 08h00 à 12h00","latitude":46.402775,"longitude":2.013449,"website":"https://www.la-cellette-23.fr/","hasWebsite":true,"hasHoraires":true,"url":"https://lannuaire.service-public.gouv.fr/nouvelle-aquitaine/creuse/8da3da57-95b1-4130-b4a6-17eee0198bee"}
{"nom":"La Chapelle-Baloue","nomNormalise":"lachapellebaloue","typeCollectivite":"Commune","region":"Nouvelle-Aquitaine","departement":"Creuse","departementCode":"23","adresse":{"street":"9 route de Crozant","postalCode":"23160","city":"La Chapelle-Baloue","country":"France"},"contacts":{"email":"communelachapellebaloue@wanadoo.fr","telephone":"0555635385"},"horaires":"","latitude":46.361538,"longitude":1.5792532,"website":"","hasWebsite":false,"hasHoraires":false,"url":"https://lannuaire.service-public.gouv.fr/nouvelle-aquitaine/creuse/3c36ff76-af9b-4294-90af-3c3ce1a002dd"}
{"nom":"La Chapelle-Saint-Martial","nomNormalise":"lachapellesaintmartial","typeCollectivite":"Commune","region":"Nouvelle-Aquitaine","departement":"Creuse","departementCode":"23","adresse":{"street":"6 route d'Ahun","postalCode":"23250","city":"La Chapelle-Saint-Martial","country":"France"},"contacts":{"email":"mairie.lachapellesaintmartial@orange.fr","telephone":"0555645619"},"horaires":"Le Mardi : de 08h00 à 12h00\nLe Vendredi : de 08h00 à 12h00","latitude":46.026386,"longitude":1.924295,"website":"","hasWebsite":false,"hasHoraires":true,"url":"https://lannuaire.service-public.gouv.fr/nouvelle-aquitaine/creuse/da8e4ecb-4a21-4414-94d6-d375abbf9201"}
{"nom":"La Chapelle-Taillefert","nomNormalise":"lachapelletaillefert","typeCollectivite":"Commune","region":"Nouvelle-Aquitaine","departement":"Creuse","departementCode":"23","adresse":{"street":"6 rue du Pont-Perdrix","postalCode":"23000","city":"La Chapelle-Taillefert","country":"France"},"contacts":{"email":"mairie.chapelle-taillefert@orange.fr","telephone":"0555523617"},"horaires":"Le Lundi : de 08h30 à 12h00 de 13h00 à 17h30\nLe Mardi : de 09h00 à 12h00\nLe Mercredi : de 09h00 à 12h00 de 14h00 à 16h30\nDu Jeudi au Vendredi : de 09h00 à 12h00","latitude":46.099873,"longitude":1.838377,"website":"","hasWebsite":false,"hasHoraires":true,"url":"https://lannuaire.service-public.gouv.fr/nouvelle-aquitaine/creuse/56ab41d4-b35a-4947-ad33-733e15295500"}
{"nom":"La Chaussade","nomNormalise":"lachaussade","typeCollectivite":"Commune","region":"Nouvelle-Aquitaine","departement":"Creuse","departementCode":"23","adresse":{"street":"15 le Bourg","postalCode":"23200","city":"La Chaussade","country":"France"},"contacts":{"email":"mairiedelachaussade@wanadoo.fr","telephone":"0555838157"},"horaires":"Le Lundi : de 16h00 à 18h00\nLe Jeudi : de 14h00 à 17h00","latitude":45.989395,"longitude":2.237546,"website":"http://lachaussade.fr/","hasWebsite":true,"hasHoraires":true,"url":"https://lannuaire.service-public.gouv.fr/nouvelle-aquitaine/creuse/1db4ed90-cef2-446e-9400-bb52568f4240"}
{"nom":"La Courtine","nomNormalise":"lacourtine","typeCollectivite":"Commune","region":"Nouvelle-Aquitaine","departement":"Creuse","departementCode":"23","adresse":{"street":"1 place de la Mairie","postalCode":"23100","city":"La Courtine","country":"France"},"contacts":{"email":"mairiedelacourtine@orange.fr","telephone":"0555667658"},"horaires":"Du Lundi au Jeudi : de 09h00 à 12h00 de 14h00 à 16h30\nLe Vendredi : de 09h00 à 11h00 de 14h00 à 16h30","latitude":45.69893,"longitude":2.263056,"website":"https://lacourtine.fr/","hasWebsite":true,"hasHoraires":true,"url":"https://lannuaire.service-public.gouv.fr/nouvelle-aquitaine/creuse/5c629cbd-b5fd-4d5e-b65b-0db2feaed812"}
{"nom":"Ladapeyre","nomNormalise":"ladapeyre","typeCollectivite":"Commune","region":"Nouvelle-Aquitaine","departement":"Creuse","departementCode":"23","adresse":{"street":"16 route de Boussac","postalCode":"23270","city":"Ladapeyre","country":"France"},"contacts":{"email":"mairiedeladapeyre@orange.fr","telephone":"0555807309"},"horaires":"Le Mardi : de 07h45 à 12h30\nLe Jeudi : de 07h45 à 12h30","latitude":46.247917,"longitude":2.048497,"website":"","hasWebsite":false,"hasHoraires":true,"url":"https://lannuaire.service-public.gouv.fr/nouvelle-aquitaine/creuse/6f1ef176-8391-4256-89ac-39256cf1f626"}
{"nom":"Lafat","nomNormalise":"lafat","typeCollectivite":"Commune","region":"Nouvelle-Aquitaine","departement":"Creuse","departementCode":"23","adresse":{"street":"7 route de la Mairie","postalCode":"23800","city":"Lafat","country":"France"},"contacts":{"email":"communedelafat@orange.fr","telephone":"0555896861"},"horaires":"Du Lundi au Vendredi : de 09h00 à 12h00","latitude":46.335606,"longitude":1.615529,"website":"","hasWebsite":false,"hasHoraires":true,"url":"https://lannuaire.service-public.gouv.fr/nouvelle-aquitaine/creuse/38719962-6bf5-4c77-acf9-afc810d4cc62"}
{"nom":"La Forêt-du-Temple","nomNormalise":"laforetdutemple","typeCollectivite":"Commune","region":"Nouvelle-Aquitaine","departement":"Creuse","departementCode":"23","adresse":{"street":"1 place du Pilori","postalCode":"23360","city":"La Forêt-du-Temple","country":"France"},"contacts":{"email":"mairie.laforetdutemple@orange.fr","telephone":"0555805144"},"horaires":"Le Lundi : de 13h30 à 16h30\n\nPermanence du maire de 14h30 à 16h30.\nLe Mardi : de 13h30 à 16h30\nLe Jeudi : de 13h30 à 16h30\nLe Vendredi : de 13h30 à 16h30\n\nPermanence du maire de 14h30 à 16h30 et le samedi sur rendez-vous uniquement.\nPermanence du maire de 14h30 à 16h30.","latitude":46.420044,"longitude":1.902728,"website":"","hasWebsite":false,"hasHoraires":true,"url":"https://lannuaire.service-public.gouv.fr/nouvelle-aquitaine/creuse/1dd296e5-135b-40a1-8968-fc2e1b8e9078"}
{"nom":"La Mazière-aux-Bons-Hommes","nomNormalise":"lamaziereauxbonshommes","typeCollectivite":"Commune","region":"Nouvelle-Aquitaine","departement":"Creuse","departementCode":"23","adresse":{"street":"Le Bourg","postalCode":"23260","city":"La Mazière-aux-Bons-Hommes","country":"France"},"contacts":{"email":"mairie.lamaziere23260@laposte.net","telephone":"0555674490"},"horaires":"Le Mardi : de 09h00 à 12h00\nLe Vendredi : de 13h30 à 15h30","latitude":45.88359,"longitude":2.440959,"website":"http://www.la-maziere-aux-bons-hommes.fr/","hasWebsite":true,"hasHoraires":true,"url":"https://lannuaire.service-public.gouv.fr/nouvelle-aquitaine/creuse/67b4f7f0-55f2-4b23-8f80-d27623f99439"}
{"nom":"La Nouaille","nomNormalise":"lanouaille","typeCollectivite":"Commune","region":"Nouvelle-Aquitaine","departement":"Creuse","departementCode":"23","adresse":{"street":"Le Bourg","postalCode":"23500","city":"La Nouaille","country":"France"},"contacts":{"email":"mairie.nouaille@wanadoo.fr","telephone":"0555660109"},"horaires":"Du Lundi au Mardi : de 12h45 à 17h30\nDu Jeudi au Vendredi : de 12h45 à 17h30","latitude":45.84639,"longitude":2.065048,"website":"","hasWebsite":false,"hasHoraires":true,"url":"https://lannuaire.service-public.gouv.fr/nouvelle-aquitaine/creuse/9036f742-15ea-4f6a-b51d-80fa6c6e9203"}
{"nom":"La Pouge","nomNormalise":"lapouge","typeCollectivite":"Commune","region":"Nouvelle-Aquitaine","departement":"Creuse","departementCode":"23","adresse":{"street":"Le Bourg","postalCode":"23250","city":"La Pouge","country":"France"},"contacts":{"email":"mairie.lapouge@orange.fr","telephone":"0555666681"},"horaires":"Le Lundi : de 14h00 à 17h00\nDu Jeudi au Vendredi : de 09h00 à 12h00","latitude":45.98118,"longitude":1.941632,"website":"","hasWebsite":false,"hasHoraires":true,"url":"https://lannuaire.service-public.gouv.fr/nouvelle-aquitaine/creuse/5971b245-5c3d-420d-965c-e2c79f906e1f"}
{"nom":"La Saunière","nomNormalise":"lasauniere","typeCollectivite":"Commune","region":"Nouvelle-Aquitaine","departement":"Creuse","departementCode":"23","adresse":{"street":"1 place de la Mairie","postalCode":"23000","city":"La Saunière","country":"France"},"contacts":{"email":"mairie.sauniere@orange.fr","telephone":"0555800166"},"horaires":"Le Lundi : de 08h30 à 12h00 de 13h30 à 17h30\nLe Jeudi : de 13h30 à 17h30\nLe Vendredi : de 08h30 à 12h00 de 13h30 à 16h30","latitude":46.129917,"longitude":1.936512,"website":"https://www.lasauniere.fr/","hasWebsite":true,"hasHoraires":true,"url":"https://lannuaire.service-public.gouv.fr/nouvelle-aquitaine/creuse/015c9442-fcfd-4961-a550-e1ee7b01bc3d"}
{"nom":"La Serre-Bussière-Vieille","nomNormalise":"laserrebussierevieille","typeCollectivite":"Commune","region":"Nouvelle-Aquitaine","departement":"Creuse","departementCode":"23","adresse":{"street":"Le Bourg","postalCode":"23190","city":"La Serre-Bussière-Vieille","country":"France"},"contacts":{"email":"mairie.laserrebussierevieille@wanadoo.fr","telephone":"0555831309"},"horaires":"Le Lundi : de 13h45 à 17h30\nLe Jeudi : de 13h45 à 17h30","latitude":46.055656,"longitude":2.321408,"website":"","hasWebsite":false,"hasHoraires":true,"url":"https://lannuaire.service-public.gouv.fr/nouvelle-aquitaine/creuse/2f7e2b55-4e5a-42fe-83b4-a488fd975eb4"}
{"nom":"La Souterraine","nomNormalise":"lasouterraine","typeCollectivite":"Commune","region":"Nouvelle-Aquitaine","departement":"Creuse","departementCode":"23","adresse":{"street":"4 rue de l'Hermitage","postalCode":"23300","city":"La Souterraine","country":"France"},"contacts":{"email":"secretariat@la-souterraine.fr","telephone":"0555639780"},"horaires":"Du Lundi au Vendredi : de 08h30 à 12h00 de 13h30 à 18h00","latitude":46.2401,"longitude":1.48208,"website":"https://www.ville-lasouterraine.fr/","hasWebsite":true,"hasHoraires":true,"url":"https://lannuaire.service-public.gouv.fr/nouvelle-aquitaine/creuse/a3526cb4-2e60-4dc9-b9a6-05482e2cce5d"}
{"nom":"Lavaufranche","nomNormalise":"lavaufranche","typeCollectivite":"Commune","region":"Nouvelle-Aquitaine","departement":"Creuse","departementCode":"23","adresse":{"street":"5 rue des Hospitaliers","postalCode":"23600","city":"Lavaufranche","country":"France"},"contacts":{"email":"mairielavaufranche@orange.fr","telephone":"0555654102"},"horaires":"Le Lundi : de 13h30 à 17h30\nLe Mardi : de 08h30 à 12h30 de 13h30 à 17h30\nLe Jeudi : de 08h30 à 12h30 de 13h30 à 17h30\nLe Vendredi : de 08h30 à 12h30\nLe Samedi : de 08h30 à 12h00","latitude":46.319862,"longitude":2.272366,"website":"","hasWebsite":false,"hasHoraires":true,"url":"https://lannuaire.service-public.gouv.fr/nouvelle-aquitaine/creuse/706b68ff-3602-4eec-97d8-c35abee44bd7"}
{"nom":"Lavaveix-les-Mines","nomNormalise":"lavaveixlesmines","typeCollectivite":"Commune","region":"Nouvelle-Aquitaine","departement":"Creuse","departementCode":"23","adresse":{"street":"35 rue du Centre","postalCode":"23150","city":"Lavaveix-les-Mines","country":"France"},"contacts":{"email":"lavaveix-les-mines@wanadoo.fr","telephone":"0555624215"},"horaires":"Le Lundi : de 08h00 à 12h00 de 13h30 à 17h00\nDu Mercredi au Jeudi : de 08h00 à 12h00\nLe Samedi : de 08h00 à 12h00","latitude":46.0739,"longitude":2.09031,"website":"","hasWebsite":false,"hasHoraires":true,"url":"https://lannuaire.service-public.gouv.fr/nouvelle-aquitaine/creuse/f2ec1396-82c3-4430-a876-9e34d36bcaaf"}
{"nom":"La Villedieu","nomNormalise":"lavilledieu","typeCollectivite":"Commune","region":"Nouvelle-Aquitaine","departement":"Creuse","departementCode":"23","adresse":{"street":"Le Bourg","postalCode":"23340","city":"La Villedieu","country":"France"},"contacts":{"email":"mairielavilledieu@orange.fr","telephone":"0555679188"},"horaires":"Le Mercredi : de 09h00 à 12h00\nLe Jeudi : de 09h00 à 12h00 de 14h00 à 17h00","latitude":45.733723,"longitude":1.886771,"website":"https://lavilledieu23.fr/","hasWebsite":true,"hasHoraires":true,"url":"https://lannuaire.service-public.gouv.fr/nouvelle-aquitaine/creuse/21043427-0660-4ef5-b7db-dd25b9dea429"}
{"nom":"La Villeneuve","nomNormalise":"lavilleneuve","typeCollectivite":"Commune","region":"Nouvelle-Aquitaine","departement":"Creuse","departementCode":"23","adresse":{"street":"10 rue de la Mairie","postalCode":"23260","city":"La Villeneuve","country":"France"},"contacts":{"email":"mairie-la-villeneuve@orange.fr","telephone":"0555672409"},"horaires":"Le Mardi : de 09h00 à 12h00\nLe Jeudi : de 09h00 à 12h00 de 14h00 à 16h00","latitude":45.897797,"longitude":2.408034,"website":"","hasWebsite":false,"hasHoraires":true,"url":"https://lannuaire.service-public.gouv.fr/nouvelle-aquitaine/creuse/4fe55733-9481-4607-bf81-fa9b6ec56acd"}
{"nom":"La Villetelle","nomNormalise":"lavilletelle","typeCollectivite":"Commune","region":"Nouvelle-Aquitaine","departement":"Creuse","departementCode":"23","adresse":{"street":"7 place Saint-Laurent","postalCode":"23260","city":"La Villetelle","country":"France"},"contacts":{"email":"mairie.lavilletelle@wanadoo.fr","telephone":"0555673370"},"horaires":"Le Lundi : de 09h00 à 12h00\nLe Jeudi : de 13h30 à 16h30","latitude":45.91823,"longitude":2.340034,"website":"http://www.lavilletelle.fr/","hasWebsite":true,"hasHoraires":true,"url":"https://lannuaire.service-public.gouv.fr/nouvelle-aquitaine/creuse/a2ad89e4-115d-4784-b370-229909986874"}
{"nom":"Le Bourg-d Hem","nomNormalise":"lebourgdhem","typeCollectivite":"Commune","region":"Nouvelle-Aquitaine","departement":"Creuse","departementCode":"23","adresse":{"street":"20 le Bourg","postalCode":"23220","city":"Le Bourg-d'Hem","country":"France"},"contacts":{"email":"mairie.le-bourg-dhem@wanadoo.fr","telephone":"0555621657"},"horaires":"Le Lundi : de 09h00 à 12h30\nLe Mardi : de 09h00 à 13h00\nLe Mercredi : de 09h00 à 12h30 de 13h30 à 18h00\nLe Jeudi : de 09h00 à 13h00\nLe Vendredi : de 09h00 à 12h30 de 13h30 à 16h00","latitude":46.296146,"longitude":1.826976,"website":"https://lebourgdhem.fr/","hasWebsite":true,"hasHoraires":true,"url":"https://lannuaire.service-public.gouv.fr/nouvelle-aquitaine/creuse/249dcc50-cc75-4073-96ac-7a3d96eae341"}
{"nom":"Le Chauchet","nomNormalise":"lechauchet","typeCollectivite":"Commune","region":"Nouvelle-Aquitaine","departement":"Creuse","departementCode":"23","adresse":{"street":"Le Bourg","postalCode":"23130","city":"Le Chauchet","country":"France"},"contacts":{"email":"mairie.lechauchet@ozone.net","telephone":"0555823462"},"horaires":"Le Mardi : de 09h00 à 17h00\nLe Vendredi : de 09h00 à 13h00\nLe Samedi : de 09h00 à 12h00","latitude":46.108036,"longitude":2.333671,"website":"","hasWebsite":false,"hasHoraires":true,"url":"https://lannuaire.service-public.gouv.fr/nouvelle-aquitaine/creuse/9d90e435-1aea-4478-9846-4bfde13703ac"}
{"nom":"Le Compas","nomNormalise":"lecompas","typeCollectivite":"Commune","region":"Nouvelle-Aquitaine","departement":"Creuse","departementCode":"23","adresse":{"street":"3 le Theil","postalCode":"23700","city":"Le Compas","country":"France"},"contacts":{"email":"mairie.lecompas997@orange.fr","telephone":"0555839121"},"horaires":"Le Mardi : de 14h00 à 17h00\nLe Vendredi : de 09h00 à 12h00","latitude":45.99601,"longitude":2.461629,"website":"","hasWebsite":false,"hasHoraires":true,"url":"https://lannuaire.service-public.gouv.fr/nouvelle-aquitaine/creuse/35c12ca2-f114-4157-a997-43e7d8c153cd"}
{"nom":"Le Donzeil","nomNormalise":"ledonzeil","typeCollectivite":"Commune","region":"Nouvelle-Aquitaine","departement":"Creuse","departementCode":"23","adresse":{"street":"6 rue Principale","postalCode":"23480","city":"Le Donzeil","country":"France"},"contacts":{"email":"commune.donzeil@orange.fr","telephone":"0555666061"},"horaires":"Du Lundi au Mardi : de 09h00 à 12h00\nLe Jeudi : de 14h00 à 17h00","latitude":46.027603,"longitude":1.98636,"website":"http://www.le-donzeil.fr/","hasWebsite":true,"hasHoraires":true,"url":"https://lannuaire.service-public.gouv.fr/nouvelle-aquitaine/creuse/b37fca1d-3706-447b-9377-de54013adb18"}
{"nom":"Le Grand-Bourg","nomNormalise":"legrandbourg","typeCollectivite":"Commune","region":"Nouvelle-Aquitaine","departement":"Creuse","departementCode":"23","adresse":{"street":"2 place des Tilleuls","postalCode":"23240","city":"Le Grand-Bourg","country":"France"},"contacts":{"email":"contact@legrandbourg23.fr","telephone":"0555804021"},"horaires":"Du Lundi au Mercredi : de 09h00 à 12h00 de 14h00 à 17h00\nLe Jeudi : de 09h00 à 12h00\nLe Vendredi : de 09h00 à 12h00 de 14h00 à 17h00","latitude":46.16015,"longitude":1.64629,"website":"https://www.legrandbourg.fr/","hasWebsite":true,"hasHoraires":true,"url":"https://lannuaire.service-public.gouv.fr/nouvelle-aquitaine/creuse/9a58889f-a7fd-471e-97e8-05b8e5d5a83d"}
{"nom":"Le Mas-d Artige","nomNormalise":"lemasdartige","typeCollectivite":"Commune","region":"Nouvelle-Aquitaine","departement":"Creuse","departementCode":"23","adresse":{"street":"Le Bourg","postalCode":"23100","city":"Le Mas-d'Artige","country":"France"},"contacts":{"email":"communelemasdartige@wanadoo.fr","telephone":"0555667757"},"horaires":"Le Lundi : de 13h30 à 16h00\nLe Mercredi : de 08h00 à 12h00\nLe Vendredi : de 13h30 à 16h00","latitude":45.731823,"longitude":2.19429,"website":"","hasWebsite":false,"hasHoraires":true,"url":"https://lannuaire.service-public.gouv.fr/nouvelle-aquitaine/creuse/4678aa69-7f02-4e50-95d9-a63ba76a9e5b"}
{"nom":"Le Monteil-au-Vicomte","nomNormalise":"lemonteilauvicomte","typeCollectivite":"Commune","region":"Nouvelle-Aquitaine","departement":"Creuse","departementCode":"23","adresse":{"street":"5 rue des Écoles","postalCode":"23460","city":"Le Monteil-au-Vicomte","country":"France"},"contacts":{"email":"mairiemonteilauvicomte@orange.fr","telephone":"0555649511"},"horaires":"Le Lundi : de 09h00 à 12h00\nLe Mardi : de 09h00 à 12h00 de 14h00 à 18h00\nDu Mercredi au Vendredi : de 09h00 à 12h00","latitude":45.930187,"longitude":1.938518,"website":"","hasWebsite":false,"hasHoraires":true,"url":"https://lannuaire.service-public.gouv.fr/nouvelle-aquitaine/creuse/25ce4673-1568-427d-b9ab-189b887a9aa2"}
{"nom":"Lépaud","nomNormalise":"lepaud","typeCollectivite":"Commune","region":"Nouvelle-Aquitaine","departement":"Creuse","departementCode":"23","adresse":{"street":"5 place de la Mairie","postalCode":"23170","city":"Lépaud","country":"France"},"contacts":{"email":"mairie.lepaud@wanadoo.fr","telephone":"0555657197"},"horaires":"Du Lundi au Mardi : de 08h30 à 12h00 de 13h30 à 17h00\nLe Jeudi : de 08h30 à 12h00\nLe Vendredi : de 08h30 à 12h00 de 13h30 à 17h00","latitude":46.22593,"longitude":2.385591,"website":"http://www.lepaud.fr/","hasWebsite":true,"hasHoraires":true,"url":"https://lannuaire.service-public.gouv.fr/nouvelle-aquitaine/creuse/1262a493-de82-4f7a-8ae0-3992097bfab4"}
{"nom":"Lépinas","nomNormalise":"lepinas","typeCollectivite":"Commune","region":"Nouvelle-Aquitaine","departement":"Creuse","departementCode":"23","adresse":{"street":"16 Rue de L'Eglise","postalCode":"23150","city":"Lépinas","country":"France"},"contacts":{"email":"mairie.lepinas@wanadoo.fr","telephone":"0555800149"},"horaires":"Du Lundi au Mardi : de 14h00 à 17h00\nDu Mercredi au Jeudi : de 09h00 à 12h00","latitude":46.07661,"longitude":1.927271,"website":"","hasWebsite":false,"hasHoraires":true,"url":"https://lannuaire.service-public.gouv.fr/nouvelle-aquitaine/creuse/784c93b4-542c-44ad-8c81-663664b2f626"}
{"nom":"Les Mars","nomNormalise":"lesmars","typeCollectivite":"Commune","region":"Nouvelle-Aquitaine","departement":"Creuse","departementCode":"23","adresse":{"street":"1 rue de la Mairie","postalCode":"23700","city":"Les Mars","country":"France"},"contacts":{"email":"","telephone":"0555671108"},"horaires":"Le Mardi : de 09h00 à 12h30 de 13h00 à 17h30\nLe Jeudi : de 09h00 à 12h30 de 13h00 à 17h30","latitude":45.981495,"longitude":2.476752,"website":"","hasWebsite":false,"hasHoraires":true,"url":"https://lannuaire.service-public.gouv.fr/nouvelle-aquitaine/creuse/87786905-fade-42da-9b12-0b6d46e30bfa"}
{"nom":"Leyrat","nomNormalise":"leyrat","typeCollectivite":"Commune","region":"Nouvelle-Aquitaine","departement":"Creuse","departementCode":"23","adresse":{"street":"1 Place de la Mairie","postalCode":"23600","city":"Leyrat","country":"France"},"contacts":{"email":"commune-de-leyrat@orange.fr","telephone":"0555650730"},"horaires":"Le Lundi : de 14h00 à 17h00\nLe Mercredi : de 14h00 à 17h00\nLe Vendredi : de 09h00 à 12h00","latitude":46.36149,"longitude":2.292919,"website":"","hasWebsite":false,"hasHoraires":true,"url":"https://lannuaire.service-public.gouv.fr/nouvelle-aquitaine/creuse/f9bf4d53-68b6-44bc-9489-90eb1482b8e3"}
{"nom":"Linard-Malval","nomNormalise":"linardmalval","typeCollectivite":"Commune","region":"Nouvelle-Aquitaine","departement":"Creuse","departementCode":"23","adresse":{"street":"Linard","postalCode":"23220","city":"Linard-Malval","country":"France"},"contacts":{"email":"mairie.linard@wanadoo.fr","telephone":"0555628205"},"horaires":"Du Lundi au Mardi : de 09h00 à 12h00 de 14h00 à 17h00\nLe Mercredi : de 09h00 à 12h00\nDu Jeudi au Vendredi : de 09h00 à 12h00 de 14h00 à 17h00","latitude":46.358,"longitude":1.872231,"website":"","hasWebsite":false,"hasHoraires":true,"url":"https://lannuaire.service-public.gouv.fr/nouvelle-aquitaine/creuse/f92a5ae5-5f13-4969-9712-5778671b670d"}
{"nom":"Lioux-les-Monges","nomNormalise":"liouxlesmonges","typeCollectivite":"Commune","region":"Nouvelle-Aquitaine","departement":"Creuse","departementCode":"23","adresse":{"street":"1 la Côte","postalCode":"23700","city":"Lioux-les-Monges","country":"France"},"contacts":{"email":"mairie.lioux-lesmonges@orange.fr","telephone":"0555676460"},"horaires":"Le Mardi : de 09h00 à 11h30\nLe Jeudi : de 14h00 à 16h00","latitude":45.952583,"longitude":2.452978,"website":"","hasWebsite":false,"hasHoraires":true,"url":"https://lannuaire.service-public.gouv.fr/nouvelle-aquitaine/creuse/22536994-e526-4405-9876-c712612a3bd0"}
{"nom":"Lizières","nomNormalise":"lizieres","typeCollectivite":"Commune","region":"Nouvelle-Aquitaine","departement":"Creuse","departementCode":"23","adresse":{"street":"5 place de la Mairie","postalCode":"23240","city":"Lizières","country":"France"},"contacts":{"email":"mairie@lizieres.fr","telephone":"0555630080"},"horaires":"Du Lundi au Mardi : de 09h00 à 12h00 de 14h00 à 17h00\nLe Mercredi : de 09h00 à 12h00\nDu Jeudi au Vendredi : de 09h00 à 12h00 de 14h00 à 17h00","latitude":46.212498,"longitude":1.57812,"website":"https://www.intramuros.org/lizieres","hasWebsite":true,"hasHoraires":true,"url":"https://lannuaire.service-public.gouv.fr/nouvelle-aquitaine/creuse/301ef1db-2cfb-41b8-b00a-0584ba198c71"}
{"nom":"Lourdoueix-Saint-Pierre","nomNormalise":"lourdoueixsaintpierre","typeCollectivite":"Commune","region":"Nouvelle-Aquitaine","departement":"Creuse","departementCode":"23","adresse":{"street":"Place de l'Église","postalCode":"23360","city":"Lourdoueix-Saint-Pierre","country":"France"},"contacts":{"email":"mairie.lourdoueix-saint-pierre@orange.fr","telephone":"0555810003"},"horaires":"Le Lundi : de 08h00 à 11h45\nLe Mardi : de 08h00 à 12h00 de 13h30 à 17h30\nLe Mercredi : de 08h00 à 12h00\nLe Jeudi : de 08h00 à 11h45 de 13h30 à 17h30\nLe Vendredi : de 08h00 à 11h45 de 13h30 à 17h30\nLe Samedi : de 09h00 à 11h30","latitude":46.409046,"longitude":1.821443,"website":"https://lourdoueix.fr/","hasWebsite":true,"hasHoraires":true,"url":"https://lannuaire.service-public.gouv.fr/nouvelle-aquitaine/creuse/43c4901e-f05f-4201-8919-ecc6659f3b06"}
{"nom":"Lupersat","nomNormalise":"lupersat","typeCollectivite":"Commune","region":"Nouvelle-Aquitaine","departement":"Creuse","departementCode":"23","adresse":{"street":"3 place de la République","postalCode":"23190","city":"Lupersat","country":"France"},"contacts":{"email":"mairielupersat@wanadoo.fr","telephone":"0555676751"},"horaires":"Du Lundi au Mercredi : de 08h30 à 17h30\nLe Jeudi : de 08h30 à 16h30","latitude":45.981915,"longitude":2.353497,"website":"","hasWebsite":false,"hasHoraires":true,"url":"https://lannuaire.service-public.gouv.fr/nouvelle-aquitaine/creuse/b516d0b3-db0e-4472-bb95-e81019002f9a"}
{"nom":"Lussat","nomNormalise":"lussat","typeCollectivite":"Commune","region":"Nouvelle-Aquitaine","departement":"Creuse","departementCode":"23","adresse":{"street":"5 rue de la Mairie","postalCode":"23170","city":"Lussat","country":"France"},"contacts":{"email":"mairie-lussat@wanadoo.fr","telephone":"0555821220"},"horaires":"Du Lundi au Vendredi : de 08h30 à 12h00","latitude":46.183437,"longitude":2.3411317,"website":"http://www.lussat23.fr/","hasWebsite":true,"hasHoraires":true,"url":"https://lannuaire.service-public.gouv.fr/nouvelle-aquitaine/creuse/9daf04a6-9e3e-49f3-95d4-c13658b26428"}
{"nom":"Magnat-l Étrange","nomNormalise":"magnatletrange","typeCollectivite":"Commune","region":"Nouvelle-Aquitaine","departement":"Creuse","departementCode":"23","adresse":{"street":"27 Chemin de la Ceinture","postalCode":"23260","city":"Magnat-l'Étrange","country":"France"},"contacts":{"email":"mairie-magnat-letrange@wanadoo.fr","telephone":"0555678207"},"horaires":"Le Lundi : de 09h00 à 12h00 de 13h00 à 18h00\nLe Mardi : de 09h00 à 12h00 de 13h00 à 17h30\nLe Jeudi : de 09h00 à 12h00 de 13h00 à 17h00\nLe Vendredi : de 09h00 à 12h00 de 13h00 à 16h30","latitude":45.793274,"longitude":2.278962,"website":"https://magnatletrange23.fr/","hasWebsite":true,"hasHoraires":true,"url":"https://lannuaire.service-public.gouv.fr/nouvelle-aquitaine/creuse/2b8b7b47-c6dd-4f0b-a7e6-39dd79d1454a"}
{"nom":"Mainsat","nomNormalise":"mainsat","typeCollectivite":"Commune","region":"Nouvelle-Aquitaine","departement":"Creuse","departementCode":"23","adresse":{"street":"1 place de la Liberté","postalCode":"23700","city":"Mainsat","country":"France"},"contacts":{"email":"mairie.mainsat@gmail.com","telephone":"0555670721"},"horaires":"Le Lundi : de 14h00 à 17h30\nDu Mardi au Vendredi : de 09h30 à 12h00 de 14h00 à 17h30","latitude":46.051792,"longitude":2.387232,"website":"","hasWebsite":false,"hasHoraires":true,"url":"https://lannuaire.service-public.gouv.fr/nouvelle-aquitaine/creuse/71465b19-8a40-45a1-897c-b52df2c7e892"}
{"nom":"Maison-Feyne","nomNormalise":"maisonfeyne","typeCollectivite":"Commune","region":"Nouvelle-Aquitaine","departement":"Creuse","departementCode":"23","adresse":{"street":"15 rue Principale","postalCode":"23800","city":"Maison-Feyne","country":"France"},"contacts":{"email":"mairie.maison-feyne@wanadoo.fr","telephone":"0555890198"},"horaires":"Le Lundi : de 13h30 à 17h30\nDu Mardi au Vendredi : de 08h15 à 12h15","latitude":46.338413,"longitude":1.669092,"website":"","hasWebsite":false,"hasHoraires":true,"url":"https://lannuaire.service-public.gouv.fr/nouvelle-aquitaine/creuse/f321c9b5-271f-455f-825c-3100c82572b0"}
{"nom":"Maisonnisses","nomNormalise":"maisonnisses","typeCollectivite":"Commune","region":"Nouvelle-Aquitaine","departement":"Creuse","departementCode":"23","adresse":{"street":"12 rue des Écoliers","postalCode":"23150","city":"Maisonnisses","country":"France"},"contacts":{"email":"mairie-maisonnisses@wanadoo.fr","telephone":"0555800704"},"horaires":"Le Lundi : de 09h00 à 12h00\nDu Mercredi au Jeudi : de 14h00 à 17h00\nLe Vendredi : de 09h00 à 12h00","latitude":46.06298,"longitude":1.899008,"website":"https://maisonnisses.fr/","hasWebsite":true,"hasHoraires":true,"url":"https://lannuaire.service-public.gouv.fr/nouvelle-aquitaine/creuse/5c464810-f304-4218-9d65-47f3b5d13388"}
{"nom":"Malleret","nomNormalise":"malleret","typeCollectivite":"Commune","region":"Nouvelle-Aquitaine","departement":"Creuse","departementCode":"23","adresse":{"street":"Le Bourg","postalCode":"23260","city":"Malleret","country":"France"},"contacts":{"email":"mairiedemalleret@orange.fr","telephone":"0555678691"},"horaires":"","latitude":46.16389,"longitude":1.88715,"website":"","hasWebsite":false,"hasHoraires":false,"url":"https://lannuaire.service-public.gouv.fr/nouvelle-aquitaine/creuse/f158103d-9c0f-4849-b1a0-cbd444b41f06"}
{"nom":"Malleret-Boussac","nomNormalise":"malleretboussac","typeCollectivite":"Commune","region":"Nouvelle-Aquitaine","departement":"Creuse","departementCode":"23","adresse":{"street":"9 Le Bourg","postalCode":"23600","city":"Malleret-Boussac","country":"France"},"contacts":{"email":"mairie.malleret-boussac@wanadoo.fr","telephone":"0555650622"},"horaires":"Le Mardi : de 14h00 à 18h00\nLe Jeudi : de 10h00 à 12h00\nLe Vendredi : de 14h00 à 16h30","latitude":46.343014,"longitude":2.142332,"website":"","hasWebsite":false,"hasHoraires":true,"url":"https://lannuaire.service-public.gouv.fr/nouvelle-aquitaine/creuse/34599f33-1417-4548-b7cd-0c8993850465"}
{"nom":"Mansat-la-Courrière","nomNormalise":"mansatlacourriere","typeCollectivite":"Commune","region":"Nouvelle-Aquitaine","departement":"Creuse","departementCode":"23","adresse":{"street":"2 route des Maçons de la Creuse","postalCode":"23400","city":"Mansat-la-Courrière","country":"France"},"contacts":{"email":"mairiemansatlacourriere@orange.fr","telephone":"0555640318"},"horaires":"Le Lundi : de 09h00 à 12h00\nLe Mercredi : de 14h00 à 18h00","latitude":45.96261,"longitude":1.805783,"website":"","hasWebsite":false,"hasHoraires":true,"url":"https://lannuaire.service-public.gouv.fr/nouvelle-aquitaine/creuse/bb1d73cb-9423-4bb9-bb3d-4d59aadface9"}
{"nom":"Marsac","nomNormalise":"marsac","typeCollectivite":"Commune","region":"Nouvelle-Aquitaine","departement":"Creuse","departementCode":"23","adresse":{"street":"6 rue de la Mairie","postalCode":"23210","city":"Marsac","country":"France"},"contacts":{"email":"mairie@marsac-creuse.fr","telephone":"0555626132"},"horaires":"Du Lundi au Mardi : de 09h00 à 12h00\nDu Jeudi au Vendredi : de 09h00 à 12h00\nLe Samedi : de 09h00 à 12h00\n\nLes 2e et 4e Samedis du mois.","latitude":46.098263,"longitude":1.5871878,"website":"https://www.marsac-creuse.fr/","hasWebsite":true,"hasHoraires":true,"url":"https://lannuaire.service-public.gouv.fr/nouvelle-aquitaine/creuse/8a0af0de-39bb-4015-a75b-1de0b272721c"}
{"nom":"Mairie déléguée - Masbaraud-Mérignat","nomNormalise":"mairiedelegueemasbaraudmerignat","typeCollectivite":"Commune","region":"Nouvelle-Aquitaine","departement":"Creuse","departementCode":"23","adresse":{"street":"Masbaraud-Mérignat","postalCode":"23400","city":"Saint-Dizier-Masbaraud","country":"France"},"contacts":{"email":"mairiemasbaraud@orange.fr","telephone":"0555640901"},"horaires":"Le Lundi : de 13h30 à 17h30","latitude":45.975914,"longitude":1.746296,"website":"https://www.stdiziermasbaraud.fr/","hasWebsite":true,"hasHoraires":true,"url":"https://lannuaire.service-public.gouv.fr/nouvelle-aquitaine/creuse/ba34eac7-2b5a-4b4f-87e9-7a71a38f8701"}
{"nom":"Mautes","nomNormalise":"mautes","typeCollectivite":"Commune","region":"Nouvelle-Aquitaine","departement":"Creuse","departementCode":"23","adresse":{"street":"10 rue de la Mairie","postalCode":"23190","city":"Mautes","country":"France"},"contacts":{"email":"mairiedemautes@orange.fr","telephone":"0555673048"},"horaires":"Le Mardi : de 09h00 à 12h00 de 13h30 à 16h30\nLe Jeudi : de 09h00 à 12h00","latitude":45.944267,"longitude":2.385331,"website":"","hasWebsite":false,"hasHoraires":true,"url":"https://lannuaire.service-public.gouv.fr/nouvelle-aquitaine/creuse/f4c71025-7008-4e7a-85c4-54ec98665e81"}
{"nom":"Mazeirat","nomNormalise":"mazeirat","typeCollectivite":"Commune","region":"Nouvelle-Aquitaine","departement":"Creuse","departementCode":"23","adresse":{"street":"Le Bourg","postalCode":"23150","city":"Mazeirat","country":"France"},"contacts":{"email":"mairie.mazeirat@wanadoo.fr","telephone":"0555811590"},"horaires":"Le Mardi : de 14h00 à 17h00\nLe Jeudi : de 08h00 à 12h00 de 13h00 à 17h00","latitude":46.14172,"longitude":1.980628,"website":"","hasWebsite":false,"hasHoraires":true,"url":"https://lannuaire.service-public.gouv.fr/nouvelle-aquitaine/creuse/a0d83a41-0833-4317-bf86-b1a766155ea2"}
{"nom":"Méasnes","nomNormalise":"measnes","typeCollectivite":"Commune","region":"Nouvelle-Aquitaine","departement":"Creuse","departementCode":"23","adresse":{"street":"3 place de l'Église","postalCode":"23360","city":"Méasnes","country":"France"},"contacts":{"email":"mairiedemeasnes@orange.fr","telephone":"0555620089"},"horaires":"Le Lundi : de 09h00 à 12h30\nDu Mardi au Jeudi : de 09h00 à 12h30 de 13h30 à 17h30\nLe Vendredi : de 09h00 à 12h30 de 13h30 à 16h30\nLe Samedi : de 09h00 à 12h00","latitude":46.416813,"longitude":1.775947,"website":"","hasWebsite":false,"hasHoraires":true,"url":"https://lannuaire.service-public.gouv.fr/nouvelle-aquitaine/creuse/26d50df2-a8b5-41db-802d-381daa0caaba"}
{"nom":"Mérinchal","nomNormalise":"merinchal","typeCollectivite":"Commune","region":"Nouvelle-Aquitaine","departement":"Creuse","departementCode":"23","adresse":{"street":"6 rue du Château-de-la-Mothe","postalCode":"23420","city":"Mérinchal","country":"France"},"contacts":{"email":"commune@merinchal.fr","telephone":"0555672019"},"horaires":"Le Lundi : de 08h15 à 12h30 de 13h30 à 18h30\nLe Mardi : de 08h15 à 12h30 de 13h30 à 17h30\nLe Mercredi : de 08h15 à 12h15\nLe Jeudi : de 08h15 à 12h30 de 13h30 à 17h30\nLe Vendredi : de 08h15 à 12h00 de 14h00 à 17h00\nLe Samedi : de 09h00 à 11h00\n\nOuvert uniquement le 3ème samedi du mois","latitude":45.91709,"longitude":2.486754,"website":"https://www.merinchal.fr/","hasWebsite":true,"hasHoraires":true,"url":"https://lannuaire.service-public.gouv.fr/nouvelle-aquitaine/creuse/47bc6da8-4722-455c-9939-5ad37bc3c80a"}
{"nom":"Montaigut-le-Blanc","nomNormalise":"montaigutleblanc","typeCollectivite":"Commune","region":"Nouvelle-Aquitaine","departement":"Creuse","departementCode":"23","adresse":{"street":"21 rue des Écoles","postalCode":"23320","city":"Montaigut-le-Blanc","country":"France"},"contacts":{"email":"mairie.montaigut.leblanc@orange.fr","telephone":"0555813098"},"horaires":"","latitude":46.121216,"longitude":1.7349932,"website":"","hasWebsite":false,"hasHoraires":false,"url":"https://lannuaire.service-public.gouv.fr/nouvelle-aquitaine/creuse/b4ba93cb-da52-4b67-ba02-64fcd2d3d9b1"}
{"nom":"Montboucher","nomNormalise":"montboucher","typeCollectivite":"Commune","region":"Nouvelle-Aquitaine","departement":"Creuse","departementCode":"23","adresse":{"street":"Place Maurice-Chaumeil","postalCode":"23400","city":"Montboucher","country":"France"},"contacts":{"email":"montboucher@orange.fr","telephone":"0555641287"},"horaires":"Le Lundi : de 09h30 à 12h30 de 14h30 à 17h30\nLe Jeudi : de 09h30 à 12h30 de 14h30 à 17h30","latitude":45.953663,"longitude":1.678746,"website":"https://montboucher23.fr/","hasWebsite":true,"hasHoraires":true,"url":"https://lannuaire.service-public.gouv.fr/nouvelle-aquitaine/creuse/d8e618f8-f4f8-42e2-806e-13ea43ee95b6"}
{"nom":"Mortroux","nomNormalise":"mortroux","typeCollectivite":"Commune","region":"Nouvelle-Aquitaine","departement":"Creuse","departementCode":"23","adresse":{"street":"58 Grand'rue","postalCode":"23220","city":"Mortroux","country":"France"},"contacts":{"email":"mairie.mortroux@wanadoo.fr","telephone":"0555806214"},"horaires":"Du Lundi au Vendredi : de 08h30 à 12h00","latitude":46.397263,"longitude":1.9140499,"website":"http://www.mortroux.fr/","hasWebsite":true,"hasHoraires":true,"url":"https://lannuaire.service-public.gouv.fr/nouvelle-aquitaine/creuse/facd703a-82db-4257-a988-1666d71cde6c"}
{"nom":"Mourioux-Vieilleville","nomNormalise":"mouriouxvieilleville","typeCollectivite":"Commune","region":"Nouvelle-Aquitaine","departement":"Creuse","departementCode":"23","adresse":{"street":"Place Saint-Rémi","postalCode":"23210","city":"Mourioux-Vieilleville","country":"France"},"contacts":{"email":"mairie.mouriouxvieilleville@orange.fr","telephone":"0555620034"},"horaires":"Du Lundi au Mardi : de 09h00 à 12h00 de 14h00 à 17h00\nLe Mercredi : de 09h00 à 12h00\nDu Jeudi au Vendredi : de 09h00 à 12h00 de 14h00 à 17h00","latitude":46.07694,"longitude":1.644753,"website":"https://mouriouxvieilleville.fr/","hasWebsite":true,"hasHoraires":true,"url":"https://lannuaire.service-public.gouv.fr/nouvelle-aquitaine/creuse/3bda397d-23b4-4979-893c-f11f7b530a55"}
{"nom":"Moutier-d Ahun","nomNormalise":"moutierdahun","typeCollectivite":"Commune","region":"Nouvelle-Aquitaine","departement":"Creuse","departementCode":"23","adresse":{"street":"1 place de la Mairie","postalCode":"23150","city":"Moutier-d'Ahun","country":"France"},"contacts":{"email":"communemoutierdahun@orange.fr","telephone":"0555624563"},"horaires":"Le Mardi : de 13h30 à 17h30\nLe Jeudi : de 08h00 à 12h00 de 13h30 à 17h30","latitude":46.04953,"longitude":2.0931005,"website":"http://www.moutier-d-ahun.fr/","hasWebsite":true,"hasHoraires":true,"url":"https://lannuaire.service-public.gouv.fr/nouvelle-aquitaine/creuse/b8e692d8-4d95-4d0f-b944-3f2640b5aebf"}
{"nom":"Moutier-Malcard","nomNormalise":"moutiermalcard","typeCollectivite":"Commune","region":"Nouvelle-Aquitaine","departement":"Creuse","departementCode":"23","adresse":{"street":"2 place de la Mairie","postalCode":"23220","city":"Moutier-Malcard","country":"France"},"contacts":{"email":"mairie-moutier-malcard@wanadoo.fr","telephone":"0555806044"},"horaires":"Du Lundi au Jeudi : de 09h00 à 12h00 de 14h00 à 17h00\nLe Vendredi : de 09h00 à 12h00 de 14h00 à 16h00","latitude":46.39299,"longitude":1.945269,"website":"https://www.moutiermalcard.com/","hasWebsite":true,"hasHoraires":true,"url":"https://lannuaire.service-public.gouv.fr/nouvelle-aquitaine/creuse/e337e055-4e17-4b8f-bd73-7fa79fd67bec"}
{"nom":"Moutier-Rozeille","nomNormalise":"moutierrozeille","typeCollectivite":"Commune","region":"Nouvelle-Aquitaine","departement":"Creuse","departementCode":"23","adresse":{"street":"1 place de la Mairie","postalCode":"23200","city":"Moutier-Rozeille","country":"France"},"contacts":{"email":"mairie.moutierrozeille@orange.fr","telephone":"0555661316"},"horaires":"Du Lundi au Vendredi : de 10h00 à 13h00\n\nAccueil l'après-midi uniquement sur rendez-vous.\nAccueil l'après-midi uniquement sur rendez-vous.","latitude":45.9163,"longitude":2.19724,"website":"http://www.moutierrozeille.fr/","hasWebsite":true,"hasHoraires":true,"url":"https://lannuaire.service-public.gouv.fr/nouvelle-aquitaine/creuse/d03dc86d-faca-4fdd-98f5-6c5973b9b172"}
{"nom":"Naillat","nomNormalise":"naillat","typeCollectivite":"Commune","region":"Nouvelle-Aquitaine","departement":"Creuse","departementCode":"23","adresse":{"street":"1 rue des Écoles","postalCode":"23800","city":"Naillat","country":"France"},"contacts":{"email":"mairie.naillat@gmail.com","telephone":"0555890727"},"horaires":"Du Lundi au Vendredi : de 09h00 à 12h00 de 14h00 à 17h00","latitude":46.26533,"longitude":1.637828,"website":"https://naillat.fr/","hasWebsite":true,"hasHoraires":true,"url":"https://lannuaire.service-public.gouv.fr/nouvelle-aquitaine/creuse/dccfae28-af71-4eaf-bfb9-7d2faf57ff59"}
{"nom":"Néoux","nomNormalise":"neoux","typeCollectivite":"Commune","region":"Nouvelle-Aquitaine","departement":"Creuse","departementCode":"23","adresse":{"street":"6 rue du Forgeron","postalCode":"23200","city":"Néoux","country":"France"},"contacts":{"email":"mairie.neoux@orange.fr","telephone":"0555662459"},"horaires":"Le Mardi : de 13h30 à 16h30\nDu Jeudi au Vendredi : de 09h00 à 12h00 de 13h30 à 16h30\nLe Samedi : de 09h00 à 12h00","latitude":45.914963,"longitude":2.25868,"website":"https://www.neoux.fr/","hasWebsite":true,"hasHoraires":true,"url":"https://lannuaire.service-public.gouv.fr/nouvelle-aquitaine/creuse/1070d3a5-2930-4519-86f6-1511c7b79f90"}
{"nom":"Noth","nomNormalise":"noth","typeCollectivite":"Commune","region":"Nouvelle-Aquitaine","departement":"Creuse","departementCode":"23","adresse":{"street":"16 route du Gôt","postalCode":"23300","city":"Noth","country":"France"},"contacts":{"email":"contact@mairie-noth.com","telephone":"0555631312"},"horaires":"","latitude":46.234985,"longitude":1.5858974,"website":"http://www.mairie-noth.com/","hasWebsite":true,"hasHoraires":false,"url":"https://lannuaire.service-public.gouv.fr/nouvelle-aquitaine/creuse/727ad427-e3e3-460b-9a7e-937199526c25"}
{"nom":"Nouhant","nomNormalise":"nouhant","typeCollectivite":"Commune","region":"Nouvelle-Aquitaine","departement":"Creuse","departementCode":"23","adresse":{"street":"3 rue des Écoles","postalCode":"23170","city":"Nouhant","country":"France"},"contacts":{"email":"mairienouhant@orange.fr","telephone":"0971215956"},"horaires":"Du Lundi au Mardi : de 09h00 à 12h00 de 14h30 à 16h30\nDu Jeudi au Vendredi : de 09h00 à 12h00 de 14h30 à 16h30","latitude":46.285557,"longitude":2.39038,"website":"","hasWebsite":false,"hasHoraires":true,"url":"https://lannuaire.service-public.gouv.fr/nouvelle-aquitaine/creuse/0e93a427-eccb-4130-a56d-facd51a4b320"}
{"nom":"Nouzerines","nomNormalise":"nouzerines","typeCollectivite":"Commune","region":"Nouvelle-Aquitaine","departement":"Creuse","departementCode":"23","adresse":{"street":"1 place de la Mairie","postalCode":"23600","city":"Nouzerines","country":"France"},"contacts":{"email":"mairie-nouzerines@orange.fr","telephone":"0555820182"},"horaires":"Du Lundi au Mardi : de 08h00 à 12h00\nLe Vendredi : de 08h00 à 12h00","latitude":46.38835,"longitude":2.108043,"website":"http://www.nouzerines.fr/","hasWebsite":true,"hasHoraires":true,"url":"https://lannuaire.service-public.gouv.fr/nouvelle-aquitaine/creuse/11ebb065-5f44-4ee9-8f48-0d33b45b7c03"}
{"nom":"Nouzerolles","nomNormalise":"nouzerolles","typeCollectivite":"Commune","region":"Nouvelle-Aquitaine","departement":"Creuse","departementCode":"23","adresse":{"street":"Le Bourg","postalCode":"23360","city":"Nouzerolles","country":"France"},"contacts":{"email":"mairie.nouzerolles@orange.fr","telephone":"0555897466"},"horaires":"Du Lundi au Vendredi : de 08h30 à 12h00","latitude":46.380096,"longitude":1.73983,"website":"","hasWebsite":false,"hasHoraires":true,"url":"https://lannuaire.service-public.gouv.fr/nouvelle-aquitaine/creuse/a1f4c797-faa6-49d5-8f42-44de719517f6"}
{"nom":"Nouziers","nomNormalise":"nouziers","typeCollectivite":"Commune","region":"Nouvelle-Aquitaine","departement":"Creuse","departementCode":"23","adresse":{"street":"15 rue de l'Église","postalCode":"23350","city":"Nouziers","country":"France"},"contacts":{"email":"mairie.nouziers@orange.fr","telephone":"0555806365"},"horaires":"Du Lundi au Vendredi : de 09h00 à 12h30","latitude":46.421432,"longitude":1.95839,"website":"https://www.nouziers.fr/","hasWebsite":true,"hasHoraires":true,"url":"https://lannuaire.service-public.gouv.fr/nouvelle-aquitaine/creuse/0ff6fa4e-481b-4f59-809c-910b0ea08143"}
{"nom":"Parsac","nomNormalise":"parsac","typeCollectivite":"Commune","region":"Nouvelle-Aquitaine","departement":"Creuse","departementCode":"23","adresse":{"street":"Parsac-Rimondeix","postalCode":"23140","city":"Parsac","country":"France"},"contacts":{"email":"mairie.parsac@orange.fr","telephone":"0555622310"},"horaires":"Du Lundi au Mardi : de 09h00 à 12h00 de 14h00 à 17h30\nLe Mercredi : de 09h00 à 12h00\nDu Jeudi au Vendredi : de 09h00 à 12h00 de 14h00 à 17h30","latitude":46.20182,"longitude":2.152728,"website":"https://mairie-parsac-rimondeix.fr/fr","hasWebsite":true,"hasHoraires":true,"url":"https://lannuaire.service-public.gouv.fr/nouvelle-aquitaine/creuse/b636834e-4f14-4687-97c3-b9b37c8f151c"}
{"nom":"Peyrabout","nomNormalise":"peyrabout","typeCollectivite":"Commune","region":"Nouvelle-Aquitaine","departement":"Creuse","departementCode":"23","adresse":{"street":"5 rue des Sabots","postalCode":"23000","city":"Peyrabout","country":"France"},"contacts":{"email":"mairie.peyrabout@wanadoo.fr","telephone":"0555811060"},"horaires":"Le Mardi : de 14h00 à 18h00\nLe Jeudi : de 14h00 à 18h00","latitude":46.10771,"longitude":1.911665,"website":"","hasWebsite":false,"hasHoraires":true,"url":"https://lannuaire.service-public.gouv.fr/nouvelle-aquitaine/creuse/cac63f0e-ca92-426e-90c7-32f0b0c55352"}
{"nom":"Peyrat-la-Nonière","nomNormalise":"peyratlanoniere","typeCollectivite":"Commune","region":"Nouvelle-Aquitaine","departement":"Creuse","departementCode":"23","adresse":{"street":"8 route de Saint-Marc","postalCode":"23130","city":"Peyrat-la-Nonière","country":"France"},"contacts":{"email":"mairie.peyratlanoniere@gmail.com","telephone":"0555623845"},"horaires":"","latitude":46.0867,"longitude":2.25507,"website":"https://www.peyrat-la-noniere.com/","hasWebsite":true,"hasHoraires":false,"url":"https://lannuaire.service-public.gouv.fr/nouvelle-aquitaine/creuse/d844c90d-f6c7-4f2a-9a96-677c28f4b130"}
{"nom":"Pierrefitte","nomNormalise":"pierrefitte","typeCollectivite":"Commune","region":"Nouvelle-Aquitaine","departement":"Creuse","departementCode":"23","adresse":{"street":"7 le Bourg","postalCode":"23130","city":"Pierrefitte","country":"France"},"contacts":{"email":"commune.pierrefitte@creuseconfluence.com","telephone":"0555817588"},"horaires":"Le Mardi : de 14h30 à 18h30\nLe Vendredi : de 14h30 à 18h30","latitude":46.14512,"longitude":2.2338672,"website":"","hasWebsite":false,"hasHoraires":true,"url":"https://lannuaire.service-public.gouv.fr/nouvelle-aquitaine/creuse/16bea130-f946-452c-b5bd-3dec55e414dc"}
{"nom":"Pionnat","nomNormalise":"pionnat","typeCollectivite":"Commune","region":"Nouvelle-Aquitaine","departement":"Creuse","departementCode":"23","adresse":{"street":"1 place de la Mairie","postalCode":"23140","city":"Pionnat","country":"France"},"contacts":{"email":"mairiedepionnat@orange.fr","telephone":"0555809101"},"horaires":"Le Lundi : de 08h00 à 12h00 de 13h00 à 17h00\nLe Mercredi : de 08h00 à 12h00 de 13h00 à 17h00\nLe Jeudi : de 08h00 à 12h00 de 13h00 à 17h00\nLe Vendredi : de 00h00 à 12h00 de 13h00 à 17h00\nLe Samedi : de 08h30 à 12h30","latitude":46.170372,"longitude":2.024988,"website":"http://mairie-pionnat.com/","hasWebsite":true,"hasHoraires":true,"url":"https://lannuaire.service-public.gouv.fr/nouvelle-aquitaine/creuse/a20c524e-03e6-4fe1-92b5-3c8176c251db"}
{"nom":"Pontarion","nomNormalise":"pontarion","typeCollectivite":"Commune","region":"Nouvelle-Aquitaine","departement":"Creuse","departementCode":"23","adresse":{"street":"8 route de Guéret","postalCode":"23250","city":"Pontarion","country":"France"},"contacts":{"email":"communepontarion@wanadoo.fr","telephone":"0555645141"},"horaires":"Du Lundi au Mardi : de 09h00 à 18h00\nLe Jeudi : de 09h00 à 17h30\n\nSans interruption\nLe Vendredi : de 09h00 à 12h30","latitude":45.997326,"longitude":1.850544,"website":"","hasWebsite":false,"hasHoraires":true,"url":"https://lannuaire.service-public.gouv.fr/nouvelle-aquitaine/creuse/8311d0d7-e5b1-4b7f-8c84-c1ec6f9232a8"}
{"nom":"Pontcharraud","nomNormalise":"pontcharraud","typeCollectivite":"Commune","region":"Nouvelle-Aquitaine","departement":"Creuse","departementCode":"23","adresse":{"street":"Le Bourg","postalCode":"23260","city":"Pontcharraud","country":"France"},"contacts":{"email":"mairie-pontcharraud@orange.fr","telephone":"0555665666"},"horaires":"Le Mardi : de 10h00 à 12h00\nLe Vendredi : de 10h00 à 12h00","latitude":45.864254,"longitude":2.271,"website":"","hasWebsite":false,"hasHoraires":true,"url":"https://lannuaire.service-public.gouv.fr/nouvelle-aquitaine/creuse/3dec24ac-b063-42d6-a78b-7e560c0e6cad"}
{"nom":"Poussanges","nomNormalise":"poussanges","typeCollectivite":"Commune","region":"Nouvelle-Aquitaine","departement":"Creuse","departementCode":"23","adresse":{"street":"33 le Bourg","postalCode":"23500","city":"Poussanges","country":"France"},"contacts":{"email":"mairie-poussanges23@orange.fr","telephone":"0555664944"},"horaires":"Le Lundi : de 08h30 à 12h00\nLe Jeudi : de 08h30 à 12h00 de 14h00 à 18h00","latitude":45.826065,"longitude":2.217342,"website":"","hasWebsite":false,"hasHoraires":true,"url":"https://lannuaire.service-public.gouv.fr/nouvelle-aquitaine/creuse/23853e41-4403-427f-8bb3-572db5ecbf8a"}
{"nom":"Puy-Malsignat","nomNormalise":"puymalsignat","typeCollectivite":"Commune","region":"Nouvelle-Aquitaine","departement":"Creuse","departementCode":"23","adresse":{"street":"4 route d'Aubusson","postalCode":"23130","city":"Puy-Malsignat","country":"France"},"contacts":{"email":"mairie.puy-malsignat@wanadoo.fr","telephone":"0555833095"},"horaires":"Le Mardi : de 09h00 à 16h00\nLe Jeudi : de 09h00 à 12h00\nLe Vendredi : de 13h00 à 16h00","latitude":46.037277,"longitude":2.218005,"website":"","hasWebsite":false,"hasHoraires":true,"url":"https://lannuaire.service-public.gouv.fr/nouvelle-aquitaine/creuse/0ebb51b2-6a20-4781-b238-e66ffc0a5661"}
{"nom":"Reterre","nomNormalise":"reterre","typeCollectivite":"Commune","region":"Nouvelle-Aquitaine","departement":"Creuse","departementCode":"23","adresse":{"street":"1 place du 11-Novembre-1918","postalCode":"23110","city":"Reterre","country":"France"},"contacts":{"email":"mairiereterre@wanadoo.fr","telephone":"0555823134"},"horaires":"Le Lundi : de 09h00 à 12h00\nDu Mardi au Jeudi : de 13h30 à 17h30","latitude":46.10189,"longitude":2.472514,"website":"","hasWebsite":false,"hasHoraires":true,"url":"https://lannuaire.service-public.gouv.fr/nouvelle-aquitaine/creuse/49bfe828-ec94-4625-a8ee-a64ebd8559e8"}
{"nom":"Roches","nomNormalise":"roches","typeCollectivite":"Commune","region":"Nouvelle-Aquitaine","departement":"Creuse","departementCode":"23","adresse":{"street":"9 rue du Marbre","postalCode":"23270","city":"Roches","country":"France"},"contacts":{"email":"accueil.mairie@roches23.fr","telephone":"0555807369"},"horaires":"Du Lundi au Vendredi : de 13h30 à 17h30","latitude":46.28235,"longitude":2.001207,"website":"https://www.roches23.fr/","hasWebsite":true,"hasHoraires":true,"url":"https://lannuaire.service-public.gouv.fr/nouvelle-aquitaine/creuse/a9969c0a-ada5-43dd-aa9f-15b402dea7c1"}
{"nom":"Rougnat","nomNormalise":"rougnat","typeCollectivite":"Commune","region":"Nouvelle-Aquitaine","departement":"Creuse","departementCode":"23","adresse":{"street":"2 place de la Mairie","postalCode":"23700","city":"Rougnat","country":"France"},"contacts":{"email":"mairie.rougnat@wanadoo.fr","telephone":"0555670605"},"horaires":"Du Lundi au Mardi : de 09h00 à 16h30\nLe Jeudi : de 09h00 à 16h30\nLe Vendredi : de 09h00 à 12h00","latitude":46.05565,"longitude":2.501843,"website":"","hasWebsite":false,"hasHoraires":true,"url":"https://lannuaire.service-public.gouv.fr/nouvelle-aquitaine/creuse/8b625aae-d40c-4b4a-9871-12ae86565ce7"}
{"nom":"Royère-de-Vassivière","nomNormalise":"royeredevassiviere","typeCollectivite":"Commune","region":"Nouvelle-Aquitaine","departement":"Creuse","departementCode":"23","adresse":{"street":"5 Rue Camille-Bénassy","postalCode":"23460","city":"Royère-de-Vassivière","country":"France"},"contacts":{"email":"mairie.royere.vassiviere@wanadoo.fr","telephone":"0555647106"},"horaires":"Du Lundi au Mardi : de 09h00 à 12h00\nDu Jeudi au Vendredi : de 09h00 à 12h00","latitude":45.8421,"longitude":1.91452,"website":"http://www.mairie-royeredevassiviere.fr/","hasWebsite":true,"hasHoraires":true,"url":"https://lannuaire.service-public.gouv.fr/nouvelle-aquitaine/creuse/4f1a7e2c-4e54-4673-a7ef-cd62cb0dde2c"}
{"nom":"Sagnat","nomNormalise":"sagnat","typeCollectivite":"Commune","region":"Nouvelle-Aquitaine","departement":"Creuse","departementCode":"23","adresse":{"street":"1 place de la Mairie","postalCode":"23800","city":"Sagnat","country":"France"},"contacts":{"email":"mairiedesagnat@neuf.fr","telephone":"0555891497"},"horaires":"","latitude":46.30424,"longitude":1.629888,"website":"https://www.paysdunois.fr/","hasWebsite":true,"hasHoraires":false,"url":"https://lannuaire.service-public.gouv.fr/nouvelle-aquitaine/creuse/5e4f628f-d2df-4201-a135-e3a69b3a65ea"}
{"nom":"Saint-Agnant-de-Versillat","nomNormalise":"saintagnantdeversillat","typeCollectivite":"Commune","region":"Nouvelle-Aquitaine","departement":"Creuse","departementCode":"23","adresse":{"street":"10 rue Marc-Parrotin","postalCode":"23300","city":"Saint-Agnant-de-Versillat","country":"France"},"contacts":{"email":"mairie.versillat@gmail.com","telephone":"0555638375"},"horaires":"Du Lundi au Mercredi : de 08h30 à 12h00 de 13h30 à 17h30\nLe Jeudi : de 13h30 à 17h30\nLe Vendredi : de 08h30 à 12h00","latitude":46.279636,"longitude":1.5107138,"website":"http://versillat.fr/","hasWebsite":true,"hasHoraires":true,"url":"https://lannuaire.service-public.gouv.fr/nouvelle-aquitaine/creuse/7bda555a-8ffd-4d04-bae7-01ba704d7786"}
{"nom":"Saint-Agnant-près-Crocq","nomNormalise":"saintagnantprescrocq","typeCollectivite":"Commune","region":"Nouvelle-Aquitaine","departement":"Creuse","departementCode":"23","adresse":{"street":"3 Grande-rue","postalCode":"23260","city":"Saint-Agnant-près-Crocq","country":"France"},"contacts":{"email":"lamairiedesaintagnant@orange.fr","telephone":"0555678011"},"horaires":"Le Lundi : de 09h00 à 12h00\nLe Mercredi : de 09h00 à 12h00 de 14h00 à 17h00\nLe Vendredi : de 09h00 à 12h00 de 14h00 à 17h00","latitude":45.80485,"longitude":2.347927,"website":"https://www.saint-agnant-pres-crocq.fr/","hasWebsite":true,"hasHoraires":true,"url":"https://lannuaire.service-public.gouv.fr/nouvelle-aquitaine/creuse/b6dc68b7-ef48-4703-8dfb-c98f80bdada0"}
{"nom":"Saint-Alpinien","nomNormalise":"saintalpinien","typeCollectivite":"Commune","region":"Nouvelle-Aquitaine","departement":"Creuse","departementCode":"23","adresse":{"street":"Le Bourg","postalCode":"23200","city":"Saint-Alpinien","country":"France"},"contacts":{"email":"saint-alpinien@orange.fr","telephone":"0555662202"},"horaires":"Le Lundi : de 14h00 à 18h00\nLe Mercredi : de 09h00 à 12h00 de 13h00 à 19h00\nLe Vendredi : de 14h00 à 18h00","latitude":45.992744,"longitude":2.250782,"website":"https://saint-alpinien.creuse-grand-sud.fr/","hasWebsite":true,"hasHoraires":true,"url":"https://lannuaire.service-public.gouv.fr/nouvelle-aquitaine/creuse/7c8d7326-a308-47d6-b12d-c8f6689f99dd"}
{"nom":"Saint-Amand","nomNormalise":"saintamand","typeCollectivite":"Commune","region":"Nouvelle-Aquitaine","departement":"Creuse","departementCode":"23","adresse":{"street":"3 rue de la Mairie","postalCode":"23200","city":"Saint-Amand","country":"France"},"contacts":{"email":"mairie.saint.amand@orange.fr","telephone":"0961280057"},"horaires":"Le Lundi : de 09h00 à 12h00\nLe Mardi : de 09h00 à 12h00 de 14h00 à 17h00\nDu Jeudi au Vendredi : de 09h00 à 12h00\nLe Samedi : de 10h00 à 12h00\n\nPermanence des élus uniquement sur rendez-vous","latitude":45.98087,"longitude":2.204048,"website":"","hasWebsite":false,"hasHoraires":true,"url":"https://lannuaire.service-public.gouv.fr/nouvelle-aquitaine/creuse/59668d52-0b93-4f68-a524-2c8d86b815df"}
{"nom":"Saint-Amand-Jartoudeix","nomNormalise":"saintamandjartoudeix","typeCollectivite":"Commune","region":"Nouvelle-Aquitaine","departement":"Creuse","departementCode":"23","adresse":{"street":"Le Bourg","postalCode":"23400","city":"Saint-Amand-Jartoudeix","country":"France"},"contacts":{"email":"mairie.stamand23400@gmail.com","telephone":"0555646288"},"horaires":"Le Mardi : de 09h00 à 12h00 de 14h00 à 16h00\nLe Mercredi : de 14h00 à 19h00\nLe Vendredi : de 09h00 à 12h00","latitude":45.91468,"longitude":1.657387,"website":"https://www.stamandjartoudeix.com/","hasWebsite":true,"hasHoraires":true,"url":"https://lannuaire.service-public.gouv.fr/nouvelle-aquitaine/creuse/86067c83-d202-433b-abd8-6b658de2d32a"}
{"nom":"Saint-Avit-de-Tardes","nomNormalise":"saintavitdetardes","typeCollectivite":"Commune","region":"Nouvelle-Aquitaine","departement":"Creuse","departementCode":"23","adresse":{"street":"6 rue de l'École","postalCode":"23200","city":"Saint-Avit-de-Tardes","country":"France"},"contacts":{"email":"mairie@saintavitdetardes.fr","telephone":"0555673422"},"horaires":"Du Lundi au Mardi : de 09h00 à 12h00\nLe Mercredi : de 09h00 à 12h00 de 13h30 à 16h30\nDu Jeudi au Vendredi : de 09h00 à 12h00","latitude":45.91866,"longitude":2.284198,"website":"https://www.saintavitdetardes.fr/","hasWebsite":true,"hasHoraires":true,"url":"https://lannuaire.service-public.gouv.fr/nouvelle-aquitaine/creuse/ae89238e-e6e1-4055-bb1e-01c1ca850cc7"}
{"nom":"Saint-Avit-le-Pauvre","nomNormalise":"saintavitlepauvre","typeCollectivite":"Commune","region":"Nouvelle-Aquitaine","departement":"Creuse","departementCode":"23","adresse":{"street":"2 rue Principale","postalCode":"23480","city":"Saint-Avit-le-Pauvre","country":"France"},"contacts":{"email":"mairie.saintavitlepauvre@wanadoo.fr","telephone":"0555666820"},"horaires":"Le Lundi : de 14h00 à 17h30\nLe Jeudi : de 14h00 à 17h30","latitude":45.9969,"longitude":2.04482,"website":"","hasWebsite":false,"hasHoraires":true,"url":"https://lannuaire.service-public.gouv.fr/nouvelle-aquitaine/creuse/86aae171-c260-47a7-b378-caedc2127088"}
{"nom":"Saint-Bard","nomNormalise":"saintbard","typeCollectivite":"Commune","region":"Nouvelle-Aquitaine","departement":"Creuse","departementCode":"23","adresse":{"street":"2 impasse Sainte-Marguerite","postalCode":"23260","city":"Saint-Bard","country":"France"},"contacts":{"email":"mairie@st-bard.fr","telephone":"0555672356"},"horaires":"Le Mardi : de 13h00 à 17h00\nLe Jeudi : de 08h00 à 12h00 de 13h00 à 17h00","latitude":45.914837,"longitude":2.400466,"website":"","hasWebsite":false,"hasHoraires":true,"url":"https://lannuaire.service-public.gouv.fr/nouvelle-aquitaine/creuse/f32e8310-de81-4431-af29-e2a8227526e1"}
{"nom":"Saint-Chabrais","nomNormalise":"saintchabrais","typeCollectivite":"Commune","region":"Nouvelle-Aquitaine","departement":"Creuse","departementCode":"23","adresse":{"street":"7 rue du Lavoir","postalCode":"23130","city":"Saint-Chabrais","country":"France"},"contacts":{"email":"communestchabrais@orange.fr","telephone":"0555623056"},"horaires":"Le Lundi : de 14h00 à 17h00\nLe Mercredi : de 09h00 à 12h00\nLe Vendredi : de 14h00 à 17h00","latitude":46.132435,"longitude":2.204899,"website":"","hasWebsite":false,"hasHoraires":true,"url":"https://lannuaire.service-public.gouv.fr/nouvelle-aquitaine/creuse/9dc398e5-0733-4304-b858-c525cac80b5b"}
{"nom":"Saint-Christophe","nomNormalise":"saintchristophe","typeCollectivite":"Commune","region":"Nouvelle-Aquitaine","departement":"Creuse","departementCode":"23","adresse":{"street":"5 rue Ferdinand-Villard","postalCode":"23000","city":"Saint-Christophe","country":"France"},"contacts":{"email":"mairie.saint.christophe@wanadoo.fr","telephone":"0555527403"},"horaires":"Le Lundi : de 09h00 à 12h00\nLe Mercredi : de 09h00 à 12h00\nLe Vendredi : de 13h30 à 16h30","latitude":46.102783,"longitude":1.862061,"website":"http://www.saintchristophe23.paysdegueret.fr/","hasWebsite":true,"hasHoraires":true,"url":"https://lannuaire.service-public.gouv.fr/nouvelle-aquitaine/creuse/ba971eef-5c84-4844-a634-996b936beb25"}
{"nom":"Saint-Dizier-la-Tour","nomNormalise":"saintdizierlatour","typeCollectivite":"Commune","region":"Nouvelle-Aquitaine","departement":"Creuse","departementCode":"23","adresse":{"street":"9 la Tour","postalCode":"23130","city":"Saint-Dizier-la-Tour","country":"France"},"contacts":{"email":"mairiestdizierlatour@gmail.com","telephone":"0555623186"},"horaires":"Du Lundi au Mardi : de 08h45 à 11h45\nDu Jeudi au Vendredi : de 08h45 à 11h45","latitude":46.144608,"longitude":2.153509,"website":"","hasWebsite":false,"hasHoraires":true,"url":"https://lannuaire.service-public.gouv.fr/nouvelle-aquitaine/creuse/0a774803-e054-40ee-ac31-ff46cb6e83d8"}
{"nom":"Saint-Dizier-les-Domaines","nomNormalise":"saintdizierlesdomaines","typeCollectivite":"Commune","region":"Nouvelle-Aquitaine","departement":"Creuse","departementCode":"23","adresse":{"street":"Le Bourg","postalCode":"23270","city":"Saint-Dizier-les-Domaines","country":"France"},"contacts":{"email":"mairie-stdizierlesdomaines@wanadoo.fr","telephone":"0555807203"},"horaires":"Le Lundi : de 13h45 à 16h45\nDu Jeudi au Vendredi : de 13h45 à 16h45","latitude":46.3188,"longitude":2.03488,"website":"","hasWebsite":false,"hasHoraires":true,"url":"https://lannuaire.service-public.gouv.fr/nouvelle-aquitaine/creuse/97508734-788c-4a70-afa2-3f43dd009d66"}
{"nom":"Saint-Dizier-Masbaraud","nomNormalise":"saintdiziermasbaraud","typeCollectivite":"Commune","region":"Nouvelle-Aquitaine","departement":"Creuse","departementCode":"23","adresse":{"street":"Saint-Dizier-Leyrenne","postalCode":"23400","city":"Saint-Dizier-Masbaraud","country":"France"},"contacts":{"email":"accueil2@stdiziermasbaraud.fr","telephone":"0555644030"},"horaires":"Le Lundi : de 09h00 à 12h00\nDu Mardi au Vendredi : de 09h00 à 12h00 de 14h00 à 17h30\nLe Samedi : de 09h00 à 12h00","latitude":46.026,"longitude":1.71496,"website":"https://www.stdiziermasbaraud.fr/","hasWebsite":true,"hasHoraires":true,"url":"https://lannuaire.service-public.gouv.fr/nouvelle-aquitaine/creuse/5bc78c88-e18b-48b6-9b40-dd3224dd5254"}
{"nom":"Saint-Domet","nomNormalise":"saintdomet","typeCollectivite":"Commune","region":"Nouvelle-Aquitaine","departement":"Creuse","departementCode":"23","adresse":{"street":"Place de la Mairie","postalCode":"23190","city":"Saint-Domet","country":"France"},"contacts":{"email":"saintdomet@orange.fr","telephone":"0555676781"},"horaires":"Le Mardi : de 08h00 à 12h00\nLe Jeudi : de 09h00 à 12h00\nLe Vendredi : de 09h00 à 12h30 de 13h30 à 16h30","latitude":46.042694,"longitude":2.299839,"website":"","hasWebsite":false,"hasHoraires":true,"url":"https://lannuaire.service-public.gouv.fr/nouvelle-aquitaine/creuse/2cc64069-9e4e-4cf7-a9cd-935460eee031"}
{"nom":"Sainte-Feyre","nomNormalise":"saintefeyre","typeCollectivite":"Commune","region":"Nouvelle-Aquitaine","departement":"Creuse","departementCode":"23","adresse":{"street":"5 place de la Mairie","postalCode":"23000","city":"Sainte-Feyre","country":"France"},"contacts":{"email":"secretariat@saintefeyre.fr","telephone":"0555800017"},"horaires":"Le Lundi : de 10h00 à 12h00 de 13h30 à 17h00\nDu Mardi au Jeudi : de 09h00 à 12h00 de 13h30 à 17h00\nLe Vendredi : de 09h00 à 12h00 de 13h30 à 16h00","latitude":46.1391,"longitude":1.91534,"website":"https://www.saintefeyre.fr/","hasWebsite":true,"hasHoraires":true,"url":"https://lannuaire.service-public.gouv.fr/nouvelle-aquitaine/creuse/e38057b4-ff25-40ea-b3db-7758a043d9b8"}
{"nom":"Sainte-Feyre-la-Montagne","nomNormalise":"saintefeyrelamontagne","typeCollectivite":"Commune","region":"Nouvelle-Aquitaine","departement":"Creuse","departementCode":"23","adresse":{"street":"46 lieu-dit Margnat","postalCode":"23500","city":"Sainte-Feyre-la-Montagne","country":"France"},"contacts":{"email":"communestefeyrelamontagne@orange.fr","telephone":"0555663480"},"horaires":"Le Mardi : de 09h00 à 12h00 de 14h00 à 16h30\nLe Vendredi : de 10h00 à 12h00 de 14h00 à 17h00","latitude":45.8995,"longitude":2.24315,"website":"","hasWebsite":false,"hasHoraires":true,"url":"https://lannuaire.service-public.gouv.fr/nouvelle-aquitaine/creuse/ec1eefe1-0131-4080-82ae-7984dadff6b6"}
{"nom":"Saint-Éloi","nomNormalise":"sainteloi","typeCollectivite":"Commune","region":"Nouvelle-Aquitaine","departement":"Creuse","departementCode":"23","adresse":{"street":"13 le Bourg","postalCode":"23000","city":"Saint-Éloi","country":"France"},"contacts":{"email":"mairie.saint.eloi@orange.fr","telephone":"0963236559"},"horaires":"Le Mardi : de 09h00 à 12h00\nLe Jeudi : de 09h00 à 12h00 de 14h00 à 17h00\nLe Vendredi : de 09h00 à 12h00","latitude":46.07409,"longitude":1.8383858,"website":"https://lapagelocale.fr/23000-saint-eloi","hasWebsite":true,"hasHoraires":true,"url":"https://lannuaire.service-public.gouv.fr/nouvelle-aquitaine/creuse/2c805bdf-c2db-4196-86fa-73f485862406"}
{"nom":"Saint-Fiel","nomNormalise":"saintfiel","typeCollectivite":"Commune","region":"Nouvelle-Aquitaine","departement":"Creuse","departementCode":"23","adresse":{"street":"2 route du Grand-Moulin","postalCode":"23000","city":"Saint-Fiel","country":"France"},"contacts":{"email":"contact@saintfiel.fr","telephone":"0555520736"},"horaires":"Le Lundi : de 08h00 à 12h30 de 14h00 à 17h00\nDu Mardi au Mercredi : de 08h00 à 12h00\nLe Jeudi : de 08h00 à 12h00 de 14h00 à 16h00\nLe Vendredi : de 08h00 à 12h00","latitude":46.2141,"longitude":1.89468,"website":"https://www.saintfiel.fr/","hasWebsite":true,"hasHoraires":true,"url":"https://lannuaire.service-public.gouv.fr/nouvelle-aquitaine/creuse/3022cb6e-42ec-4de6-8de2-f1150b365aac"}
{"nom":"Saint-Frion","nomNormalise":"saintfrion","typeCollectivite":"Commune","region":"Nouvelle-Aquitaine","departement":"Creuse","departementCode":"23","adresse":{"street":"111 route de l'Église","postalCode":"23500","city":"Saint-Frion","country":"France"},"contacts":{"email":"mairie-st-frion@orange.fr","telephone":"0555664274"},"horaires":"Le Lundi : de 08h30 à 12h00\nLe Mercredi : de 08h30 à 12h00","latitude":45.862534,"longitude":2.226138,"website":"","hasWebsite":false,"hasHoraires":true,"url":"https://lannuaire.service-public.gouv.fr/nouvelle-aquitaine/creuse/8a7f1517-d5c1-485f-b2b0-0983318a47be"}
{"nom":"Saint-Georges-la-Pouge","nomNormalise":"saintgeorgeslapouge","typeCollectivite":"Commune","region":"Nouvelle-Aquitaine","departement":"Creuse","departementCode":"23","adresse":{"street":"1 place de la Marianne","postalCode":"23250","city":"Saint-Georges-la-Pouge","country":"France"},"contacts":{"email":"commune.saintgeorgeslapouge@wanadoo.fr","telephone":"0555666224"},"horaires":"Du Lundi au Mardi : de 08h30 à 12h30 de 13h30 à 16h30\nLe Jeudi : de 08h30 à 12h30 de 13h30 à 16h30","latitude":45.99364,"longitude":1.970678,"website":"https://www.saint-georges-la-pouge.fr/","hasWebsite":true,"hasHoraires":true,"url":"https://lannuaire.service-public.gouv.fr/nouvelle-aquitaine/creuse/bff4bceb-4306-40de-b5e8-e9bef366b520"}
{"nom":"Saint-Georges-Nigremont","nomNormalise":"saintgeorgesnigremont","typeCollectivite":"Commune","region":"Nouvelle-Aquitaine","departement":"Creuse","departementCode":"23","adresse":{"street":"4 le Bourg","postalCode":"23500","city":"Saint-Georges-Nigremont","country":"France"},"contacts":{"email":"st-georges.mairie@orange.fr","telephone":"0555664340"},"horaires":"Le Lundi : de 14h00 à 19h00\nLe Jeudi : de 14h00 à 19h00","latitude":45.83694,"longitude":2.263693,"website":"https://www.saintgeorgesnigremont.com/","hasWebsite":true,"hasHoraires":true,"url":"https://lannuaire.service-public.gouv.fr/nouvelle-aquitaine/creuse/afdb1943-b1d5-42e9-a2b0-2b55df301004"}
{"nom":"Saint-Germain-Beaupré","nomNormalise":"saintgermainbeaupre","typeCollectivite":"Commune","region":"Nouvelle-Aquitaine","departement":"Creuse","departementCode":"23","adresse":{"street":"28 Grande rue","postalCode":"23160","city":"Saint-Germain-Beaupré","country":"France"},"contacts":{"email":"mairie.stgermainbeaupre@orange.fr","telephone":"0555635188"},"horaires":"Du Lundi au Mercredi : de 09h00 à 12h30 de 13h30 à 18h00\nLe Vendredi : de 09h00 à 12h30 de 13h30 à 18h00\nLe Samedi : de 09h00 à 12h00\n\nUn samedi sur deux","latitude":46.3082,"longitude":1.5451798,"website":"","hasWebsite":false,"hasHoraires":true,"url":"https://lannuaire.service-public.gouv.fr/nouvelle-aquitaine/creuse/6a914b12-0011-4fcc-856a-4d10fcb3a94e"}
{"nom":"Saint-Goussaud","nomNormalise":"saintgoussaud","typeCollectivite":"Commune","region":"Nouvelle-Aquitaine","departement":"Creuse","departementCode":"23","adresse":{"street":"2 le Bourg","postalCode":"23430","city":"Saint-Goussaud","country":"France"},"contacts":{"email":"mairie.saintgoussaud@wanadoo.fr","telephone":"0555643140"},"horaires":"Le Lundi : de 08h30 à 12h00 de 14h00 à 17h30\nLe Mardi : de 08h30 à 12h00\nDu Jeudi au Vendredi : de 08h30 à 12h00","latitude":46.0408,"longitude":1.576596,"website":"","hasWebsite":false,"hasHoraires":true,"url":"https://lannuaire.service-public.gouv.fr/nouvelle-aquitaine/creuse/57ea1386-2aa0-47f9-986b-563eb9295dd7"}
{"nom":"Saint-Hilaire-la-Plaine","nomNormalise":"sainthilairelaplaine","typeCollectivite":"Commune","region":"Nouvelle-Aquitaine","departement":"Creuse","departementCode":"23","adresse":{"street":"2 rue du Lavoir","postalCode":"23150","city":"Saint-Hilaire-la-Plaine","country":"France"},"contacts":{"email":"mairiesthilairelaplaine@orange.fr","telephone":"0555800109"},"horaires":"","latitude":46.12642,"longitude":1.976462,"website":"","hasWebsite":false,"hasHoraires":false,"url":"https://lannuaire.service-public.gouv.fr/nouvelle-aquitaine/creuse/6a4008f5-cc71-44cc-9820-503a14c81042"}
{"nom":"Saint-Hilaire-le-Château","nomNormalise":"sainthilairelechateau","typeCollectivite":"Commune","region":"Nouvelle-Aquitaine","departement":"Creuse","departementCode":"23","adresse":{"street":"24 rue Grande","postalCode":"23250","city":"Saint-Hilaire-le-Château","country":"France"},"contacts":{"email":"mairie.sthilairechateau@orange.fr","telephone":"0555645605"},"horaires":"Le Lundi : de 09h30 à 12h00\nLe Mercredi : de 09h30 à 12h00","latitude":45.982563,"longitude":1.897742,"website":"","hasWebsite":false,"hasHoraires":true,"url":"https://lannuaire.service-public.gouv.fr/nouvelle-aquitaine/creuse/27f8d01b-5eb1-4290-b5ef-8963de272e55"}
{"nom":"Saint-Julien-la-Genête","nomNormalise":"saintjulienlagenete","typeCollectivite":"Commune","region":"Nouvelle-Aquitaine","departement":"Creuse","departementCode":"23","adresse":{"street":"9 Grande rue","postalCode":"23110","city":"Saint-Julien-la-Genête","country":"France"},"contacts":{"email":"mairie.st-julien-la-genete@orange.fr","telephone":"0555655409"},"horaires":"Le Lundi : de 08h30 à 12h30 de 13h30 à 17h30\nLe Mardi : de 13h30 à 17h30\nDu Jeudi au Vendredi : de 08h30 à 12h30","latitude":46.15317,"longitude":2.476382,"website":"https://saintjulienlagenete.wordpress.com/","hasWebsite":true,"hasHoraires":true,"url":"https://lannuaire.service-public.gouv.fr/nouvelle-aquitaine/creuse/ff7cdcf2-1591-4fd6-be00-beaf05fa9ecc"}
{"nom":"Saint-Julien-le-Châtel","nomNormalise":"saintjulienlechatel","typeCollectivite":"Commune","region":"Nouvelle-Aquitaine","departement":"Creuse","departementCode":"23","adresse":{"street":"1 rue du Lavoir","postalCode":"23130","city":"Saint-Julien-le-Châtel","country":"France"},"contacts":{"email":"mairie.stjulienlechatel@orange.fr","telephone":"0555817763"},"horaires":"Le Mardi : de 08h00 à 12h00 de 13h15 à 17h00\nLe Vendredi : de 08h00 à 12h00 de 13h15 à 17h00","latitude":46.116142,"longitude":2.269644,"website":"","hasWebsite":false,"hasHoraires":true,"url":"https://lannuaire.service-public.gouv.fr/nouvelle-aquitaine/creuse/dcc551e9-894f-4e7b-acb5-70e4de39b41d"}
{"nom":"Saint-Junien-la-Bregère","nomNormalise":"saintjunienlabregere","typeCollectivite":"Commune","region":"Nouvelle-Aquitaine","departement":"Creuse","departementCode":"23","adresse":{"street":"1 rue des Écoles","postalCode":"23400","city":"Saint-Junien-la-Bregère","country":"France"},"contacts":{"email":"mairiest.junien@orange.fr","telephone":"0555549052"},"horaires":"Du Lundi au Mardi : de 09h00 à 12h00 de 14h00 à 16h00\nDu Jeudi au Vendredi : de 09h00 à 12h00 de 14h00 à 16h00","latitude":45.8514,"longitude":1.68912,"website":"","hasWebsite":false,"hasHoraires":true,"url":"https://lannuaire.service-public.gouv.fr/nouvelle-aquitaine/creuse/87d1127f-b69c-4055-97b4-b97046849d2a"}
{"nom":"Saint-Laurent","nomNormalise":"saintlaurent","typeCollectivite":"Commune","region":"Nouvelle-Aquitaine","departement":"Creuse","departementCode":"23","adresse":{"street":"Rue des Écoles","postalCode":"23000","city":"Saint-Laurent","country":"France"},"contacts":{"email":"mairie-stlaurent@wanadoo.fr","telephone":"0555522619"},"horaires":"Du Lundi au Mercredi : de 13h30 à 17h30\nLe Vendredi : de 13h30 à 17h30","latitude":46.1664,"longitude":1.96316,"website":"http://saint-laurent-creuse.fr/","hasWebsite":true,"hasHoraires":true,"url":"https://lannuaire.service-public.gouv.fr/nouvelle-aquitaine/creuse/b6b1598b-6a89-487b-b0fb-0fcd9f1a2120"}
{"nom":"Saint-Léger-Bridereix","nomNormalise":"saintlegerbridereix","typeCollectivite":"Commune","region":"Nouvelle-Aquitaine","departement":"Creuse","departementCode":"23","adresse":{"street":"8 le Bourg","postalCode":"23300","city":"Saint-Léger-Bridereix","country":"France"},"contacts":{"email":"mairie-st-legerb@orange.fr","telephone":"0555899321"},"horaires":"Du Lundi au Mardi : de 09h30 à 12h30\nLe Jeudi : de 09h30 à 12h30\nLe Vendredi : de 09h30 à 12h30 de 14h00 à 17h00","latitude":46.287018,"longitude":1.589206,"website":"","hasWebsite":false,"hasHoraires":true,"url":"https://lannuaire.service-public.gouv.fr/nouvelle-aquitaine/creuse/0e9035a4-062d-429b-9af4-f86d6057e84d"}
{"nom":"Saint-Léger-le-Guérétois","nomNormalise":"saintlegerlegueretois","typeCollectivite":"Commune","region":"Nouvelle-Aquitaine","departement":"Creuse","departementCode":"23","adresse":{"street":"3 route des Carrières","postalCode":"23000","city":"Saint-Léger-le-Guérétois","country":"France"},"contacts":{"email":"mairie@saintlegerlegueretois.fr","telephone":"0555523296"},"horaires":"Du Lundi au Mardi : de 13h30 à 17h00\nDu Jeudi au Vendredi : de 13h30 à 17h00","latitude":46.15084,"longitude":1.81502,"website":"https://saintlegerlegueretois.fr/","hasWebsite":true,"hasHoraires":true,"url":"https://lannuaire.service-public.gouv.fr/nouvelle-aquitaine/creuse/418bd7fa-9c35-4009-b702-6ba66e365e19"}
{"nom":"Saint-Loup","nomNormalise":"saintloup","typeCollectivite":"Commune","region":"Nouvelle-Aquitaine","departement":"Creuse","departementCode":"23","adresse":{"street":"1 route de l'Abéoradoux","postalCode":"23130","city":"Saint-Loup","country":"France"},"contacts":{"email":"mairiestloup3@wanadoo.fr","telephone":"0555622217"},"horaires":"Du Jeudi au Vendredi : de 13h30 à 17h30","latitude":46.135685,"longitude":2.272921,"website":"","hasWebsite":false,"hasHoraires":true,"url":"https://lannuaire.service-public.gouv.fr/nouvelle-aquitaine/creuse/f63a370b-f50c-47e5-8211-6301d2669aaa"}
{"nom":"Saint-Maixant","nomNormalise":"saintmaixant","typeCollectivite":"Commune","region":"Nouvelle-Aquitaine","departement":"Creuse","departementCode":"23","adresse":{"street":"Le Bourg","postalCode":"23200","city":"Saint-Maixant","country":"France"},"contacts":{"email":"m-saint-maixant@wanadoo.fr","telephone":"0555661256"},"horaires":"Le Lundi : de 09h00 à 12h00 de 13h00 à 18h30\nLe Mercredi : de 12h00 à 15h30\nLe Jeudi : de 13h00 à 16h30\nLe Vendredi : de 08h30 à 12h00","latitude":45.99377,"longitude":2.208007,"website":"","hasWebsite":false,"hasHoraires":true,"url":"https://lannuaire.service-public.gouv.fr/nouvelle-aquitaine/creuse/caa758fc-ec30-42ec-a42a-3ddaa369a492"}
{"nom":"Saint-Marc-à-Frongier","nomNormalise":"saintmarcafrongier","typeCollectivite":"Commune","region":"Nouvelle-Aquitaine","departement":"Creuse","departementCode":"23","adresse":{"street":"28 rue de la Planchette","postalCode":"23200","city":"Saint-Marc-à-Frongier","country":"France"},"contacts":{"email":"mairie.st.marc.a.frongier@orange.fr","telephone":"0555661887"},"horaires":"Le Lundi : de 09h00 à 12h00\nLe Mardi : de 14h00 à 18h00\nLe Jeudi : de 14h00 à 17h30\nLe Vendredi : de 08h00 à 12h00","latitude":45.97492,"longitude":2.431106,"website":"https://saint-marc-a-frongier.fr/","hasWebsite":true,"hasHoraires":true,"url":"https://lannuaire.service-public.gouv.fr/nouvelle-aquitaine/creuse/d96df134-dcb4-4cdc-8787-5c5463c059d3"}
{"nom":"Saint-Marc-à-Loubaud","nomNormalise":"saintmarcaloubaud","typeCollectivite":"Commune","region":"Nouvelle-Aquitaine","departement":"Creuse","departementCode":"23","adresse":{"street":"Le Bourg","postalCode":"23460","city":"Saint-Marc-à-Loubaud","country":"France"},"contacts":{"email":"mairiestmarc@wanadoo.fr","telephone":"0555660727"},"horaires":"","latitude":45.848,"longitude":1.994588,"website":"","hasWebsite":false,"hasHoraires":false,"url":"https://lannuaire.service-public.gouv.fr/nouvelle-aquitaine/creuse/1f06e7ea-d9dd-4383-8aac-f8013304cd27"}
{"nom":"Saint-Marien","nomNormalise":"saintmarien","typeCollectivite":"Commune","region":"Nouvelle-Aquitaine","departement":"Creuse","departementCode":"23","adresse":{"street":"3 place de la Mairie","postalCode":"23600","city":"Saint-Marien","country":"France"},"contacts":{"email":"commune.stmarien@orange.fr","telephone":"0555820087"},"horaires":"Du Lundi au Vendredi : de 08h30 à 13h00 de 13h30 à 16h00","latitude":46.4205,"longitude":2.225339,"website":"","hasWebsite":false,"hasHoraires":true,"url":"https://lannuaire.service-public.gouv.fr/nouvelle-aquitaine/creuse/619b877b-4f8a-469b-bf2a-1f5352ad56c5"}
{"nom":"Saint-Martial-le-Mont","nomNormalise":"saintmartiallemont","typeCollectivite":"Commune","region":"Nouvelle-Aquitaine","departement":"Creuse","departementCode":"23","adresse":{"street":"18 rue de la Mairie","postalCode":"23150","city":"Saint-Martial-le-Mont","country":"France"},"contacts":{"email":"mairie@saintmartiallemont.fr","telephone":"0555814016"},"horaires":"Le Lundi : de 08h00 à 12h00 de 13h30 à 17h30\nLe Mardi : de 08h00 à 12h30\nLe Vendredi : de 08h00 à 13h00","latitude":46.04872,"longitude":2.09262,"website":"https://www.saintmartiallemont.fr/","hasWebsite":true,"hasHoraires":true,"url":"https://lannuaire.service-public.gouv.fr/nouvelle-aquitaine/creuse/b742b1ec-6d04-43ba-bc2f-aca2d774eae5"}
{"nom":"Saint-Martial-le-Vieux","nomNormalise":"saintmartiallevieux","typeCollectivite":"Commune","region":"Nouvelle-Aquitaine","departement":"Creuse","departementCode":"23","adresse":{"street":"Sarsoux","postalCode":"23100","city":"Saint-Martial-le-Vieux","country":"France"},"contacts":{"email":"saintmartiallevieux@wanadoo.fr","telephone":"0555667256"},"horaires":"Le Lundi : de 09h00 à 12h00\nLe Mardi : de 13h00 à 17h00\nDu Jeudi au Vendredi : de 08h30 à 12h30","latitude":45.6716,"longitude":2.28014,"website":"","hasWebsite":false,"hasHoraires":true,"url":"https://lannuaire.service-public.gouv.fr/nouvelle-aquitaine/creuse/ce3bf0d3-e364-4938-8994-1d89baba78d4"}
{"nom":"Saint-Martin-Château","nomNormalise":"saintmartinchateau","typeCollectivite":"Commune","region":"Nouvelle-Aquitaine","departement":"Creuse","departementCode":"23","adresse":{"street":"Le Bourg","postalCode":"23460","city":"Saint-Martin-Château","country":"France"},"contacts":{"email":"stmartinchateau-mairie@wanadoo.fr","telephone":"0555647127"},"horaires":"Le Mardi : de 08h30 à 12h00\nLe Jeudi : de 08h30 à 12h00 de 13h30 à 16h30\nLe Vendredi : de 08h30 à 12h00","latitude":45.857357,"longitude":1.79943,"website":"http://www.saint-martin-chateau.fr/","hasWebsite":true,"hasHoraires":true,"url":"https://lannuaire.service-public.gouv.fr/nouvelle-aquitaine/creuse/52034e65-06cf-4317-9f45-8bc42c920551"}
{"nom":"Saint-Martin-Sainte-Catherine","nomNormalise":"saintmartinsaintecatherine","typeCollectivite":"Commune","region":"Nouvelle-Aquitaine","departement":"Creuse","departementCode":"23","adresse":{"street":"Le Theil","postalCode":"23430","city":"Saint-Martin-Sainte-Catherine","country":"France"},"contacts":{"email":"mairiedutheil@wanadoo.fr","telephone":"0555648020"},"horaires":"Du Lundi au Mardi : de 13h30 à 17h30\nDu Jeudi au Vendredi : de 13h30 à 17h30\nLe Samedi : de 10h00 à 12h00","latitude":45.9487,"longitude":1.56549,"website":"https://saintmartinsaintecatherine.sitew.fr/","hasWebsite":true,"hasHoraires":true,"url":"https://lannuaire.service-public.gouv.fr/nouvelle-aquitaine/creuse/5f4de5a9-9ae4-4792-a7f1-94b3282d61c4"}
{"nom":"Saint-Maurice-la-Souterraine","nomNormalise":"saintmauricelasouterraine","typeCollectivite":"Commune","region":"Nouvelle-Aquitaine","departement":"Creuse","departementCode":"23","adresse":{"street":"1 place de la Mairie","postalCode":"23300","city":"Saint-Maurice-la-Souterraine","country":"France"},"contacts":{"email":"communestmaurice@orange.fr","telephone":"0555630547"},"horaires":"Du Lundi au Vendredi : de 08h00 à 12h00 de 13h00 à 17h00","latitude":46.2145,"longitude":1.43092,"website":"https://www.saint-maurice-la-souterraine.com/","hasWebsite":true,"hasHoraires":true,"url":"https://lannuaire.service-public.gouv.fr/nouvelle-aquitaine/creuse/c07c18ec-cc7a-4636-8ede-6d5bb9ec801c"}
{"nom":"Saint-Maurice-près-Crocq","nomNormalise":"saintmauriceprescrocq","typeCollectivite":"Commune","region":"Nouvelle-Aquitaine","departement":"Creuse","departementCode":"23","adresse":{"street":"4 Route de Felletin","postalCode":"23260","city":"Saint-Maurice-Près-Crocq","country":"France"},"contacts":{"email":"mairie.stmauriceprescrocq@orange.fr","telephone":"0555674885"},"horaires":"Le Mardi : de 16h00 à 18h30\nLe Vendredi : de 16h00 à 18h30","latitude":45.874393,"longitude":2.325916,"website":"","hasWebsite":false,"hasHoraires":true,"url":"https://lannuaire.service-public.gouv.fr/nouvelle-aquitaine/creuse/8772c31a-1120-438c-bf01-a60886848eb2"}
{"nom":"Saint-Médard-la-Rochette","nomNormalise":"saintmedardlarochette","typeCollectivite":"Commune","region":"Nouvelle-Aquitaine","departement":"Creuse","departementCode":"23","adresse":{"street":"2 rue de la Mairie","postalCode":"23200","city":"Saint-Médard-la-Rochette","country":"France"},"contacts":{"email":"mairiesaintmedard@wanadoo.fr","telephone":"0555661915"},"horaires":"Du Lundi au Mardi : de 08h00 à 12h30 de 13h00 à 16h00\nLe Mercredi : de 08h00 à 13h00\nDu Jeudi au Vendredi : de 08h00 à 12h30 de 13h00 à 16h00","latitude":46.04356,"longitude":2.143868,"website":"https://www.saint-medard-la-rochette.fr/","hasWebsite":true,"hasHoraires":true,"url":"https://lannuaire.service-public.gouv.fr/nouvelle-aquitaine/creuse/132e9a06-5a12-4881-8185-7be5fd594106"}
{"nom":"Saint-Merd-la-Breuille","nomNormalise":"saintmerdlabreuille","typeCollectivite":"Commune","region":"Nouvelle-Aquitaine","departement":"Creuse","departementCode":"23","adresse":{"street":"20 Route de Giat","postalCode":"23100","city":"Saint-Merd-la-Breuille","country":"France"},"contacts":{"email":"stmerdlabreuille@orange.fr","telephone":"0555678067"},"horaires":"Le Lundi : de 09h00 à 12h00\nDu Mardi au Mercredi : de 09h00 à 12h00 de 13h30 à 17h00\nLe Jeudi : de 09h00 à 12h00\nLe Vendredi : de 09h00 à 12h00 de 13h30 à 17h30","latitude":45.7432,"longitude":2.43073,"website":"https://saint-merd-la-breuille.fr/","hasWebsite":true,"hasHoraires":true,"url":"https://lannuaire.service-public.gouv.fr/nouvelle-aquitaine/creuse/18d84e15-5158-4bf1-b87a-e2b9a441d07f"}
{"nom":"Saint-Michel-de-Veisse","nomNormalise":"saintmicheldeveisse","typeCollectivite":"Commune","region":"Nouvelle-Aquitaine","departement":"Creuse","departementCode":"23","adresse":{"street":"1 le Bourg","postalCode":"23480","city":"Saint-Michel-de-Veisse","country":"France"},"contacts":{"email":"mairie.stmicheldeveisse@wanadoo.fr","telephone":"0555830138"},"horaires":"Le Lundi : de 14h00 à 18h00\nLe Mercredi : de 14h00 à 18h00\nLe Vendredi : de 14h00 à 18h00","latitude":45.95136,"longitude":2.05382,"website":"","hasWebsite":false,"hasHoraires":true,"url":"https://lannuaire.service-public.gouv.fr/nouvelle-aquitaine/creuse/afe408b2-35b4-4f39-bce1-d90320707517"}
{"nom":"Saint-Moreil","nomNormalise":"saintmoreil","typeCollectivite":"Commune","region":"Nouvelle-Aquitaine","departement":"Creuse","departementCode":"23","adresse":{"street":"2 route des Écoles","postalCode":"23400","city":"Saint-Moreil","country":"France"},"contacts":{"email":"mairiestmoreil@orange.fr","telephone":"0555549070"},"horaires":"Du Lundi au Vendredi : de 08h30 à 12h30","latitude":45.8514,"longitude":1.68912,"website":"http://www.saint-moreil.fr/","hasWebsite":true,"hasHoraires":true,"url":"https://lannuaire.service-public.gouv.fr/nouvelle-aquitaine/creuse/7f24dcd0-c123-4d84-a4dd-75565753a4a9"}
{"nom":"Saint-Oradoux-de-Chirouze","nomNormalise":"saintoradouxdechirouze","typeCollectivite":"Commune","region":"Nouvelle-Aquitaine","departement":"Creuse","departementCode":"23","adresse":{"street":"1 Allée de la Paix","postalCode":"23100","city":"Saint-Oradoux-de-Chirouze","country":"France"},"contacts":{"email":"mairiesaintoradoux@orange.fr","telephone":"0555667241"},"horaires":"Le Mardi : de 13h30 à 18h30\nLe Jeudi : de 08h30 à 12h30\nLe Vendredi : de 08h30 à 12h30\n\nUniquement semaines impaires.","latitude":45.732033,"longitude":2.331038,"website":"","hasWebsite":false,"hasHoraires":true,"url":"https://lannuaire.service-public.gouv.fr/nouvelle-aquitaine/creuse/626de0d7-9d79-43e8-a824-b904474c5204"}
{"nom":"Saint-Oradoux-près-Crocq","nomNormalise":"saintoradouxprescrocq","typeCollectivite":"Commune","region":"Nouvelle-Aquitaine","departement":"Creuse","departementCode":"23","adresse":{"street":"2 Le Bourg","postalCode":"23260","city":"Saint-Oradoux-près-Crocq","country":"France"},"contacts":{"email":"mairie.st.oradoux.pres.crocq@orange.fr","telephone":"0555674367"},"horaires":"Le Lundi : de 09h00 à 17h00\n\nJournée continue.\nLe Mercredi : de 09h00 à 13h00\nJournée continue.","latitude":45.878227,"longitude":2.388173,"website":"","hasWebsite":false,"hasHoraires":true,"url":"https://lannuaire.service-public.gouv.fr/nouvelle-aquitaine/creuse/80d16b51-876b-4c9a-9227-96254ef4101e"}
{"nom":"Saint-Pardoux-d Arnet","nomNormalise":"saintpardouxdarnet","typeCollectivite":"Commune","region":"Nouvelle-Aquitaine","departement":"Creuse","departementCode":"23","adresse":{"street":"16 route de la Prade","postalCode":"23260","city":"Saint-Pardoux-d'Arnet","country":"France"},"contacts":{"email":"mairie.st-pardoux@wanadoo.fr","telephone":"0555674344"},"horaires":"Le Lundi : de 13h30 à 17h00\nLe Mardi : de 08h30 à 12h00\nLe Jeudi : de 08h30 à 12h00 de 13h45 à 16h45\nLe Vendredi : de 08h30 à 12h00","latitude":46.07835,"longitude":1.2017,"website":"","hasWebsite":false,"hasHoraires":true,"url":"https://lannuaire.service-public.gouv.fr/nouvelle-aquitaine/creuse/0ccdec0e-e021-45a9-981f-229c197a9098"}
{"nom":"Saint-Pardoux-le-Neuf","nomNormalise":"saintpardouxleneuf","typeCollectivite":"Commune","region":"Nouvelle-Aquitaine","departement":"Creuse","departementCode":"23","adresse":{"street":"Le Bourg","postalCode":"23200","city":"Saint-Pardoux-le-Neuf","country":"France"},"contacts":{"email":"mairie.stpardouxleneuf@orange.fr","telephone":"0555663985"},"horaires":"Le Lundi : de 09h00 à 12h30 de 13h30 à 17h00\nLe Jeudi : de 09h00 à 12h30 de 13h30 à 17h00","latitude":45.93167,"longitude":2.23088,"website":"","hasWebsite":false,"hasHoraires":true,"url":"https://lannuaire.service-public.gouv.fr/nouvelle-aquitaine/creuse/978aa662-3737-4c16-ab92-e72dfd70185d"}
{"nom":"Saint-Pardoux-les-Cards","nomNormalise":"saintpardouxlescards","typeCollectivite":"Commune","region":"Nouvelle-Aquitaine","departement":"Creuse","departementCode":"23","adresse":{"street":"11 route de Chénérailles","postalCode":"23150","city":"Saint-Pardoux-les-Cards","country":"France"},"contacts":{"email":"st.pardoux-les-cards@wanadoo.fr","telephone":"0555624378"},"horaires":"Le Mardi : de 08h00 à 12h00 de 14h00 à 17h00\nLe Mercredi : de 08h00 à 12h00\nLe Vendredi : de 08h00 à 12h00 de 14h00 à 17h00","latitude":46.08342,"longitude":2.120068,"website":"https://www.st-pardoux-les-cards.fr/","hasWebsite":true,"hasHoraires":true,"url":"https://lannuaire.service-public.gouv.fr/nouvelle-aquitaine/creuse/1c9b1845-ddf5-4f94-93af-0c8d9c4afca0"}
{"nom":"Saint-Pardoux-Morterolles","nomNormalise":"saintpardouxmorterolles","typeCollectivite":"Commune","region":"Nouvelle-Aquitaine","departement":"Creuse","departementCode":"23","adresse":{"street":"3 Rue de la Fontaine","postalCode":"23400","city":"Saint-Pardoux-Morterolles","country":"France"},"contacts":{"email":"communestpardouxmorterolles@orange.fr","telephone":"0555649154"},"horaires":"Du Lundi au Mardi : de 09h00 à 12h00\nLe Mercredi : de 14h00 à 18h00\n\nPermanence des élus de 15h à 18h.\nDu Jeudi au Vendredi : de 09h00 à 12h00","latitude":45.897697,"longitude":1.820926,"website":"https://www.commune-de-saint-pardoux-morterolles.fr/","hasWebsite":true,"hasHoraires":true,"url":"https://lannuaire.service-public.gouv.fr/nouvelle-aquitaine/creuse/c47d6fd2-6915-45a2-b81c-3beacc98a0ef"}
{"nom":"Saint-Pierre-Bellevue","nomNormalise":"saintpierrebellevue","typeCollectivite":"Commune","region":"Nouvelle-Aquitaine","departement":"Creuse","departementCode":"23","adresse":{"street":"10 rue du 19-Mars-1962","postalCode":"23460","city":"Saint-Pierre-Bellevue","country":"France"},"contacts":{"email":"mairie.saintpierrebellevue@wanadoo.fr","telephone":"0555649531"},"horaires":"Le Mardi : de 09h00 à 12h00 de 14h00 à 17h00\nDu Jeudi au Vendredi : de 09h00 à 12h00 de 14h00 à 17h00","latitude":45.91758,"longitude":1.888493,"website":"http://www.mairie-saint-pierre-bellevue.fr/","hasWebsite":true,"hasHoraires":true,"url":"https://lannuaire.service-public.gouv.fr/nouvelle-aquitaine/creuse/91e68dd5-1abe-4efa-bf7e-69278ae10bef"}
{"nom":"Saint-Pierre-Chérignat","nomNormalise":"saintpierrecherignat","typeCollectivite":"Commune","region":"Nouvelle-Aquitaine","departement":"Creuse","departementCode":"23","adresse":{"street":"11 route des Ribières","postalCode":"23430","city":"Saint-Pierre-Chérignat","country":"France"},"contacts":{"email":"mairiestpierrecherignat@orange.fr","telephone":"0555643183"},"horaires":"Du Lundi au Mardi : de 08h00 à 16h30\nLe Jeudi : de 08h00 à 16h30","latitude":45.97284,"longitude":1.613749,"website":"","hasWebsite":false,"hasHoraires":true,"url":"https://lannuaire.service-public.gouv.fr/nouvelle-aquitaine/creuse/2d8a37c4-34f4-47ee-a603-3157261c6e0b"}
{"nom":"Saint-Pierre-le-Bost","nomNormalise":"saintpierrelebost","typeCollectivite":"Commune","region":"Nouvelle-Aquitaine","departement":"Creuse","departementCode":"23","adresse":{"street":"9 le Bourg","postalCode":"23600","city":"Saint-Pierre-le-Bost","country":"France"},"contacts":{"email":"mairie.stpierrelebost@gmail.com","telephone":"0555650767"},"horaires":"Le Mardi : de 08h30 à 12h00 de 13h30 à 17h30\nLe Jeudi : de 08h30 à 12h00 de 13h30 à 18h00","latitude":46.401028,"longitude":2.260859,"website":"","hasWebsite":false,"hasHoraires":true,"url":"https://lannuaire.service-public.gouv.fr/nouvelle-aquitaine/creuse/ec63084c-d9da-489b-911c-f0e4bfd01318"}
{"nom":"Saint-Priest","nomNormalise":"saintpriest","typeCollectivite":"Commune","region":"Nouvelle-Aquitaine","departement":"Creuse","departementCode":"23","adresse":{"street":"7 le Bourg","postalCode":"23110","city":"Saint-Priest","country":"France"},"contacts":{"email":"mairiestpriest@orange.fr","telephone":"0555823336"},"horaires":"Le Mardi : de 09h00 à 12h00 de 14h00 à 17h30\nLe Jeudi : de 09h00 à 12h00\nLe Vendredi : de 14h00 à 17h30","latitude":46.08823,"longitude":2.34296,"website":"","hasWebsite":false,"hasHoraires":true,"url":"https://lannuaire.service-public.gouv.fr/nouvelle-aquitaine/creuse/47369f9b-df0c-43fe-84c3-b0cd73d5fa8e"}
{"nom":"Saint-Priest-la-Feuille","nomNormalise":"saintpriestlafeuille","typeCollectivite":"Commune","region":"Nouvelle-Aquitaine","departement":"Creuse","departementCode":"23","adresse":{"street":"3 rue Auguste-Coulon","postalCode":"23300","city":"Saint-Priest-la-Feuille","country":"France"},"contacts":{"email":"stpriest.lafeuille@laposte.net","telephone":"0555631425"},"horaires":"Du Lundi au Mercredi : de 08h30 à 12h30\nLe Jeudi : de 08h30 à 12h30 de 13h30 à 18h30\nLe Vendredi : de 08h30 à 12h30","latitude":46.20108,"longitude":1.535949,"website":"https://saint-priest-la-feuille.fr/","hasWebsite":true,"hasHoraires":true,"url":"https://lannuaire.service-public.gouv.fr/nouvelle-aquitaine/creuse/891bb17a-0c2f-42ee-b3af-78d0595adfd2"}
{"nom":"Saint-Priest-la-Plaine","nomNormalise":"saintpriestlaplaine","typeCollectivite":"Commune","region":"Nouvelle-Aquitaine","departement":"Creuse","departementCode":"23","adresse":{"street":"11 rue de la Mairie","postalCode":"23240","city":"Saint-Priest-la-Plaine","country":"France"},"contacts":{"email":"mairie.st-priest-la-plaine@orange.fr","telephone":"0555804430"},"horaires":"Le Lundi : de 14h00 à 17h00\nLe Mercredi : de 09h00 à 12h00\nDu Jeudi au Vendredi : de 14h00 à 17h00","latitude":46.191006,"longitude":1.6270924,"website":"","hasWebsite":false,"hasHoraires":true,"url":"https://lannuaire.service-public.gouv.fr/nouvelle-aquitaine/creuse/7e839f9d-2225-4784-82fb-ec0a19d7f2d9"}
{"nom":"Saint-Priest-Palus","nomNormalise":"saintpriestpalus","typeCollectivite":"Commune","region":"Nouvelle-Aquitaine","departement":"Creuse","departementCode":"23","adresse":{"street":"Le Bourg","postalCode":"23400","city":"Saint-Priest-Palus","country":"France"},"contacts":{"email":"mairie.stpriestpalus@orange.fr","telephone":"0555646166"},"horaires":"","latitude":45.897793,"longitude":1.658149,"website":"","hasWebsite":false,"hasHoraires":false,"url":"https://lannuaire.service-public.gouv.fr/nouvelle-aquitaine/creuse/4076610f-33f0-401e-8b91-99e5fe9ea5b7"}
{"nom":"Saint-Quentin-la-Chabanne","nomNormalise":"saintquentinlachabanne","typeCollectivite":"Commune","region":"Nouvelle-Aquitaine","departement":"Creuse","departementCode":"23","adresse":{"street":"8 rue de l'Église","postalCode":"23500","city":"Saint-Quentin-la-Chabanne","country":"France"},"contacts":{"email":"mairie.st-quentin@orange.fr","telephone":"0555665063"},"horaires":"Le Lundi : de 14h00 à 17h00\nLe Mercredi : de 09h00 à 12h00\nLe Jeudi : de 09h00 à 12h00 de 14h00 à 17h00\nLe Vendredi : de 14h00 à 17h00","latitude":45.864,"longitude":2.15552,"website":"","hasWebsite":false,"hasHoraires":true,"url":"https://lannuaire.service-public.gouv.fr/nouvelle-aquitaine/creuse/07c66bb4-90ad-4801-a6c7-0cff5c91a384"}
{"nom":"Saint-Sébastien","nomNormalise":"saintsebastien","typeCollectivite":"Commune","region":"Nouvelle-Aquitaine","departement":"Creuse","departementCode":"23","adresse":{"street":"1 avenue de la Gare","postalCode":"23160","city":"Saint-Sébastien","country":"France"},"contacts":{"email":"contact@mairiestsebastien.fr","telephone":"0555635039"},"horaires":"Du Lundi au Vendredi : de 09h00 à 12h00 de 14h00 à 16h00","latitude":46.3909,"longitude":1.53905,"website":"https://www.mairiestsebastien.fr/","hasWebsite":true,"hasHoraires":true,"url":"https://lannuaire.service-public.gouv.fr/nouvelle-aquitaine/creuse/4f806f45-a7b5-4bdb-894c-53f1df6d90dc"}
{"nom":"Saint-Silvain-Bas-le-Roc","nomNormalise":"saintsilvainbasleroc","typeCollectivite":"Commune","region":"Nouvelle-Aquitaine","departement":"Creuse","departementCode":"23","adresse":{"street":"28 le Bourg","postalCode":"23600","city":"Saint-Silvain-Bas-le-Roc","country":"France"},"contacts":{"email":"commune.stsilvain@orange.fr","telephone":"0555650602"},"horaires":"Du Lundi au Mardi : de 09h00 à 12h30 de 14h00 à 17h30\nDu Jeudi au Vendredi : de 09h00 à 12h30 de 14h00 à 17h30","latitude":46.330048,"longitude":2.228323,"website":"","hasWebsite":false,"hasHoraires":true,"url":"https://lannuaire.service-public.gouv.fr/nouvelle-aquitaine/creuse/5753be7f-8155-471b-8b9a-040a0496b8cb"}
{"nom":"Saint-Silvain-Bellegarde","nomNormalise":"saintsilvainbellegarde","typeCollectivite":"Commune","region":"Nouvelle-Aquitaine","departement":"Creuse","departementCode":"23","adresse":{"street":"1 le Bourg","postalCode":"23190","city":"Saint-Silvain-Bellegarde","country":"France"},"contacts":{"email":"mairie@saintsilvainbellegarde.fr","telephone":"0555676247"},"horaires":"Le Lundi : de 13h30 à 17h00\nDu Mercredi au Jeudi : de 13h30 à 17h00","latitude":45.972935,"longitude":2.302745,"website":"https://www.saintsilvainbellegarde.fr/","hasWebsite":true,"hasHoraires":true,"url":"https://lannuaire.service-public.gouv.fr/nouvelle-aquitaine/creuse/7657ee7e-a110-4b8b-8058-8f48353fd0da"}
{"nom":"Saint-Silvain-Montaigut","nomNormalise":"saintsilvainmontaigut","typeCollectivite":"Commune","region":"Nouvelle-Aquitaine","departement":"Creuse","departementCode":"23","adresse":{"street":"4 place de l'Église","postalCode":"23320","city":"Saint-Silvain-Montaigut","country":"France"},"contacts":{"email":"mairie.stsilvainmontaigut@orange.fr","telephone":"0555813657"},"horaires":"Le Lundi : de 08h00 à 12h30 de 13h00 à 17h00\nLe Mercredi : de 09h00 à 13h00\nLe Jeudi : de 08h00 à 12h30 de 13h00 à 17h00","latitude":46.136154,"longitude":1.763719,"website":"","hasWebsite":false,"hasHoraires":true,"url":"https://lannuaire.service-public.gouv.fr/nouvelle-aquitaine/creuse/db7fce89-d9cb-451c-a692-d8af5c23fa22"}
{"nom":"Saint-Silvain-sous-Toulx","nomNormalise":"saintsilvainsoustoulx","typeCollectivite":"Commune","region":"Nouvelle-Aquitaine","departement":"Creuse","departementCode":"23","adresse":{"street":"Le Bourg","postalCode":"23140","city":"Saint-Silvain-sous-Toulx","country":"France"},"contacts":{"email":"commune.saint-silvain-sous-toulx@creuseconfluence.com","telephone":"0555622411"},"horaires":"Le Lundi : de 09h00 à 12h00\nLe Jeudi : de 14h00 à 17h00\nLe Vendredi : de 09h00 à 12h00\n\nAccueil possible sur rendez-vous en dehors de ces horaires.","latitude":46.26273,"longitude":2.17833,"website":"","hasWebsite":false,"hasHoraires":true,"url":"https://lannuaire.service-public.gouv.fr/nouvelle-aquitaine/creuse/f500f73e-04bb-42c5-bd8e-7c9f665dcd85"}
{"nom":"Saint-Sulpice-le-Dunois","nomNormalise":"saintsulpiceledunois","typeCollectivite":"Commune","region":"Nouvelle-Aquitaine","departement":"Creuse","departementCode":"23","adresse":{"street":"1 place du Souvenir","postalCode":"23800","city":"Saint-Sulpice-le-Dunois","country":"France"},"contacts":{"email":"mairie.st.sulpice.le.dunois@orange.fr","telephone":"0555890817"},"horaires":"Le Lundi : de 09h00 à 12h00\nLe Mardi : de 08h30 à 12h00 de 13h30 à 17h00\nLe Mercredi : de 08h30 à 12h00\nDu Jeudi au Vendredi : de 08h30 à 12h00 de 13h30 à 17h00\nLe Samedi : de 08h30 à 12h00","latitude":46.299473,"longitude":1.729184,"website":"http://www.paysdunois.fr/","hasWebsite":true,"hasHoraires":true,"url":"https://lannuaire.service-public.gouv.fr/nouvelle-aquitaine/creuse/c70c29b7-db0f-4a09-8626-77f9dd6304c1"}
{"nom":"Saint-Sulpice-le-Guérétois","nomNormalise":"saintsulpicelegueretois","typeCollectivite":"Commune","region":"Nouvelle-Aquitaine","departement":"Creuse","departementCode":"23","adresse":{"street":"1 rue de la Liberté","postalCode":"23000","city":"Saint-Sulpice-le-Guérétois","country":"France"},"contacts":{"email":"mairie@stsulpicelegueretois.fr","telephone":"0555523405"},"horaires":"Du Lundi au Jeudi : de 09h00 à 12h00 de 14h00 à 18h00\nLe Vendredi : de 09h00 à 12h00 de 14h00 à 17h00","latitude":46.2011,"longitude":1.828351,"website":"https://www.saintsulpicelegueretois.fr/","hasWebsite":true,"hasHoraires":true,"url":"https://lannuaire.service-public.gouv.fr/nouvelle-aquitaine/creuse/45a8cd17-8435-4930-86aa-c932de12dcc9"}
{"nom":"Saint-Sulpice-les-Champs","nomNormalise":"saintsulpiceleschamps","typeCollectivite":"Commune","region":"Nouvelle-Aquitaine","departement":"Creuse","departementCode":"23","adresse":{"street":"2 route d'Aubusson","postalCode":"23480","city":"Saint-Sulpice-les-Champs","country":"France"},"contacts":{"email":"stsulpiceleschamps@wanadoo.fr","telephone":"0555666034"},"horaires":"Du Lundi au Mardi : de 09h00 à 12h00 de 14h00 à 17h00\n\nle mardi de 14h00 à 17h00 accueil uniquement à l'agence postale communale.\nDu Jeudi au Vendredi : de 09h00 à 12h00 de 14h00 à 17h00\nLe Samedi : de 09h00 à 12h30\n\nAccueil uniquement à l'agence postale communale.\nle mardi de 14h00 à 17h00 accueil uniquement à l'agence postale communale.","latitude":45.95409,"longitude":2.168938,"website":"https://mairiestsulpiceleschamps.com/","hasWebsite":true,"hasHoraires":true,"url":"https://lannuaire.service-public.gouv.fr/nouvelle-aquitaine/creuse/70db3e8b-e0d2-4841-bb29-d2cfb6744a30"}
{"nom":"Saint-Vaury","nomNormalise":"saintvaury","typeCollectivite":"Commune","region":"Nouvelle-Aquitaine","departement":"Creuse","departementCode":"23","adresse":{"street":"1 place de l'Église","postalCode":"23320","city":"Saint-Vaury","country":"France"},"contacts":{"email":"secretariat.mairie@saint-vaury.fr","telephone":"0555802017"},"horaires":"Du Lundi au Vendredi : de 08h00 à 12h00 de 13h30 à 17h30","latitude":46.205208,"longitude":1.755576,"website":"http://www.saint-vaury.fr/","hasWebsite":true,"hasHoraires":true,"url":"https://lannuaire.service-public.gouv.fr/nouvelle-aquitaine/creuse/fdbd154f-3b1b-4c66-9f3d-cfa393802a16"}
{"nom":"Saint-Victor-en-Marche","nomNormalise":"saintvictorenmarche","typeCollectivite":"Commune","region":"Nouvelle-Aquitaine","departement":"Creuse","departementCode":"23","adresse":{"street":"6 rue de la Croix-du-Lac","postalCode":"23000","city":"Saint-Victor-en-Marche","country":"France"},"contacts":{"email":"mairie.stvictor@wanadoo.fr","telephone":"0555522918"},"horaires":"Le Lundi : de 13h30 à 17h00\nLe Mardi : de 08h30 à 12h30 de 13h30 à 17h00\nLe Jeudi : de 08h30 à 12h30 de 13h30 à 17h00\nLe Vendredi : de 08h30 à 12h30","latitude":46.118473,"longitude":1.81487,"website":"https://www.saintvictorenmarche.fr/","hasWebsite":true,"hasHoraires":true,"url":"https://lannuaire.service-public.gouv.fr/nouvelle-aquitaine/creuse/534f6f24-a78d-4394-ae2c-decc3ad00927"}
{"nom":"Saint-Yrieix-la-Montagne","nomNormalise":"saintyrieixlamontagne","typeCollectivite":"Commune","region":"Nouvelle-Aquitaine","departement":"Creuse","departementCode":"23","adresse":{"street":"2 route de Royere","postalCode":"23460","city":"Saint-Yrieix-la-Montagne","country":"France"},"contacts":{"email":"mairie.styriexmgne@wanadoo.fr","telephone":"0555660271"},"horaires":"Le Lundi : de 08h30 à 10h00\nLe Mardi : de 13h30 à 16h30\nLe Mercredi : de 13h30 à 17h00\nLe Jeudi : de 08h30 à 10h00\nLe Vendredi : de 13h30 à 16h30\nLe Samedi : de 08h00 à 10h00","latitude":45.88379,"longitude":2.020263,"website":"","hasWebsite":false,"hasHoraires":true,"url":"https://lannuaire.service-public.gouv.fr/nouvelle-aquitaine/creuse/283a62dd-b519-445e-aa4d-07f176ba3f00"}
{"nom":"Saint-Yrieix-les-Bois","nomNormalise":"saintyrieixlesbois","typeCollectivite":"Commune","region":"Nouvelle-Aquitaine","departement":"Creuse","departementCode":"23","adresse":{"street":"6 rue de la Mairie","postalCode":"23150","city":"Saint-Yrieix-les-Bois","country":"France"},"contacts":{"email":"mairie-de-saint-yrieix-les-bois@wanadoo.fr","telephone":"0555800309"},"horaires":"Du Lundi au Jeudi : de 08h00 à 12h00 de 13h15 à 17h00\nLe Vendredi : de 08h00 à 12h00","latitude":46.10111,"longitude":1.937654,"website":"","hasWebsite":false,"hasHoraires":true,"url":"https://lannuaire.service-public.gouv.fr/nouvelle-aquitaine/creuse/26affc67-a48e-46b6-96ee-37a5c10e4800"}
{"nom":"Sannat","nomNormalise":"sannat","typeCollectivite":"Commune","region":"Nouvelle-Aquitaine","departement":"Creuse","departementCode":"23","adresse":{"street":"4 rue des Écoles","postalCode":"23110","city":"Sannat","country":"France"},"contacts":{"email":"mairie.sannat@wanadoo.fr","telephone":"0555823057"},"horaires":"Le Lundi : de 14h00 à 18h00\nDu Mardi au Vendredi : de 08h30 à 12h00 de 13h30 à 17h30","latitude":46.1194,"longitude":2.40602,"website":"https://sannat.fr/","hasWebsite":true,"hasHoraires":true,"url":"https://lannuaire.service-public.gouv.fr/nouvelle-aquitaine/creuse/1d30b510-efb5-4c19-bc22-eb6e44cb1103"}
{"nom":"Sardent","nomNormalise":"sardent","typeCollectivite":"Commune","region":"Nouvelle-Aquitaine","departement":"Creuse","departementCode":"23","adresse":{"street":"28 rue Eugène-Jamot","postalCode":"23250","city":"Sardent","country":"France"},"contacts":{"email":"communedesardent@orange.fr","telephone":"0555645230"},"horaires":"Le Lundi : de 08h00 à 12h00 de 13h30 à 17h00\nLe Mardi : de 08h00 à 12h00 de 13h30 à 16h30\nDu Jeudi au Vendredi : de 08h00 à 12h00 de 13h30 à 16h30","latitude":46.050484,"longitude":1.855183,"website":"http://www.sardent23.fr/","hasWebsite":true,"hasHoraires":true,"url":"https://lannuaire.service-public.gouv.fr/nouvelle-aquitaine/creuse/67b28a6d-7f41-4c12-b572-d6a884cd447a"}
{"nom":"Savennes","nomNormalise":"savennes","typeCollectivite":"Commune","region":"Nouvelle-Aquitaine","departement":"Creuse","departementCode":"23","adresse":{"street":"14 rue des Écoles","postalCode":"23000","city":"Savennes","country":"France"},"contacts":{"email":"mairie.savennes@orange.fr","telephone":"0555811093"},"horaires":"Le Mardi : de 09h00 à 12h00\nDu Jeudi au Vendredi : de 09h00 à 12h00\n\nLe Vendredi : de 09h00 à 12h00 (en alternance avec le 1er samedi de chaque mois)","latitude":46.10612,"longitude":1.888146,"website":"","hasWebsite":false,"hasHoraires":true,"url":"https://lannuaire.service-public.gouv.fr/nouvelle-aquitaine/creuse/3ef33971-8eee-4006-86eb-c8a35f93e256"}
{"nom":"Sermur","nomNormalise":"sermur","typeCollectivite":"Commune","region":"Nouvelle-Aquitaine","departement":"Creuse","departementCode":"23","adresse":{"street":"6 rue de la Mairie","postalCode":"23700","city":"Sermur","country":"France"},"contacts":{"email":"communedesermur@orange.fr","telephone":"0555670801"},"horaires":"Le Mardi : de 08h30 à 12h00 de 13h30 à 17h00\nLe Jeudi : de 08h30 à 12h00 de 13h30 à 17h00","latitude":45.97492,"longitude":2.431106,"website":"","hasWebsite":false,"hasHoraires":true,"url":"https://lannuaire.service-public.gouv.fr/nouvelle-aquitaine/creuse/cd445c4e-dc10-41c9-8c1e-e4cc473c5a7d"}
{"nom":"Soubrebost","nomNormalise":"soubrebost","typeCollectivite":"Commune","region":"Nouvelle-Aquitaine","departement":"Creuse","departementCode":"23","adresse":{"street":"Le Bourg","postalCode":"23250","city":"Soubrebost","country":"France"},"contacts":{"email":"mairie.soubrebost@orange.fr","telephone":"0555645176"},"horaires":"Du Lundi au Mardi : de 09h00 à 12h00 de 14h00 à 17h00","latitude":45.958412,"longitude":1.844713,"website":"https://www.soubrebost.fr/","hasWebsite":true,"hasHoraires":true,"url":"https://lannuaire.service-public.gouv.fr/nouvelle-aquitaine/creuse/3c26e0a9-e684-4f1c-a483-e68e89f76ba5"}
{"nom":"Soumans","nomNormalise":"soumans","typeCollectivite":"Commune","region":"Nouvelle-Aquitaine","departement":"Creuse","departementCode":"23","adresse":{"street":"Place de la Mairie","postalCode":"23600","city":"Soumans","country":"France"},"contacts":{"email":"mairiedesoumans@orange.fr","telephone":"0555654090"},"horaires":"Le Lundi : de 09h00 à 12h00\nLe Mardi : de 09h00 à 12h00 de 14h00 à 17h00\nLe Jeudi : de 09h00 à 12h00\nLe Vendredi : de 09h00 à 12h00 de 14h00 à 17h00","latitude":46.2629,"longitude":2.30015,"website":"http://soumans.fr/","hasWebsite":true,"hasHoraires":true,"url":"https://lannuaire.service-public.gouv.fr/nouvelle-aquitaine/creuse/a35c1c31-3b2d-4d89-918f-1ca7dbebae1f"}
{"nom":"Sous-Parsat","nomNormalise":"sousparsat","typeCollectivite":"Commune","region":"Nouvelle-Aquitaine","departement":"Creuse","departementCode":"23","adresse":{"street":"6 place Jacques-Lagrange","postalCode":"23150","city":"Sous-Parsat","country":"France"},"contacts":{"email":"mairie.sousparsat@orange.fr","telephone":"0555666287"},"horaires":"Le Lundi : de 14h00 à 17h00\nLe Mercredi : de 09h00 à 12h00 de 14h00 à 17h00\nLe Vendredi : de 14h00 à 17h00","latitude":46.055813,"longitude":1.979559,"website":"","hasWebsite":false,"hasHoraires":true,"url":"https://lannuaire.service-public.gouv.fr/nouvelle-aquitaine/creuse/c6aa07db-c683-47d9-96ed-bacf8df0d079"}
{"nom":"Tardes","nomNormalise":"tardes","typeCollectivite":"Commune","region":"Nouvelle-Aquitaine","departement":"Creuse","departementCode":"23","adresse":{"street":"1 Le Bourg","postalCode":"23170","city":"Tardes","country":"France"},"contacts":{"email":"mairie.tardes@ozone.net","telephone":"0555823400"},"horaires":"Le Lundi : de 09h00 à 17h00\nLe Jeudi : de 09h00 à 17h00","latitude":46.139435,"longitude":2.346243,"website":"","hasWebsite":false,"hasHoraires":true,"url":"https://lannuaire.service-public.gouv.fr/nouvelle-aquitaine/creuse/334c8f1a-ab6a-4334-9707-b827b1af62ba"}
{"nom":"Tercillat","nomNormalise":"tercillat","typeCollectivite":"Commune","region":"Nouvelle-Aquitaine","departement":"Creuse","departementCode":"23","adresse":{"street":"17 route d'Aigurande","postalCode":"23350","city":"Tercillat","country":"France"},"contacts":{"email":"mairie.tercillat@orange.fr","telephone":"0555806254"},"horaires":"Le Lundi : de 09h00 à 12h00\nDu Mercredi au Jeudi : de 09h00 à 12h00","latitude":46.407578,"longitude":2.05353,"website":"","hasWebsite":false,"hasHoraires":true,"url":"https://lannuaire.service-public.gouv.fr/nouvelle-aquitaine/creuse/54347879-f1a7-4dd6-beef-705edb51c6ee"}
{"nom":"Thauron","nomNormalise":"thauron","typeCollectivite":"Commune","region":"Nouvelle-Aquitaine","departement":"Creuse","departementCode":"23","adresse":{"street":"6","postalCode":"23250","city":"23250","country":"Thauron"},"contacts":{"email":"mairie.thauron@gmail.com","telephone":"0555645908"},"horaires":"Le Lundi : de 09h00 à 12h00 de 14h30 à 17h30\nDu Jeudi au Vendredi : de 09h00 à 12h00","latitude":45.999718,"longitude":1.817366,"website":"https://communethauron.fr/","hasWebsite":true,"hasHoraires":true,"url":"https://lannuaire.service-public.gouv.fr/nouvelle-aquitaine/creuse/63a28728-234c-4e99-8789-a62ba9c757c6"}
{"nom":"Toulx-Sainte-Croix","nomNormalise":"toulxsaintecroix","typeCollectivite":"Commune","region":"Nouvelle-Aquitaine","departement":"Creuse","departementCode":"23","adresse":{"street":"5 rue de la Mairie","postalCode":"23600","city":"Toulx-Sainte-Croix","country":"France"},"contacts":{"email":"mairie.toulx-ste-croix@hotmail.com","telephone":"0555651548"},"horaires":"Du Lundi au Mardi : de 09h00 à 12h30 de 13h30 à 17h30\nLe Jeudi : de 09h00 à 12h30 de 13h30 à 17h30\nLe Vendredi : de 09h00 à 12h30 de 13h30 à 16h30","latitude":46.28459,"longitude":2.214016,"website":"","hasWebsite":false,"hasHoraires":true,"url":"https://lannuaire.service-public.gouv.fr/nouvelle-aquitaine/creuse/c4bcd56c-f4a0-4e6b-967c-e172ff0add73"}
{"nom":"Trois-Fonds","nomNormalise":"troisfonds","typeCollectivite":"Commune","region":"Nouvelle-Aquitaine","departement":"Creuse","departementCode":"23","adresse":{"street":"4 Ventenat","postalCode":"23230","city":"Trois-Fonds","country":"France"},"contacts":{"email":"commune.trois-fonds@creuseconfluence.com","telephone":"0555817852"},"horaires":"Le Lundi : de 14h00 à 17h00\nLe Mercredi : de 09h00 à 12h00\nLe Jeudi : de 14h00 à 17h00","latitude":46.24762,"longitude":2.23032,"website":"","hasWebsite":false,"hasHoraires":true,"url":"https://lannuaire.service-public.gouv.fr/nouvelle-aquitaine/creuse/e3278d36-596a-43b7-8944-84a5082e06c9"}
{"nom":"Vallière","nomNormalise":"valliere","typeCollectivite":"Commune","region":"Nouvelle-Aquitaine","departement":"Creuse","departementCode":"23","adresse":{"street":"13 rue de la Mairie","postalCode":"23120","city":"Vallière","country":"France"},"contacts":{"email":"mairie-valliere@wanadoo.fr","telephone":"0555660033"},"horaires":"Le Lundi : de 09h00 à 12h00\nDu Mardi au Vendredi : de 09h00 à 12h00 de 13h30 à 17h30","latitude":45.90682,"longitude":2.035065,"website":"https://valliere.fr/","hasWebsite":true,"hasHoraires":true,"url":"https://lannuaire.service-public.gouv.fr/nouvelle-aquitaine/creuse/8e9c230f-53b2-4114-9da0-d25060cb63b0"}
{"nom":"Vareilles","nomNormalise":"vareilles","typeCollectivite":"Commune","region":"Nouvelle-Aquitaine","departement":"Creuse","departementCode":"23","adresse":{"street":"2 rue de la Mairie","postalCode":"23300","city":"Vareilles","country":"France"},"contacts":{"email":"mairie.vareilles23@gmail.com","telephone":"0555630189"},"horaires":"Le Mardi : de 08h30 à 12h30 de 13h30 à 17h00\nDu Mercredi au Vendredi : de 08h30 à 12h30\nLe Samedi : de 09h00 à 12h00","latitude":46.300537,"longitude":1.474753,"website":"https://www.mairie-vareilles.fr/","hasWebsite":true,"hasHoraires":true,"url":"https://lannuaire.service-public.gouv.fr/nouvelle-aquitaine/creuse/1cb821d2-f441-4c6d-8251-cddec09956fd"}
{"nom":"Verneiges","nomNormalise":"verneiges","typeCollectivite":"Commune","region":"Nouvelle-Aquitaine","departement":"Creuse","departementCode":"23","adresse":{"street":"3 route de Bord","postalCode":"23170","city":"Verneiges","country":"France"},"contacts":{"email":"verneiges843@orange.fr","telephone":"0555657652"},"horaires":"Le Mardi : de 14h00 à 18h00\nLe Jeudi : de 14h00 à 17h30","latitude":46.267876,"longitude":2.337556,"website":"","hasWebsite":false,"hasHoraires":true,"url":"https://lannuaire.service-public.gouv.fr/nouvelle-aquitaine/creuse/337f0452-abde-48d7-a454-f1b955b3c5fb"}
{"nom":"Vidaillat","nomNormalise":"vidaillat","typeCollectivite":"Commune","region":"Nouvelle-Aquitaine","departement":"Creuse","departementCode":"23","adresse":{"street":"2 grande-rue","postalCode":"23250","city":"Vidaillat","country":"France"},"contacts":{"email":"mairie-vidaillat@wanadoo.fr","telephone":"0555649605"},"horaires":"Du Lundi au Mardi : de 13h30 à 17h30\nDu Jeudi au Vendredi : de 13h30 à 17h30","latitude":45.95746,"longitude":1.907729,"website":"","hasWebsite":false,"hasHoraires":true,"url":"https://lannuaire.service-public.gouv.fr/nouvelle-aquitaine/creuse/9c2fcff1-c3b3-49d1-929a-c9d58df9e239"}
{"nom":"Viersat","nomNormalise":"viersat","typeCollectivite":"Commune","region":"Nouvelle-Aquitaine","departement":"Creuse","departementCode":"23","adresse":{"street":"1 rue Chatel-Guyon","postalCode":"23170","city":"Viersat","country":"France"},"contacts":{"email":"mairie.viersat@orange.fr","telephone":"0555657212"},"horaires":"Le Lundi : de 09h00 à 12h00 de 13h30 à 17h00\nLe Mardi : de 09h00 à 12h00\nLe Mercredi : de 13h30 à 17h00\nLe Vendredi : de 09h00 à 12h00 de 13h30 à 16h00\nLe Samedi : de 09h00 à 12h00","latitude":46.27051,"longitude":2.43086,"website":"","hasWebsite":false,"hasHoraires":true,"url":"https://lannuaire.service-public.gouv.fr/nouvelle-aquitaine/creuse/bc8321bd-77e5-4b8d-92e5-5ed10e15b04e"}
{"nom":"Vigeville","nomNormalise":"vigeville","typeCollectivite":"Commune","region":"Nouvelle-Aquitaine","departement":"Creuse","departementCode":"23","adresse":{"street":"1 le Bourg","postalCode":"23140","city":"Vigeville","country":"France"},"contacts":{"email":"mairie.vigeville@gmail.com","telephone":"0555809975"},"horaires":"Le Mardi : de 09h30 à 12h30\nLe Vendredi : de 09h30 à 13h00 de 14h00 à 17h30","latitude":46.16195,"longitude":2.075616,"website":"","hasWebsite":false,"hasHoraires":true,"url":"https://lannuaire.service-public.gouv.fr/nouvelle-aquitaine/creuse/a6915b13-3482-44bb-97ef-a1f51ed5f5a9"}
{"nom":"Villard","nomNormalise":"villard","typeCollectivite":"Commune","region":"Nouvelle-Aquitaine","departement":"Creuse","departementCode":"23","adresse":{"street":"1 rue de la Mairie","postalCode":"23800","city":"Villard","country":"France"},"contacts":{"email":"mairie.villard@orange.fr","telephone":"0555890123"},"horaires":"Du Lundi au Mardi : de 08h30 à 12h30\nDu Jeudi au Samedi : de 08h30 à 12h30","latitude":46.332066,"longitude":1.7012604,"website":"","hasWebsite":false,"hasHoraires":true,"url":"https://lannuaire.service-public.gouv.fr/nouvelle-aquitaine/creuse/09dedcc0-7097-4abf-ac18-c4e6638ed62f"}
