{"nom":"Argol","nomNormalise":"argol","typeCollectivite":"Commune","region":"Bretagne","departement":"Finistère","departementCode":"29","adresse":{"street":"Place des Anciens-Combattants","postalCode":"29560","city":"Argol","country":"France"},"contacts":{"email":"mairie@argol.fr","telephone":"0298735402"},"horaires":"Du Lundi au Mardi : de 09h00 à 12h00 de 14h00 à 18h00\nLe Jeudi : de 09h00 à 12h00 de 14h00 à 18h00\nLe Vendredi : de 09h00 à 12h00 de 14h00 à 17h30\nLe Samedi : de 09h00 à 12h00","latitude":48.24618,"longitude":-4.31788,"website":"http://www.argol.fr/","hasWebsite":true,"hasHoraires":true,"url":"https://lannuaire.service-public.gouv.fr/bretagne/finistere/d75455d5-c609-42d6-8c7f-a041b8c3d2bf"}
{"nom":"Arzano","nomNormalise":"arzano","typeCollectivite":"Commune","region":"Bretagne","departement":"Finistère","departementCode":"29","adresse":{"street":"1 place de la Mairie","postalCode":"29300","city":"Arzano","country":"France"},"contacts":{"email":"mairie@arzano.fr","telephone":"0298717467"},"horaires":"Du Lundi au Vendredi : de 08h30 à 12h00 de 13h30 à 17h30\n\n(sauf les mardis et jeudis après-midi)\nLe Samedi : de 09h00 à 12h00\n\nHoraires identiques pour l'agence postale communale située dans les locaux de la mairie.","latitude":47.90136,"longitude":-3.440617,"website":"https://www.arzano.fr/","hasWebsite":true,"hasHoraires":true,"url":"https://lannuaire.service-public.gouv.fr/bretagne/finistere/c49931f9-15e1-49c4-90b5-e3164e568d2f"}
{"nom":"Audierne","nomNormalise":"audierne","typeCollectivite":"Commune","region":"Bretagne","departement":"Finistère","departementCode":"29","adresse":{"street":"12 quai Jean-Jaurès","postalCode":"29770","city":"Audierne","country":"France"},"contacts":{"email":"accueil.audierne@audierne.bzh","telephone":"0298700847"},"horaires":"Du Lundi au Vendredi : de 08h30 à 12h00 de 13h30 à 17h00\nLe Samedi : de 08h00 à 12h00","latitude":48.02149,"longitude":-4.537792,"website":"https://www.audierne.bzh/","hasWebsite":true,"hasHoraires":true,"url":"https://lannuaire.service-public.gouv.fr/bretagne/finistere/87bd24e1-6116-442c-80ed-2d08e1a2a7e2"}
{"nom":"Bannalec","nomNormalise":"bannalec","typeCollectivite":"Commune","region":"Bretagne","departement":"Finistère","departementCode":"29","adresse":{"street":"1 place Charles-de-Gaulle","postalCode":"29380","city":"Bannalec","country":"France"},"contacts":{"email":"mairie@bannalec.fr","telephone":"0298395722"},"horaires":"Du Lundi au Vendredi : de 08h30 à 12h00 de 14h30 à 17h30\nLe Samedi : de 08h30 à 12h00","latitude":47.93223,"longitude":-3.695469,"website":"https://www.bannalec.fr/","hasWebsite":true,"hasHoraires":true,"url":"https://lannuaire.service-public.gouv.fr/bretagne/finistere/58b826e9-2218-4a35-98a9-e9ffe9abc08e"}
{"nom":"Baye","nomNormalise":"baye","typeCollectivite":"Commune","region":"Bretagne","departement":"Finistère","departementCode":"29","adresse":{"street":"44 route de l'Isle","postalCode":"29300","city":"Baye","country":"France"},"contacts":{"email":"mairiebaye@wanadoo.fr","telephone":"0298968012"},"horaires":"Du Lundi au Mardi : de 08h30 à 12h00 de 13h30 à 17h30\nLe Mercredi : de 08h30 à 12h00\nLe Jeudi : de 08h30 à 12h00 de 13h30 à 17h30\nLe Vendredi : de 08h30 à 12h00 de 13h30 à 17h00","latitude":47.858116,"longitude":-3.604421,"website":"https://baye.fr/","hasWebsite":true,"hasHoraires":true,"url":"https://lannuaire.service-public.gouv.fr/bretagne/finistere/eee62544-d240-4383-8bbf-314cdb85ccff"}
{"nom":"Bénodet","nomNormalise":"benodet","typeCollectivite":"Commune","region":"Bretagne","departement":"Finistère","departementCode":"29","adresse":{"street":"51 avenue de la Plage","postalCode":"29950","city":"Bénodet","country":"France"},"contacts":{"email":"mairie@benodet.fr","telephone":"0298570546"},"horaires":"Du Lundi au Vendredi : de 08h30 à 11h45 de 13h30 à 17h00","latitude":47.876312,"longitude":-4.113509,"website":"https://www.mairie-benodet.fr/","hasWebsite":true,"hasHoraires":true,"url":"https://lannuaire.service-public.gouv.fr/bretagne/finistere/2b5be16e-face-4bb4-a755-3a9e7a42e6ae"}
{"nom":"Berrien","nomNormalise":"berrien","typeCollectivite":"Commune","region":"Bretagne","departement":"Finistère","departementCode":"29","adresse":{"street":"1 rue des Écoliers","postalCode":"29690","city":"Berrien","country":"France"},"contacts":{"email":"accueil@berrien.fr","telephone":"0298990114"},"horaires":"Du Lundi au Vendredi : de 08h45 à 12h00","latitude":48.404045,"longitude":-3.751844,"website":"https://www.berrien.fr/","hasWebsite":true,"hasHoraires":true,"url":"https://lannuaire.service-public.gouv.fr/bretagne/finistere/1600ad89-3f92-4a59-8e35-aa098c2c02a4"}
{"nom":"Beuzec-Cap-Sizun","nomNormalise":"beuzeccapsizun","typeCollectivite":"Commune","region":"Bretagne","departement":"Finistère","departementCode":"29","adresse":{"street":"6 place de la Mairie","postalCode":"29790","city":"Beuzec-Cap-Sizun","country":"France"},"contacts":{"email":"mairie@beuzec-cap-sizun.fr","telephone":"0298704079"},"horaires":"Du Lundi au Jeudi : de 08h30 à 12h00 de 13h30 à 17h00\nLe Vendredi : de 08h30 à 12h00 de 13h30 à 16h00","latitude":48.075184,"longitude":-4.511815,"website":"https://www.beuzec-cap-sizun.fr/","hasWebsite":true,"hasHoraires":true,"url":"https://lannuaire.service-public.gouv.fr/bretagne/finistere/7bc61a22-2684-4b7a-b11e-4eddbfec22d4"}
{"nom":"Bodilis","nomNormalise":"bodilis","typeCollectivite":"Commune","region":"Bretagne","departement":"Finistère","departementCode":"29","adresse":{"street":"262 rue Notre-Dame","postalCode":"29400","city":"Bodilis","country":"France"},"contacts":{"email":"accueil@mairie-bodilis.fr","telephone":"0298680701"},"horaires":"Du Lundi au Mardi : de 08h30 à 12h00 de 13h30 à 17h00\nLe Mercredi : de 08h30 à 12h00\nDu Jeudi au Vendredi : de 08h30 à 12h00 de 13h30 à 17h00\nLe Samedi : de 08h30 à 12h00\n\nLe samedi permanence du secrétariat uniquement, fermé en juillet-août.","latitude":48.53055,"longitude":-4.116966,"website":"https://bodilis.org/","hasWebsite":true,"hasHoraires":true,"url":"https://lannuaire.service-public.gouv.fr/bretagne/finistere/56625fb7-4f57-46db-9346-49a88048f292"}
{"nom":"Bohars","nomNormalise":"bohars","typeCollectivite":"Commune","region":"Bretagne","departement":"Finistère","departementCode":"29","adresse":{"street":"1 rue Prosper-Salaun","postalCode":"29820","city":"Bohars","country":"France"},"contacts":{"email":"communication@mairie-bohars.fr","telephone":"0298035963"},"horaires":"Du Lundi au Mercredi : de 08h30 à 12h00 de 13h30 à 17h00\nLe Jeudi : de 08h30 à 12h00\nLe Vendredi : de 08h30 à 12h00 de 13h30 à 17h00\nLe Samedi : de 09h00 à 12h00\n\nAccueil fermé le samedi en juillet-août.","latitude":48.428955,"longitude":-4.514971,"website":"https://www.mairie-bohars.fr/","hasWebsite":true,"hasHoraires":true,"url":"https://lannuaire.service-public.gouv.fr/bretagne/finistere/1a73cd65-4c6d-49c7-90a5-4ea2713564e2"}
{"nom":"Bolazec","nomNormalise":"bolazec","typeCollectivite":"Commune","region":"Bretagne","departement":"Finistère","departementCode":"29","adresse":{"street":"1 place du 19-Mars-1962","postalCode":"29640","city":"Bolazec","country":"France"},"contacts":{"email":"mairie.bolazec@wanadoo.fr","telephone":"0298781095"},"horaires":"Du Lundi au Mardi : de 08h30 à 12h30 de 13h30 à 16h00\nDu Jeudi au Vendredi : de 08h30 à 12h30 de 13h30 à 16h00","latitude":48.44392,"longitude":-3.5846,"website":"","hasWebsite":false,"hasHoraires":true,"url":"https://lannuaire.service-public.gouv.fr/bretagne/finistere/e314f8cf-a34a-4ab9-82b9-6c194c0edee5"}
{"nom":"Botmeur","nomNormalise":"botmeur","typeCollectivite":"Commune","region":"Bretagne","departement":"Finistère","departementCode":"29","adresse":{"street":"Le Salou","postalCode":"29690","city":"Botmeur","country":"France"},"contacts":{"email":"mairie.botmeur@wanadoo.fr","telephone":"0298261022"},"horaires":"Du Lundi au Mardi : de 09h00 à 12h00 de 13h30 à 16h30\nLe Jeudi : de 09h00 à 12h00 de 13h30 à 16h30","latitude":48.383694,"longitude":-3.922724,"website":"","hasWebsite":false,"hasHoraires":true,"url":"https://lannuaire.service-public.gouv.fr/bretagne/finistere/3d5fed2e-70f5-4dc3-8291-5953b8aa6af2"}
{"nom":"Botsorhel","nomNormalise":"botsorhel","typeCollectivite":"Commune","region":"Bretagne","departement":"Finistère","departementCode":"29","adresse":{"street":"10 place de l'Église","postalCode":"29650","city":"Botsorhel","country":"France"},"contacts":{"email":"mairie.botsorhel@wanadoo.fr","telephone":"0298728543"},"horaires":"Du Lundi au Mardi : de 09h00 à 12h30 de 13h30 à 17h00\nDu Jeudi au Vendredi : de 09h00 à 12h30 de 13h30 à 17h00","latitude":48.52689,"longitude":-3.64121,"website":"https://botsorhel.fr/","hasWebsite":true,"hasHoraires":true,"url":"https://lannuaire.service-public.gouv.fr/bretagne/finistere/3bee2291-4c93-4ea5-a734-ce62b330ec57"}
{"nom":"Bourg-Blanc","nomNormalise":"bourgblanc","typeCollectivite":"Commune","region":"Bretagne","departement":"Finistère","departementCode":"29","adresse":{"street":"1 place de l'Étang","postalCode":"29860","city":"Bourg-Blanc","country":"France"},"contacts":{"email":"mairie@bourg-blanc.fr","telephone":"0298845813"},"horaires":"Du Lundi au Jeudi : de 08h30 à 12h00 de 13h30 à 17h30\nLe Vendredi : de 08h30 à 12h00 de 13h30 à 17h00\nLe Samedi : de 09h00 à 12h00\n\nAccueil fermé en juillet-août.","latitude":48.4992,"longitude":-4.506596,"website":"https://bourg-blanc.fr/","hasWebsite":true,"hasHoraires":true,"url":"https://lannuaire.service-public.gouv.fr/bretagne/finistere/46a888fa-4f0b-47cb-ab82-6e73cac7ebab"}
{"nom":"Brasparts","nomNormalise":"brasparts","typeCollectivite":"Commune","region":"Bretagne","departement":"Finistère","departementCode":"29","adresse":{"street":"18 rue de la Mairie","postalCode":"29190","city":"Brasparts","country":"France"},"contacts":{"email":"accueil@brasparts.bzh","telephone":"0298814125"},"horaires":"Du Lundi au Vendredi : de 09h00 à 12h00 de 14h00 à 16h30","latitude":48.300564,"longitude":-3.95535,"website":"","hasWebsite":false,"hasHoraires":true,"url":"https://lannuaire.service-public.gouv.fr/bretagne/finistere/11b08c8f-868d-4f58-b3b8-26db7f7dc972"}
{"nom":"Brélès","nomNormalise":"breles","typeCollectivite":"Commune","region":"Bretagne","departement":"Finistère","departementCode":"29","adresse":{"street":"1 rue du Stade","postalCode":"29810","city":"Brélès","country":"France"},"contacts":{"email":"mairie@breles.fr","telephone":"0298043103"},"horaires":"Du Lundi au Mardi : de 09h00 à 12h00 de 14h00 à 17h00\nDu Mercredi au Jeudi : de 09h00 à 12h00\nLe Vendredi : de 09h00 à 12h00 de 14h00 à 17h00\nLe Samedi : de 09h00 à 12h00","latitude":48.477886,"longitude":-4.713797,"website":"https://breles.fr/","hasWebsite":true,"hasHoraires":true,"url":"https://lannuaire.service-public.gouv.fr/bretagne/finistere/499344be-6dcc-4e61-8249-ac1e401ea8ab"}
{"nom":"Brennilis","nomNormalise":"brennilis","typeCollectivite":"Commune","region":"Bretagne","departement":"Finistère","departementCode":"29","adresse":{"street":"1 rue de la Mairie","postalCode":"29690","city":"Brennilis","country":"France"},"contacts":{"email":"mairie.brennilis@orange.fr","telephone":"0298996107"},"horaires":"Le Lundi : de 08h00 à 12h00\nLe Mardi : de 08h00 à 12h00 de 13h00 à 16h30\nLe Mercredi : de 08h00 à 12h00\nLe Jeudi : de 08h00 à 12h00 de 13h00 à 16h30\nLe Vendredi : de 08h00 à 12h00","latitude":48.360634,"longitude":-3.850518,"website":"http://www.mairie-brennilis.com/","hasWebsite":true,"hasHoraires":true,"url":"https://lannuaire.service-public.gouv.fr/bretagne/finistere/f6202813-5ffa-4a26-9015-912d85a862be"}
{"nom":"Brest","nomNormalise":"brest","typeCollectivite":"Commune","region":"Bretagne","departement":"Finistère","departementCode":"29","adresse":{"street":"Mairie centrale","postalCode":"29230","city":"Brest","country":"France"},"contacts":{"email":"contact@mairie-brest.fr","telephone":"0298008080"},"horaires":"Du Lundi au Vendredi : de 08h30 à 17h30\nLe Samedi : de 09h00 à 12h00\nsauf 2ème et 4ème mardi de 9h30 à 17h30.","latitude":48.391693,"longitude":-4.484541,"website":"https://brest.fr/","hasWebsite":true,"hasHoraires":true,"url":"https://lannuaire.service-public.gouv.fr/bretagne/finistere/24c74d5d-49c7-4fdc-b735-e33cc550e46b"}
{"nom":"Briec","nomNormalise":"briec","typeCollectivite":"Commune","region":"Bretagne","departement":"Finistère","departementCode":"29","adresse":{"street":"67 rue du Général-de-Gaulle","postalCode":"29510","city":"Briec","country":"France"},"contacts":{"email":"accueil@briec.bzh","telephone":"0298579311"},"horaires":"Le Lundi : de 08h30 à 12h30 de 13h30 à 17h30\nLe Mardi : de 08h30 à 12h30 de 13h30 à 18h30\nLe Mercredi : de 08h30 à 12h30 de 13h30 à 17h30\nLe Jeudi : de 08h30 à 12h30\nLe Vendredi : de 08h30 à 12h30 de 13h30 à 17h30","latitude":48.10174,"longitude":-4.001317,"website":"https://www.briec.bzh/","hasWebsite":true,"hasHoraires":true,"url":"https://lannuaire.service-public.gouv.fr/bretagne/finistere/674d444c-3b35-4a4f-91a4-814b1d326aa1"}
{"nom":"Camaret-sur-Mer","nomNormalise":"camaretsurmer","typeCollectivite":"Commune","region":"Bretagne","departement":"Finistère","departementCode":"29","adresse":{"street":"11 place d'Estienne-d'Orves","postalCode":"29570","city":"Camaret-sur-Mer","country":"France"},"contacts":{"email":"contactmairie@camaretsurmer.fr","telephone":"0298279422"},"horaires":"Du Lundi au Vendredi : de 09h00 à 12h00 de 13h30 à 16h30","latitude":48.27556,"longitude":-4.59761,"website":"https://www.camaret-sur-mer.fr/","hasWebsite":true,"hasHoraires":true,"url":"https://lannuaire.service-public.gouv.fr/bretagne/finistere/30454af4-eb2c-412e-83ab-f9f68dc130d8"}
{"nom":"Carantec","nomNormalise":"carantec","typeCollectivite":"Commune","region":"Bretagne","departement":"Finistère","departementCode":"29","adresse":{"street":"Place du Général-de-Gaulle","postalCode":"29660","city":"Carantec","country":"France"},"contacts":{"email":"accueil@ville-carantec.com","telephone":"0298670030"},"horaires":"Du Lundi au Vendredi : de 08h30 à 12h00 de 13h30 à 18h00\nLe Samedi : de 09h00 à 12h00\n\nAccueil ouvert uniquement pour l'état civil.","latitude":48.66762,"longitude":-3.91382,"website":"https://www.ville-carantec.com/","hasWebsite":true,"hasHoraires":true,"url":"https://lannuaire.service-public.gouv.fr/bretagne/finistere/91d53cbb-76f4-41fc-805b-20c73e2448de"}
{"nom":"Carhaix-Plouguer","nomNormalise":"carhaixplouguer","typeCollectivite":"Commune","region":"Bretagne","departement":"Finistère","departementCode":"29","adresse":{"street":"Place de la Mairie","postalCode":"29270","city":"Carhaix-Plouguer","country":"France"},"contacts":{"email":"etatcivil@ville-carhaix.bzh","telephone":"0298993333"},"horaires":"Du Lundi au Vendredi : de 08h00 à 12h00 de 13h30 à 17h30\nLe Samedi : de 09h00 à 12h00","latitude":48.275726,"longitude":-3.574236,"website":"https://www.ville-carhaix.bzh/accueil_carhaix","hasWebsite":true,"hasHoraires":true,"url":"https://lannuaire.service-public.gouv.fr/bretagne/finistere/2d42bf4a-6291-48a2-851b-00b48eac6126"}
{"nom":"Cast","nomNormalise":"cast","typeCollectivite":"Commune","region":"Bretagne","departement":"Finistère","departementCode":"29","adresse":{"street":"Place Saint-Hubert","postalCode":"29150","city":"Cast","country":"France"},"contacts":{"email":"mairie.de.cast@wanadoo.fr","telephone":"0298735434"},"horaires":"Du Lundi au Mercredi : de 09h00 à 12h00 de 13h30 à 17h00\nLe Jeudi : de 09h00 à 12h00\nLe Vendredi : de 09h00 à 12h00 de 13h30 à 17h00","latitude":48.15716,"longitude":-4.13901,"website":"https://www.mairie-cast.com/","hasWebsite":true,"hasHoraires":true,"url":"https://lannuaire.service-public.gouv.fr/bretagne/finistere/8dff04f0-611b-4f79-b5dd-ca3db3578f22"}
{"nom":"Châteaulin","nomNormalise":"chateaulin","typeCollectivite":"Commune","region":"Bretagne","departement":"Finistère","departementCode":"29","adresse":{"street":"15 quai Jean-Moulin","postalCode":"29150","city":"Châteaulin","country":"France"},"contacts":{"email":"mairie@chateaulin.fr","telephone":"0298861005"},"horaires":"Du Lundi au Jeudi : de 08h30 à 12h00 de 13h30 à 17h30\nLe Vendredi : de 08h30 à 12h00 de 13h30 à 17h00\nLe Samedi : de 08h30 à 12h00","latitude":48.195526,"longitude":-4.094265,"website":"https://www.chateaulin.fr/","hasWebsite":true,"hasHoraires":true,"url":"https://lannuaire.service-public.gouv.fr/bretagne/finistere/2433910e-8099-45bf-bb12-63337f901d8b"}
{"nom":"Châteauneuf-du-Faou","nomNormalise":"chateauneufdufaou","typeCollectivite":"Commune","region":"Bretagne","departement":"Finistère","departementCode":"29","adresse":{"street":"8 rue de la Mairie","postalCode":"29520","city":"Châteauneuf-du-Faou","country":"France"},"contacts":{"email":"mairie@chateauneufdufaou.bzh","telephone":"0298817541"},"horaires":"Du Lundi au Mercredi : de 08h30 à 12h00 de 13h30 à 18h00\nLe Jeudi : de 08h30 à 12h00\nLe Vendredi : de 08h30 à 12h00 de 13h30 à 18h00","latitude":48.18622,"longitude":-3.812851,"website":"https://www.chateauneufdufaou.bzh/","hasWebsite":true,"hasHoraires":true,"url":"https://lannuaire.service-public.gouv.fr/bretagne/finistere/8e313c95-7eee-47d1-913e-ad074425d638"}
{"nom":"Cléden-Cap-Sizun","nomNormalise":"cledencapsizun","typeCollectivite":"Commune","region":"Bretagne","departement":"Finistère","departementCode":"29","adresse":{"street":"7 rue du Castel-Meur","postalCode":"29770","city":"Cléden-Cap-Sizun","country":"France"},"contacts":{"email":"mairie.cleden-cap-sizun@wanadoo.fr","telephone":"0298706145"},"horaires":"Du Lundi au Mercredi : de 09h00 à 12h00 de 13h45 à 17h30\nLe Jeudi : de 09h00 à 12h00\nLe Vendredi : de 09h00 à 12h00 de 13h45 à 17h30\nLe Samedi : de 09h00 à 12h00","latitude":48.049133,"longitude":-4.648404,"website":"https://cleden-cap-sizun.fr/","hasWebsite":true,"hasHoraires":true,"url":"https://lannuaire.service-public.gouv.fr/bretagne/finistere/cdf81ba0-eca8-4fcf-b80d-183588d65bd7"}
{"nom":"Cléden-Poher","nomNormalise":"cledenpoher","typeCollectivite":"Commune","region":"Bretagne","departement":"Finistère","departementCode":"29","adresse":{"street":"2 rue de la Mairie","postalCode":"29270","city":"Cléden-Poher","country":"France"},"contacts":{"email":"contact@cleden-poher.com","telephone":"0298934090"},"horaires":"Le Lundi : de 08h30 à 12h00 de 13h30 à 17h00\nLe Mardi : de 08h30 à 12h00 de 13h30 à 18h00\nDu Mercredi au Jeudi : de 08h30 à 12h00 de 13h30 à 17h00\nLe Vendredi : de 08h30 à 12h00 de 13h30 à 16h30","latitude":48.235386,"longitude":-3.668727,"website":"https://www.cleden-poher.com/accueil_cleden","hasWebsite":true,"hasHoraires":true,"url":"https://lannuaire.service-public.gouv.fr/bretagne/finistere/8d1e4351-9323-427c-a871-5300a94a333e"}
{"nom":"Cléder","nomNormalise":"cleder","typeCollectivite":"Commune","region":"Bretagne","departement":"Finistère","departementCode":"29","adresse":{"street":"Place Charles-de-Gaulle","postalCode":"29233","city":"Cléder","country":"France"},"contacts":{"email":"mairie@ville-cleder.fr","telephone":"0298694009"},"horaires":"Du Lundi au Jeudi : de 08h30 à 12h30 de 13h30 à 17h30\nLe Vendredi : de 08h30 à 12h30 de 13h30 à 16h30\nLe Samedi : de 09h00 à 12h00\n\nAccueil ouvert uniquement pour l'état civil.","latitude":48.66325,"longitude":-4.1036,"website":"https://www.cleder.fr/","hasWebsite":true,"hasHoraires":true,"url":"https://lannuaire.service-public.gouv.fr/bretagne/finistere/d720c7bf-d27a-4d15-ad50-18a3c9e6a3ab"}
{"nom":"Clohars-Carnoët","nomNormalise":"cloharscarnoet","typeCollectivite":"Commune","region":"Bretagne","departement":"Finistère","departementCode":"29","adresse":{"street":"1 place du Général-de-Gaulle","postalCode":"29360","city":"Clohars-Carnoët","country":"France"},"contacts":{"email":"mairie@clohars-carnoet.bzh","telephone":"0298715390"},"horaires":"Du Lundi au Vendredi : de 08h30 à 12h30 de 13h30 à 17h30\nLe Samedi : de 09h00 à 12h00\n\nAccueil ouvert uniquement pour l'état civil.","latitude":47.79593,"longitude":-3.585759,"website":"https://www.clohars-carnoet.fr/","hasWebsite":true,"hasHoraires":true,"url":"https://lannuaire.service-public.gouv.fr/bretagne/finistere/2f29b24f-ecc8-4568-97aa-f5f56578c783"}
{"nom":"Clohars-Fouesnant","nomNormalise":"cloharsfouesnant","typeCollectivite":"Commune","region":"Bretagne","departement":"Finistère","departementCode":"29","adresse":{"street":"Place de la Mairie","postalCode":"29950","city":"Clohars-Fouesnant","country":"France"},"contacts":{"email":"mairie@clohars-fouesnant.bzh","telephone":"0298546009"},"horaires":"Du Lundi au Vendredi : de 09h00 à 12h30 de 14h00 à 17h00","latitude":47.89715,"longitude":-4.06478,"website":"https://www.clohars-fouesnant.bzh/","hasWebsite":true,"hasHoraires":true,"url":"https://lannuaire.service-public.gouv.fr/bretagne/finistere/e6179243-4909-41fe-a26e-0b0fbfcc5b14"}
{"nom":"Coat-Méal","nomNormalise":"coatmeal","typeCollectivite":"Commune","region":"Bretagne","departement":"Finistère","departementCode":"29","adresse":{"street":"12 rue du Garo","postalCode":"29870","city":"Coat-Méal","country":"France"},"contacts":{"email":"mairie@coat-meal.bzh","telephone":"0298845832"},"horaires":"Du Lundi au Vendredi : de 08h00 à 12h30 de 13h15 à 17h30","latitude":48.507927,"longitude":-4.543249,"website":"https://coat-meal.fr/","hasWebsite":true,"hasHoraires":true,"url":"https://lannuaire.service-public.gouv.fr/bretagne/finistere/17a7f5a3-b9ca-4f9a-ba49-803a460e10ed"}
{"nom":"Collorec","nomNormalise":"collorec","typeCollectivite":"Commune","region":"Bretagne","departement":"Finistère","departementCode":"29","adresse":{"street":"2 place du 19-Mars 1962","postalCode":"29530","city":"Collorec","country":"France"},"contacts":{"email":"mairie.collorec@wanadoo.fr","telephone":"0298739027"},"horaires":"Le Lundi : de 08h30 à 12h00\nDu Mardi au Vendredi : de 08h30 à 12h00 de 13h30 à 17h00","latitude":48.28652,"longitude":-3.77487,"website":"","hasWebsite":false,"hasHoraires":true,"url":"https://lannuaire.service-public.gouv.fr/bretagne/finistere/c1f1aae9-d247-45bd-a5b6-58b2d398aee7"}
{"nom":"Combrit","nomNormalise":"combrit","typeCollectivite":"Commune","region":"Bretagne","departement":"Finistère","departementCode":"29","adresse":{"street":"8 rue du Général-de-Gaulle","postalCode":"29120","city":"Combrit-Sainte-Marine","country":"France"},"contacts":{"email":"mairie@combrit-saintemarine.fr","telephone":"0298563314"},"horaires":"Du Lundi au Vendredi : de 09h00 à 12h30 de 14h00 à 17h00","latitude":47.887028,"longitude":-4.155376,"website":"https://combrit-saintemarine.bzh/","hasWebsite":true,"hasHoraires":true,"url":"https://lannuaire.service-public.gouv.fr/bretagne/finistere/d3bcfe71-0292-4eab-a829-0e8dbb7d0521"}
{"nom":"Commana","nomNormalise":"commana","typeCollectivite":"Commune","region":"Bretagne","departement":"Finistère","departementCode":"29","adresse":{"street":"7 place de l'Église","postalCode":"29450","city":"Commana","country":"France"},"contacts":{"email":"mairie@commana.bzh","telephone":"0298780013"},"horaires":"Du Lundi au Vendredi : de 09h00 à 12h00 de 14h00 à 17h00\n\nFermée au public les lundis et jeudis après-midi.\nLe Samedi : de 09h00 à 12h00","latitude":48.413734,"longitude":-3.956427,"website":"http://www.commana.bzh/","hasWebsite":true,"hasHoraires":true,"url":"https://lannuaire.service-public.gouv.fr/bretagne/finistere/f2343950-e69f-49aa-97d7-83be00c22fe7"}
{"nom":"Concarneau","nomNormalise":"concarneau","typeCollectivite":"Commune","region":"Bretagne","departement":"Finistère","departementCode":"29","adresse":{"street":"Place de l'Hôtel-de-Ville","postalCode":"29900","city":"Concarneau","country":"France"},"contacts":{"email":"contact@concarneau.fr","telephone":"0298503838"},"horaires":"Du Lundi au Vendredi : de 08h30 à 12h00 de 13h30 à 17h00\nLe Samedi : de 08h45 à 11h45\n\nAccueil ouvert uniquement pour l'état civil.","latitude":47.87061,"longitude":-3.919211,"website":"https://www.concarneau.fr/","hasWebsite":true,"hasHoraires":true,"url":"https://lannuaire.service-public.gouv.fr/bretagne/finistere/0f5b54c3-cc7e-4753-9de4-9bf0312c91f0"}
{"nom":"Confort-Meilars","nomNormalise":"confortmeilars","typeCollectivite":"Commune","region":"Bretagne","departement":"Finistère","departementCode":"29","adresse":{"street":"Bourg de Confort","postalCode":"29790","city":"Confort-Meilars","country":"France"},"contacts":{"email":"contact@confortmeilars.fr","telephone":"0298745189"},"horaires":"Du Lundi au Vendredi : de 08h30 à 12h00 de 14h00 à 17h30","latitude":48.050823,"longitude":-4.427236,"website":"https://confortmeilars.fr/","hasWebsite":true,"hasHoraires":true,"url":"https://lannuaire.service-public.gouv.fr/bretagne/finistere/e55b755d-6f6a-4a57-8fa9-4c0156830283"}
{"nom":"Coray","nomNormalise":"coray","typeCollectivite":"Commune","region":"Bretagne","departement":"Finistère","departementCode":"29","adresse":{"street":"1 rue Grégoire-le-Cam","postalCode":"29370","city":"Coray","country":"France"},"contacts":{"email":"mairie-coray@wanadoo.fr","telephone":"0298591010"},"horaires":"Du Lundi au Mardi : de 08h30 à 12h00 de 13h30 à 17h30\nLe Mercredi : de 08h30 à 12h00\nLe Jeudi : de 08h30 à 12h00 de 13h30 à 17h30\nLe Vendredi : de 08h30 à 12h00 de 13h30 à 16h30","latitude":48.060757,"longitude":-3.830104,"website":"https://coray.fr/","hasWebsite":true,"hasHoraires":true,"url":"https://lannuaire.service-public.gouv.fr/bretagne/finistere/c186620f-0bcb-47c9-b4eb-ecf0655bdfcb"}
{"nom":"Crozon","nomNormalise":"crozon","typeCollectivite":"Commune","region":"Bretagne","departement":"Finistère","departementCode":"29","adresse":{"street":"Place Léon-Blum","postalCode":"29160","city":"Crozon","country":"France"},"contacts":{"email":"mairie@crozon.bzh","telephone":"0298271028"},"horaires":"Du Lundi au Vendredi : de 08h45 à 12h00 de 13h30 à 17h00\nLe Samedi : de 09h00 à 12h00\n\nAccueil ouvert uniquement pour l'état civil.","latitude":48.24527,"longitude":-4.48903,"website":"https://www.crozon.bzh/","hasWebsite":true,"hasHoraires":true,"url":"https://lannuaire.service-public.gouv.fr/bretagne/finistere/e3ec73a4-17d0-4541-b4c3-5dafcfb3e332"}
{"nom":"Daoulas","nomNormalise":"daoulas","typeCollectivite":"Commune","region":"Bretagne","departement":"Finistère","departementCode":"29","adresse":{"street":"17 route de Loperhet","postalCode":"29460","city":"Daoulas","country":"France"},"contacts":{"email":"info@daoulas.bzh","telephone":"0298258019"},"horaires":"Du Lundi au Vendredi : de 09h00 à 12h00","latitude":48.36097,"longitude":-4.263881,"website":"https://daoulas.bzh/fr","hasWebsite":true,"hasHoraires":true,"url":"https://lannuaire.service-public.gouv.fr/bretagne/finistere/b9e995ad-ce50-4a90-8772-d071fe1c3e00"}
{"nom":"Dinéault","nomNormalise":"dineault","typeCollectivite":"Commune","region":"Bretagne","departement":"Finistère","departementCode":"29","adresse":{"street":"3 rue de La Tour-d'Auvergne","postalCode":"29150","city":"Dinéault","country":"France"},"contacts":{"email":"mairie-dineault@orange.fr","telephone":"0298260055"},"horaires":"Le Lundi : de 08h30 à 12h00\nLe Mardi : de 08h30 à 12h00 de 13h30 à 18h00\nLe Mercredi : de 08h30 à 12h00 de 13h30 à 17h00\nLe Jeudi : de 08h30 à 12h00 de 13h30 à 18h00\nLe Vendredi : de 08h30 à 12h00 de 13h30 à 17h00","latitude":48.218864,"longitude":4.165563,"website":"https://dineol.fr/","hasWebsite":true,"hasHoraires":true,"url":"https://lannuaire.service-public.gouv.fr/bretagne/finistere/7ddd6f9e-d219-4cde-a5f0-8851ba49bece"}
{"nom":"Dirinon","nomNormalise":"dirinon","typeCollectivite":"Commune","region":"Bretagne","departement":"Finistère","departementCode":"29","adresse":{"street":"4 rue du rozic","postalCode":"29460","city":"Dirinon","country":"France"},"contacts":{"email":"accueil@dirinon.fr","telephone":"0298070133"},"horaires":"Du Lundi au Vendredi : de 09h00 à 12h00 de 14h00 à 17h00\nLe Samedi : de 10h00 à 12h00\n\nPermanence uniquement.\nEn juillet-août accueil fermé le mercredi après-midi et fermeture à 16h30 le vendredi.","latitude":48.39763,"longitude":-4.271505,"website":"https://www.dirinon.fr/","hasWebsite":true,"hasHoraires":true,"url":"https://lannuaire.service-public.gouv.fr/bretagne/finistere/806c8994-eac9-457f-abf2-ff7b949a2ea9"}
{"nom":"Douarnenez","nomNormalise":"douarnenez","typeCollectivite":"Commune","region":"Bretagne","departement":"Finistère","departementCode":"29","adresse":{"street":"16 rue Berthelot","postalCode":"29100","city":"Douarnenez","country":"France"},"contacts":{"email":"contact@douarnenez.bzh","telephone":"0298744600"},"horaires":"Du Lundi au Vendredi : de 08h30 à 12h00 de 13h30 à 17h30\nLe Samedi : de 09h00 à 12h00\n\nAccueil ouvert uniquement pour le service de l'état civil et le service carte d'identité et passeport.","latitude":48.091732,"longitude":-4.330297,"website":"https://www.douarnenez.bzh/","hasWebsite":true,"hasHoraires":true,"url":"https://lannuaire.service-public.gouv.fr/bretagne/finistere/a719e891-641a-4aed-aaeb-1121fcc31199"}
{"nom":"Edern","nomNormalise":"edern","typeCollectivite":"Commune","region":"Bretagne","departement":"Finistère","departementCode":"29","adresse":{"street":"1 route de Ty-Fléan","postalCode":"29510","city":"Edern","country":"France"},"contacts":{"email":"mairie@edern.bzh","telephone":"0298579322"},"horaires":"Du Lundi au Vendredi : de 09h00 à 12h00 de 13h30 à 17h30\nLe Samedi : de 09h00 à 12h00\n\nPermanences du Maire et de ses Adjoints en Mairie","latitude":48.104233,"longitude":-3.977813,"website":"https://www.edern.fr/","hasWebsite":true,"hasHoraires":true,"url":"https://lannuaire.service-public.gouv.fr/bretagne/finistere/968c3b4b-cbed-444f-9181-90282e33de4b"}
{"nom":"Elliant","nomNormalise":"elliant","typeCollectivite":"Commune","region":"Bretagne","departement":"Finistère","departementCode":"29","adresse":{"street":"1 rue du Docteur-Laennec","postalCode":"29370","city":"Elliant","country":"France"},"contacts":{"email":"contact@elliant.bzh","telephone":"0298109111"},"horaires":"Du Lundi au Vendredi : de 09h00 à 12h00 de 13h30 à 17h00","latitude":47.994984,"longitude":-3.891018,"website":"https://www.elliant.bzh/","hasWebsite":true,"hasHoraires":true,"url":"https://lannuaire.service-public.gouv.fr/bretagne/finistere/a261cd5f-f95b-42a5-b56e-6afd3e2c5b13"}
{"nom":"Ergué-Gabéric","nomNormalise":"erguegaberic","typeCollectivite":"Commune","region":"Bretagne","departement":"Finistère","departementCode":"29","adresse":{"street":"3 place Louis Le Roux","postalCode":"29500","city":"Ergué-Gabéric","country":"France"},"contacts":{"email":"mairie@ergue-gaberic.bzh","telephone":"0298666800"},"horaires":"Du Lundi au Jeudi : de 08h30 à 12h15 de 13h15 à 17h30\nLe Vendredi : de 08h30 à 12h15 de 13h15 à 17h15\nLe Samedi : de 09h00 à 12h00\n\nAccueil ouvert uniquement pour l'état civil.","latitude":47.994984,"longitude":-3.891018,"website":"https://www.ergue-gaberic.bzh/","hasWebsite":true,"hasHoraires":true,"url":"https://lannuaire.service-public.gouv.fr/bretagne/finistere/d1dd707d-cfae-45e1-93ec-aa2717d391d6"}
{"nom":"Fouesnant-les-Glénan","nomNormalise":"fouesnantlesglenan","typeCollectivite":"Commune","region":"Bretagne","departement":"Finistère","departementCode":"29","adresse":{"street":"Place du Général-de-Gaulle","postalCode":"29170","city":"Fouesnant","country":"France"},"contacts":{"email":"contact@ville-fouesnant.fr","telephone":"0298516262"},"horaires":"Du Lundi au Vendredi : de 08h30 à 12h00 de 13h30 à 17h00\nLe Samedi : de 09h00 à 12h00","latitude":47.89425,"longitude":-4.01223,"website":"https://ville-fouesnant.fr/","hasWebsite":true,"hasHoraires":true,"url":"https://lannuaire.service-public.gouv.fr/bretagne/finistere/a2b39666-6d86-426b-aabf-d06458a73c95"}
{"nom":"Garlan","nomNormalise":"garlan","typeCollectivite":"Commune","region":"Bretagne","departement":"Finistère","departementCode":"29","adresse":{"street":"2 place Yves-Laviec","postalCode":"29610","city":"Garlan","country":"France"},"contacts":{"email":"mairie@garlan.fr","telephone":"0298791348"},"horaires":"Le Lundi : de 08h30 à 12h00\nLe Mardi : de 08h30 à 12h00 de 13h30 à 17h30\nLe Mercredi : de 08h30 à 12h00\nLe Jeudi : de 08h30 à 12h00 de 13h30 à 17h30\nLe Vendredi : de 08h30 à 12h00 de 13h30 à 17h00\nLe Samedi : de 09h00 à 12h00","latitude":47.907963,"longitude":-3.979245,"website":"https://garlan.fr/","hasWebsite":true,"hasHoraires":true,"url":"https://lannuaire.service-public.gouv.fr/bretagne/finistere/29db442b-0ebd-4fd2-90aa-a9980ae8d5ff"}
{"nom":"Gouesnach","nomNormalise":"gouesnach","typeCollectivite":"Commune","region":"Bretagne","departement":"Finistère","departementCode":"29","adresse":{"street":"19 route de Bénodet","postalCode":"29950","city":"Gouesnach","country":"France"},"contacts":{"email":"contact@mairie-gouesnach.bzh","telephone":"0298517475"},"horaires":"Du Lundi au Jeudi : de 08h30 à 12h00 de 13h30 à 17h00\nLe Vendredi : de 08h30 à 12h00 de 13h30 à 17h30","latitude":47.91073,"longitude":-4.115076,"website":"https://mairie-gouesnach.bzh/","hasWebsite":true,"hasHoraires":true,"url":"https://lannuaire.service-public.gouv.fr/bretagne/finistere/8fdc0932-696f-49e5-9143-c141bb094b83"}
{"nom":"Gouesnou","nomNormalise":"gouesnou","typeCollectivite":"Commune","region":"Bretagne","departement":"Finistère","departementCode":"29","adresse":{"street":"1 place des Fusillés","postalCode":"29850","city":"Gouesnou","country":"France"},"contacts":{"email":"accueil@mairie-gouesnou.fr","telephone":"0298373750"},"horaires":"Du Lundi au Vendredi : de 08h30 à 12h30 de 13h30 à 17h30\nLe Samedi : de 09h00 à 12h00\n\nPermanence de l'état-civil","latitude":48.451332,"longitude":-4.466181,"website":"https://www.gouesnou.bzh/","hasWebsite":true,"hasHoraires":true,"url":"https://lannuaire.service-public.gouv.fr/bretagne/finistere/1a842168-ffbe-4f1b-922f-337d5f804e51"}
{"nom":"Gouézec","nomNormalise":"gouezec","typeCollectivite":"Commune","region":"Bretagne","departement":"Finistère","departementCode":"29","adresse":{"street":"5 rue Karreg-An-Tan","postalCode":"29190","city":"Gouézec","country":"France"},"contacts":{"email":"contact1@mairiegouezec.fr","telephone":"0298733006"},"horaires":"Le Lundi : de 08h30 à 12h00\nDu Mardi au Mercredi : de 13h30 à 17h00\nLe Jeudi : de 08h30 à 12h00\nLe Vendredi : de 13h30 à 17h00","latitude":48.169514,"longitude":-3.972661,"website":"","hasWebsite":false,"hasHoraires":true,"url":"https://lannuaire.service-public.gouv.fr/bretagne/finistere/1d70deed-9bba-46b1-a16a-4b77c111f6a4"}
{"nom":"Goulien","nomNormalise":"goulien","typeCollectivite":"Commune","region":"Bretagne","departement":"Finistère","departementCode":"29","adresse":{"street":"2 rue de la Mairie","postalCode":"29770","city":"Goulien","country":"France"},"contacts":{"email":"mairie@goulien.fr","telephone":"0298700604"},"horaires":"Du Lundi au Mardi : de 09h00 à 12h00 de 14h00 à 16h30\nLe Mercredi : de 09h00 à 12h00\nDu Jeudi au Vendredi : de 09h00 à 12h00 de 14h00 à 16h30","latitude":48.05561,"longitude":-4.591714,"website":"https://goulien.fr/","hasWebsite":true,"hasHoraires":true,"url":"https://lannuaire.service-public.gouv.fr/bretagne/finistere/f1f3d843-afad-4d8a-813a-e8e74163d176"}
{"nom":"Goulven","nomNormalise":"goulven","typeCollectivite":"Commune","region":"Bretagne","departement":"Finistère","departementCode":"29","adresse":{"street":"1 bis place de la Mairie","postalCode":"29890","city":"Goulven","country":"France"},"contacts":{"email":"mairie-goulven@orange.fr","telephone":"0298834069"},"horaires":"Du Lundi au Mardi : de 13h30 à 16h30\nDu Jeudi au Vendredi : de 13h30 à 16h30","latitude":48.628223,"longitude":-4.301014,"website":"https://mairie-goulven.fr/","hasWebsite":true,"hasHoraires":true,"url":"https://lannuaire.service-public.gouv.fr/bretagne/finistere/25df6dd5-92bc-4863-8e12-67daad38bc5b"}
{"nom":"Gourlizon","nomNormalise":"gourlizon","typeCollectivite":"Commune","region":"Bretagne","departement":"Finistère","departementCode":"29","adresse":{"street":"12 rue de la Mairie","postalCode":"29710","city":"Gourlizon","country":"France"},"contacts":{"email":"mairie@gourlizon.bzh","telephone":"0298910892"},"horaires":"Du Lundi au Vendredi : de 09h00 à 12h00 de 13h30 à 16h30","latitude":48.020416,"longitude":-4.266809,"website":"https://www.gourlizon.bzh/","hasWebsite":true,"hasHoraires":true,"url":"https://lannuaire.service-public.gouv.fr/bretagne/finistere/f958ff87-0a1d-4d1d-b637-abe986d1b397"}
{"nom":"Guengat","nomNormalise":"guengat","typeCollectivite":"Commune","region":"Bretagne","departement":"Finistère","departementCode":"29","adresse":{"street":"25 rue de la Mairie","postalCode":"29180","city":"Guengat","country":"France"},"contacts":{"email":"mairie@guengat.bzh","telephone":"0298910616"},"horaires":"Du Lundi au Vendredi : de 08h30 à 12h00 de 13h30 à 17h00\nLe Samedi : de 09h00 à 12h00\n\nAccueil fermé le 1er samedi du mois.","latitude":48.020416,"longitude":-4.266809,"website":"https://www.guengat.fr/","hasWebsite":true,"hasHoraires":true,"url":"https://lannuaire.service-public.gouv.fr/bretagne/finistere/346bed0a-5ff4-4651-a9cd-f95046818cd4"}
{"nom":"Guerlesquin","nomNormalise":"guerlesquin","typeCollectivite":"Commune","region":"Bretagne","departement":"Finistère","departementCode":"29","adresse":{"street":"45 rue du Docteur Quéré","postalCode":"29650","city":"Guerlesquin","country":"France"},"contacts":{"email":"mairie@guerlesquin.bzh","telephone":"0298728179"},"horaires":"Du Lundi au Mercredi : de 08h30 à 12h00 de 13h30 à 18h00\nLe Jeudi : de 08h30 à 12h00\nLe Vendredi : de 08h30 à 12h00 de 13h30 à 18h00\nLe Samedi : de 09h00 à 12h00","latitude":48.517857,"longitude":-3.587447,"website":"https://guerlesquin.bzh/","hasWebsite":true,"hasHoraires":true,"url":"https://lannuaire.service-public.gouv.fr/bretagne/finistere/4615f99d-9edc-4250-94fe-766dfc408825"}
{"nom":"Guiclan","nomNormalise":"guiclan","typeCollectivite":"Commune","region":"Bretagne","departement":"Finistère","departementCode":"29","adresse":{"street":"Place de l'Église","postalCode":"29410","city":"Guiclan","country":"France"},"contacts":{"email":"mairie@guiclan.bzh","telephone":"0298796205"},"horaires":"Le Lundi : de 09h00 à 12h00 de 13h30 à 17h00\nLe Mardi : de 09h00 à 12h00\nDu Mercredi au Jeudi : de 09h00 à 12h00 de 13h30 à 17h00\nLe Vendredi : de 09h00 à 12h00 de 13h30 à 16h30\nLe Samedi : de 09h00 à 12h00","latitude":48.5501,"longitude":-3.96201,"website":"https://www.guiclan.fr/","hasWebsite":true,"hasHoraires":true,"url":"https://lannuaire.service-public.gouv.fr/bretagne/finistere/3e98c35d-0dce-44d0-9511-77b29088759c"}
{"nom":"Guilers","nomNormalise":"guilers","typeCollectivite":"Commune","region":"Bretagne","departement":"Finistère","departementCode":"29","adresse":{"street":"16 rue Charles-de-Gaulle","postalCode":"29820","city":"Guilers","country":"France"},"contacts":{"email":"ville@mairie-guilers.fr","telephone":"0298373737"},"horaires":"Du Lundi au Vendredi : de 08h30 à 12h15 de 13h30 à 17h30\nLe Samedi : de 09h00 à 12h00","latitude":48.423645,"longitude":-4.557221,"website":"https://www.mairie-guilers.fr/","hasWebsite":true,"hasHoraires":true,"url":"https://lannuaire.service-public.gouv.fr/bretagne/finistere/ab3d621f-3954-4f46-8958-2536db68a83e"}
{"nom":"Guilligomarc'h","nomNormalise":"guilligomarch","typeCollectivite":"Commune","region":"Bretagne","departement":"Finistère","departementCode":"29","adresse":{"street":"8 place de l'Église","postalCode":"29300","city":"Guilligomarc'h","country":"France"},"contacts":{"email":"mairie@guilligomarch.com","telephone":"0298717286"},"horaires":"Du Lundi au Mardi : de 09h00 à 12h00 de 14h00 à 17h00\nDu Mercredi au Jeudi : de 09h00 à 12h00\nLe Vendredi : de 09h00 à 12h00 de 14h00 à 17h00\nLe Samedi : de 10h30 à 12h00\n\nLe Samedi, seule la permanence des élus est disponible","latitude":47.936195,"longitude":-3.4154,"website":"https://www.guilligomarch.com/","hasWebsite":true,"hasHoraires":true,"url":"https://lannuaire.service-public.gouv.fr/bretagne/finistere/34a99434-cacd-4c1e-8622-d6e70934884a"}
{"nom":"Guilvinec","nomNormalise":"guilvinec","typeCollectivite":"Commune","region":"Bretagne","departement":"Finistère","departementCode":"29","adresse":{"street":"33 rue de la Marine","postalCode":"29730","city":"Guilvinec","country":"France"},"contacts":{"email":"mairie@leguilvinec.com","telephone":"0298581021"},"horaires":"Du Lundi au Vendredi : de 09h00 à 12h00 de 13h30 à 17h00\nLe Samedi : de 10h00 à 12h00","latitude":47.794727,"longitude":-4.282399,"website":"https://www.leguilvinec.com/","hasWebsite":true,"hasHoraires":true,"url":"https://lannuaire.service-public.gouv.fr/bretagne/finistere/31c2b4b0-fe07-4668-ae8e-eb651c081719"}
{"nom":"Guimaëc","nomNormalise":"guimaec","typeCollectivite":"Commune","region":"Bretagne","departement":"Finistère","departementCode":"29","adresse":{"street":"1 Hent-Lokireg","postalCode":"29620","city":"Guimaëc","country":"France"},"contacts":{"email":"mairie@guimaec.bzh","telephone":"0298675076"},"horaires":"Du Lundi au Vendredi : de 08h30 à 12h00 de 13h30 à 17h00\nLe Samedi : de 09h00 à 12h00","latitude":48.667614,"longitude":-3.707918,"website":"https://www.guimaec.com/fr/","hasWebsite":true,"hasHoraires":true,"url":"https://lannuaire.service-public.gouv.fr/bretagne/finistere/77dcbf13-4e5c-42b4-a64a-43ce9b087031"}
{"nom":"Guimiliau","nomNormalise":"guimiliau","typeCollectivite":"Commune","region":"Bretagne","departement":"Finistère","departementCode":"29","adresse":{"street":"Place de la Mairie","postalCode":"29400","city":"Guimiliau","country":"France"},"contacts":{"email":"mairie@guimiliau.fr","telephone":"0298687506"},"horaires":"Le Lundi : de 08h30 à 12h00\nLe Mardi : de 08h30 à 12h00 de 13h30 à 17h30\nLe Mercredi : de 09h00 à 12h00\nLe Jeudi : de 08h30 à 12h00 de 13h30 à 17h30\nLe Vendredi : de 08h30 à 12h00 de 13h30 à 17h00\nLe Samedi : de 09h00 à 12h00","latitude":48.487644,"longitude":-3.998798,"website":"https://guimiliau.fr/","hasWebsite":true,"hasHoraires":true,"url":"https://lannuaire.service-public.gouv.fr/bretagne/finistere/68cae94b-d9cc-4f62-a0d0-4eef837d7a35"}
{"nom":"Guipavas","nomNormalise":"guipavas","typeCollectivite":"Commune","region":"Bretagne","departement":"Finistère","departementCode":"29","adresse":{"street":"Place Saint-Éloi","postalCode":"29490","city":"Guipavas","country":"France"},"contacts":{"email":"secretariat-general@mairie-guipavas.fr","telephone":"0298427100"},"horaires":"Du Lundi au Vendredi : de 08h30 à 12h15 de 13h30 à 17h30\nLe Samedi : de 09h00 à 12h00\n\nAccueil ouvert uniquement pour l'état civil.","latitude":48.436073,"longitude":-4.40094,"website":"https://www.guipavas.bzh/","hasWebsite":true,"hasHoraires":true,"url":"https://lannuaire.service-public.gouv.fr/bretagne/finistere/6e432c41-80d7-45f7-ae7d-b9b3b810c8d1"}
{"nom":"Guissény","nomNormalise":"guisseny","typeCollectivite":"Commune","region":"Bretagne","departement":"Finistère","departementCode":"29","adresse":{"street":"Place Porthleven-Sithney","postalCode":"29880","city":"Guissény","country":"France"},"contacts":{"email":"accueilguisseny@gmail.com","telephone":"0298256107"},"horaires":"Du Mardi au Mercredi : de 08h45 à 11h45 de 14h00 à 16h00\nLe Vendredi : de 08h45 à 11h45 de 14h00 à 16h00\nLe Samedi : de 08h45 à 11h45","latitude":48.63377,"longitude":-4.411163,"website":"https://www.guisseny.net/","hasWebsite":true,"hasHoraires":true,"url":"https://lannuaire.service-public.gouv.fr/bretagne/finistere/b0346168-aaaf-4acf-86d6-9a36b4fedb3f"}
{"nom":"Hanvec","nomNormalise":"hanvec","typeCollectivite":"Commune","region":"Bretagne","departement":"Finistère","departementCode":"29","adresse":{"street":"Place du Marché","postalCode":"29460","city":"Hanvec","country":"France"},"contacts":{"email":"accueil@mairie-hanvec.fr","telephone":"0298219343"},"horaires":"Du Lundi au Mardi : de 08h30 à 12h00\nLe Mercredi : de 08h30 à 12h00 de 13h30 à 17h00\nLe Jeudi : de 08h30 à 12h00\nLe Vendredi : de 08h30 à 12h00 de 13h30 à 17h00\nLe Samedi : de 09h00 à 12h00\n\nAccueil fermé en juillet-août.","latitude":48.327995,"longitude":-4.160992,"website":"https://www.mairie-hanvec.fr/","hasWebsite":true,"hasHoraires":true,"url":"https://lannuaire.service-public.gouv.fr/bretagne/finistere/ea69f4c5-7492-4df7-94b7-04df2b9825da"}
{"nom":"Henvic","nomNormalise":"henvic","typeCollectivite":"Commune","region":"Bretagne","departement":"Finistère","departementCode":"29","adresse":{"street":"10 rue de la Mairie","postalCode":"29670","city":"Henvic","country":"France"},"contacts":{"email":"accueil@henvic.fr","telephone":"0298628111"},"horaires":"Du Lundi au Mardi : de 09h00 à 12h00 de 13h30 à 16h30\nDu Mercredi au Jeudi : de 09h00 à 12h00\nLe Vendredi : de 09h00 à 12h00 de 13h30 à 16h30\nLe Samedi : de 09h00 à 12h00\n\nAccueil fermé le samedi en juillet-août.","latitude":48.632446,"longitude":-3.927408,"website":"http://www.henvic.fr/","hasWebsite":true,"hasHoraires":true,"url":"https://lannuaire.service-public.gouv.fr/bretagne/finistere/defd855e-93dd-40dc-b30c-5ff89d423641"}
{"nom":"Huelgoat","nomNormalise":"huelgoat","typeCollectivite":"Commune","region":"Bretagne","departement":"Finistère","departementCode":"29","adresse":{"street":"Place Alphonse-Penven","postalCode":"29690","city":"Huelgoat","country":"France"},"contacts":{"email":"huelgoat.mairie@gmail.com","telephone":"0298997155"},"horaires":"Le Lundi : de 08h30 à 12h15 de 13h15 à 17h00\nLe Mardi : de 08h30 à 12h15\nDu Mercredi au Jeudi : de 08h30 à 12h15 de 13h15 à 17h00\nLe Vendredi : de 08h30 à 12h15 de 13h15 à 16h30","latitude":48.36438,"longitude":-3.74481,"website":"https://mairie-huelgoat.fr/","hasWebsite":true,"hasHoraires":true,"url":"https://lannuaire.service-public.gouv.fr/bretagne/finistere/ac09753f-0178-40f1-a7d7-f71c09655887"}
{"nom":"Île-de-Batz","nomNormalise":"iledebatz","typeCollectivite":"Commune","region":"Bretagne","departement":"Finistère","departementCode":"29","adresse":{"street":"Pors-Kernoc","postalCode":"29253","city":"Île-de-Batz","country":"France"},"contacts":{"email":"mairie.iledebatz@orange.fr","telephone":"0298617776"},"horaires":"Du Lundi au Mardi : de 09h00 à 12h00 de 14h00 à 16h00\nDu Jeudi au Vendredi : de 09h00 à 12h00 de 14h00 à 16h00","latitude":48.74447,"longitude":-4.01087,"website":"https://www.iledebatz.com/","hasWebsite":true,"hasHoraires":true,"url":"https://lannuaire.service-public.gouv.fr/bretagne/finistere/5b1f1f62-8fa9-43db-93c8-2f609515307c"}
{"nom":"Île-de-Sein","nomNormalise":"iledesein","typeCollectivite":"Commune","region":"Bretagne","departement":"Finistère","departementCode":"29","adresse":{"street":"5 rue Saint-Guénolé","postalCode":"29990","city":"Île-de-Sein","country":"France"},"contacts":{"email":"mairie.ile.de.sein@orange.fr","telephone":"0298709035"},"horaires":"Du Lundi au Vendredi : de 09h30 à 12h00","latitude":48.03568,"longitude":-4.850726,"website":"https://www.mairieiledesein.com/","hasWebsite":true,"hasHoraires":true,"url":"https://lannuaire.service-public.gouv.fr/bretagne/finistere/a743b4e1-faae-45d4-87d6-77e614cdff5f"}
{"nom":"Île-Molène","nomNormalise":"ilemolene","typeCollectivite":"Commune","region":"Bretagne","departement":"Finistère","departementCode":"29","adresse":{"street":"2 rue de la mairie","postalCode":"29259","city":"Île-Molène","country":"France"},"contacts":{"email":"contact@mairie-ile-molene.bzh","telephone":"0298073905"},"horaires":"Le Lundi : de 08h00 à 12h00 de 13h30 à 16h30\nLe Mardi : de 08h00 à 12h00\nLe Mercredi : de 13h30 à 16h30\nLe Jeudi : de 08h00 à 12h00\nLe Vendredi : de 08h00 à 12h00 de 13h30 à 16h30\nLe Samedi : de 08h00 à 12h00","latitude":48.39841,"longitude":-4.959267,"website":"https://www.mairie-ile-molene.bzh/","hasWebsite":true,"hasHoraires":true,"url":"https://lannuaire.service-public.gouv.fr/bretagne/finistere/b05816a2-7939-4e3e-9a51-8619e5a2f0fe"}
{"nom":"Île-Tudy","nomNormalise":"iletudy","typeCollectivite":"Commune","region":"Bretagne","departement":"Finistère","departementCode":"29","adresse":{"street":"4 rue de la Mairie","postalCode":"29980","city":"Île-Tudy","country":"France"},"contacts":{"email":"mairie.iletudy@wanadoo.fr","telephone":"0298564257"},"horaires":"Du Lundi au Mardi : de 09h00 à 12h00 de 13h30 à 17h00\nLe Mercredi : de 09h00 à 12h00\nDu Jeudi au Vendredi : de 09h00 à 12h00 de 13h30 à 17h00\nLe Samedi : de 09h00 à 12h00","latitude":47.842422,"longitude":-4.167781,"website":"https://iletudy.fr/fr/","hasWebsite":true,"hasHoraires":true,"url":"https://lannuaire.service-public.gouv.fr/bretagne/finistere/2f512c01-b479-42e7-903e-8bf4e79b7554"}
{"nom":"Irvillac","nomNormalise":"irvillac","typeCollectivite":"Commune","region":"Bretagne","departement":"Finistère","departementCode":"29","adresse":{"street":"17 route de Landerneau","postalCode":"29460","city":"Irvillac","country":"France"},"contacts":{"email":"info@irvillac.fr","telephone":"0229611135"},"horaires":"Du Lundi au Mardi : de 09h00 à 12h00 de 15h00 à 17h00\nDu Mercredi au Jeudi : de 09h00 à 12h00\nLe Vendredi : de 09h00 à 12h00 de 15h00 à 17h00\nLe Samedi : de 09h00 à 12h00\n\nSeulement le premier samedi du mois","latitude":48.37124,"longitude":-4.212905,"website":"http://www.irvillac.fr/","hasWebsite":true,"hasHoraires":true,"url":"https://lannuaire.service-public.gouv.fr/bretagne/finistere/7494fb2c-ec2e-4122-aec1-084485f4917f"}
{"nom":"Kergloff","nomNormalise":"kergloff","typeCollectivite":"Commune","region":"Bretagne","departement":"Finistère","departementCode":"29","adresse":{"street":"2 place Saint-Trémeur","postalCode":"29270","city":"Kergloff","country":"France"},"contacts":{"email":"mairie@kergloff.fr","telephone":"0298934043"},"horaires":"Du Lundi au Mardi : de 13h30 à 16h30\nDu Mercredi au Vendredi : de 09h00 à 12h00","latitude":48.274426,"longitude":-3.623411,"website":"https://www.kergloff.fr/accueil_kergloff","hasWebsite":true,"hasHoraires":true,"url":"https://lannuaire.service-public.gouv.fr/bretagne/finistere/7ff39e7f-b692-443f-b10b-12b2170aecef"}
{"nom":"Kerlaz","nomNormalise":"kerlaz","typeCollectivite":"Commune","region":"Bretagne","departement":"Finistère","departementCode":"29","adresse":{"street":"Place du Presbytère","postalCode":"29100","city":"Kerlaz","country":"France"},"contacts":{"email":"contact@kerlaz.bzh","telephone":"0298921904"},"horaires":"Du Lundi au Samedi : de 09h00 à 12h00\nSamedi semaines paires","latitude":48.092133,"longitude":-4.2758627,"website":"https://kerlaz.bzh/","hasWebsite":true,"hasHoraires":true,"url":"https://lannuaire.service-public.gouv.fr/bretagne/finistere/efe1b4ec-6924-415f-9e12-7b9f0ff431ce"}
{"nom":"Kerlouan","nomNormalise":"kerlouan","typeCollectivite":"Commune","region":"Bretagne","departement":"Finistère","departementCode":"29","adresse":{"street":"Place de la Mairie","postalCode":"29890","city":"Kerlouan","country":"France"},"contacts":{"email":"mairie@kerlouan.bzh","telephone":"0298839313"},"horaires":"Le Lundi : de 08h15 à 12h15 de 14h00 à 17h00\nDu Mardi au Mercredi : de 08h15 à 12h15\nLe Jeudi : de 08h15 à 12h15 de 14h00 à 17h00\nLe Vendredi : de 08h15 à 12h15\nLe Samedi : de 10h00 à 12h00\n\nSemaines paires.","latitude":48.644646,"longitude":-4.367616,"website":"https://www.kerlouan.fr/","hasWebsite":true,"hasHoraires":true,"url":"https://lannuaire.service-public.gouv.fr/bretagne/finistere/161c0765-3d68-44dc-87db-498b26565b8a"}
{"nom":"Kernilis","nomNormalise":"kernilis","typeCollectivite":"Commune","region":"Bretagne","departement":"Finistère","departementCode":"29","adresse":{"street":"1 rue de l'If","postalCode":"29260","city":"Kernilis","country":"France"},"contacts":{"email":"mairie@kernilis.bzh","telephone":"0298255243"},"horaires":"Le Lundi : de 08h30 à 12h30 de 13h30 à 17h30\nLe Mardi : de 08h30 à 12h30\nLe Mercredi : de 09h00 à 12h00 de 13h30 à 16h00\nDu Jeudi au Vendredi : de 08h30 à 12h30 de 13h30 à 17h30\nLe Samedi : de 10h00 à 12h00\n\nPermanence des élus.","latitude":48.571156,"longitude":-4.419709,"website":"https://mairie-kernilis.bzh/","hasWebsite":true,"hasHoraires":true,"url":"https://lannuaire.service-public.gouv.fr/bretagne/finistere/7112e900-cba5-4aac-97a6-393b2dd52c12"}
{"nom":"Kernouës","nomNormalise":"kernoues","typeCollectivite":"Commune","region":"Bretagne","departement":"Finistère","departementCode":"29","adresse":{"street":"1 Pont Mein","postalCode":"29260","city":"Kernouës","country":"France"},"contacts":{"email":"accueil.mairiekernoues@orange.fr","telephone":"0298830504"},"horaires":"Du Lundi au Mardi : de 09h15 à 12h15\nDu Jeudi au Vendredi : de 09h15 à 12h15\nSur rendez-vous les après-midis et le mercredi","latitude":48.591484,"longitude":-4.346458,"website":"https://www.kernoues.com/","hasWebsite":true,"hasHoraires":true,"url":"https://lannuaire.service-public.gouv.fr/bretagne/finistere/2d22b8e1-8ad3-46ec-83e0-a7a8de528994"}
{"nom":"Kersaint-Plabennec","nomNormalise":"kersaintplabennec","typeCollectivite":"Commune","region":"Bretagne","departement":"Finistère","departementCode":"29","adresse":{"street":"3 place de la Mairie","postalCode":"29860","city":"Kersaint-Plabennec","country":"France"},"contacts":{"email":"mairie@kersaint-plabennec.bzh","telephone":"0298401003"},"horaires":"Du Lundi au Mardi : de 08h30 à 12h00 de 13h30 à 17h30\nLe Mercredi : de 08h30 à 12h00\nDu Jeudi au Vendredi : de 08h30 à 12h00 de 13h30 à 17h30\nLe Samedi : de 10h00 à 12h00","latitude":48.47213,"longitude":-4.373544,"website":"https://www.kersaint-plabennec.fr/","hasWebsite":true,"hasHoraires":true,"url":"https://lannuaire.service-public.gouv.fr/bretagne/finistere/8fc658d8-2276-4209-8a89-60361d6e0333"}
{"nom":"L'Hôpital-Camfrout","nomNormalise":"lhopitalcamfrout","typeCollectivite":"Commune","region":"Bretagne","departement":"Finistère","departementCode":"29","adresse":{"street":"7 rue de la Mairie","postalCode":"29460","city":"L'Hôpital-Camfrout","country":"France"},"contacts":{"email":"accueil@lhopital-camfrout.fr","telephone":"0298200143"},"horaires":"Le Lundi : de 08h30 à 12h00\nLe Mardi : de 08h30 à 12h00 de 13h30 à 17h00\nLe Mercredi : de 08h30 à 12h00\nLe Jeudi : de 08h30 à 12h00 de 13h30 à 17h00\nLe Vendredi : de 08h30 à 12h00\nLe Samedi : de 09h30 à 12h00\n\nAccueil ouvert les samedis paires.","latitude":48.3278,"longitude":-4.241778,"website":"https://www.lhopital-camfrout.fr/","hasWebsite":true,"hasHoraires":true,"url":"https://lannuaire.service-public.gouv.fr/bretagne/finistere/0262d85f-2b47-456d-9d13-2cad5c55ad48"}
{"nom":"La Feuillée","nomNormalise":"lafeuillee","typeCollectivite":"Commune","region":"Bretagne","departement":"Finistère","departementCode":"29","adresse":{"street":"20 Hent Menez Are","postalCode":"29690","city":"La Feuillée","country":"France"},"contacts":{"email":"mairielafeuillee@wanadoo.fr","telephone":"0298996152"},"horaires":"Du Lundi au Vendredi : de 09h30 à 12h30\nLe Samedi : de 10h00 à 12h00\n\nLe samedi selon date accueil ouvert uniquement pour la permanence des élus.","latitude":48.3907,"longitude":-3.852455,"website":"https://commune-de-la-feuillee.webnode.fr/","hasWebsite":true,"hasHoraires":true,"url":"https://lannuaire.service-public.gouv.fr/bretagne/finistere/cfe22f87-76db-4128-a489-54ea38ea5e33"}
{"nom":"La Forest-Landerneau","nomNormalise":"laforestlanderneau","typeCollectivite":"Commune","region":"Bretagne","departement":"Finistère","departementCode":"29","adresse":{"street":"1 place de la Mairie","postalCode":"29800","city":"La Forest-Landerneau","country":"France"},"contacts":{"email":"mairie@la-forest-landerneau.fr","telephone":"0298202143"},"horaires":"Du Lundi au Mercredi : de 08h30 à 12h00 de 13h30 à 17h30\nLe Jeudi : de 14h30 à 18h30\nLe Vendredi : de 08h30 à 12h00 de 13h30 à 17h00\nLe Samedi : de 09h00 à 12h00","latitude":48.427658,"longitude":-4.315004,"website":"https://laforest.bzh/","hasWebsite":true,"hasHoraires":true,"url":"https://lannuaire.service-public.gouv.fr/bretagne/finistere/29493e50-870f-460c-a915-9ae5eb347437"}
{"nom":"La Forêt-Fouesnant","nomNormalise":"laforetfouesnant","typeCollectivite":"Commune","region":"Bretagne","departement":"Finistère","departementCode":"29","adresse":{"street":"18 rue Charles-de-Gaulle","postalCode":"29940","city":"La Forêt-Fouesnant","country":"France"},"contacts":{"email":"accueil@foret-fouesnant.bzh","telephone":"0298569655"},"horaires":"Du Lundi au Mercredi : de 09h00 à 12h00 de 13h30 à 17h00\nLe Jeudi : de 09h00 à 12h00\n\nPermanence téléphonique de 13h30 à 17h\nLe Vendredi : de 09h00 à 12h00 de 13h30 à 17h00\nLe Samedi : de 09h00 à 12h00\n\n1er samedi du mois (Permanence Etat-civil)","latitude":47.907963,"longitude":-3.979245,"website":"https://www.foret-fouesnant.bzh/","hasWebsite":true,"hasHoraires":true,"url":"https://lannuaire.service-public.gouv.fr/bretagne/finistere/b52d6e70-d425-45a8-af65-4e8ad5392831"}
{"nom":"La Martyre","nomNormalise":"lamartyre","typeCollectivite":"Commune","region":"Bretagne","departement":"Finistère","departementCode":"29","adresse":{"street":"4 rue du Verger","postalCode":"29800","city":"La Martyre","country":"France"},"contacts":{"email":"mairie@lamartyre.bzh","telephone":"0298251319"},"horaires":"Du Lundi au Mercredi : de 09h00 à 12h00 de 13h30 à 17h30\nLe Jeudi : de 09h00 à 12h00\nLe Vendredi : de 09h00 à 12h00 de 13h30 à 17h30","latitude":48.44843,"longitude":-4.158988,"website":"https://lamartyre.fr/","hasWebsite":true,"hasHoraires":true,"url":"https://lannuaire.service-public.gouv.fr/bretagne/finistere/060472ad-7539-4d2f-a6de-ebfed4c10a1a"}
{"nom":"Lampaul-Guimiliau","nomNormalise":"lampaulguimiliau","typeCollectivite":"Commune","region":"Bretagne","departement":"Finistère","departementCode":"29","adresse":{"street":"6 place du Villers","postalCode":"29400","city":"Lampaul-Guimiliau","country":"France"},"contacts":{"email":"accueil@mairie-lampaul-guimiliau.fr","telephone":"0298687667"},"horaires":"Le Lundi : de 08h30 à 12h00 de 13h30 à 17h30\nLe Mardi : de 08h30 à 12h00\nDu Mercredi au Vendredi : de 08h30 à 12h00 de 13h30 à 17h30\nLe Samedi : de 09h00 à 12h00","latitude":48.492867,"longitude":-4.041279,"website":"https://www.mairie-lampaul-guimiliau.fr/","hasWebsite":true,"hasHoraires":true,"url":"https://lannuaire.service-public.gouv.fr/bretagne/finistere/b73fe371-3b38-45ff-9270-71ef715ffb01"}
{"nom":"Lampaul-Plouarzel","nomNormalise":"lampaulplouarzel","typeCollectivite":"Commune","region":"Bretagne","departement":"Finistère","departementCode":"29","adresse":{"street":"7 rue de la Mairie","postalCode":"29810","city":"Lampaul-Plouarzel","country":"France"},"contacts":{"email":"mairie@lampaul-plouarzel.fr","telephone":"0298840113"},"horaires":"Le Lundi : de 08h30 à 12h00 de 13h30 à 17h30\nLe Mardi : de 08h30 à 12h00\nDu Mercredi au Vendredi : de 08h30 à 12h00 de 13h30 à 17h30","latitude":48.447937,"longitude":-4.761507,"website":"https://lampaul-plouarzel.fr/","hasWebsite":true,"hasHoraires":true,"url":"https://lannuaire.service-public.gouv.fr/bretagne/finistere/7edf6ca7-8ae4-4c7e-9cb7-0f0f3fc19db7"}
{"nom":"Lampaul-Ploudalmézeau","nomNormalise":"lampaulploudalmezeau","typeCollectivite":"Commune","region":"Bretagne","departement":"Finistère","departementCode":"29","adresse":{"street":"1 route de la Plage","postalCode":"29830","city":"Lampaul-Ploudalmézeau","country":"France"},"contacts":{"email":"mairie@lampaul-ploudalmezeau.bzh","telephone":"0298481128"},"horaires":"Le Lundi : de 09h00 à 12h00 de 13h30 à 16h30\nDu Mardi au Mercredi : de 09h00 à 12h00\nDu Jeudi au Vendredi : de 09h00 à 12h00 de 13h30 à 16h30","latitude":48.56513,"longitude":-4.660294,"website":"https://lampaul-ploudalmezeau.bzh/","hasWebsite":true,"hasHoraires":true,"url":"https://lannuaire.service-public.gouv.fr/bretagne/finistere/7db6c938-5035-4339-afa9-47b76909a050"}
{"nom":"Lanarvily","nomNormalise":"lanarvily","typeCollectivite":"Commune","region":"Bretagne","departement":"Finistère","departementCode":"29","adresse":{"street":"9 Le Bourg","postalCode":"29260","city":"Lanarvily","country":"France"},"contacts":{"email":"mairie@lanarvily.bzh","telephone":"0298255041"},"horaires":"Le Mardi : de 09h00 à 12h30\nLe Mercredi : de 09h00 à 12h30 de 13h30 à 17h00\nDu Jeudi au Vendredi : de 13h30 à 17h00","latitude":48.551956,"longitude":-4.386812,"website":"","hasWebsite":false,"hasHoraires":true,"url":"https://lannuaire.service-public.gouv.fr/bretagne/finistere/af8b477a-160d-43d9-a8d7-d9c25e3d13ef"}
{"nom":"Landéda","nomNormalise":"landeda","typeCollectivite":"Commune","region":"Bretagne","departement":"Finistère","departementCode":"29","adresse":{"street":"61 Ti-Korn","postalCode":"29870","city":"Landéda","country":"France"},"contacts":{"email":"accueil@landeda.fr","telephone":"0298049306"},"horaires":"Du Lundi au Mercredi : de 08h30 à 12h00 de 13h30 à 17h30\nLe Jeudi : de 08h30 à 12h00\nLe Vendredi : de 08h30 à 12h00 de 13h30 à 17h00","latitude":48.58694,"longitude":-4.573725,"website":"https://www.landeda.fr/","hasWebsite":true,"hasHoraires":true,"url":"https://lannuaire.service-public.gouv.fr/bretagne/finistere/e88b0e9a-edf2-4020-a08c-2435010ea427"}
{"nom":"Landeleau","nomNormalise":"landeleau","typeCollectivite":"Commune","region":"Bretagne","departement":"Finistère","departementCode":"29","adresse":{"street":"3 place de la Mairie","postalCode":"29530","city":"Landeleau","country":"France"},"contacts":{"email":"mairie@landeleau.bzh","telephone":"0298938216"},"horaires":"Du Lundi au Vendredi : de 09h00 à 12h00 de 13h30 à 17h00","latitude":48.227303,"longitude":-3.729406,"website":"https://landeleau.bzh/","hasWebsite":true,"hasHoraires":true,"url":"https://lannuaire.service-public.gouv.fr/bretagne/finistere/ccceaedc-cb8e-4695-a7e2-58cb2e310c83"}
{"nom":"Landerneau","nomNormalise":"landerneau","typeCollectivite":"Commune","region":"Bretagne","departement":"Finistère","departementCode":"29","adresse":{"street":"2 rue de la Tour-d'Auvergne","postalCode":"29800","city":"Landerneau","country":"France"},"contacts":{"email":"ti-ker-landerne@mairie-landerneau.fr","telephone":"0298854300"},"horaires":"Du Lundi au Vendredi : de 09h00 à 12h00 de 13h30 à 17h00\nLe Samedi : de 09h00 à 12h00","latitude":48.450745,"longitude":-4.248582,"website":"https://www.landerneau.bzh/","hasWebsite":true,"hasHoraires":true,"url":"https://lannuaire.service-public.gouv.fr/bretagne/finistere/9aa4d94d-a65b-4234-b791-3e16463c3c2e"}
{"nom":"Landévennec","nomNormalise":"landevennec","typeCollectivite":"Commune","region":"Bretagne","departement":"Finistère","departementCode":"29","adresse":{"street":"Place de la Mairie","postalCode":"29560","city":"Landévennec","country":"France"},"contacts":{"email":"mairie.landevennec@wanadoo.fr","telephone":"0298277265"},"horaires":"Du Lundi au Vendredi : de 09h00 à 12h00 de 13h30 à 17h00\nDu 1er octobre au 30 avril","latitude":48.292557,"longitude":-4.267777,"website":"https://www.landevennec.fr/","hasWebsite":true,"hasHoraires":true,"url":"https://lannuaire.service-public.gouv.fr/bretagne/finistere/45f20845-f5b4-4197-b025-0403e31fb406"}
{"nom":"Landivisiau","nomNormalise":"landivisiau","typeCollectivite":"Commune","region":"Bretagne","departement":"Finistère","departementCode":"29","adresse":{"street":"19 rue Georges-Clemenceau","postalCode":"29400","city":"Landivisiau","country":"France"},"contacts":{"email":"landivisiau@landivisiau.fr","telephone":"0298680030"},"horaires":"Du Lundi au Vendredi : de 08h30 à 12h00 de 13h30 à 17h30\nLe Samedi : de 09h00 à 12h00\n\nAccueil ouvert uniquement pour l'état civil","latitude":48.50919,"longitude":-4.068838,"website":"https://landivisiau.fr/","hasWebsite":true,"hasHoraires":true,"url":"https://lannuaire.service-public.gouv.fr/bretagne/finistere/7d03e5ed-7da7-4fdd-998f-5f7ad8de867e"}
{"nom":"Landrévarzec","nomNormalise":"landrevarzec","typeCollectivite":"Commune","region":"Bretagne","departement":"Finistère","departementCode":"29","adresse":{"street":"1 place Saint-Guénolé","postalCode":"29510","city":"Landrévarzec","country":"France"},"contacts":{"email":"mairie@landrevarzec.fr","telephone":"0298579044"},"horaires":"Du Lundi au Mercredi : de 09h00 à 12h00 de 13h30 à 17h00\nLe Jeudi : de 09h00 à 12h00\nLe Vendredi : de 09h00 à 12h00 de 13h30 à 17h00\nLe Samedi : de 09h00 à 12h00\n\nLe Maire et les adjoints reçoivent sur rendez-vous.","latitude":48.09118,"longitude":-4.058156,"website":"https://www.landrevarzec.bzh/","hasWebsite":true,"hasHoraires":true,"url":"https://lannuaire.service-public.gouv.fr/bretagne/finistere/9a1d10c6-b4af-47f3-9e6b-e4020a45f1ff"}
{"nom":"Landudal","nomNormalise":"landudal","typeCollectivite":"Commune","region":"Bretagne","departement":"Finistère","departementCode":"29","adresse":{"street":"Place Jacques le Page","postalCode":"29510","city":"Landudal","country":"France"},"contacts":{"email":"mairie@landudal.fr","telephone":"0298574017"},"horaires":"Du Lundi au Jeudi : de 09h00 à 12h30\nLe Vendredi : de 09h00 à 12h30 de 14h00 à 17h00\nLe Samedi : de 09h00 à 12h00","latitude":48.06378,"longitude":-3.979032,"website":"https://landudal.fr/","hasWebsite":true,"hasHoraires":true,"url":"https://lannuaire.service-public.gouv.fr/bretagne/finistere/9169df79-4c67-43f0-9eee-78d69f033cae"}
{"nom":"Landudec","nomNormalise":"landudec","typeCollectivite":"Commune","region":"Bretagne","departement":"Finistère","departementCode":"29","adresse":{"street":"Place de la Mairie","postalCode":"29710","city":"Landudec","country":"France"},"contacts":{"email":"mairie@landudec.bzh","telephone":"0298915209"},"horaires":"Du Lundi au Vendredi : de 09h00 à 12h15","latitude":47.99962,"longitude":-4.33728,"website":"https://www.landudec.bzh/","hasWebsite":true,"hasHoraires":true,"url":"https://lannuaire.service-public.gouv.fr/bretagne/finistere/15132272-2d6d-41b6-a13a-f898cbc954ad"}
{"nom":"Landunvez","nomNormalise":"landunvez","typeCollectivite":"Commune","region":"Bretagne","departement":"Finistère","departementCode":"29","adresse":{"street":"1 place de l'Église","postalCode":"29840","city":"Landunvez","country":"France"},"contacts":{"email":"accueil@landunvez.fr","telephone":"0298899102"},"horaires":"Du Lundi au Mercredi : de 09h00 à 12h00 de 14h00 à 17h00\nLe Vendredi : de 09h00 à 12h00 de 14h00 à 16h00\nLe Samedi : de 10h00 à 12h00\n\nOuvert les samedis en semaine paire.","latitude":48.532726,"longitude":-4.726489,"website":"https://landunvez.fr/","hasWebsite":true,"hasHoraires":true,"url":"https://lannuaire.service-public.gouv.fr/bretagne/finistere/11ba1ca8-8547-4340-a1f8-3b13e067376e"}
{"nom":"Langolen","nomNormalise":"langolen","typeCollectivite":"Commune","region":"Bretagne","departement":"Finistère","departementCode":"29","adresse":{"street":"3 place Marie-Littré","postalCode":"29510","city":"Langolen","country":"France"},"contacts":{"email":"mairie@langolen.bzh","telephone":"0298591025"},"horaires":"Du Lundi au Mardi : de 09h00 à 12h00 de 13h30 à 17h30\nDu Mercredi au Jeudi : de 09h00 à 12h00\nLe Vendredi : de 09h00 à 12h00 de 13h30 à 17h00\nLe Samedi : de 09h00 à 12h00","latitude":48.0668,"longitude":-3.912353,"website":"https://langolen.bzh/","hasWebsite":true,"hasHoraires":true,"url":"https://lannuaire.service-public.gouv.fr/bretagne/finistere/63d24e35-f64b-4656-a59b-b4d7d7336e3c"}
{"nom":"Lanhouarneau","nomNormalise":"lanhouarneau","typeCollectivite":"Commune","region":"Bretagne","departement":"Finistère","departementCode":"29","adresse":{"street":"1 place de la Mairie","postalCode":"29430","city":"Lanhouarneau","country":"France"},"contacts":{"email":"accueil@lanhouarneau.fr","telephone":"0298614887"},"horaires":"Du Lundi au Vendredi : de 08h30 à 12h00 de 14h00 à 16h30\nLe Samedi : de 08h30 à 12h00\nLe Maire reçoit sur rendez-vous : le mardi et le jeudi après-midi","latitude":48.57983,"longitude":-4.210828,"website":"https://lanhouarneau.fr/","hasWebsite":true,"hasHoraires":true,"url":"https://lannuaire.service-public.gouv.fr/bretagne/finistere/323825f4-f3a8-41ff-bd34-abc12312816d"}
{"nom":"Lanildut","nomNormalise":"lanildut","typeCollectivite":"Commune","region":"Bretagne","departement":"Finistère","departementCode":"29","adresse":{"street":"35 route de l'Aber-Ildut","postalCode":"29840","city":"Lanildut","country":"France"},"contacts":{"email":"mairie@lanildut.bzh","telephone":"0298043005"},"horaires":"Le Lundi : de 08h45 à 12h00 de 14h00 à 17h00\nLe Mardi : de 08h45 à 12h00\nDu Mercredi au Vendredi : de 08h45 à 12h00 de 14h00 à 17h00","latitude":48.474243,"longitude":-4.751145,"website":"https://lanildut.fr/","hasWebsite":true,"hasHoraires":true,"url":"https://lannuaire.service-public.gouv.fr/bretagne/finistere/06a69f4d-9a20-4f75-b389-3533f9eee17a"}
{"nom":"Lanmeur","nomNormalise":"lanmeur","typeCollectivite":"Commune","region":"Bretagne","departement":"Finistère","departementCode":"29","adresse":{"street":"3 place de la Mairie","postalCode":"29620","city":"Lanmeur","country":"France"},"contacts":{"email":"mairie@lanmeur.fr","telephone":"0298675126"},"horaires":"Du Lundi au Mercredi : de 08h30 à 12h00 de 13h30 à 17h30\nLe Jeudi : de 08h30 à 12h00\nLe Vendredi : de 08h30 à 12h00 de 13h30 à 17h30\nLe Samedi : de 08h30 à 12h00","latitude":48.646954,"longitude":-3.715493,"website":"https://www.lanmeur.fr/","hasWebsite":true,"hasHoraires":true,"url":"https://lannuaire.service-public.gouv.fr/bretagne/finistere/ee8dd4ae-b891-4e94-9c44-cc05c851b72b"}
{"nom":"Lannéanou","nomNormalise":"lanneanou","typeCollectivite":"Commune","region":"Bretagne","departement":"Finistère","departementCode":"29","adresse":{"street":"3 rue des Hortensias","postalCode":"29640","city":"Lannéanou","country":"France"},"contacts":{"email":"mairie@lanneanou.fr","telephone":"0298781207"},"horaires":"Du Lundi au Mercredi : de 09h00 à 12h00 de 14h00 à 17h00\nLe Jeudi : de 09h00 à 12h00\nLe Vendredi : de 09h00 à 12h00 de 14h00 à 17h00","latitude":48.489243,"longitude":-3.67192,"website":"https://www.lanneanou.fr/","hasWebsite":true,"hasHoraires":true,"url":"https://lannuaire.service-public.gouv.fr/bretagne/finistere/3cdbe291-d35f-4ff3-b3a6-6ac97bb49bcb"}
{"nom":"Lannédern","nomNormalise":"lannedern","typeCollectivite":"Commune","region":"Bretagne","departement":"Finistère","departementCode":"29","adresse":{"street":"11 rue René-Caro","postalCode":"29190","city":"Lannédern","country":"France"},"contacts":{"email":"mairie.lannedern@wanadoo.fr","telephone":"0298264056"},"horaires":"Du Lundi au Vendredi : de 09h00 à 12h30","latitude":48.30139,"longitude":-3.89615,"website":"http://www.lannedern.bzh/","hasWebsite":true,"hasHoraires":true,"url":"https://lannuaire.service-public.gouv.fr/bretagne/finistere/bcd92a78-1417-4ab3-bf21-e700253fb055"}
{"nom":"Lanneuffret","nomNormalise":"lanneuffret","typeCollectivite":"Commune","region":"Bretagne","departement":"Finistère","departementCode":"29","adresse":{"street":"1 place Saint-Guévroc","postalCode":"29400","city":"Lanneuffret","country":"France"},"contacts":{"email":"lanneuffret-mairie@orange.fr","telephone":"0298208407"},"horaires":"Du Lundi au Mardi : de 08h45 à 12h30 de 13h00 à 16h15\nLe Jeudi : de 09h00 à 12h30","latitude":48.49765,"longitude":-4.203208,"website":"","hasWebsite":false,"hasHoraires":true,"url":"https://lannuaire.service-public.gouv.fr/bretagne/finistere/7a0ff1cc-8e38-4f20-97f1-b29e520cd4b7"}
{"nom":"Lannilis","nomNormalise":"lannilis","typeCollectivite":"Commune","region":"Bretagne","departement":"Finistère","departementCode":"29","adresse":{"street":"19 rue de la Mairie","postalCode":"29870","city":"Lannilis","country":"France"},"contacts":{"email":"mairie@lannilis.bzh","telephone":"0298040011"},"horaires":"Du Lundi au Mercredi : de 08h30 à 12h00 de 13h30 à 17h30\nLe Jeudi : de 08h30 à 12h00\nLe Vendredi : de 08h30 à 12h00 de 13h30 à 16h30\nLe Samedi : de 09h00 à 12h00\n\nUniquement accueil et état-civil, Fermé en juillet/août","latitude":48.570103,"longitude":-4.522117,"website":"https://lannilis.bzh/","hasWebsite":true,"hasHoraires":true,"url":"https://lannuaire.service-public.gouv.fr/bretagne/finistere/90721921-c881-4570-96cc-4dbcc8ee014f"}
{"nom":"Lanrivoaré","nomNormalise":"lanrivoare","typeCollectivite":"Commune","region":"Bretagne","departement":"Finistère","departementCode":"29","adresse":{"street":"1 place de l'Église","postalCode":"29290","city":"Lanrivoaré","country":"France"},"contacts":{"email":"info@lanrivoare.fr","telephone":"0298842475"},"horaires":"Du Lundi au Mardi : de 09h00 à 12h00 de 13h30 à 17h00\nLe Mercredi : de 09h00 à 12h00\nLe Jeudi : de 09h00 à 12h00 de 13h30 à 17h00\nLe Vendredi : de 13h30 à 17h00\nLe Samedi : de 09h00 à 12h00\n\nAccueil ouvert uniquement le 1er et le 3e samedi du mois. Fermeture estivale le samedi en juillet-août","latitude":48.47444,"longitude":-4.63849,"website":"https://lanrivoare.fr/","hasWebsite":true,"hasHoraires":true,"url":"https://lannuaire.service-public.gouv.fr/bretagne/finistere/c809ff43-0ed2-4581-8a99-e69428bac9b0"}
{"nom":"Lanvéoc","nomNormalise":"lanveoc","typeCollectivite":"Commune","region":"Bretagne","departement":"Finistère","departementCode":"29","adresse":{"street":"4 rue de Tal-Ar-Groas","postalCode":"29160","city":"Lanvéoc","country":"France"},"contacts":{"email":"mairie@lanveoc.com","telephone":"0298275021"},"horaires":"Du Lundi au Mardi : de 09h00 à 12h00 de 14h00 à 18h00\nDu Mercredi au Jeudi : de 14h00 à 18h00\n\nFermé au Public le matin.\nLe Vendredi : de 09h00 à 12h00 de 14h00 à 18h00","latitude":48.286194,"longitude":-4.461278,"website":"https://www.lanveoc.com/","hasWebsite":true,"hasHoraires":true,"url":"https://lannuaire.service-public.gouv.fr/bretagne/finistere/32bfb9a8-3d9e-407e-9501-21eb7bca8847"}
{"nom":"La Roche-Maurice","nomNormalise":"larochemaurice","typeCollectivite":"Commune","region":"Bretagne","departement":"Finistère","departementCode":"29","adresse":{"street":"4 rue de la Mairie","postalCode":"29800","city":"La Roche-Maurice","country":"France"},"contacts":{"email":"mairie@larochemaurice.fr","telephone":"0298204357"},"horaires":"Le Lundi : de 08h30 à 12h00 de 13h30 à 18h00\nLe Mardi : de 08h30 à 12h00\nLe Mercredi : de 09h00 à 12h00 de 13h30 à 17h00\nLe Jeudi : de 08h30 à 12h00\nLe Vendredi : de 08h30 à 12h00 de 13h30 à 17h00\nLe Samedi : de 09h00 à 12h00","latitude":48.472363,"longitude":-4.20336,"website":"https://larochemaurice.fr/","hasWebsite":true,"hasHoraires":true,"url":"https://lannuaire.service-public.gouv.fr/bretagne/finistere/56b0c539-30b9-412f-a046-2453458de070"}
{"nom":"Laz","nomNormalise":"laz","typeCollectivite":"Commune","region":"Bretagne","departement":"Finistère","departementCode":"29","adresse":{"street":"48 Grande-Rue","postalCode":"29520","city":"Laz","country":"France"},"contacts":{"email":"contact-mairie@laz.bzh","telephone":"0298268321"},"horaires":"Du Lundi au Mardi : de 09h30 à 12h00 de 13h30 à 16h00\nDu Jeudi au Vendredi : de 09h30 à 12h00 de 13h30 à 16h00\nLe Samedi : de 09h30 à 12h00\n\nAccueil ouvert le samedi uniquement pour l'état civil.","latitude":48.138058,"longitude":-3.835222,"website":"https://laz.fr/","hasWebsite":true,"hasHoraires":true,"url":"https://lannuaire.service-public.gouv.fr/bretagne/finistere/5e5620a5-0ff1-4353-bc47-5275da1e2b77"}
{"nom":"Le Cloître-Pleyben","nomNormalise":"lecloitrepleyben","typeCollectivite":"Commune","region":"Bretagne","departement":"Finistère","departementCode":"29","adresse":{"street":"11 rue de la Mairie","postalCode":"29190","city":"Le Cloître-Pleyben","country":"France"},"contacts":{"email":"mairie@lecloitrepleyben.fr","telephone":"0298266005"},"horaires":"Du Lundi au Mardi : de 08h30 à 12h30 de 13h30 à 17h15\nLe Mercredi : de 08h30 à 12h30\nLe Jeudi : de 08h30 à 12h30 de 13h30 à 17h15\nLe Vendredi : de 08h30 à 12h30 de 13h30 à 16h30","latitude":48.256798,"longitude":-3.890102,"website":"","hasWebsite":false,"hasHoraires":true,"url":"https://lannuaire.service-public.gouv.fr/bretagne/finistere/02ffc15a-699b-4791-ba6b-fd137df234d2"}
{"nom":"Le Cloître-Saint-Thégonnec","nomNormalise":"lecloitresaintthegonnec","typeCollectivite":"Commune","region":"Bretagne","departement":"Finistère","departementCode":"29","adresse":{"street":"10 rue de la Libération","postalCode":"29410","city":"Le Cloître-Saint-Thégonnec","country":"France"},"contacts":{"email":"lecloitrestthegonnec@wanadoo.fr","telephone":"0298797036"},"horaires":"Du Lundi au Mardi : de 08h00 à 12h00 de 13h00 à 17h00\nLe Mercredi : de 09h00 à 12h00\nDu Jeudi au Vendredi : de 08h00 à 12h00 de 13h00 à 17h00","latitude":48.479485,"longitude":-3.793875,"website":"https://www.le-cloitre-saint-thegonnec.bzh/","hasWebsite":true,"hasHoraires":true,"url":"https://lannuaire.service-public.gouv.fr/bretagne/finistere/6c8dd6b2-42e7-4b57-a7ba-77857cfdffbd"}
{"nom":"Le Conquet","nomNormalise":"leconquet","typeCollectivite":"Commune","region":"Bretagne","departement":"Finistère","departementCode":"29","adresse":{"street":"Parc de Beauséjour","postalCode":"29217","city":"Le Conquet","country":"France"},"contacts":{"email":"mairie@leconquet.bzh","telephone":"0298890007"},"horaires":"Le Lundi : de 10h00 à 12h00 de 14h00 à 17h30\nLe Mardi : de 08h30 à 12h00 de 14h00 à 17h30\nLe Mercredi : de 08h30 à 12h00\nLe Jeudi : de 08h30 à 12h00 de 14h00 à 17h30\nLe Vendredi : de 08h30 à 12h00 de 14h00 à 17h00\n\nAccueil le matin uniquement pour le service urbanisme.","latitude":48.36043,"longitude":-4.77084,"website":"https://www.leconquet.bzh/","hasWebsite":true,"hasHoraires":true,"url":"https://lannuaire.service-public.gouv.fr/bretagne/finistere/e958d896-57a2-450e-b6df-0e4a42c16ce5"}
{"nom":"Le Drennec","nomNormalise":"ledrennec","typeCollectivite":"Commune","region":"Bretagne","departement":"Finistère","departementCode":"29","adresse":{"street":"3 rue de la Mairie","postalCode":"29860","city":"Le Drennec","country":"France"},"contacts":{"email":"mairie@le-drennec.fr","telephone":"0298404001"},"horaires":"Le Lundi : de 08h30 à 12h00 de 13h30 à 17h30\nLe Mardi : de 08h30 à 12h00\nLe Mercredi : de 08h30 à 12h00 de 13h30 à 17h30\nLe Jeudi : de 08h30 à 12h00\nLe Vendredi : de 08h30 à 12h00 de 13h30 à 16h30","latitude":48.53393,"longitude":-4.372043,"website":"https://le-drennec.fr/","hasWebsite":true,"hasHoraires":true,"url":"https://lannuaire.service-public.gouv.fr/bretagne/finistere/d28f9f49-926d-44e6-b8f7-df6230369afd"}
{"nom":"Le Faou","nomNormalise":"lefaou","typeCollectivite":"Commune","region":"Bretagne","departement":"Finistère","departementCode":"29","adresse":{"street":"12 place aux Foires","postalCode":"29590","city":"Le Faou","country":"France"},"contacts":{"email":"accueil@lefaou.bzh","telephone":"0298819044"},"horaires":"Le Lundi : de 09h00 à 12h15 de 14h00 à 17h00\nLe Mardi : de 09h00 à 12h15\nLe Mercredi : de 09h00 à 12h15 de 14h00 à 17h00\nLe Jeudi : de 09h00 à 12h15\nLe Vendredi : de 09h00 à 12h15 de 14h00 à 17h00","latitude":48.294266,"longitude":-4.177608,"website":"https://www.lefaou.bzh/","hasWebsite":true,"hasHoraires":true,"url":"https://lannuaire.service-public.gouv.fr/bretagne/finistere/30cc1aeb-3296-4d68-a418-711fa33fbac7"}
{"nom":"Le Folgoët","nomNormalise":"lefolgoet","typeCollectivite":"Commune","region":"Bretagne","departement":"Finistère","departementCode":"29","adresse":{"street":"2 rue du Verger","postalCode":"29260","city":"Le Folgoët","country":"France"},"contacts":{"email":"contact@lefolgoet.fr","telephone":"0298830192"},"horaires":"Du Lundi au Vendredi : de 08h30 à 12h00 de 13h30 à 17h15","latitude":48.561047,"longitude":-4.334994,"website":"https://www.lefolgoet.fr/","hasWebsite":true,"hasHoraires":true,"url":"https://lannuaire.service-public.gouv.fr/bretagne/finistere/01c98395-e16f-473c-956a-42e1ad68fe30"}
{"nom":"Le Juch","nomNormalise":"lejuch","typeCollectivite":"Commune","region":"Bretagne","departement":"Finistère","departementCode":"29","adresse":{"street":"5 rue Louis-Tymen","postalCode":"29100","city":"Le Juch","country":"France"},"contacts":{"email":"accueil.mairie@lejuch.fr","telephone":"0298747150"},"horaires":"Le Lundi : de 09h00 à 12h00 de 14h00 à 18h30\nLe Mardi : de 09h00 à 12h00\nLe Mercredi : de 09h00 à 12h00 de 14h00 à 17h00\nLe Jeudi : de 09h00 à 12h00\nLe Vendredi : de 09h00 à 12h00 de 14h00 à 17h00\nHoraires d’été, du 1er juillet au 31 août : Le lundi : de 9h00 à 12h30 et de 14h00 à 18h30 Le mardi, mercredi, jeudi et vendredi : de 09h00 à 12h30","latitude":48.06555,"longitude":-4.25717,"website":"http://www.lejuch.fr/","hasWebsite":true,"hasHoraires":true,"url":"https://lannuaire.service-public.gouv.fr/bretagne/finistere/9e399fa4-4da7-4722-ac28-42e5224959cb"}
{"nom":"Lennon","nomNormalise":"lennon","typeCollectivite":"Commune","region":"Bretagne","departement":"Finistère","departementCode":"29","adresse":{"street":"25 place de l'Église","postalCode":"29190","city":"Lennon","country":"France"},"contacts":{"email":"mairie-de-lennon@wanadoo.fr","telephone":"0298737108"},"horaires":"Du Lundi au Mardi : de 09h00 à 12h30 de 13h30 à 17h30\nLe Mercredi : de 09h00 à 12h30\nDu Jeudi au Vendredi : de 09h00 à 12h30 de 13h30 à 17h30\nLe Samedi : de 10h00 à 12h00","latitude":48.192772,"longitude":-3.897641,"website":"","hasWebsite":false,"hasHoraires":true,"url":"https://lannuaire.service-public.gouv.fr/bretagne/finistere/f909a0c6-643a-4e02-805b-41a0ac45097d"}
{"nom":"Mairie déléguée - Le Ponthou","nomNormalise":"mairiedelegueeleponthou","typeCollectivite":"Commune","region":"Bretagne","departement":"Finistère","departementCode":"29","adresse":{"street":"Le Ponthou","postalCode":"29650","city":"Plouigneau","country":"France"},"contacts":{"email":"mairieannexe@plouigneau.fr","telephone":"0298792016"},"horaires":"Du Lundi au Vendredi : de 09h00 à 12h00","latitude":48.56537,"longitude":-3.63798,"website":"https://www.plouigneau.fr/","hasWebsite":true,"hasHoraires":true,"url":"https://lannuaire.service-public.gouv.fr/bretagne/finistere/b19735aa-8645-41f6-a324-e37ed1874c6d"}
{"nom":"Le Relecq-Kerhuon","nomNormalise":"lerelecqkerhuon","typeCollectivite":"Commune","region":"Bretagne","departement":"Finistère","departementCode":"29","adresse":{"street":"1 place de la Libération","postalCode":"29480","city":"Le Relecq-Kerhuon","country":"France"},"contacts":{"email":"secretariat-general@mairie-relecq-kerhuon.fr","telephone":"0298281418"},"horaires":"Le Lundi : de 08h30 à 12h00 de 13h30 à 17h30\nLe Mardi : de 08h30 à 12h00 de 13h30 à 18h00\nLe Mercredi : de 08h30 à 12h00 de 13h30 à 17h30\nLe Jeudi : de 08h30 à 12h00 de 13h30 à 18h00\nLe Vendredi : de 08h30 à 12h00 de 13h30 à 17h30\nLe Samedi : de 09h00 à 12h00\n\nAccueil ouvert uniquement pour l'état civil.\nAccueil ouvert uniquement pour l'état civil.","latitude":48.407665,"longitude":-4.396364,"website":"https://www.lerelecqkerhuon.bzh/","hasWebsite":true,"hasHoraires":true,"url":"https://lannuaire.service-public.gouv.fr/bretagne/finistere/f5fb2e2b-c095-41fd-9356-9bba3a6a8428"}
{"nom":"Lesneven","nomNormalise":"lesneven","typeCollectivite":"Commune","region":"Bretagne","departement":"Finistère","departementCode":"29","adresse":{"street":"8 place du Château","postalCode":"29260","city":"Lesneven","country":"France"},"contacts":{"email":"mairie@lesneven.bzh","telephone":"0298830003"},"horaires":"Le Lundi : de 08h00 à 12h00 de 13h30 à 18h30\nDu Mardi au Jeudi : de 08h00 à 12h00 de 13h30 à 17h30\nLe Vendredi : de 08h00 à 12h00 de 13h30 à 16h30\nAccueil ouvert de 17h30 à 18h30 uniquement pour l'état civil, fermé pendant les vacances scolaires.","latitude":48.572006,"longitude":-4.322732,"website":"https://www.lesneven.bzh/","hasWebsite":true,"hasHoraires":true,"url":"https://lannuaire.service-public.gouv.fr/bretagne/finistere/3d11e2a3-5962-4b1e-95af-246ffcc4c9f1"}
{"nom":"Le Tréhou","nomNormalise":"letrehou","typeCollectivite":"Commune","region":"Bretagne","departement":"Finistère","departementCode":"29","adresse":{"street":"1 route des Monts d'Arrée","postalCode":"29450","city":"Le Tréhou","country":"France"},"contacts":{"email":"secretariat@mairie-letrehou.fr","telephone":"0298688204"},"horaires":"Du Lundi au Vendredi : de 09h00 à 12h00","latitude":48.393944,"longitude":-4.131407,"website":"https://letrehou.bzh/","hasWebsite":true,"hasHoraires":true,"url":"https://lannuaire.service-public.gouv.fr/bretagne/finistere/eda5570a-8855-48b0-83a4-d9e3d1654318"}
{"nom":"Le Trévoux","nomNormalise":"letrevoux","typeCollectivite":"Commune","region":"Bretagne","departement":"Finistère","departementCode":"29","adresse":{"street":"2 rue de Bannalec","postalCode":"29380","city":"Le Trévoux","country":"France"},"contacts":{"email":"mairie@letrevoux.bzh","telephone":"0298718669"},"horaires":"Du Lundi au Mercredi : de 09h00 à 12h30 de 15h00 à 17h00\nLe Jeudi : de 09h00 à 12h30\nLe Vendredi : de 09h00 à 12h30 de 15h00 à 17h00","latitude":47.894814,"longitude":-3.640982,"website":"http://www.letrevoux.bzh/","hasWebsite":true,"hasHoraires":true,"url":"https://lannuaire.service-public.gouv.fr/bretagne/finistere/e6245bef-3b5c-479d-8d0f-8436542c8c5d"}
{"nom":"Leuhan","nomNormalise":"leuhan","typeCollectivite":"Commune","region":"Bretagne","departement":"Finistère","departementCode":"29","adresse":{"street":"27 rue de la Mairie","postalCode":"29390","city":"Leuhan","country":"France"},"contacts":{"email":"mairie.leuhan@wanadoo.fr","telephone":"0298825090"},"horaires":"Le Lundi : de 09h00 à 12h00 de 13h30 à 16h00\nLe Mardi : de 09h00 à 12h00 de 13h30 à 17h00\nLe Mercredi : de 09h00 à 12h00\nDu Jeudi au Vendredi : de 09h00 à 12h00 de 13h30 à 17h00\nLe Samedi : de 10h00 à 12h00\n\nUniquement sur rendez-vous. Permanence des élus","latitude":48.098995,"longitude":-3.782384,"website":"http://www.leuhan.fr/","hasWebsite":true,"hasHoraires":true,"url":"https://lannuaire.service-public.gouv.fr/bretagne/finistere/3194c667-9263-449b-896a-66684504d9ae"}
{"nom":"Loc-Brévalaire","nomNormalise":"locbrevalaire","typeCollectivite":"Commune","region":"Bretagne","departement":"Finistère","departementCode":"29","adresse":{"street":"4 le Bourg","postalCode":"29260","city":"Loc-Brévalaire","country":"France"},"contacts":{"email":"mairie.loc.brevalaire@wanadoo.fr","telephone":"0298255171"},"horaires":"Le Lundi : de 09h00 à 12h30 de 13h30 à 17h00\nLe Mercredi : de 09h00 à 12h30 de 13h30 à 17h00\nLe Vendredi : de 09h00 à 12h30 de 13h30 à 17h00","latitude":48.554737,"longitude":-4.405565,"website":"","hasWebsite":false,"hasHoraires":true,"url":"https://lannuaire.service-public.gouv.fr/bretagne/finistere/73ea4c3c-336d-4f90-9533-9c434612ff24"}
{"nom":"Loc-Eguiner","nomNormalise":"loceguiner","typeCollectivite":"Commune","region":"Bretagne","departement":"Finistère","departementCode":"29","adresse":{"street":"4 rue de l'Élorn","postalCode":"29400","city":"Loc-Eguiner","country":"France"},"contacts":{"email":"mairie@loc-eguiner.bzh","telephone":"0298681136"},"horaires":"Du Mardi au Vendredi : de 08h30 à 12h30\nLe Samedi : de 09h00 à 12h00","latitude":48.473,"longitude":-4.094537,"website":"","hasWebsite":false,"hasHoraires":true,"url":"https://lannuaire.service-public.gouv.fr/bretagne/finistere/7f672052-10b5-40eb-a345-fc9421c11f79"}
{"nom":"Mairie déléguée - Locmaria-Berrien","nomNormalise":"mairiedelegueelocmariaberrien","typeCollectivite":"Commune","region":"Bretagne","departement":"Finistère","departementCode":"29","adresse":{"street":"Locmaria-Berrien","postalCode":"29690","city":"Poullaouen","country":"France"},"contacts":{"email":"mairie.locmaria-berrien@orange.fr","telephone":"0298997309"},"horaires":"Le Lundi : de 08h30 à 12h00\nLe Jeudi : de 13h30 à 17h15","latitude":48.353626,"longitude":-3.69497,"website":"https://mairie-poullaouen.fr/","hasWebsite":true,"hasHoraires":true,"url":"https://lannuaire.service-public.gouv.fr/bretagne/finistere/95a8fa9c-b938-4f8a-8587-8a51df57afb7"}
{"nom":"Locmaria-Plouzané","nomNormalise":"locmariaplouzane","typeCollectivite":"Commune","region":"Bretagne","departement":"Finistère","departementCode":"29","adresse":{"street":"1 place de la Mairie","postalCode":"29280","city":"Locmaria-Plouzané","country":"France"},"contacts":{"email":"mairie@locmaria-plouzane.fr","telephone":"0298484009"},"horaires":"Le Lundi : de 14h00 à 17h30\nDu Mardi au Vendredi : de 09h00 à 12h00 de 14h00 à 17h30\nLe Samedi : de 09h00 à 12h00","latitude":48.3742,"longitude":-4.64548,"website":"https://locmaria-plouzane.fr/","hasWebsite":true,"hasHoraires":true,"url":"https://lannuaire.service-public.gouv.fr/bretagne/finistere/d41b3679-36d1-4e9c-8935-eb207fe3ef2c"}
{"nom":"Locmélar","nomNormalise":"locmelar","typeCollectivite":"Commune","region":"Bretagne","departement":"Finistère","departementCode":"29","adresse":{"street":"1 place Saint-Mélar","postalCode":"29400","city":"Locmélar","country":"France"},"contacts":{"email":"mairie@locmelar.bzh","telephone":"0298681003"},"horaires":"Du Lundi au Samedi : de 09h00 à 12h00\n(uniquement les semaines impaires pour le samedi) de 9h à 12h","latitude":48.45285,"longitude":-4.065156,"website":"https://locmelar.bzh/fr/","hasWebsite":true,"hasHoraires":true,"url":"https://lannuaire.service-public.gouv.fr/bretagne/finistere/ed29a8f5-a1d4-4da9-8898-20e85b80c52e"}
{"nom":"Locquénolé","nomNormalise":"locquenole","typeCollectivite":"Commune","region":"Bretagne","departement":"Finistère","departementCode":"29","adresse":{"street":"6 place de la Liberté","postalCode":"29670","city":"Locquénolé","country":"France"},"contacts":{"email":"mairie@locquenole.fr","telephone":"0298722115"},"horaires":"Du Lundi au Samedi : de 09h00 à 12h00","latitude":48.624622,"longitude":-3.860498,"website":"http://www.locquenole.fr/","hasWebsite":true,"hasHoraires":true,"url":"https://lannuaire.service-public.gouv.fr/bretagne/finistere/23000a7b-a725-45f2-b1b6-de35059a1e7a"}
{"nom":"Locquirec","nomNormalise":"locquirec","typeCollectivite":"Commune","region":"Bretagne","departement":"Finistère","departementCode":"29","adresse":{"street":"1 route de Plestin","postalCode":"29241","city":"Locquirec","country":"France"},"contacts":{"email":"contact@locquirec.bzh","telephone":"0298674220"},"horaires":"Le Lundi : de 09h00 à 12h00 de 14h00 à 16h00\nLe Mardi : de 09h00 à 12h00\nDu Mercredi au Vendredi : de 09h00 à 12h00 de 14h00 à 16h00\nLe Samedi : de 09h00 à 12h00","latitude":48.69085,"longitude":-3.649157,"website":"https://www.locquirec.bzh/","hasWebsite":true,"hasHoraires":true,"url":"https://lannuaire.service-public.gouv.fr/bretagne/finistere/802962a8-5515-4b1b-8830-ddba84098472"}
{"nom":"Locronan","nomNormalise":"locronan","typeCollectivite":"Commune","region":"Bretagne","departement":"Finistère","departementCode":"29","adresse":{"street":"Place de la Mairie","postalCode":"29180","city":"Locronan","country":"France"},"contacts":{"email":"mairiedelocronan@wanadoo.fr","telephone":"0298518080"},"horaires":"Du Lundi au Mardi : de 09h00 à 12h00 de 14h00 à 17h00\nLe Mercredi : de 09h00 à 12h00\nDu Jeudi au Vendredi : de 09h00 à 12h00 de 14h00 à 17h00\nLe Samedi : de 09h00 à 12h00","latitude":48.09864,"longitude":-4.20724,"website":"https://locronan.bzh/","hasWebsite":true,"hasHoraires":true,"url":"https://lannuaire.service-public.gouv.fr/bretagne/finistere/91423911-56e6-499f-9703-13b6c06a0608"}
{"nom":"Loctudy","nomNormalise":"loctudy","typeCollectivite":"Commune","region":"Bretagne","departement":"Finistère","departementCode":"29","adresse":{"street":"Place des Anciens-Combattants","postalCode":"29750","city":"Loctudy","country":"France"},"contacts":{"email":"mairie@loctudy.fr","telephone":"0298874002"},"horaires":"Du Lundi au Vendredi : de 09h00 à 12h00 de 14h00 à 17h00","latitude":47.83217,"longitude":-4.17426,"website":"https://www.loctudy.fr/","hasWebsite":true,"hasHoraires":true,"url":"https://lannuaire.service-public.gouv.fr/bretagne/finistere/ec8b8b8f-841b-4674-a6c1-85c59c7d98f3"}
{"nom":"Locunolé","nomNormalise":"locunole","typeCollectivite":"Commune","region":"Bretagne","departement":"Finistère","departementCode":"29","adresse":{"street":"2 rue Beg-Ar-Roz","postalCode":"29310","city":"Locunolé","country":"France"},"contacts":{"email":"accueil@locunole.fr","telephone":"0298063082"},"horaires":"Du Lundi au Mardi : de 09h00 à 12h30 de 14h00 à 17h30\nLe Mercredi : de 09h00 à 12h30\nDu Jeudi au Vendredi : de 09h00 à 12h30 de 14h00 à 17h30","latitude":47.936913,"longitude":-3.478203,"website":"https://www.locunole.fr/","hasWebsite":true,"hasHoraires":true,"url":"https://lannuaire.service-public.gouv.fr/bretagne/finistere/988ecebd-1f46-4da6-b7b8-86e15e47d152"}
{"nom":"Logonna-Daoulas","nomNormalise":"logonnadaoulas","typeCollectivite":"Commune","region":"Bretagne","departement":"Finistère","departementCode":"29","adresse":{"street":"21 rue Ar-Mor","postalCode":"29460","city":"Logonna-Daoulas","country":"France"},"contacts":{"email":"mairie@logonna-daoulas.bzh","telephone":"0298206098"},"horaires":"Le Lundi : de 13h30 à 17h00\nLe Mardi : de 08h30 à 12h00 de 13h30 à 17h00\nLe Mercredi : de 08h30 à 12h00\nDu Jeudi au Vendredi : de 08h30 à 12h00 de 13h30 à 17h00\nLe Samedi : de 09h00 à 12h00\n\nAccueil ouvert le 1er samedi du mois.","latitude":48.321262,"longitude":-4.299144,"website":"https://www.logonna-daoulas.bzh/","hasWebsite":true,"hasHoraires":true,"url":"https://lannuaire.service-public.gouv.fr/bretagne/finistere/07688559-03c5-49f1-bf54-2d7fd37cb9c4"}
{"nom":"Lopérec","nomNormalise":"loperec","typeCollectivite":"Commune","region":"Bretagne","departement":"Finistère","departementCode":"29","adresse":{"street":"9 place de l'Église","postalCode":"29590","city":"Lopérec","country":"France"},"contacts":{"email":"commune-de-loperec@orange.fr","telephone":"0298811080"},"horaires":"Du Lundi au Mercredi : de 08h30 à 12h00 de 13h30 à 17h30\nLe Jeudi : de 08h30 à 12h00\nLe Vendredi : de 08h30 à 12h00 de 13h30 à 17h30","latitude":48.276974,"longitude":-4.047912,"website":"https://www.loperec.fr/","hasWebsite":true,"hasHoraires":true,"url":"https://lannuaire.service-public.gouv.fr/bretagne/finistere/a954c276-59fe-45fd-84ab-6cf853e35177"}
{"nom":"Loperhet","nomNormalise":"loperhet","typeCollectivite":"Commune","region":"Bretagne","departement":"Finistère","departementCode":"29","adresse":{"street":"119 rue René-Goubin","postalCode":"29470","city":"Loperhet","country":"France"},"contacts":{"email":"mairie@loperhet.fr","telephone":"0298070707"},"horaires":"Du Lundi au Mercredi : de 09h00 à 12h30 de 13h30 à 17h00\nLe Jeudi : de 09h00 à 12h30\nLe Vendredi : de 09h00 à 12h30 de 13h30 à 17h00","latitude":48.375282,"longitude":-4.306355,"website":"https://www.loperhet.bzh/","hasWebsite":true,"hasHoraires":true,"url":"https://lannuaire.service-public.gouv.fr/bretagne/finistere/073240b5-b4a5-4448-848f-30ecf7cf4c99"}
{"nom":"Loqueffret","nomNormalise":"loqueffret","typeCollectivite":"Commune","region":"Bretagne","departement":"Finistère","departementCode":"29","adresse":{"street":"1 place de la Mairie","postalCode":"29530","city":"Loqueffret","country":"France"},"contacts":{"email":"mairie.loqueffret@wanadoo.fr","telephone":"0298264032"},"horaires":"Du Lundi au Mardi : de 08h30 à 12h30 de 13h30 à 17h30\nLe Jeudi : de 08h30 à 12h30 de 13h30 à 17h30\nLe Vendredi : de 08h30 à 12h30","latitude":48.31951,"longitude":-3.85847,"website":"http://www.loqueffret.fr/","hasWebsite":true,"hasHoraires":true,"url":"https://lannuaire.service-public.gouv.fr/bretagne/finistere/7a47b834-4c79-4f34-b27c-4f52d4e002da"}
{"nom":"Lothey","nomNormalise":"lothey","typeCollectivite":"Commune","region":"Bretagne","departement":"Finistère","departementCode":"29","adresse":{"street":"70 rue de la Mairie","postalCode":"29190","city":"Lothey","country":"France"},"contacts":{"email":"mairie@lothey.bzh","telephone":"0298733279"},"horaires":"Le Lundi : de 09h00 à 12h00\nLe Mardi : de 09h00 à 12h00 de 13h30 à 17h00\nLe Mercredi : de 13h30 à 17h00\nLe Jeudi : de 09h00 à 12h00\nLe Vendredi : de 09h00 à 12h00 de 13h30 à 17h00\n\nFermé le vendredi en semaines paires","latitude":48.182472,"longitude":-4.027781,"website":"","hasWebsite":false,"hasHoraires":true,"url":"https://lannuaire.service-public.gouv.fr/bretagne/finistere/962c083e-56ab-4fb2-adf5-c9b814fbcae0"}
{"nom":"Mahalon","nomNormalise":"mahalon","typeCollectivite":"Commune","region":"Bretagne","departement":"Finistère","departementCode":"29","adresse":{"street":"1 place de la Mairie","postalCode":"29790","city":"Mahalon","country":"France"},"contacts":{"email":"mairiemahalon@orange.fr","telephone":"0298745276"},"horaires":"Du Lundi au Mercredi : de 09h00 à 12h00 de 13h30 à 17h00\nLe Jeudi : de 09h00 à 12h00\nLe Vendredi : de 09h00 à 12h00 de 13h30 à 17h00\nLe Samedi : de 09h00 à 12h00","latitude":48.03433,"longitude":-4.436168,"website":"https://mahalon.fr/","hasWebsite":true,"hasHoraires":true,"url":"https://lannuaire.service-public.gouv.fr/bretagne/finistere/c1d196f8-71cc-4a9f-9797-8d0bbfed2c70"}
{"nom":"Mairie - Guiler-sur-Goyen","nomNormalise":"mairieguilersurgoyen","typeCollectivite":"Commune","region":"Bretagne","departement":"Finistère","departementCode":"29","adresse":{"street":"2 Hent Park Meilar","postalCode":"29710","city":"Guiler-sur-Goyen","country":"France"},"contacts":{"email":"mairie@guiler-sur-goyen.bzh","telephone":"0298915032"},"horaires":"Le Lundi : de 14h00 à 17h00\nDu Mardi au Jeudi : de 09h00 à 12h00 de 14h00 à 17h00\nLe Vendredi : de 09h00 à 12h00","latitude":48.016506,"longitude":-4.357696,"website":"https://guiler-sur-goyen.bzh/","hasWebsite":true,"hasHoraires":true,"url":"https://lannuaire.service-public.gouv.fr/bretagne/finistere/08ed02ab-4f62-4b86-bdb5-903c1ecd9074"}
{"nom":"Melgven","nomNormalise":"melgven","typeCollectivite":"Commune","region":"Bretagne","departement":"Finistère","departementCode":"29","adresse":{"street":"4 place de l'Église","postalCode":"29140","city":"Melgven","country":"France"},"contacts":{"email":"secretariat@melgven.fr","telephone":"0298979011"},"horaires":"Le Lundi : de 09h00 à 12h00 de 13h15 à 17h00\nLe Mardi : de 09h00 à 12h00\nDu Mercredi au Vendredi : de 09h00 à 12h00 de 13h15 à 17h00\nDu Mercredi au Vendredi : de 08h00 à 12h00 de 13h15 à 17h00\nLe Samedi : de 09h00 à 12h00\n\nFermé pendant les vacances scolaires.","latitude":47.90617,"longitude":-3.834574,"website":"https://www.melgven.fr/","hasWebsite":true,"hasHoraires":true,"url":"https://lannuaire.service-public.gouv.fr/bretagne/finistere/0bfb73de-09da-4702-9445-e62e7ae7ad32"}
{"nom":"Mellac","nomNormalise":"mellac","typeCollectivite":"Commune","region":"Bretagne","departement":"Finistère","departementCode":"29","adresse":{"street":"Le Bourg","postalCode":"29300","city":"Mellac","country":"France"},"contacts":{"email":"mairie@mellac.bzh","telephone":"0298718063"},"horaires":"Le Lundi : de 08h45 à 12h00 de 13h45 à 18h00\nLe Mardi : de 08h45 à 12h00 de 15h30 à 18h00\nDu Mercredi au Vendredi : de 08h45 à 12h00 de 13h45 à 18h00","latitude":47.903755,"longitude":-3.576349,"website":"https://mellac.bzh/","hasWebsite":true,"hasHoraires":true,"url":"https://lannuaire.service-public.gouv.fr/bretagne/finistere/51fa9a10-14a5-4afd-8fe3-b49064959b55"}
{"nom":"Mespaul","nomNormalise":"mespaul","typeCollectivite":"Commune","region":"Bretagne","departement":"Finistère","departementCode":"29","adresse":{"street":"55 rue de la Mairie","postalCode":"29420","city":"Mespaul","country":"France"},"contacts":{"email":"mairie@mespaul.bzh","telephone":"0298615703"},"horaires":"Du Lundi au Mardi : de 08h00 à 12h00 de 13h30 à 17h30\nLe Mercredi : de 08h00 à 12h00\nLe Jeudi : de 08h00 à 12h00 de 13h30 à 17h30\nLe Vendredi : de 08h00 à 12h00","latitude":48.618286,"longitude":-4.024569,"website":"https://mespaul.bzh/","hasWebsite":true,"hasHoraires":true,"url":"https://lannuaire.service-public.gouv.fr/bretagne/finistere/0eb9f2b7-6522-4de8-9443-55520b9cf7c9"}
{"nom":"Mairie déléguée - Milizac","nomNormalise":"mairiedelegueemilizac","typeCollectivite":"Commune","region":"Bretagne","departement":"Finistère","departementCode":"29","adresse":{"street":"Guipronvel","postalCode":"29290","city":"Milizac-Guipronvel","country":"France"},"contacts":{"email":"mairie@milizac-guipronvel.bzh","telephone":"0298079031"},"horaires":"Le Lundi : de 08h30 à 12h00 de 13h30 à 17h30\nLe Mardi : de 10h00 à 12h00 de 13h30 à 17h30\nDu Mercredi au Vendredi : de 08h30 à 12h00 de 13h30 à 17h30\nLe Samedi : de 09h00 à 12h00\n\nOuverture en alternance, semaine paire à Milizac, semaine impaire à Guipronvel, y compris pendant les petites vacances scolaires. Pendant les vacances d’été, les deux mairies sont fermées les samedis matins","latitude":48.467606,"longitude":-4.565871,"website":"https://milizac-guipronvel.bzh/","hasWebsite":true,"hasHoraires":true,"url":"https://lannuaire.service-public.gouv.fr/bretagne/finistere/a05494b7-263c-4a17-bbd1-bc0b35d40f3b"}
{"nom":"Milizac-Guipronvel","nomNormalise":"milizacguipronvel","typeCollectivite":"Commune","region":"Bretagne","departement":"Finistère","departementCode":"29","adresse":{"street":"Guipronvel","postalCode":"29290","city":"Milizac-Guipronvel","country":"France"},"contacts":{"email":"mairie@milizac-guipronvel.bzh","telephone":"0298079033"},"horaires":"Le Lundi : de 08h30 à 12h00\nLe Mardi : de 10h00 à 12h30\nDu Mercredi au Vendredi : de 08h30 à 12h00\nLe Samedi : de 10h00 à 13h00\n\nOuverture en alternance, semaine paire à Milizac, semaine impaire à Guipronvel, y compris pendant les petites vacances scolaires. Pendant les vacances d’été, les deux mairies sont fermées les samedis matins","latitude":48.490986,"longitude":-4.574482,"website":"https://milizac-guipronvel.bzh/","hasWebsite":true,"hasHoraires":true,"url":"https://lannuaire.service-public.gouv.fr/bretagne/finistere/41ba458c-40ce-4fcc-91c1-d6cf4368f00e"}
{"nom":"Moëlan-sur-Mer","nomNormalise":"moelansurmer","typeCollectivite":"Commune","region":"Bretagne","departement":"Finistère","departementCode":"29","adresse":{"street":"2 rue des Moulins","postalCode":"29350","city":"Moëlan-sur-Mer","country":"France"},"contacts":{"email":"mairie@moelan-sur-mer.bzh","telephone":"0298396010"},"horaires":"Du Lundi au Vendredi : de 08h30 à 12h00 de 14h00 à 17h00\nLe Samedi : de 09h00 à 12h00\n\nAccueil ouvert uniquement pour l'état civil.","latitude":47.8152,"longitude":-3.628953,"website":"http://www.moelan-sur-mer.bzh/","hasWebsite":true,"hasHoraires":true,"url":"https://lannuaire.service-public.gouv.fr/bretagne/finistere/73675e33-a459-4cf0-a961-d3bcb8f63d24"}
{"nom":"Morlaix","nomNormalise":"morlaix","typeCollectivite":"Commune","region":"Bretagne","departement":"Finistère","departementCode":"29","adresse":{"street":"Place des Otages","postalCode":"29600","city":"Morlaix","country":"France"},"contacts":{"email":"contact@ville.morlaix.fr","telephone":"0298631010"},"horaires":"Du Lundi au Vendredi : de 08h30 à 12h00 de 13h30 à 17h00\nLe Samedi : de 09h00 à 12h00\n\nPermanence d'Etat Civil","latitude":48.57766,"longitude":-3.82837,"website":"https://www.morlaix.bzh/","hasWebsite":true,"hasHoraires":true,"url":"https://lannuaire.service-public.gouv.fr/bretagne/finistere/9128d611-8057-4a06-a641-3f7a6b8fc5e2"}
{"nom":"Motreff","nomNormalise":"motreff","typeCollectivite":"Commune","region":"Bretagne","departement":"Finistère","departementCode":"29","adresse":{"street":"1 place de la Fontaine","postalCode":"29270","city":"Motreff","country":"France"},"contacts":{"email":"mairie.motreff@orange.fr","telephone":"0298995405"},"horaires":"Le Lundi : de 08h30 à 12h00 de 13h30 à 17h00\nLe Mardi : de 08h30 à 12h00 de 13h30 à 17h30\nLe Mercredi : de 08h30 à 12h00\nLe Jeudi : de 08h30 à 12h00 de 13h30 à 17h00\nLe Vendredi : de 08h30 à 12h00 de 13h30 à 17h30","latitude":48.20208,"longitude":-3.55466,"website":"https://www.motreff.fr/accueil_motreff","hasWebsite":true,"hasHoraires":true,"url":"https://lannuaire.service-public.gouv.fr/bretagne/finistere/6dcdb371-ee59-42a9-856a-2ccb28deb806"}
{"nom":"Névez","nomNormalise":"nevez","typeCollectivite":"Commune","region":"Bretagne","departement":"Finistère","departementCode":"29","adresse":{"street":"Place Joseph-Danielou","postalCode":"29920","city":"Névez","country":"France"},"contacts":{"email":"mairie@nevez.fr","telephone":"0298068123"},"horaires":"Du Lundi au Mardi : de 08h30 à 12h00 de 12h45 à 17h00\nLe Mercredi : de 08h30 à 12h00\nDu Jeudi au Vendredi : de 08h30 à 12h00 de 12h45 à 17h00\nLe Samedi : de 08h30 à 12h00","latitude":47.81883,"longitude":-3.79327,"website":"https://nevez.fr/","hasWebsite":true,"hasHoraires":true,"url":"https://lannuaire.service-public.gouv.fr/bretagne/finistere/a542c762-3ba2-45ed-9740-f676775f1965"}
{"nom":"Ouessant","nomNormalise":"ouessant","typeCollectivite":"Commune","region":"Bretagne","departement":"Finistère","departementCode":"29","adresse":{"street":"Bourg de Lampaul","postalCode":"29242","city":"Ouessant","country":"France"},"contacts":{"email":"mairie@ouessant.bzh","telephone":"0298488006"},"horaires":"Du Lundi au Jeudi : de 08h00 à 12h00 de 13h30 à 17h30\nLe Vendredi : de 08h00 à 12h00 de 13h30 à 16h00","latitude":48.455357,"longitude":-5.097373,"website":"https://www.ouessant.bzh/","hasWebsite":true,"hasHoraires":true,"url":"https://lannuaire.service-public.gouv.fr/bretagne/finistere/d4b3533f-99fd-408b-99c3-934d0a8ba2da"}
{"nom":"Pencran","nomNormalise":"pencran","typeCollectivite":"Commune","region":"Bretagne","departement":"Finistère","departementCode":"29","adresse":{"street":"Place de la Mairie","postalCode":"29800","city":"Pencran","country":"France"},"contacts":{"email":"mairie@pencran.fr","telephone":"0298850442"},"horaires":"Le Lundi : de 08h00 à 12h00 de 13h30 à 17h30\nLe Mardi : de 08h00 à 12h00\nLe Mercredi : de 08h00 à 12h00 de 13h30 à 17h30\nLe Jeudi : de 08h00 à 12h00\nLe Vendredi : de 08h00 à 12h00 de 13h30 à 16h30\nLe Samedi : de 09h00 à 12h00\n\nUniquement le 1er samedi du mois.","latitude":48.43775,"longitude":-4.23522,"website":"https://www.pencran.fr/","hasWebsite":true,"hasHoraires":true,"url":"https://lannuaire.service-public.gouv.fr/bretagne/finistere/3763be06-d217-4c94-9071-74d098233b39"}
{"nom":"Penmarch","nomNormalise":"penmarch","typeCollectivite":"Commune","region":"Bretagne","departement":"Finistère","departementCode":"29","adresse":{"street":"110 rue Edmond-Michelet","postalCode":"29760","city":"Penmarch","country":"France"},"contacts":{"email":"mairie@penmarch.fr","telephone":"0298586019"},"horaires":"Du Lundi au Vendredi : de 09h00 à 12h00 de 13h30 à 17h00\nLe Samedi : de 09h00 à 12h00\n\nAccueil ouvert uniquement pour l'état civil.","latitude":47.812557,"longitude":-4.337368,"website":"https://www.penmarch.bzh/","hasWebsite":true,"hasHoraires":true,"url":"https://lannuaire.service-public.gouv.fr/bretagne/finistere/f758833f-bf8a-4dd0-aea1-e87d56beb1a1"}
{"nom":"Peumerit","nomNormalise":"peumerit","typeCollectivite":"Commune","region":"Bretagne","departement":"Finistère","departementCode":"29","adresse":{"street":"Hent Ar Skol","postalCode":"29710","city":"Peumerit","country":"France"},"contacts":{"email":"mairie.peumerit@wanadoo.fr","telephone":"0298829151"},"horaires":"Du Lundi au Mardi : de 09h00 à 12h15 de 14h00 à 16h45\nLe Mercredi : de 09h00 à 12h15\nDu Jeudi au Vendredi : de 09h00 à 12h15 de 14h00 à 16h45\nLe Samedi : de 10h00 à 12h00","latitude":47.94054,"longitude":-4.30962,"website":"https://peumerit.fr/","hasWebsite":true,"hasHoraires":true,"url":"https://lannuaire.service-public.gouv.fr/bretagne/finistere/b76b0ff4-be4d-40a9-8e20-425198d7141b"}
{"nom":"Plabennec","nomNormalise":"plabennec","typeCollectivite":"Commune","region":"Bretagne","departement":"Finistère","departementCode":"29","adresse":{"street":"1 rue Pierre-Jestin","postalCode":"29860","city":"Plabennec","country":"France"},"contacts":{"email":"mairie@plabennec.fr","telephone":"0298404132"},"horaires":"Du Lundi au Jeudi : de 08h30 à 12h00 de 13h30 à 17h30\nLe Vendredi : de 08h30 à 12h00 de 13h30 à 16h30\nLe Samedi : de 10h00 à 12h00\n\nFermé les samedis entre le 11 juillet et le 29 août.","latitude":48.502266,"longitude":-4.424026,"website":"https://www.ville-plabennec.fr/","hasWebsite":true,"hasHoraires":true,"url":"https://lannuaire.service-public.gouv.fr/bretagne/finistere/4b475639-77d9-4f7b-b403-767bf5b64ef3"}
{"nom":"Pleuven","nomNormalise":"pleuven","typeCollectivite":"Commune","region":"Bretagne","departement":"Finistère","departementCode":"29","adresse":{"street":"24 le Bourg","postalCode":"29170","city":"Pleuven","country":"France"},"contacts":{"email":"mairie@pleuven.bzh","telephone":"0298546050"},"horaires":"Du Lundi au Mardi : de 08h00 à 12h00 de 13h30 à 17h30\nLe Mercredi : de 08h00 à 12h00\nLe Jeudi : de 08h00 à 12h00 de 13h30 à 17h30\nLe Vendredi : de 08h00 à 12h00 de 13h30 à 16h30","latitude":47.907192,"longitude":-4.043314,"website":"https://www.pleuven.fr/","hasWebsite":true,"hasHoraires":true,"url":"https://lannuaire.service-public.gouv.fr/bretagne/finistere/1685c3b6-ceaf-47a1-a1eb-cc176b74ce95"}
{"nom":"Pleyben","nomNormalise":"pleyben","typeCollectivite":"Commune","region":"Bretagne","departement":"Finistère","departementCode":"29","adresse":{"street":"Place Charles-de-Gaulle","postalCode":"29190","city":"Pleyben","country":"France"},"contacts":{"email":"contact@mairiepleyben.fr","telephone":"0298266811"},"horaires":"Du Lundi au Vendredi : de 08h30 à 12h00 de 13h45 à 17h15","latitude":48.22604,"longitude":-3.96926,"website":"https://www.pleyben.fr/","hasWebsite":true,"hasHoraires":true,"url":"https://lannuaire.service-public.gouv.fr/bretagne/finistere/3f70b832-8165-4383-b49f-02410360e462"}
{"nom":"Pleyber-Christ","nomNormalise":"pleyberchrist","typeCollectivite":"Commune","region":"Bretagne","departement":"Finistère","departementCode":"29","adresse":{"street":"Square Anne-de-Bretagne","postalCode":"29410","city":"Pleyber-Christ","country":"France"},"contacts":{"email":"accueil@pleyber-christ.fr","telephone":"0298784167"},"horaires":"Du Lundi au Mercredi : de 09h00 à 12h00 de 13h30 à 17h30\nLe Jeudi : de 09h00 à 12h00 de 13h30 à 17h30\nLe Vendredi : de 09h00 à 12h00 de 13h30 à 16h30\nLe mercredi : Période de vacances scolaires de 9h à 12h","latitude":48.50467,"longitude":-3.87532,"website":"https://www.pleyber-christ.fr/","hasWebsite":true,"hasHoraires":true,"url":"https://lannuaire.service-public.gouv.fr/bretagne/finistere/ad5d0c11-9cd1-4bc7-b1c2-9735d926e7bd"}
{"nom":"Plobannalec-Lesconil","nomNormalise":"plobannaleclesconil","typeCollectivite":"Commune","region":"Bretagne","departement":"Finistère","departementCode":"29","adresse":{"street":"1 rue de la Mairie","postalCode":"29740","city":"Plobannalec-Lesconil","country":"France"},"contacts":{"email":"mairie@plobannalec-lesconil.fr","telephone":"0298822022"},"horaires":"Du Lundi au Vendredi : de 08h30 à 12h30 de 13h30 à 17h00","latitude":47.823814,"longitude":-4.228728,"website":"https://www.plobannalec-lesconil.bzh/","hasWebsite":true,"hasHoraires":true,"url":"https://lannuaire.service-public.gouv.fr/bretagne/finistere/5c45a61f-c6e5-487f-a07f-4cc806070822"}
{"nom":"Ploéven","nomNormalise":"ploeven","typeCollectivite":"Commune","region":"Bretagne","departement":"Finistère","departementCode":"29","adresse":{"street":"10 rue de la Mairie","postalCode":"29550","city":"Ploéven","country":"France"},"contacts":{"email":"mairie@ploeven.fr","telephone":"0298230531"},"horaires":"Du Lundi au Vendredi : de 09h00 à 12h00","latitude":48.15718,"longitude":-4.232497,"website":"https://ploeven.bzh/","hasWebsite":true,"hasHoraires":true,"url":"https://lannuaire.service-public.gouv.fr/bretagne/finistere/25bbe387-f45d-4ff8-bcce-88a5622f9fab"}
{"nom":"Plogastel-Saint-Germain","nomNormalise":"plogastelsaintgermain","typeCollectivite":"Commune","region":"Bretagne","departement":"Finistère","departementCode":"29","adresse":{"street":"1 place de la Mairie","postalCode":"29710","city":"Plogastel-Saint-Germain","country":"France"},"contacts":{"email":"mairie@plogastelsaintgermain.fr","telephone":"0298545857"},"horaires":"Du Lundi au Vendredi : de 09h00 à 12h00 de 14h00 à 17h00","latitude":47.982105,"longitude":-4.269845,"website":"https://www.plogastel-saint-germain.fr/","hasWebsite":true,"hasHoraires":true,"url":"https://lannuaire.service-public.gouv.fr/bretagne/finistere/7e1ec404-1583-4990-aa36-6e18591fb8c7"}
{"nom":"Plogoff","nomNormalise":"plogoff","typeCollectivite":"Commune","region":"Bretagne","departement":"Finistère","departementCode":"29","adresse":{"street":"29 rue Pierre-Brossolette","postalCode":"29770","city":"Plogoff","country":"France"},"contacts":{"email":"mairie.plogoff@wanadoo.fr","telephone":"0298706054"},"horaires":"Le Lundi : de 08h30 à 12h00 de 13h30 à 17h00\nLe Mardi : de 08h30 à 12h00\nLe Mercredi : de 08h30 à 12h00 de 13h30 à 17h00\nLe Jeudi : de 08h30 à 12h00\nLe Vendredi : de 08h30 à 12h00 de 13h30 à 17h00","latitude":48.15718,"longitude":-4.232497,"website":"http://www.plogoff.fr/","hasWebsite":true,"hasHoraires":true,"url":"https://lannuaire.service-public.gouv.fr/bretagne/finistere/b1ff6fc1-c5ba-4516-94b3-c924ed816501"}
{"nom":"Plogonnec","nomNormalise":"plogonnec","typeCollectivite":"Commune","region":"Bretagne","departement":"Finistère","departementCode":"29","adresse":{"street":"4 rue de la Mairie","postalCode":"29180","city":"Plogonnec","country":"France"},"contacts":{"email":"mairie@plogonnec.fr","telephone":"0298917206"},"horaires":"Du Lundi au Vendredi : de 08h45 à 12h00 de 14h00 à 17h30\nLe Samedi : de 09h00 à 12h00\n\nAccueil fermé pendant les vacances scolaires.","latitude":48.077908,"longitude":-4.191519,"website":"https://www.plogonnec.fr/","hasWebsite":true,"hasHoraires":true,"url":"https://lannuaire.service-public.gouv.fr/bretagne/finistere/23878aee-75e0-4a1b-b1c6-2bd1f912e1b0"}
{"nom":"Plomelin","nomNormalise":"plomelin","typeCollectivite":"Commune","region":"Bretagne","departement":"Finistère","departementCode":"29","adresse":{"street":"Plasenn Betziesdorf","postalCode":"29700","city":"Plomelin","country":"France"},"contacts":{"email":"contact@plomelin.bzh","telephone":"0298942557"},"horaires":"Du Lundi au Vendredi : de 08h30 à 12h00 de 13h30 à 17h30\nLe Samedi : de 08h30 à 12h00\n\nAccueil ouvert uniquement pour l'état civil.","latitude":47.93474,"longitude":-4.1529,"website":"https://plomelin.bzh/","hasWebsite":true,"hasHoraires":true,"url":"https://lannuaire.service-public.gouv.fr/bretagne/finistere/63273537-8b37-4c6b-949f-8c865f2f4b3e"}
{"nom":"Plomeur","nomNormalise":"plomeur","typeCollectivite":"Commune","region":"Bretagne","departement":"Finistère","departementCode":"29","adresse":{"street":"1 place de la Mairie","postalCode":"29120","city":"Plomeur","country":"France"},"contacts":{"email":"mairie@plomeur.bzh","telephone":"0298820465"},"horaires":"Du Lundi au Vendredi : de 08h30 à 12h00 de 13h30 à 17h00\nLe Samedi : de 09h00 à 12h00\n\nLe premier samedi de chaque mois : permanence de 9h à 12h","latitude":47.841446,"longitude":-4.283015,"website":"https://plomeur.com/","hasWebsite":true,"hasHoraires":true,"url":"https://lannuaire.service-public.gouv.fr/bretagne/finistere/2997de10-484b-4a9f-b33d-c4cf3fafea1c"}
{"nom":"Plomodiern","nomNormalise":"plomodiern","typeCollectivite":"Commune","region":"Bretagne","departement":"Finistère","departementCode":"29","adresse":{"street":"20 rue Docteur-Vourc'h","postalCode":"29550","city":"Plomodiern","country":"France"},"contacts":{"email":"mairie@plomodiern.bzh","telephone":"0298815129"},"horaires":"Du Lundi au Mardi : de 08h30 à 12h15 de 13h30 à 17h00\nLe Mercredi : de 08h30 à 12h00\nDu Jeudi au Vendredi : de 08h30 à 12h15 de 13h30 à 17h00\nLe Samedi : de 08h30 à 12h00","latitude":48.180416,"longitude":-4.23194,"website":"https://www.plomodiern.bzh/","hasWebsite":true,"hasHoraires":true,"url":"https://lannuaire.service-public.gouv.fr/bretagne/finistere/9decb878-2666-47c4-94a9-63be41d05611"}
{"nom":"Plonéis","nomNormalise":"ploneis","typeCollectivite":"Commune","region":"Bretagne","departement":"Finistère","departementCode":"29","adresse":{"street":"27 rue Laennec","postalCode":"29710","city":"Plonéis","country":"France"},"contacts":{"email":"mairie@ploneis.com","telephone":"0298910807"},"horaires":"Le Lundi : de 09h00 à 12h00 de 13h30 à 17h00\nLe Mardi : de 09h00 à 12h00\nDu Mercredi au Vendredi : de 09h00 à 12h00 de 13h30 à 17h00\nLe Samedi : de 09h00 à 12h00","latitude":48.015934,"longitude":-4.207804,"website":"https://www.ploneis.com/fr/","hasWebsite":true,"hasHoraires":true,"url":"https://lannuaire.service-public.gouv.fr/bretagne/finistere/3f2c592d-ffe7-4235-8a33-59ae136126e1"}
{"nom":"Plonéour-Lanvern","nomNormalise":"ploneourlanvern","typeCollectivite":"Commune","region":"Bretagne","departement":"Finistère","departementCode":"29","adresse":{"street":"Place Charles-de-Gaulle","postalCode":"29720","city":"Plonéour-Lanvern","country":"France"},"contacts":{"email":"mairie@ploneour-lanvern.fr","telephone":"0298826600"},"horaires":"Du Lundi au Vendredi : de 08h30 à 12h00 de 13h30 à 17h45\n\nPendant la crise sanitaire accueil sur rendez-vous uniquement.\nLe Samedi : de 08h30 à 12h00\n\nPendant la crise sanitaire accueil sur rendez-vous uniquement.","latitude":47.90322,"longitude":-4.28573,"website":"https://ploneour-lanvern.bzh/","hasWebsite":true,"hasHoraires":true,"url":"https://lannuaire.service-public.gouv.fr/bretagne/finistere/87cfb657-e4dc-4af7-a5eb-03f80385cda5"}
{"nom":"Plonévez-du-Faou","nomNormalise":"plonevezdufaou","typeCollectivite":"Commune","region":"Bretagne","departement":"Finistère","departementCode":"29","adresse":{"street":"2 rue des Frères-Floch","postalCode":"29530","city":"Plonévez-du-Faou","country":"France"},"contacts":{"email":"accueiletatcivil@plonevezdufaou.bzh","telephone":"0298869007"},"horaires":"Du Lundi au Vendredi : de 08h30 à 12h00 de 14h00 à 17h30","latitude":48.25234,"longitude":-3.824718,"website":"https://www.plonevezdufaou.bzh/","hasWebsite":true,"hasHoraires":true,"url":"https://lannuaire.service-public.gouv.fr/bretagne/finistere/a4a4f1c0-e9d6-4f1e-ade3-7d565c40b975"}
{"nom":"Plonévez-Porzay","nomNormalise":"plonevezporzay","typeCollectivite":"Commune","region":"Bretagne","departement":"Finistère","departementCode":"29","adresse":{"street":"5 allée du Stade","postalCode":"29550","city":"Plonévez-Porzay","country":"France"},"contacts":{"email":"mairie-plonevez-porzay@wanadoo.fr","telephone":"0298925023"},"horaires":"Du Lundi au Vendredi : de 08h30 à 12h00 de 13h30 à 17h00\nLe Samedi : de 09h00 à 12h00","latitude":48.125706,"longitude":-4.222001,"website":"https://www.plonevez-porzay.net/public/","hasWebsite":true,"hasHoraires":true,"url":"https://lannuaire.service-public.gouv.fr/bretagne/finistere/cdda9af7-575e-4f9a-884d-56ebc200d96c"}
{"nom":"Plouarzel","nomNormalise":"plouarzel","typeCollectivite":"Commune","region":"Bretagne","departement":"Finistère","departementCode":"29","adresse":{"street":"Place du Général-de-Gaulle","postalCode":"29810","city":"Plouarzel","country":"France"},"contacts":{"email":"mairie@plouarzel.bzh","telephone":"0298896007"},"horaires":"Le Lundi : de 08h30 à 12h00 de 14h30 à 17h00\nLe Mardi : de 08h30 à 12h00 de 13h30 à 17h00\nLe Mercredi : de 08h30 à 12h00\nLe Jeudi : de 08h30 à 12h00 de 13h30 à 17h00\nLe Samedi : de 08h30 à 12h00","latitude":48.43332,"longitude":-4.73254,"website":"https://www.plouarzel.fr/","hasWebsite":true,"hasHoraires":true,"url":"https://lannuaire.service-public.gouv.fr/bretagne/finistere/2fbc2402-cb59-4a3a-977b-fdaa84f387d9"}
{"nom":"Ploudalmézeau","nomNormalise":"ploudalmezeau","typeCollectivite":"Commune","region":"Bretagne","departement":"Finistère","departementCode":"29","adresse":{"street":"Place André-Colin","postalCode":"29830","city":"Ploudalmézeau","country":"France"},"contacts":{"email":"accueil@ploudalmezeau.fr","telephone":"0298481048"},"horaires":"Du Lundi au Jeudi : de 08h30 à 12h00 de 13h30 à 17h00\nLe Vendredi : de 08h30 à 12h00 de 13h30 à 16h00\nLe Samedi : de 10h15 à 12h00\n\nAccueil ouvert uniquement pour l'état civil.","latitude":48.540318,"longitude":-4.657575,"website":"https://www.ploudalmezeau.fr/","hasWebsite":true,"hasHoraires":true,"url":"https://lannuaire.service-public.gouv.fr/bretagne/finistere/93bfad32-5d5b-4375-912d-e6c7c82d9d87"}
{"nom":"Ploudaniel","nomNormalise":"ploudaniel","typeCollectivite":"Commune","region":"Bretagne","departement":"Finistère","departementCode":"29","adresse":{"street":"Coatdaniel","postalCode":"29260","city":"Ploudaniel","country":"France"},"contacts":{"email":"mairie@ploudaniel.bzh","telephone":"0298836157"},"horaires":"Le Lundi : de 08h30 à 12h15 de 13h30 à 17h30\nLe Mardi : de 08h30 à 12h15\nLe Mercredi : de 08h30 à 12h15 de 13h30 à 17h30\nLe Jeudi : de 08h30 à 12h15\nLe Vendredi : de 08h30 à 12h15 de 13h30 à 17h30","latitude":48.536705,"longitude":-4.313196,"website":"https://www.commune-ploudaniel.fr/","hasWebsite":true,"hasHoraires":true,"url":"https://lannuaire.service-public.gouv.fr/bretagne/finistere/d7c9664a-8420-4c81-928b-97d7ff382f66"}
{"nom":"Ploudiry","nomNormalise":"ploudiry","typeCollectivite":"Commune","region":"Bretagne","departement":"Finistère","departementCode":"29","adresse":{"street":"1 place de la Mairie","postalCode":"29800","city":"Ploudiry","country":"France"},"contacts":{"email":"accueil@mairie-ploudiry.fr","telephone":"0298251287"},"horaires":"Du Lundi au Jeudi : de 09h00 à 12h00 de 13h30 à 17h30\nLe Vendredi : de 09h00 à 12h00\nLe Samedi : de 10h00 à 12h00","latitude":48.45325,"longitude":-4.142772,"website":"https://www.mairie-ploudiry.fr/fr/","hasWebsite":true,"hasHoraires":true,"url":"https://lannuaire.service-public.gouv.fr/bretagne/finistere/b38c7bc5-4485-4f69-b81e-df668cdc93f9"}
{"nom":"Plouédern","nomNormalise":"plouedern","typeCollectivite":"Commune","region":"Bretagne","departement":"Finistère","departementCode":"29","adresse":{"street":"1 rue de la Mairie","postalCode":"29800","city":"Plouédern","country":"France"},"contacts":{"email":"mairie@plouedern.fr","telephone":"0298208265"},"horaires":"Du Lundi au Vendredi : de 09h00 à 11h45 de 13h30 à 17h30\nLe Samedi : de 09h00 à 11h45","latitude":48.48436,"longitude":-4.245855,"website":"https://www.plouedern.fr/","hasWebsite":true,"hasHoraires":true,"url":"https://lannuaire.service-public.gouv.fr/bretagne/finistere/4dc28a18-626e-400f-afff-e7b7b6ab98bc"}
{"nom":"Plouégat-Guérand","nomNormalise":"plouegatguerand","typeCollectivite":"Commune","region":"Bretagne","departement":"Finistère","departementCode":"29","adresse":{"street":"13 place du Bourg","postalCode":"29620","city":"Plouégat-Guérand","country":"France"},"contacts":{"email":"accueil@plouegat-guerrand.bzh","telephone":"0298799009"},"horaires":"Du Lundi au Vendredi : de 13h30 à 17h30\nLe Samedi : de 09h00 à 12h00","latitude":48.621006,"longitude":-3.674934,"website":"https://www.plouegat-guerrand.bzh/","hasWebsite":true,"hasHoraires":true,"url":"https://lannuaire.service-public.gouv.fr/bretagne/finistere/9179aca7-46ee-4cec-8173-bcb633e82cc7"}
{"nom":"Plouégat-Moysan","nomNormalise":"plouegatmoysan","typeCollectivite":"Commune","region":"Bretagne","departement":"Finistère","departementCode":"29","adresse":{"street":"16 Hent-Ti-Ker","postalCode":"29650","city":"Plouégat-Moysan","country":"France"},"contacts":{"email":"p-moysan-mairie@wanadoo.fr","telephone":"0298792193"},"horaires":"Du Lundi au Mardi : de 08h30 à 12h30 de 13h30 à 17h30\nLe Mercredi : de 08h30 à 12h30 de 13h30 à 16h30\nLe Jeudi : de 08h30 à 12h30\nLe Vendredi : de 08h30 à 12h30 de 13h30 à 17h00","latitude":48.57227,"longitude":-3.60965,"website":"https://www.plouegat-moysan.fr/","hasWebsite":true,"hasHoraires":true,"url":"https://lannuaire.service-public.gouv.fr/bretagne/finistere/6c67da3b-0bc9-4c0a-aa61-8cfae9937935"}
{"nom":"Plouénan","nomNormalise":"plouenan","typeCollectivite":"Commune","region":"Bretagne","departement":"Finistère","departementCode":"29","adresse":{"street":"7 place Louis-Sévère","postalCode":"29420","city":"Plouénan","country":"France"},"contacts":{"email":"mairieplouenan@wanadoo.fr","telephone":"0298695111"},"horaires":"Du Lundi au Vendredi : de 08h30 à 12h00 de 13h30 à 17h00","latitude":48.62834,"longitude":-3.992316,"website":"https://www.plouenan.bzh/","hasWebsite":true,"hasHoraires":true,"url":"https://lannuaire.service-public.gouv.fr/bretagne/finistere/7e803221-faf5-4ef9-ba64-69f4222bac51"}
{"nom":"Plouescat","nomNormalise":"plouescat","typeCollectivite":"Commune","region":"Bretagne","departement":"Finistère","departementCode":"29","adresse":{"street":"6 rue de la Mairie","postalCode":"29430","city":"Plouescat","country":"France"},"contacts":{"email":"mairie@plouescat.fr","telephone":"0298696013"},"horaires":"Du Lundi au Vendredi : de 08h30 à 12h00 de 13h30 à 17h00\nLe Samedi : de 09h00 à 12h00\n\nPermanence le samedi des semaines paires","latitude":48.65739,"longitude":-4.174019,"website":"https://www.mairie-plouescat.fr/","hasWebsite":true,"hasHoraires":true,"url":"https://lannuaire.service-public.gouv.fr/bretagne/finistere/5dd38435-a5a3-498b-ba67-af216190a672"}
{"nom":"Plouezoc'h","nomNormalise":"plouezoch","typeCollectivite":"Commune","region":"Bretagne","departement":"Finistère","departementCode":"29","adresse":{"street":"18 place du Bourg","postalCode":"29252","city":"Plouezoc'h","country":"France"},"contacts":{"email":"mairie@plouezoch.fr","telephone":"0298672722"},"horaires":"Le Lundi : de 09h00 à 12h00\nDu Mardi au Vendredi : de 09h00 à 12h00 de 13h30 à 17h00\nLe Samedi : de 09h00 à 12h00","latitude":48.63964,"longitude":-3.821871,"website":"https://www.plouezoch.fr/","hasWebsite":true,"hasHoraires":true,"url":"https://lannuaire.service-public.gouv.fr/bretagne/finistere/e842f46c-bca6-4030-8624-5602ac5e27ed"}
{"nom":"Plougar","nomNormalise":"plougar","typeCollectivite":"Commune","region":"Bretagne","departement":"Finistère","departementCode":"29","adresse":{"street":"1 place de la Mairie","postalCode":"29440","city":"Plougar","country":"France"},"contacts":{"email":"mairie.plougar@wanadoo.fr","telephone":"0298685365"},"horaires":"Le Lundi : de 08h30 à 12h30 de 13h30 à 16h30\nLe Mardi : de 08h30 à 13h00\nLe Mercredi : de 09h00 à 12h00\nLe Jeudi : de 08h30 à 12h30 de 14h00 à 16h30\nLe Vendredi : de 08h30 à 13h00","latitude":48.561905,"longitude":-4.142167,"website":"https://www.plougar.fr/","hasWebsite":true,"hasHoraires":true,"url":"https://lannuaire.service-public.gouv.fr/bretagne/finistere/f652deb4-0334-4d32-bad7-318ef8f65021"}
{"nom":"Plougasnou","nomNormalise":"plougasnou","typeCollectivite":"Commune","region":"Bretagne","departement":"Finistère","departementCode":"29","adresse":{"street":"14 rue François-Charles","postalCode":"29630","city":"Plougasnou","country":"France"},"contacts":{"email":"contact@plougasnou.fr","telephone":"0298673006"},"horaires":"Du Lundi au Vendredi : de 09h00 à 12h00 de 13h30 à 17h30\nFermée au public le jeudi après-midi","latitude":48.695354,"longitude":-3.790208,"website":"https://www.mairie-plougasnou.fr/","hasWebsite":true,"hasHoraires":true,"url":"https://lannuaire.service-public.gouv.fr/bretagne/finistere/4c86726a-7e19-482d-ad5f-f97f1ec1e144"}
{"nom":"Plougastel-Daoulas","nomNormalise":"plougasteldaoulas","typeCollectivite":"Commune","region":"Bretagne","departement":"Finistère","departementCode":"29","adresse":{"street":"1 rue Jean-Fournier","postalCode":"29470","city":"Plougastel-Daoulas","country":"France"},"contacts":{"email":"tiker@mairie-plougastel.fr","telephone":"0298375757"},"horaires":"Du Lundi au Vendredi : de 08h30 à 12h00 de 13h30 à 17h30\nLe Samedi : de 09h00 à 12h00\n\nAccueil ouvert uniquement pour l'état civil.","latitude":48.373703,"longitude":-4.369788,"website":"https://ville-plougastel.bzh/","hasWebsite":true,"hasHoraires":true,"url":"https://lannuaire.service-public.gouv.fr/bretagne/finistere/926633fa-b7e6-4d0b-93f1-77bc3d5d1c33"}
{"nom":"Plougonvelin","nomNormalise":"plougonvelin","typeCollectivite":"Commune","region":"Bretagne","departement":"Finistère","departementCode":"29","adresse":{"street":"3 rue des Martyrs","postalCode":"29217","city":"Plougonvelin","country":"France"},"contacts":{"email":"mairie@plougonvelin.fr","telephone":"0298483021"},"horaires":"Du Lundi au Mardi : de 08h30 à 11h45 de 13h30 à 17h30\nLe Mercredi : de 08h30 à 11h45\nLe Jeudi : de 08h30 à 11h45 de 13h30 à 17h30\nLe Vendredi : de 08h30 à 11h45 de 13h30 à 17h00\nLe Samedi : de 09h00 à 11h45\n\nuvert le 1er et 3e samedi du mois. Accueil ouvert uniquement pour l'état civil.","latitude":48.340626,"longitude":-4.718207,"website":"https://plougonvelin.fr/","hasWebsite":true,"hasHoraires":true,"url":"https://lannuaire.service-public.gouv.fr/bretagne/finistere/eb99a674-19eb-4cce-b428-670a7c6bee42"}
{"nom":"Plougonven","nomNormalise":"plougonven","typeCollectivite":"Commune","region":"Bretagne","departement":"Finistère","departementCode":"29","adresse":{"street":"4 place de la Résistance","postalCode":"29640","city":"Plougonven","country":"France"},"contacts":{"email":"maire@mairie-plougonven.fr","telephone":"0298786404"},"horaires":"Le Lundi : de 09h00 à 12h00 de 14h00 à 17h00\nLe Mardi : de 09h00 à 12h00\nLe Mercredi : de 09h00 à 12h00 de 14h00 à 17h00\nLe Jeudi : de 09h00 à 12h00\nLe Vendredi : de 09h00 à 12h00 de 14h00 à 17h00\nLe Samedi : de 09h00 à 12h00","latitude":48.52068,"longitude":-3.712243,"website":"https://www.plougonven.fr/","hasWebsite":true,"hasHoraires":true,"url":"https://lannuaire.service-public.gouv.fr/bretagne/finistere/0653cdae-a853-4aef-b40e-f9729d45fb0b"}
{"nom":"Plougoulm","nomNormalise":"plougoulm","typeCollectivite":"Commune","region":"Bretagne","departement":"Finistère","departementCode":"29","adresse":{"street":"156 rue de la Mairie","postalCode":"29250","city":"Plougoulm","country":"France"},"contacts":{"email":"mairiedeplougoulm@gmail.com","telephone":"0298299076"},"horaires":"Du Lundi au Mardi : de 08h30 à 12h00 de 13h30 à 17h00\nLe Mercredi : de 08h30 à 12h00\nLe Jeudi : de 08h30 à 12h00 de 13h30 à 17h00\nLe Vendredi : de 08h30 à 12h00 de 13h30 à 16h30\nLe Samedi : de 09h00 à 12h00","latitude":48.6669,"longitude":-4.043901,"website":"https://www.plougoulm.bzh/","hasWebsite":true,"hasHoraires":true,"url":"https://lannuaire.service-public.gouv.fr/bretagne/finistere/792eb972-cb08-44cc-a5cf-85b17b7d01d2"}
{"nom":"Plougourvest","nomNormalise":"plougourvest","typeCollectivite":"Commune","region":"Bretagne","departement":"Finistère","departementCode":"29","adresse":{"street":"2 rue de la Mairie","postalCode":"29400","city":"Plougourvest","country":"France"},"contacts":{"email":"mairie.plougourvest@gmail.com","telephone":"0298685349"},"horaires":"Le Lundi : de 13h30 à 17h30\nDu Mardi au Jeudi : de 08h30 à 12h00 de 13h30 à 17h30\nDu Vendredi au Samedi : de 08h30 à 12h00","latitude":48.55359,"longitude":-4.084862,"website":"https://mairieplougourvest.fr/","hasWebsite":true,"hasHoraires":true,"url":"https://lannuaire.service-public.gouv.fr/bretagne/finistere/a889d156-bf22-493c-8345-43f5775c3803"}
{"nom":"Plouguerneau","nomNormalise":"plouguerneau","typeCollectivite":"Commune","region":"Bretagne","departement":"Finistère","departementCode":"29","adresse":{"street":"12 rue du Verger","postalCode":"29880","city":"Plouguerneau","country":"France"},"contacts":{"email":"mairie@plouguerneau.bzh","telephone":"0298047106"},"horaires":"Le Lundi : de 09h00 à 12h00 de 14h00 à 17h00\nLe Mardi : de 09h00 à 12h00\nDu Mercredi au Vendredi : de 09h00 à 12h00 de 14h00 à 17h00\nLe Samedi : de 09h00 à 12h00","latitude":48.606342,"longitude":-4.504631,"website":"https://plouguerneau.bzh/","hasWebsite":true,"hasHoraires":true,"url":"https://lannuaire.service-public.gouv.fr/bretagne/finistere/6f890e6a-5019-4818-a9b7-0d8453336e13"}
{"nom":"Plouguin","nomNormalise":"plouguin","typeCollectivite":"Commune","region":"Bretagne","departement":"Finistère","departementCode":"29","adresse":{"street":"5 place Eugène-Forest","postalCode":"29830","city":"Plouguin","country":"France"},"contacts":{"email":"mairie@plouguin.fr","telephone":"0298892306"},"horaires":"Du Lundi au Mardi : de 08h45 à 12h00 de 14h00 à 17h00\nLe Mercredi : de 08h45 à 12h00\nDu Jeudi au Vendredi : de 08h45 à 12h00 de 14h00 à 17h00\nLe Samedi : de 09h00 à 11h30","latitude":48.525288,"longitude":-4.599142,"website":"https://plouguin.bzh/","hasWebsite":true,"hasHoraires":true,"url":"https://lannuaire.service-public.gouv.fr/bretagne/finistere/8df3b559-0b10-4fa4-9e74-a7ca0f3a2b5b"}
{"nom":"Plouhinec","nomNormalise":"plouhinec","typeCollectivite":"Commune","region":"Bretagne","departement":"Finistère","departementCode":"29","adresse":{"street":"2 bis rue du Général-de-Gaulle","postalCode":"29780","city":"Plouhinec","country":"France"},"contacts":{"email":"mairie@plouhinec.bzh","telephone":"0298708733"},"horaires":"Du Lundi au Vendredi : de 09h00 à 12h00 de 14h00 à 17h00","latitude":48.014507,"longitude":-4.487307,"website":"https://www.plouhinec.bzh/","hasWebsite":true,"hasHoraires":true,"url":"https://lannuaire.service-public.gouv.fr/bretagne/finistere/74827810-c3e0-4869-9657-5afa78034452"}
{"nom":"Plouider","nomNormalise":"plouider","typeCollectivite":"Commune","region":"Bretagne","departement":"Finistère","departementCode":"29","adresse":{"street":"Place Saint-Didier","postalCode":"29260","city":"Plouider","country":"France"},"contacts":{"email":"mairie@plouider.bzh","telephone":"0298254059"},"horaires":"Du Lundi au Mercredi : de 08h30 à 12h00 de 13h30 à 17h00\nLe Jeudi : de 08h30 à 12h00\nLe Vendredi : de 08h30 à 12h00 de 13h30 à 16h30","latitude":48.6086,"longitude":-4.29853,"website":"https://plouider.bzh/","hasWebsite":true,"hasHoraires":true,"url":"https://lannuaire.service-public.gouv.fr/bretagne/finistere/0cdefb44-627e-4033-8d37-91888fc99b94"}
{"nom":"Plouigneau","nomNormalise":"plouigneau","typeCollectivite":"Commune","region":"Bretagne","departement":"Finistère","departementCode":"29","adresse":{"street":"Place du Général-de-Gaulle","postalCode":"29610","city":"Plouigneau","country":"France"},"contacts":{"email":"mairie@plouigneau.fr","telephone":"0298677009"},"horaires":"Du Lundi au Jeudi : de 08h30 à 12h00 de 13h30 à 17h30\nLe Vendredi : de 08h30 à 12h00 de 13h30 à 16h30\nLe Samedi : de 09h00 à 12h00\n\nAccueil ouvert les semaines paires pour l'état civil.","latitude":48.56762,"longitude":-3.701582,"website":"https://www.plouigneau.fr/","hasWebsite":true,"hasHoraires":true,"url":"https://lannuaire.service-public.gouv.fr/bretagne/finistere/bd501084-2a5c-4423-96cd-ed1fc8f2db7e"}
{"nom":"Ploumoguer","nomNormalise":"ploumoguer","typeCollectivite":"Commune","region":"Bretagne","departement":"Finistère","departementCode":"29","adresse":{"street":"2 rue de Verdun","postalCode":"29810","city":"Ploumoguer","country":"France"},"contacts":{"email":"contact@ploumoguer.bzh","telephone":"0298896205"},"horaires":"Le Lundi : de 09h00 à 12h00\nDu Mardi au Vendredi : de 09h00 à 12h00 de 13h30 à 17h00","latitude":48.403465,"longitude":-4.722167,"website":"https://www.ploumoguer.bzh/","hasWebsite":true,"hasHoraires":true,"url":"https://lannuaire.service-public.gouv.fr/bretagne/finistere/500bb1ad-f99c-44fe-9b2c-205a8edb7820"}
{"nom":"Plounéour-Brignogan-Plages","nomNormalise":"plouneourbrignoganplages","typeCollectivite":"Commune","region":"Bretagne","departement":"Finistère","departementCode":"29","adresse":{"street":"Avenue du Général-de-Gaulle","postalCode":"29890","city":"Plounéour-Brignogan-Plages","country":"France"},"contacts":{"email":"mairie@plouneour-brignogan.bzh","telephone":"0298834006"},"horaires":"Du Lundi au Jeudi : de 08h45 à 12h15\nLe Vendredi : de 08h45 à 12h15 de 14h00 à 17h00\nLe Samedi : de 10h00 à 12h00\n\nAccueil ouvert uniquement les 2e et 4e samedis du mois.","latitude":48.66146,"longitude":-4.327696,"website":"https://plouneour-brignogan-plages.fr/","hasWebsite":true,"hasHoraires":true,"url":"https://lannuaire.service-public.gouv.fr/bretagne/finistere/aebf3192-d0c1-44d0-a130-88901ad6b371"}
{"nom":"Plounéour-Ménez","nomNormalise":"plouneourmenez","typeCollectivite":"Commune","region":"Bretagne","departement":"Finistère","departementCode":"29","adresse":{"street":"6 place de la Mairie","postalCode":"29410","city":"Plounéour-Ménez","country":"France"},"contacts":{"email":"mairie@plouneour-menez.bzh","telephone":"0298780117"},"horaires":"Le Lundi : de 08h45 à 12h00\n\n(Agence postale)\nDu Mardi au Jeudi : de 08h45 à 12h00 de 13h30 à 16h30\nLe Vendredi : de 08h45 à 12h00\n\n(Agence postale)\nLe Samedi : de 09h00 à 12h00\n\n(Agence postale)","latitude":48.439007,"longitude":-3.89131,"website":"https://www.plouneour-menez.bzh/","hasWebsite":true,"hasHoraires":true,"url":"https://lannuaire.service-public.gouv.fr/bretagne/finistere/8fbf24d0-3ae3-4962-adc5-f3ae6d8fe602"}
{"nom":"Mairie déléguée - Plounéour-Trez","nomNormalise":"mairiedelegueeplouneourtrez","typeCollectivite":"Commune","region":"Bretagne","departement":"Finistère","departementCode":"29","adresse":{"street":"Plounéour-Trez","postalCode":"29890","city":"Plounéour-Brignogan-Plages","country":"France"},"contacts":{"email":"mairie.annexe@plouneour-brignogan.bzh","telephone":"0298834103"},"horaires":"Du Lundi au Vendredi : de 08h00 à 12h00","latitude":48.6508,"longitude":-4.31855,"website":"https://plouneour-brignogan-plages.fr/","hasWebsite":true,"hasHoraires":true,"url":"https://lannuaire.service-public.gouv.fr/bretagne/finistere/59fc7ae8-7b34-4e57-8156-95d8ebe61692"}
{"nom":"Plounéventer","nomNormalise":"plouneventer","typeCollectivite":"Commune","region":"Bretagne","departement":"Finistère","departementCode":"29","adresse":{"street":"2 rue de la Mairie","postalCode":"29400","city":"Plounéventer","country":"France"},"contacts":{"email":"mairie@plouneventer.fr","telephone":"0298208157"},"horaires":"Du Lundi au Vendredi : de 09h00 à 12h00 de 13h30 à 17h00\nLe Samedi : de 09h00 à 12h00","latitude":48.5156,"longitude":-4.212538,"website":"https://www.plouneventer.fr/","hasWebsite":true,"hasHoraires":true,"url":"https://lannuaire.service-public.gouv.fr/bretagne/finistere/ce13bb9f-2749-46cb-8035-7bd66d85541f"}
{"nom":"Plounévézel","nomNormalise":"plounevezel","typeCollectivite":"Commune","region":"Bretagne","departement":"Finistère","departementCode":"29","adresse":{"street":"3 rue Jean-Marie-Le-Gall","postalCode":"29270","city":"Plounévézel","country":"France"},"contacts":{"email":"mairie.plounevezel@gmail.com","telephone":"0298931006"},"horaires":"Du Lundi au Mercredi : de 09h00 à 12h00\nDu Jeudi au Vendredi : de 13h30 à 16h30","latitude":48.29829,"longitude":-3.589708,"website":"","hasWebsite":false,"hasHoraires":true,"url":"https://lannuaire.service-public.gouv.fr/bretagne/finistere/60393bd1-7761-4599-83cb-53b0e70430b7"}
{"nom":"Plounévez-Lochrist","nomNormalise":"plounevezlochrist","typeCollectivite":"Commune","region":"Bretagne","departement":"Finistère","departementCode":"29","adresse":{"street":"Place de la Mairie","postalCode":"29430","city":"Plounévez-Lochrist","country":"France"},"contacts":{"email":"accueil@plounevez-lochrist.fr","telephone":"0298614057"},"horaires":"Du Lundi au Mercredi : de 08h30 à 12h00 de 13h30 à 17h00\nLe Jeudi : de 08h30 à 12h00\nLe Vendredi : de 08h30 à 12h00 de 13h30 à 17h00\nLe Samedi : de 09h00 à 12h00","latitude":48.61694,"longitude":-4.21268,"website":"https://plounevez-lochrist.fr/fr/","hasWebsite":true,"hasHoraires":true,"url":"https://lannuaire.service-public.gouv.fr/bretagne/finistere/697aff7e-a4d2-498a-a371-8d0f962f7a40"}
{"nom":"Plourin","nomNormalise":"plourin","typeCollectivite":"Commune","region":"Bretagne","departement":"Finistère","departementCode":"29","adresse":{"street":"1 place An-Ty-Kear","postalCode":"29830","city":"Plourin","country":"France"},"contacts":{"email":"accueil@mairie-plourin.fr","telephone":"0298043157"},"horaires":"Du Lundi au Vendredi : de 09h00 à 12h30 de 13h30 à 16h00\nLe Samedi : de 09h00 à 11h30\n\nde septembre à juin","latitude":48.50941,"longitude":-4.68697,"website":"https://www.plourin.fr/","hasWebsite":true,"hasHoraires":true,"url":"https://lannuaire.service-public.gouv.fr/bretagne/finistere/61a62df2-f89e-4a10-b1eb-5cdf50a4bb1a"}
{"nom":"Plourin-lès-Morlaix","nomNormalise":"plourinlesmorlaix","typeCollectivite":"Commune","region":"Bretagne","departement":"Finistère","departementCode":"29","adresse":{"street":"Place de la Mairie","postalCode":"29600","city":"Plourin-lès-Morlaix","country":"France"},"contacts":{"email":"mairie@plourin-morlaix.bzh","telephone":"0298725155"},"horaires":"Du Lundi au Jeudi : de 09h00 à 12h00 de 13h30 à 17h00\nLe Vendredi : de 09h00 à 12h00 de 13h30 à 18h30\n\nUniquement pour l'accueil état civil de 17h à 18h30.","latitude":48.53513,"longitude":-3.79056,"website":"https://www.plourin-morlaix.bzh/","hasWebsite":true,"hasHoraires":true,"url":"https://lannuaire.service-public.gouv.fr/bretagne/finistere/d995b1c5-6e28-4d3f-941b-139abed6aa01"}
{"nom":"Plouvien","nomNormalise":"plouvien","typeCollectivite":"Commune","region":"Bretagne","departement":"Finistère","departementCode":"29","adresse":{"street":"1 place de la Mairie","postalCode":"29860","city":"Plouvien","country":"France"},"contacts":{"email":"mairie@plouvien.fr","telephone":"0298409116"},"horaires":"Du Lundi au Mardi : de 08h30 à 12h00 de 13h30 à 17h00\nLe Mercredi : de 08h30 à 12h00\nLe Jeudi : de 08h30 à 12h00 de 13h30 à 17h00\nLe Vendredi : de 08h30 à 12h00 de 13h30 à 16h00\nLe Samedi : de 09h00 à 11h30\n\nAccueil fermé en juillet-août.\nAgence postale ouverte aux mêmes horaires.","latitude":48.529896,"longitude":-4.451344,"website":"https://www.plouvien.fr/","hasWebsite":true,"hasHoraires":true,"url":"https://lannuaire.service-public.gouv.fr/bretagne/finistere/4eceb057-50ae-40c4-8bdc-9b8417b5ef22"}
{"nom":"Plouvorn","nomNormalise":"plouvorn","typeCollectivite":"Commune","region":"Bretagne","departement":"Finistère","departementCode":"29","adresse":{"street":"Rue Gueven","postalCode":"29420","city":"Plouvorn","country":"France"},"contacts":{"email":"commune-de-plouvorn@wanadoo.fr","telephone":"0298613240"},"horaires":"Du Lundi au Mardi : de 09h00 à 12h00 de 13h30 à 17h00\nLe Mercredi : de 09h00 à 12h00\nDu Jeudi au Vendredi : de 09h00 à 12h00 de 13h30 à 17h00\nLe Samedi : de 09h00 à 12h00","latitude":48.57957,"longitude":-4.03777,"website":"https://plouvorn.com/","hasWebsite":true,"hasHoraires":true,"url":"https://lannuaire.service-public.gouv.fr/bretagne/finistere/de04c581-759c-40ad-9a4f-d807b5129c2e"}
{"nom":"Plouyé","nomNormalise":"plouye","typeCollectivite":"Commune","region":"Bretagne","departement":"Finistère","departementCode":"29","adresse":{"street":"5 rue de la Mairie","postalCode":"29690","city":"Plouyé","country":"France"},"contacts":{"email":"contact@mairie-plouye.fr","telephone":"0298997007"},"horaires":"Du Lundi au Mercredi : de 09h00 à 12h00 de 13h00 à 17h00\nLe Jeudi : de 09h00 à 12h00\nLe Vendredi : de 09h00 à 12h00 de 13h00 à 17h00","latitude":48.314095,"longitude":-3.735654,"website":"https://www.mairie-plouye.bzh/","hasWebsite":true,"hasHoraires":true,"url":"https://lannuaire.service-public.gouv.fr/bretagne/finistere/fdfb2366-ad4e-485a-b2fa-a3a9c771e6e2"}
{"nom":"Plouzané","nomNormalise":"plouzane","typeCollectivite":"Commune","region":"Bretagne","departement":"Finistère","departementCode":"29","adresse":{"street":"Place de la République","postalCode":"29280","city":"Plouzané","country":"France"},"contacts":{"email":"mairie@plouzane.fr","telephone":"0298319530"},"horaires":"Le Lundi : de 08h30 à 12h30 de 13h30 à 17h30\nLe Mardi : de 08h30 à 12h30 de 13h30 à 16h30\nDu Mercredi au Vendredi : de 08h30 à 12h30 de 13h30 à 17h30\nLe Samedi : de 09h00 à 12h00\n\nAccueil ouvert uniquement pour l'état civil.","latitude":48.38022,"longitude":-4.601237,"website":"https://plouzane.bzh/","hasWebsite":true,"hasHoraires":true,"url":"https://lannuaire.service-public.gouv.fr/bretagne/finistere/f6a032ee-3ea8-4cf7-b15f-5b564a6bfae6"}
{"nom":"Plouzévédé","nomNormalise":"plouzevede","typeCollectivite":"Commune","region":"Bretagne","departement":"Finistère","departementCode":"29","adresse":{"street":"4 place de la Mairie","postalCode":"29440","city":"Plouzévédé","country":"France"},"contacts":{"email":"accueil-mairie@plouzevede.fr","telephone":"0298699818"},"horaires":"Le Lundi : de 08h30 à 12h00 de 13h30 à 17h30\nLe Mardi : de 08h30 à 12h00\nDu Mercredi au Jeudi : de 08h30 à 12h00 de 13h30 à 17h30\nDu Vendredi au Samedi : de 08h30 à 12h00","latitude":48.596207,"longitude":-4.113181,"website":"https://www.plouzevede.fr/","hasWebsite":true,"hasHoraires":true,"url":"https://lannuaire.service-public.gouv.fr/bretagne/finistere/9b1ccd56-6fa5-4c9a-bc86-73707b994969"}
{"nom":"Plovan","nomNormalise":"plovan","typeCollectivite":"Commune","region":"Bretagne","departement":"Finistère","departementCode":"29","adresse":{"street":"2 rue de la Mairie","postalCode":"29720","city":"Plovan","country":"France"},"contacts":{"email":"mairie@plovan.bzh","telephone":"0298544207"},"horaires":"Du Lundi au Mardi : de 09h00 à 12h00 de 14h00 à 17h00\nLe Mercredi : de 09h00 à 12h00\nDu Jeudi au Vendredi : de 09h00 à 12h00 de 14h00 à 17h00\nLe Samedi : de 09h00 à 12h00","latitude":47.915928,"longitude":-4.361306,"website":"","hasWebsite":false,"hasHoraires":true,"url":"https://lannuaire.service-public.gouv.fr/bretagne/finistere/64dd10df-e1b9-46cd-a414-a601e917d6ea"}
{"nom":"Plozévet","nomNormalise":"plozevet","typeCollectivite":"Commune","region":"Bretagne","departement":"Finistère","departementCode":"29","adresse":{"street":"14 rue Jules-Ferry","postalCode":"29710","city":"Plozévet","country":"France"},"contacts":{"email":"infomairie@plozevet.bzh","telephone":"0298913010"},"horaires":"Du Lundi au Vendredi : de 09h00 à 12h00 de 13h30 à 17h00","latitude":47.987774,"longitude":-4.425438,"website":"https://www.plozevet.bzh/","hasWebsite":true,"hasHoraires":true,"url":"https://lannuaire.service-public.gouv.fr/bretagne/finistere/122abdbd-53c8-4e99-96e9-9847d17c90e0"}
{"nom":"Pluguffan","nomNormalise":"pluguffan","typeCollectivite":"Commune","region":"Bretagne","departement":"Finistère","departementCode":"29","adresse":{"street":"16 bis rue de Quimper","postalCode":"29700","city":"Pluguffan","country":"France"},"contacts":{"email":"mairie@pluguffan.bzh","telephone":"0298940111"},"horaires":"Du Lundi au Vendredi : de 08h30 à 12h30 de 13h30 à 17h30\nLe Samedi : de 10h00 à 12h00\n\nAccueil ouvert uniquement pour l'état civil.","latitude":47.979424,"longitude":-4.177493,"website":"https://pluguffan.bzh/","hasWebsite":true,"hasHoraires":true,"url":"https://lannuaire.service-public.gouv.fr/bretagne/finistere/454ad066-59ee-4828-af6f-227f0a51a598"}
{"nom":"Pont-Aven","nomNormalise":"pontaven","typeCollectivite":"Commune","region":"Bretagne","departement":"Finistère","departementCode":"29","adresse":{"street":"29 rue Louis-Lomenech","postalCode":"29930","city":"Pont-Aven","country":"France"},"contacts":{"email":"mairie@pont-aven.fr","telephone":"0298060035"},"horaires":"Du Lundi au Mardi : de 08h00 à 12h00 de 13h15 à 17h00\nLe Mercredi : de 09h00 à 12h00\nDu Jeudi au Vendredi : de 08h00 à 12h00 de 13h15 à 17h00","latitude":47.855164,"longitude":-3.744628,"website":"https://www.pontaven.fr/","hasWebsite":true,"hasHoraires":true,"url":"https://lannuaire.service-public.gouv.fr/bretagne/finistere/468a8a09-0792-4924-992e-bae40af11862"}
{"nom":"Pont-Croix","nomNormalise":"pontcroix","typeCollectivite":"Commune","region":"Bretagne","departement":"Finistère","departementCode":"29","adresse":{"street":"26 rue du Docteur-Néis","postalCode":"29790","city":"Pont-Croix","country":"France"},"contacts":{"email":"pontcroix.mairie@wanadoo.fr","telephone":"0298704066"},"horaires":"Du Lundi au Vendredi : de 09h00 à 12h00 de 13h30 à 17h00","latitude":48.04099,"longitude":-4.486162,"website":"https://www.pont-croix.fr/","hasWebsite":true,"hasHoraires":true,"url":"https://lannuaire.service-public.gouv.fr/bretagne/finistere/78f0b609-51e0-4f81-b2cf-1d89414e7204"}
{"nom":"Pont-de-Buis-lès-Quimerc'h","nomNormalise":"pontdebuislesquimerch","typeCollectivite":"Commune","region":"Bretagne","departement":"Finistère","departementCode":"29","adresse":{"street":"2 esplanade du Général-de-Gaulle","postalCode":"29590","city":"Pont-de-Buis-lès-Quimerc'h","country":"France"},"contacts":{"email":"accueil-mairie@pontdebuislesquimerch.fr","telephone":"0298730438"},"horaires":"Du Lundi au Jeudi : de 08h30 à 12h00 de 13h30 à 17h30\nLe Vendredi : de 08h30 à 12h00 de 13h30 à 17h00\nLe Samedi : de 08h30 à 12h00","latitude":48.254646,"longitude":-4.089783,"website":"https://www.pontdebuislesquimerch.fr/","hasWebsite":true,"hasHoraires":true,"url":"https://lannuaire.service-public.gouv.fr/bretagne/finistere/7eff0d57-fc61-4635-8da0-11819079d075"}
{"nom":"Pont-l'Abbé","nomNormalise":"pontlabbe","typeCollectivite":"Commune","region":"Bretagne","departement":"Finistère","departementCode":"29","adresse":{"street":"Square de l'Europe","postalCode":"29120","city":"Pont-l'Abbé","country":"France"},"contacts":{"email":"accueil@ville-pontlabbe.fr","telephone":"0298660909"},"horaires":"Du Lundi au Jeudi : de 08h30 à 12h30 de 14h00 à 17h30\nLe Vendredi : de 08h30 à 12h30 de 14h00 à 16h30\nLe Samedi : de 09h00 à 12h00\n\nHors vacances scolaires. Accueil ouvert uniquement pour l'état civil.","latitude":47.86667,"longitude":-4.22226,"website":"https://ville-pontlabbe.bzh/","hasWebsite":true,"hasHoraires":true,"url":"https://lannuaire.service-public.gouv.fr/bretagne/finistere/7767b4c5-288b-49fc-90cd-5aabc733923b"}
{"nom":"Porspoder","nomNormalise":"porspoder","typeCollectivite":"Commune","region":"Bretagne","departement":"Finistère","departementCode":"29","adresse":{"street":"1 rue de la Mairie","postalCode":"29840","city":"Porspoder","country":"France"},"contacts":{"email":"accueil@porspoder.fr","telephone":"0298899027"},"horaires":"Du Lundi au Mardi : de 09h00 à 12h00 de 13h30 à 16h30\nDu Jeudi au Vendredi : de 09h00 à 12h00 de 13h30 à 16h30\nLe Samedi : de 10h00 à 12h00\n\nPendant la crise sanitaire accueil les lundis, mardis, jeudis et vendredis de 9h à 12h et de 14h à 16h30.","latitude":48.508625,"longitude":-4.765819,"website":"https://www.porspoder.fr/","hasWebsite":true,"hasHoraires":true,"url":"https://lannuaire.service-public.gouv.fr/bretagne/finistere/59bcca51-073d-415c-a9e4-1e6be91828b6"}
{"nom":"Port-Launay","nomNormalise":"portlaunay","typeCollectivite":"Commune","region":"Bretagne","departement":"Finistère","departementCode":"29","adresse":{"street":"Place Général-de-Gaulle","postalCode":"29150","city":"Port-Launay","country":"France"},"contacts":{"email":"port.launay@orange.fr","telephone":"0298860963"},"horaires":"Du Lundi au Mardi : de 08h30 à 12h30\nDu Jeudi au Vendredi : de 08h30 à 12h30\nLe Samedi : de 10h00 à 12h00","latitude":48.21523,"longitude":-4.0732746,"website":"https://www.port-launay.fr/","hasWebsite":true,"hasHoraires":true,"url":"https://lannuaire.service-public.gouv.fr/bretagne/finistere/6640293d-3ae8-4062-bac2-a087b590f322"}
{"nom":"Pouldergat","nomNormalise":"pouldergat","typeCollectivite":"Commune","region":"Bretagne","departement":"Finistère","departementCode":"29","adresse":{"street":"1 bis rue Ar-Ster","postalCode":"29100","city":"Pouldergat","country":"France"},"contacts":{"email":"accueil@pouldergat.fr","telephone":"0298746126"},"horaires":"Du Lundi au Vendredi : de 09h00 à 12h00\nLe Samedi : de 10h00 à 12h00\n\nPermanence des élus.","latitude":48.042835,"longitude":-4.326221,"website":"https://www.pouldergat.fr/","hasWebsite":true,"hasHoraires":true,"url":"https://lannuaire.service-public.gouv.fr/bretagne/finistere/56cc120e-982c-4880-a1dc-314ec71b8074"}
{"nom":"Pouldreuzic","nomNormalise":"pouldreuzic","typeCollectivite":"Commune","region":"Bretagne","departement":"Finistère","departementCode":"29","adresse":{"street":"6 rue de la Mairie","postalCode":"29710","city":"Pouldreuzic","country":"France"},"contacts":{"email":"mairie@pouldreuzic.bzh","telephone":"0298544032"},"horaires":"Le Lundi : de 08h30 à 12h00 de 13h30 à 17h30\nLe Mardi : de 08h30 à 12h00\nLe Mercredi : de 08h30 à 12h00 de 13h30 à 17h00\nLe Jeudi : de 08h30 à 12h00\nLe Vendredi : de 08h30 à 12h00 de 13h30 à 17h00\nLe Samedi : de 09h00 à 12h00","latitude":47.953686,"longitude":-4.35753,"website":"https://www.pouldreuzic.bzh/","hasWebsite":true,"hasHoraires":true,"url":"https://lannuaire.service-public.gouv.fr/bretagne/finistere/fadde84e-542a-4ac6-a2cb-fc71a8fed9d9"}
{"nom":"Poullan-sur-Mer","nomNormalise":"poullansurmer","typeCollectivite":"Commune","region":"Bretagne","departement":"Finistère","departementCode":"29","adresse":{"street":"Place Bel-Air","postalCode":"29100","city":"Poullan-sur-Mer","country":"France"},"contacts":{"email":"mairie.poullan@orange.fr","telephone":"0298740392"},"horaires":"Le Lundi : de 08h30 à 12h00 de 13h30 à 17h30\nLe Mardi : de 08h30 à 12h00\nLe Mercredi : de 08h30 à 12h00 de 13h30 à 17h30\nLe Jeudi : de 08h30 à 12h00\nLe Vendredi : de 08h30 à 12h00 de 13h30 à 16h30","latitude":48.08081,"longitude":-4.415605,"website":"http://www.poullan-sur-mer.fr/","hasWebsite":true,"hasHoraires":true,"url":"https://lannuaire.service-public.gouv.fr/bretagne/finistere/544b9148-d13a-46a1-b2c5-a74d6afd9c66"}
{"nom":"Poullaouën","nomNormalise":"poullaouen","typeCollectivite":"Commune","region":"Bretagne","departement":"Finistère","departementCode":"29","adresse":{"street":"1 place de la Mairie","postalCode":"29246","city":"Poullaouën","country":"France"},"contacts":{"email":"mairie-de-poullaouen@wanadoo.fr","telephone":"0298935076"},"horaires":"Du Lundi au Vendredi : de 08h30 à 12h00 de 13h30 à 17h15\n\nFermée au public le lundi matin et le jeudi après-midi.","latitude":48.340027,"longitude":-3.642694,"website":"https://mairie-poullaouen.fr/","hasWebsite":true,"hasHoraires":true,"url":"https://lannuaire.service-public.gouv.fr/bretagne/finistere/88ed9113-420a-45bf-bdb0-6d9a09ff57f4"}
{"nom":"Primelin","nomNormalise":"primelin","typeCollectivite":"Commune","region":"Bretagne","departement":"Finistère","departementCode":"29","adresse":{"street":"4 place de la Mairie","postalCode":"29770","city":"Primelin","country":"France"},"contacts":{"email":"mairie.primelin@wanadoo.fr","telephone":"0298748119"},"horaires":"Le Lundi : de 09h00 à 12h00 de 13h30 à 17h30\nLe Mardi : de 09h00 à 12h00\nLe Mercredi : de 09h00 à 12h00 de 13h30 à 17h30\nLe Jeudi : de 09h00 à 12h00\nLe Vendredi : de 09h00 à 12h00 de 13h30 à 17h30\nLe Samedi : de 09h00 à 12h00","latitude":48.02538,"longitude":-4.610614,"website":"https://primelin.fr/","hasWebsite":true,"hasHoraires":true,"url":"https://lannuaire.service-public.gouv.fr/bretagne/finistere/b978d24b-3ddf-46f0-8491-b7aa17f6b79d"}
{"nom":"Quéménéven","nomNormalise":"quemeneven","typeCollectivite":"Commune","region":"Bretagne","departement":"Finistère","departementCode":"29","adresse":{"street":"2 rue Saint-Laurent","postalCode":"29180","city":"Quéménéven","country":"France"},"contacts":{"email":"mairie@quemeneven.bzh","telephone":"0298735333"},"horaires":"Le Lundi : de 09h00 à 12h30 de 13h30 à 17h00\nLe Mardi : de 09h00 à 12h30\nLe Mercredi : de 09h00 à 12h30 de 13h30 à 17h00\nLe Jeudi : de 09h00 à 12h30\nLe Vendredi : de 09h00 à 12h30 de 13h30 à 16h30","latitude":48.115982,"longitude":-4.120124,"website":"https://quemeneven.bzh/","hasWebsite":true,"hasHoraires":true,"url":"https://lannuaire.service-public.gouv.fr/bretagne/finistere/b3441b3a-9ac5-4871-9e20-6e1af51362f8"}
{"nom":"Querrien","nomNormalise":"querrien","typeCollectivite":"Commune","region":"Bretagne","departement":"Finistère","departementCode":"29","adresse":{"street":"7 place de l'Église","postalCode":"29310","city":"Querrien","country":"France"},"contacts":{"email":"mairie@querrien.bzh","telephone":"0298713421"},"horaires":"Le Lundi : de 09h00 à 12h00 de 13h30 à 17h00\nLe Mardi : de 09h00 à 12h00\nLe Mercredi : de 09h00 à 12h00 de 13h30 à 17h00\nLe Jeudi : de 09h00 à 12h00\nLe Vendredi : de 09h00 à 12h00 de 13h30 à 17h00\nLe Samedi : de 09h00 à 12h00\n\nFermé pendant les vaances de juillet et août ainsi que pendant les fêtes de fin d'année.\nFermé pendant les vacances de juillet et août ainsi que pendant les fêtes de fin d'année.","latitude":47.959404,"longitude":-3.536545,"website":"https://www.querrien.bzh/","hasWebsite":true,"hasHoraires":true,"url":"https://lannuaire.service-public.gouv.fr/bretagne/finistere/6b62acaf-cf17-4507-b982-83805766d029"}
{"nom":"Quimper","nomNormalise":"quimper","typeCollectivite":"Commune","region":"Bretagne","departement":"Finistère","departementCode":"29","adresse":{"street":"44 place Saint-Corentin","postalCode":"29000","city":"Quimper","country":"France"},"contacts":{"email":"contact@quimper.bzh","telephone":"0298988989"},"horaires":"Du Lundi au Vendredi : de 08h30 à 17h00\nLe Samedi : de 09h00 à 12h00","latitude":47.996193,"longitude":-4.102035,"website":"https://www.quimper.bzh/","hasWebsite":true,"hasHoraires":true,"url":"https://lannuaire.service-public.gouv.fr/bretagne/finistere/7c8aff31-288c-463b-9810-91fbc74c8353"}
{"nom":"Quimperlé","nomNormalise":"quimperle","typeCollectivite":"Commune","region":"Bretagne","departement":"Finistère","departementCode":"29","adresse":{"street":"32 rue de Pont-Aven","postalCode":"29300","city":"Quimperlé","country":"France"},"contacts":{"email":"mairie@quimperle.bzh","telephone":"0298963737"},"horaires":"Du Lundi au Vendredi : de 08h30 à 12h30 de 13h30 à 17h00\n\nLe jeudi, réouverture à 14h30.\nLe Samedi : de 09h00 à 12h00\n\nAccueil ouvert uniquement pour l'état civil.","latitude":47.873634,"longitude":-3.551328,"website":"https://www.quimperle.bzh/","hasWebsite":true,"hasHoraires":true,"url":"https://lannuaire.service-public.gouv.fr/bretagne/finistere/80191522-4837-4f57-acb1-15ef047c2d3f"}
{"nom":"Rédéné","nomNormalise":"redene","typeCollectivite":"Commune","region":"Bretagne","departement":"Finistère","departementCode":"29","adresse":{"street":"Place de l'Église","postalCode":"29300","city":"Rédéné","country":"France"},"contacts":{"email":"mairie@redene.bzh","telephone":"0298967044"},"horaires":"Du Lundi au Mardi : de 08h45 à 12h15 de 13h30 à 17h30\nLe Mercredi : de 08h45 à 12h15\nDu Jeudi au Vendredi : de 08h45 à 12h15 de 13h30 à 17h30\nLe Samedi : de 09h00 à 12h00","latitude":47.86018,"longitude":-3.4609375,"website":"https://redene.bzh/","hasWebsite":true,"hasHoraires":true,"url":"https://lannuaire.service-public.gouv.fr/bretagne/finistere/05b994b8-5425-4720-8eae-a8429e1e5b33"}
{"nom":"Riec-sur-Bélon","nomNormalise":"riecsurbelon","typeCollectivite":"Commune","region":"Bretagne","departement":"Finistère","departementCode":"29","adresse":{"street":"4 rue François-Cadoret","postalCode":"29340","city":"Riec-sur-Bélon","country":"France"},"contacts":{"email":"accueil@riecsurbelon.bzh","telephone":"0298069104"},"horaires":"Du Lundi au Mercredi : de 08h30 à 12h00 de 14h00 à 17h00\nLe Jeudi : de 08h30 à 12h00\nLe Vendredi : de 08h30 à 12h00 de 14h00 à 17h00\nLe Samedi : de 10h00 à 11h30","latitude":47.842777,"longitude":-3.69346,"website":"https://www.riecsurbelon.bzh/","hasWebsite":true,"hasHoraires":true,"url":"https://lannuaire.service-public.gouv.fr/bretagne/finistere/560860a0-e797-40c7-bc95-98d87002c060"}
{"nom":"Roscanvel","nomNormalise":"roscanvel","typeCollectivite":"Commune","region":"Bretagne","departement":"Finistère","departementCode":"29","adresse":{"street":"7 bis Rue de la Mairie","postalCode":"29570","city":"Roscanvel","country":"France"},"contacts":{"email":"mairie@roscanvel.fr","telephone":"0298274851"},"horaires":"Du Lundi au Vendredi : de 08h30 à 12h00 de 13h30 à 17h00","latitude":48.315037,"longitude":-4.546989,"website":"https://www.roscanvel.fr/","hasWebsite":true,"hasHoraires":true,"url":"https://lannuaire.service-public.gouv.fr/bretagne/finistere/3ac1d7b9-f189-4aa7-997a-1f56e24165d1"}
{"nom":"Roscoff","nomNormalise":"roscoff","typeCollectivite":"Commune","region":"Bretagne","departement":"Finistère","departementCode":"29","adresse":{"street":"6 rue Louis-Pasteur","postalCode":"29680","city":"Roscoff","country":"France"},"contacts":{"email":"secretariat@roscoff.bzh","telephone":"0298244300"},"horaires":"Du Lundi au Mercredi : de 08h30 à 12h00 de 13h30 à 17h00\nLe Jeudi : de 08h30 à 12h00\nLe Vendredi : de 08h30 à 12h00 de 13h30 à 17h00","latitude":48.7263,"longitude":-3.98543,"website":"https://roscoff.bzh/","hasWebsite":true,"hasHoraires":true,"url":"https://lannuaire.service-public.gouv.fr/bretagne/finistere/18a44861-28d4-411c-b844-7d3a227795e3"}
{"nom":"Rosnoën","nomNormalise":"rosnoen","typeCollectivite":"Commune","region":"Bretagne","departement":"Finistère","departementCode":"29","adresse":{"street":"5 place de l'Église","postalCode":"29590","city":"Rosnoën","country":"France"},"contacts":{"email":"secretariat@mairiederosnoen.fr","telephone":"0298819197"},"horaires":"Le Lundi : de 09h00 à 12h00 de 16h00 à 17h30\nLe Mardi : de 09h00 à 12h00 de 13h30 à 17h30\nLe Mercredi : de 09h00 à 12h00\nLe Jeudi : de 09h00 à 12h00 de 13h30 à 17h30\nLe Vendredi : de 09h00 à 12h00 de 16h00 à 17h30","latitude":48.263588,"longitude":-4.195158,"website":"https://www.mairiederosnoen.fr/","hasWebsite":true,"hasHoraires":true,"url":"https://lannuaire.service-public.gouv.fr/bretagne/finistere/4840e63e-dae3-473e-b215-1f605e7d795d"}
{"nom":"Rosporden-Kernével","nomNormalise":"rospordenkernevel","typeCollectivite":"Commune","region":"Bretagne","departement":"Finistère","departementCode":"29","adresse":{"street":"10 rue de Reims","postalCode":"29140","city":"Rosporden","country":"France"},"contacts":{"email":"contact@mairie-rosporden.fr","telephone":"0298669900"},"horaires":"Du Lundi au Jeudi : de 08h30 à 12h00 de 13h30 à 17h00\nLe Vendredi : de 08h30 à 12h00 de 13h30 à 16h30\nLe Samedi : de 09h00 à 12h00\n\nPermanence état-civil","latitude":47.959354,"longitude":-3.82756,"website":"https://mairie-rosporden.bzh/","hasWebsite":true,"hasHoraires":true,"url":"https://lannuaire.service-public.gouv.fr/bretagne/finistere/1cf55631-95d2-4bf8-a7f8-cd0865e024cf"}
{"nom":"Saint-Coulitz","nomNormalise":"saintcoulitz","typeCollectivite":"Commune","region":"Bretagne","departement":"Finistère","departementCode":"29","adresse":{"street":"19 place François-Mitterrand","postalCode":"29150","city":"Saint-Coulitz","country":"France"},"contacts":{"email":"mairie.saint-coulitz@orange.fr","telephone":"0298861765"},"horaires":"Du Mardi au Vendredi : de 08h30 à 12h30 de 13h30 à 17h15","latitude":48.190697,"longitude":-4.05972,"website":"https://www.saint-coulitz.fr/","hasWebsite":true,"hasHoraires":true,"url":"https://lannuaire.service-public.gouv.fr/bretagne/finistere/dbe47e0a-b325-413c-a71d-57be8ab5359c"}
{"nom":"Saint-Derrien","nomNormalise":"saintderrien","typeCollectivite":"Commune","region":"Bretagne","departement":"Finistère","departementCode":"29","adresse":{"street":"14 le Bourg","postalCode":"29440","city":"Saint-Derrien","country":"France"},"contacts":{"email":"saint-derrien@orange.fr","telephone":"0298685244"},"horaires":"Du Lundi au Mercredi : de 09h00 à 12h00\nLe Vendredi : de 09h00 à 12h00","latitude":48.190697,"longitude":-4.05972,"website":"https://saint-derrien.fr/","hasWebsite":true,"hasHoraires":true,"url":"https://lannuaire.service-public.gouv.fr/bretagne/finistere/52c18003-b8ad-444e-b9a1-1e74c45d815c"}
{"nom":"Saint-Divy","nomNormalise":"saintdivy","typeCollectivite":"Commune","region":"Bretagne","departement":"Finistère","departementCode":"29","adresse":{"street":"Place de l'Église","postalCode":"29800","city":"Saint-Divy","country":"France"},"contacts":{"email":"mairie@stdivy.fr","telephone":"0298202090"},"horaires":"Le Lundi : de 08h30 à 12h00 de 13h30 à 17h00\nLe Mardi : de 08h30 à 12h00\nLe Mercredi : de 08h30 à 12h00 de 13h30 à 17h00\nLe Jeudi : de 08h30 à 12h00\nLe Vendredi : de 08h30 à 12h00 de 13h30 à 17h00\nLe Samedi : de 09h00 à 11h30\n\nSauf juillet et août","latitude":48.45393,"longitude":-4.33529,"website":"https://wp.saint-divy.fr/","hasWebsite":true,"hasHoraires":true,"url":"https://lannuaire.service-public.gouv.fr/bretagne/finistere/2f071082-4122-4099-9ac0-25a257830160"}
{"nom":"Saint-Eloy","nomNormalise":"sainteloy","typeCollectivite":"Commune","region":"Bretagne","departement":"Finistère","departementCode":"29","adresse":{"street":"2 chemin des Écoliers","postalCode":"29460","city":"Saint-Eloy","country":"France"},"contacts":{"email":"mairie@saint-eloy.bzh","telephone":"0298219676"},"horaires":"Le Mardi : de 08h30 à 12h00 de 13h30 à 17h00\nLe Vendredi : de 08h30 à 12h00 de 13h30 à 17h00","latitude":48.361973,"longitude":-4.123,"website":"https://www.saint-eloy.fr/","hasWebsite":true,"hasHoraires":true,"url":"https://lannuaire.service-public.gouv.fr/bretagne/finistere/3cac19ad-d2c8-4552-939a-72319e65b4c7"}
{"nom":"Sainte-Sève","nomNormalise":"sainteseve","typeCollectivite":"Commune","region":"Bretagne","departement":"Finistère","departementCode":"29","adresse":{"street":"4 rue de la Mairie","postalCode":"29600","city":"Sainte-Sève","country":"France"},"contacts":{"email":"sainte-seve-mairie@wanadoo.fr","telephone":"0298882503"},"horaires":"Du Lundi au Mardi : de 09h00 à 12h00 de 13h30 à 17h00\nLe Mercredi : de 09h00 à 12h00\nLe Jeudi : de 09h00 à 12h00 de 13h30 à 17h00\nLe Vendredi : de 09h00 à 12h00 de 13h30 à 16h30","latitude":48.558006,"longitude":-3.876257,"website":"https://mairiesteseve.wordpress.com/","hasWebsite":true,"hasHoraires":true,"url":"https://lannuaire.service-public.gouv.fr/bretagne/finistere/cf035d9f-2bd4-48dd-bf2b-f956ca171591"}
{"nom":"Saint-Évarzec","nomNormalise":"saintevarzec","typeCollectivite":"Commune","region":"Bretagne","departement":"Finistère","departementCode":"29","adresse":{"street":"2 place de la Mairie","postalCode":"29170","city":"Saint-Évarzec","country":"France"},"contacts":{"email":"mairie@saint-evarzec.bzh","telephone":"0298562829"},"horaires":"Le Lundi : de 08h30 à 12h00 de 13h30 à 17h30\nLe Mardi : de 08h30 à 12h00\nDu Mercredi au Jeudi : de 08h30 à 12h00 de 13h30 à 17h30\nLe Vendredi : de 08h30 à 12h00 de 13h30 à 17h00","latitude":47.936707,"longitude":-4.022946,"website":"https://www.saint-evarzec.bzh/","hasWebsite":true,"hasHoraires":true,"url":"https://lannuaire.service-public.gouv.fr/bretagne/finistere/e8f39c67-9e1c-4d75-97bd-3e85250b1f98"}
{"nom":"Saint-Frégant","nomNormalise":"saintfregant","typeCollectivite":"Commune","region":"Bretagne","departement":"Finistère","departementCode":"29","adresse":{"street":"120 le Bourg","postalCode":"29260","city":"Saint-Frégant","country":"France"},"contacts":{"email":"mairie@saintfregant.bzh","telephone":"0298830502"},"horaires":"Du Lundi au Mardi : de 09h00 à 12h30\nDu Jeudi au Vendredi : de 09h00 à 12h30","latitude":48.602055,"longitude":-4.367311,"website":"https://saintfregant.bzh/","hasWebsite":true,"hasHoraires":true,"url":"https://lannuaire.service-public.gouv.fr/bretagne/finistere/209c0030-8cc9-4b5d-a11c-9d27373114de"}
{"nom":"Saint-Goazec","nomNormalise":"saintgoazec","typeCollectivite":"Commune","region":"Bretagne","departement":"Finistère","departementCode":"29","adresse":{"street":"2 rue de la Mairie","postalCode":"29520","city":"Saint-Goazec","country":"France"},"contacts":{"email":"mairie@saint-goazec.bzh","telephone":"0298268220"},"horaires":"Du Lundi au Vendredi : de 09h00 à 12h00 de 13h30 à 16h30","latitude":48.16246,"longitude":-3.7841,"website":"https://saint-goazec.bzh/","hasWebsite":true,"hasHoraires":true,"url":"https://lannuaire.service-public.gouv.fr/bretagne/finistere/00543980-5cd0-4c5f-8107-0da480b33339"}
{"nom":"Saint-Hernin","nomNormalise":"sainthernin","typeCollectivite":"Commune","region":"Bretagne","departement":"Finistère","departementCode":"29","adresse":{"street":"11 rue du Centre-Bourg","postalCode":"29270","city":"Saint-Hernin","country":"France"},"contacts":{"email":"mairie@saint-hernin.fr","telephone":"0298995127"},"horaires":"Du Lundi au Vendredi : de 09h00 à 12h00 de 13h30 à 17h00","latitude":48.217514,"longitude":-3.636032,"website":"https://www.saint-hernin.fr/","hasWebsite":true,"hasHoraires":true,"url":"https://lannuaire.service-public.gouv.fr/bretagne/finistere/cbf3e016-44c6-4566-936b-488daac94e42"}
{"nom":"Saint-Jean-du-Doigt","nomNormalise":"saintjeandudoigt","typeCollectivite":"Commune","region":"Bretagne","departement":"Finistère","departementCode":"29","adresse":{"street":"1 place Tanguy-Prigent","postalCode":"29630","city":"Saint-Jean-du-Doigt","country":"France"},"contacts":{"email":"mairie@saintjeandudoigt.fr","telephone":"0298673407"},"horaires":"Le Lundi : de 08h30 à 12h00 de 13h30 à 17h00\nLe Mardi : de 08h30 à 12h00\nDu Mercredi au Vendredi : de 08h30 à 12h00 de 13h30 à 17h00\nLe Samedi : de 09h00 à 12h00","latitude":48.694344,"longitude":-3.772466,"website":"https://www.saintjeandudoigt.fr/","hasWebsite":true,"hasHoraires":true,"url":"https://lannuaire.service-public.gouv.fr/bretagne/finistere/28c57da2-9df9-4881-8a52-ac552fd5ea19"}
{"nom":"Saint-Jean-Trolimon","nomNormalise":"saintjeantrolimon","typeCollectivite":"Commune","region":"Bretagne","departement":"Finistère","departementCode":"29","adresse":{"street":"1 place de la République","postalCode":"29120","city":"Saint-Jean-Trolimon","country":"France"},"contacts":{"email":"mairie@saintjeantrolimon.fr","telephone":"0298820034"},"horaires":"Du Lundi au Mardi : de 08h30 à 12h00 de 14h00 à 17h30\nLe Mercredi : de 08h30 à 12h00\nDu Jeudi au Vendredi : de 08h30 à 12h00 de 14h00 à 17h30","latitude":47.865788,"longitude":-4.28083,"website":"http://www.saintjeantrolimon.fr/","hasWebsite":true,"hasHoraires":true,"url":"https://lannuaire.service-public.gouv.fr/bretagne/finistere/adde9719-8a1a-4d49-a134-ced7cec0e1ac"}
{"nom":"Saint-Martin-des-Champs","nomNormalise":"saintmartindeschamps","typeCollectivite":"Commune","region":"Bretagne","departement":"Finistère","departementCode":"29","adresse":{"street":"5 place de la Barrière","postalCode":"29600","city":"Saint-Martin-des-Champs","country":"France"},"contacts":{"email":"mairie@ville-stmartin29.fr","telephone":"0298620647"},"horaires":"Du Lundi au Vendredi : de 08h30 à 12h00 de 13h00 à 17h30","latitude":48.575394,"longitude":-3.843991,"website":"https://www.ville-st-martin29.fr/","hasWebsite":true,"hasHoraires":true,"url":"https://lannuaire.service-public.gouv.fr/bretagne/finistere/a11590cf-6b77-4879-b31f-f26a36551f48"}
{"nom":"Saint-Méen","nomNormalise":"saintmeen","typeCollectivite":"Commune","region":"Bretagne","departement":"Finistère","departementCode":"29","adresse":{"street":"6 rue de la Mairie","postalCode":"29260","city":"Saint-Méen","country":"France"},"contacts":{"email":"mairie.saint-meen@wanadoo.fr","telephone":"0298836090"},"horaires":"Du Lundi au Mercredi : de 08h30 à 12h00 de 14h00 à 17h00\nLe Vendredi : de 08h30 à 12h00 de 14h00 à 16h30","latitude":48.56071,"longitude":-4.265377,"website":"https://saint-meen.bzh/","hasWebsite":true,"hasHoraires":true,"url":"https://lannuaire.service-public.gouv.fr/bretagne/finistere/ef12f97a-8fb9-49b2-a291-ddb97e62aaf1"}
{"nom":"Saint-Nic","nomNormalise":"saintnic","typeCollectivite":"Commune","region":"Bretagne","departement":"Finistère","departementCode":"29","adresse":{"street":"12 rue du Ménez-Hom","postalCode":"29550","city":"Saint-Nic","country":"France"},"contacts":{"email":"mairie@saint-nic.fr","telephone":"0298265036"},"horaires":"Du Lundi au Vendredi : de 09h00 à 12h00\nDu Jeudi au Vendredi : de 09h00 à 12h00","latitude":48.202286,"longitude":-4.28188,"website":"https://www.saint-nic.fr/","hasWebsite":true,"hasHoraires":true,"url":"https://lannuaire.service-public.gouv.fr/bretagne/finistere/da2fc1bb-23d2-4129-9e9d-ba9358227bba"}
{"nom":"Saint-Pabu","nomNormalise":"saintpabu","typeCollectivite":"Commune","region":"Bretagne","departement":"Finistère","departementCode":"29","adresse":{"street":"49 rue du Bourg","postalCode":"29830","city":"Saint-Pabu","country":"France"},"contacts":{"email":"mairie@saint-pabu.bzh","telephone":"0298898276"},"horaires":"Le Lundi : de 08h30 à 12h00 de 13h30 à 17h00\nLe Mardi : de 08h30 à 12h00\nLe Mercredi : de 08h30 à 12h00 de 13h30 à 17h00\nLe Jeudi : de 08h30 à 12h00\nLe Vendredi : de 08h30 à 12h00 de 13h30 à 16h30","latitude":48.565598,"longitude":-4.601586,"website":"https://www.saint-pabu.bzh/","hasWebsite":true,"hasHoraires":true,"url":"https://lannuaire.service-public.gouv.fr/bretagne/finistere/57ec4a3c-b6b0-4eda-b9c0-036779ae2f56"}
{"nom":"Saint-Pol-de-Léon","nomNormalise":"saintpoldeleon","typeCollectivite":"Commune","region":"Bretagne","departement":"Finistère","departementCode":"29","adresse":{"street":"1 Esplanade Adrien-Kervella","postalCode":"29250","city":"Saint-Pol-de-Léon","country":"France"},"contacts":{"email":"mairie@saintpoldeleon.fr","telephone":"0298158500"},"horaires":"Du Lundi au Mercredi : de 08h30 à 12h00 de 13h30 à 17h00\nLe Jeudi : de 08h30 à 12h00\nLe Vendredi : de 08h30 à 12h00 de 13h30 à 16h30\nLe Samedi : de 09h00 à 12h00\n\nAccueil ouvert uniquement pour l'état civil.","latitude":48.68557,"longitude":-3.98627,"website":"https://www.saintpoldeleon.bzh/","hasWebsite":true,"hasHoraires":true,"url":"https://lannuaire.service-public.gouv.fr/bretagne/finistere/94a53f07-32d7-4ac1-82e1-a130174e77f1"}
{"nom":"Saint-Renan","nomNormalise":"saintrenan","typeCollectivite":"Commune","region":"Bretagne","departement":"Finistère","departementCode":"29","adresse":{"street":"12 place Léon-Cheminant","postalCode":"29290","city":"Saint-Renan","country":"France"},"contacts":{"email":"mairie@saint-renan.fr","telephone":"0298842008"},"horaires":"Du Lundi au Jeudi : de 08h00 à 12h00 de 13h30 à 17h30\nLe Vendredi : de 08h00 à 12h00 de 13h30 à 16h30\nLe Samedi : de 08h30 à 12h00\n\nAccueil ouvert uniquement pour l'état civil et le service accueil enfance et jeunesse.","latitude":48.433514,"longitude":-4.621822,"website":"https://www.saint-renan.fr/","hasWebsite":true,"hasHoraires":true,"url":"https://lannuaire.service-public.gouv.fr/bretagne/finistere/a8d87e6b-a0b2-425e-8d0b-be322037bc01"}
{"nom":"Saint-Rivoal","nomNormalise":"saintrivoal","typeCollectivite":"Commune","region":"Bretagne","departement":"Finistère","departementCode":"29","adresse":{"street":"Le Bourg","postalCode":"29190","city":"Saint-Rivoal","country":"France"},"contacts":{"email":"mairie-st-rivoal@wanadoo.fr","telephone":"0298814054"},"horaires":"Le Lundi : de 10h00 à 12h00 de 14h00 à 17h00\nLe Mardi : de 14h00 à 17h00\nLe Jeudi : de 14h00 à 17h00\nLe Vendredi : de 10h00 à 12h00 de 14h00 à 17h00","latitude":48.349033,"longitude":-3.996549,"website":"","hasWebsite":false,"hasHoraires":true,"url":"https://lannuaire.service-public.gouv.fr/bretagne/finistere/d95166b9-5625-4f6a-a89f-bd93a8b94d9e"}
{"nom":"Saint-Sauveur","nomNormalise":"saintsauveur","typeCollectivite":"Commune","region":"Bretagne","departement":"Finistère","departementCode":"29","adresse":{"street":"2 rue de la Mairie","postalCode":"29400","city":"Saint-Sauveur","country":"France"},"contacts":{"email":"mairie@saintsauveur-finistere.fr","telephone":"0298687243"},"horaires":"Du Lundi au Mardi : de 09h00 à 12h00 de 13h30 à 18h15\nLe Mercredi : de 09h00 à 12h00\nLe Jeudi : de 09h00 à 12h00 de 13h30 à 18h15\nLe Vendredi : de 09h00 à 12h00 de 13h30 à 18h15","latitude":48.447712,"longitude":-4.003273,"website":"http://www.saintsauveur-finistere.fr/","hasWebsite":true,"hasHoraires":true,"url":"https://lannuaire.service-public.gouv.fr/bretagne/finistere/df2b8177-f4ec-4efc-b929-e610b5bb286e"}
{"nom":"Saint-Ségal","nomNormalise":"saintsegal","typeCollectivite":"Commune","region":"Bretagne","departement":"Finistère","departementCode":"29","adresse":{"street":"Place de Guillaumes","postalCode":"29590","city":"Saint-Ségal","country":"France"},"contacts":{"email":"accueil@mairie-saintsegal.fr","telephone":"0298731703"},"horaires":"Du Lundi au Samedi : de 09h00 à 12h00","latitude":48.24007,"longitude":-4.06529,"website":"https://www.mairie-saintsegal.fr/","hasWebsite":true,"hasHoraires":true,"url":"https://lannuaire.service-public.gouv.fr/bretagne/finistere/bc27d6bc-632e-4e79-ac9c-bc67dbd821d2"}
{"nom":"Saint-Servais","nomNormalise":"saintservais","typeCollectivite":"Commune","region":"Bretagne","departement":"Finistère","departementCode":"29","adresse":{"street":"13 le Bourg","postalCode":"29400","city":"Saint-Servais","country":"France"},"contacts":{"email":"mairie.saintservais@orange.fr","telephone":"0298681521"},"horaires":"Du Lundi au Mardi : de 08h00 à 12h00 de 13h30 à 17h30\nLe Mercredi : de 08h00 à 12h00\nLe Jeudi : de 08h00 à 12h00 de 13h30 à 17h30\nLe Vendredi : de 08h00 à 12h00\nLe Samedi : de 09h00 à 12h00","latitude":48.51101,"longitude":-4.154655,"website":"https://saint-servais-29.fr/","hasWebsite":true,"hasHoraires":true,"url":"https://lannuaire.service-public.gouv.fr/bretagne/finistere/43007b73-85f0-4d2b-8f80-b2ff093de27c"}
{"nom":"Saint-Thégonnec Loc-Eguiner","nomNormalise":"saintthegonnecloceguiner","typeCollectivite":"Commune","region":"Bretagne","departement":"Finistère","departementCode":"29","adresse":{"street":"2 place de la Mairie","postalCode":"29410","city":"Saint-Thégonnec Loc-Eguiner","country":"France"},"contacts":{"email":"mairie@saint-thegonnec-loc-eguiner.bzh","telephone":"0298796106"},"horaires":"Le Lundi : de 09h00 à 12h30\nDu Mardi au Jeudi : de 09h00 à 12h30 de 13h30 à 17h00\nLe Vendredi : de 09h00 à 12h30 de 13h30 à 16h00\nLe Samedi : de 09h00 à 12h00","latitude":48.520817,"longitude":-3.946546,"website":"https://saint-thegonnec-loc-eguiner.bzh/","hasWebsite":true,"hasHoraires":true,"url":"https://lannuaire.service-public.gouv.fr/bretagne/finistere/d70930c1-f2c6-49c9-8963-ac7b58735868"}
{"nom":"Saint-Thois","nomNormalise":"saintthois","typeCollectivite":"Commune","region":"Bretagne","departement":"Finistère","departementCode":"29","adresse":{"street":"1 place de la Mairie","postalCode":"29520","city":"Saint-Thois","country":"France"},"contacts":{"email":"mairiestthois@orange.fr","telephone":"0298738208"},"horaires":"Du Lundi au Mardi : de 09h00 à 12h00 de 14h00 à 17h30\nLe Mercredi : de 09h00 à 12h00\nDu Jeudi au Vendredi : de 09h00 à 12h00 de 14h00 à 17h30","latitude":48.16447,"longitude":-3.885277,"website":"","hasWebsite":false,"hasHoraires":true,"url":"https://lannuaire.service-public.gouv.fr/bretagne/finistere/f700c973-3b8e-4bdd-8984-f2d95b1da265"}
{"nom":"Saint-Thonan","nomNormalise":"saintthonan","typeCollectivite":"Commune","region":"Bretagne","departement":"Finistère","departementCode":"29","adresse":{"street":"1 place des Noyers","postalCode":"29800","city":"Saint-Thonan","country":"France"},"contacts":{"email":"mairie@saint-thonan.fr","telephone":"0298401333"},"horaires":"Le Lundi : de 08h30 à 12h00 de 13h30 à 17h00\nLe Mardi : de 08h30 à 12h00\nLe Mercredi : de 08h30 à 12h00 de 13h30 à 17h00\nLe Jeudi : de 08h30 à 12h00\nLe Vendredi : de 08h30 à 12h00 de 13h30 à 17h00\nLe Samedi : de 09h00 à 12h00","latitude":48.47831,"longitude":-4.336342,"website":"https://www.saint-thonan.fr/","hasWebsite":true,"hasHoraires":true,"url":"https://lannuaire.service-public.gouv.fr/bretagne/finistere/bdb9dbff-6d5f-431c-bb1c-884f1064301b"}
{"nom":"Saint-Thurien","nomNormalise":"saintthurien","typeCollectivite":"Commune","region":"Bretagne","departement":"Finistère","departementCode":"29","adresse":{"street":"3 place du Centre","postalCode":"29380","city":"Saint-Thurien","country":"France"},"contacts":{"email":"accueil.mairie@saint-thurien.bzh","telephone":"0298398371"},"horaires":"Le Lundi : de 08h00 à 12h00 de 13h30 à 17h30\nLe Mardi : de 08h00 à 12h00\nDu Mercredi au Vendredi : de 08h00 à 12h00 de 13h30 à 17h30\nLe Samedi : de 09h00 à 12h00","latitude":47.959393,"longitude":-3.623777,"website":"https://www.saint-thurien.fr/","hasWebsite":true,"hasHoraires":true,"url":"https://lannuaire.service-public.gouv.fr/bretagne/finistere/f3458fb8-47cd-4592-8106-f98b78097bfd"}
{"nom":"Saint-Urbain","nomNormalise":"sainturbain","typeCollectivite":"Commune","region":"Bretagne","departement":"Finistère","departementCode":"29","adresse":{"street":"Place de la Mairie","postalCode":"29800","city":"Saint-Urbain","country":"France"},"contacts":{"email":"mairie@st-urbain.bzh","telephone":"0298250304"},"horaires":"Du Lundi au Mardi : de 08h45 à 12h00 de 13h30 à 17h30\nLe Mercredi : de 10h00 à 12h00\n\nAccueil fermé pendant les vacances scolaires.\nLe Jeudi : de 08h45 à 12h00 de 13h30 à 17h30\nDu Vendredi au Samedi : de 08h45 à 12h00","latitude":48.400295,"longitude":-4.227834,"website":"https://www.saint-urbain.com/accueil","hasWebsite":true,"hasHoraires":true,"url":"https://lannuaire.service-public.gouv.fr/bretagne/finistere/aa1934ab-f520-4441-9cbd-5759f2042061"}
{"nom":"Saint-Vougay","nomNormalise":"saintvougay","typeCollectivite":"Commune","region":"Bretagne","departement":"Finistère","departementCode":"29","adresse":{"street":"1 route de Plouescat","postalCode":"29440","city":"Saint-Vougay","country":"France"},"contacts":{"email":"mairiesaintvougay@orange.fr","telephone":"0298699704"},"horaires":"Du Lundi au Vendredi : de 08h30 à 12h00\nLe Samedi : de 09h00 à 12h00\n\n(fermé juillet et août)","latitude":48.59383,"longitude":-4.137964,"website":"https://www.saint-vougay.fr/","hasWebsite":true,"hasHoraires":true,"url":"https://lannuaire.service-public.gouv.fr/bretagne/finistere/ab948d29-5979-4f0d-8539-e908bff5ebb5"}
{"nom":"Saint-Yvi","nomNormalise":"saintyvi","typeCollectivite":"Commune","region":"Bretagne","departement":"Finistère","departementCode":"29","adresse":{"street":"2 place de la Mairie","postalCode":"29140","city":"Saint-Yvi","country":"France"},"contacts":{"email":"contact@saint-yvi.bzh","telephone":"0298947211"},"horaires":"Du Lundi au Mardi : de 08h30 à 12h00 de 14h00 à 17h00\nLe Mercredi : de 08h30 à 12h00\nDu Jeudi au Vendredi : de 08h30 à 12h00 de 14h00 à 17h00\nLe Samedi : de 09h00 à 11h30\n\nAccueil fermé en juillet-août.","latitude":47.96726,"longitude":-3.937092,"website":"https://www.saint-yvi.bzh/","hasWebsite":true,"hasHoraires":true,"url":"https://lannuaire.service-public.gouv.fr/bretagne/finistere/d1014366-5702-4129-b64a-320546db2329"}
{"nom":"Santec","nomNormalise":"santec","typeCollectivite":"Commune","region":"Bretagne","departement":"Finistère","departementCode":"29","adresse":{"street":"71 place Isidore-Roudaut","postalCode":"29250","city":"Santec","country":"France"},"contacts":{"email":"mairie-de-santec@wanadoo.fr","telephone":"0298297465"},"horaires":"Du Lundi au Mardi : de 08h30 à 12h00\nLe Mercredi : de 08h30 à 12h00 de 13h30 à 17h00\nDu Jeudi au Vendredi : de 08h30 à 12h00\nLe Samedi : de 09h30 à 12h00\n\nFermé pendant les vacances scolaires.","latitude":48.703102,"longitude":-4.029088,"website":"https://www.ville-santec.fr/","hasWebsite":true,"hasHoraires":true,"url":"https://lannuaire.service-public.gouv.fr/bretagne/finistere/87bd7914-3010-4d5d-a2a7-dc28e64e4c65"}
{"nom":"Scaër","nomNormalise":"scaer","typeCollectivite":"Commune","region":"Bretagne","departement":"Finistère","departementCode":"29","adresse":{"street":"2 place de la Libération","postalCode":"29390","city":"Scaër","country":"France"},"contacts":{"email":"mairie@scaer.bzh","telephone":"0298594210"},"horaires":"Du Lundi au Mercredi : de 08h30 à 12h00 de 13h30 à 17h15\nLe Jeudi : de 13h30 à 19h00\nLe Vendredi : de 08h30 à 12h00 de 13h30 à 17h15\nLe Samedi : de 08h30 à 12h00\n\nOuvert uniquement le 1er et 3ème samedi du mois.","latitude":48.026752,"longitude":-3.70187,"website":"https://www.scaer.bzh/","hasWebsite":true,"hasHoraires":true,"url":"https://lannuaire.service-public.gouv.fr/bretagne/finistere/8d4683bd-dbe4-47a9-854c-f5c8bf979913"}
{"nom":"Scrignac","nomNormalise":"scrignac","typeCollectivite":"Commune","region":"Bretagne","departement":"Finistère","departementCode":"29","adresse":{"street":"1 place de la Mairie","postalCode":"29640","city":"Scrignac","country":"France"},"contacts":{"email":"mairie.scrignac@wanadoo.fr","telephone":"0298782015"},"horaires":"Du Lundi au Mardi : de 09h00 à 12h00 de 13h30 à 17h30\nLe Mercredi : de 09h00 à 12h00\nDu Jeudi au Vendredi : de 09h00 à 12h00 de 13h30 à 17h30\nLe Samedi : de 10h00 à 12h00\n\nPermanence des élus.","latitude":48.43335,"longitude":-3.678359,"website":"https://scrignac.bzh/","hasWebsite":true,"hasHoraires":true,"url":"https://lannuaire.service-public.gouv.fr/bretagne/finistere/c5b37ad6-9636-4db4-9bbe-35936da01ede"}
{"nom":"Sibiril","nomNormalise":"sibiril","typeCollectivite":"Commune","region":"Bretagne","departement":"Finistère","departementCode":"29","adresse":{"street":"Place de la Mairie","postalCode":"29250","city":"Sibiril","country":"France"},"contacts":{"email":"commune.de.sibiril@wanadoo.fr","telephone":"0298299157"},"horaires":"Le Lundi : de 08h30 à 11h50 de 13h30 à 17h00\nLe Mardi : de 08h30 à 11h50\nDu Mercredi au Vendredi : de 08h30 à 11h50 de 13h30 à 17h00","latitude":48.66499,"longitude":-4.06384,"website":"https://sibiril.com/","hasWebsite":true,"hasHoraires":true,"url":"https://lannuaire.service-public.gouv.fr/bretagne/finistere/96b6a392-d7c3-4c6d-a8d0-b118d53f0cc1"}
{"nom":"Sizun","nomNormalise":"sizun","typeCollectivite":"Commune","region":"Bretagne","departement":"Finistère","departementCode":"29","adresse":{"street":"9 place Charles-de-Gaulle","postalCode":"29450","city":"Sizun","country":"France"},"contacts":{"email":"sizun@mairie-sizun.fr","telephone":"0298688013"},"horaires":"Du Lundi au Mercredi : de 08h30 à 12h00 de 13h30 à 17h00\nLe Jeudi : de 08h30 à 12h00\nLe Vendredi : de 08h30 à 12h00 de 13h30 à 17h00\nLe Samedi : de 08h30 à 12h00","latitude":48.40554,"longitude":-4.079034,"website":"http://www.mairie-sizun.fr/","hasWebsite":true,"hasHoraires":true,"url":"https://lannuaire.service-public.gouv.fr/bretagne/finistere/5cf20690-cd53-4064-8f38-e65f5f8ff3d4"}
{"nom":"Spézet","nomNormalise":"spezet","typeCollectivite":"Commune","region":"Bretagne","departement":"Finistère","departementCode":"29","adresse":{"street":"Rue Eugène-Hénaff","postalCode":"29540","city":"Spézet","country":"France"},"contacts":{"email":"mairie@spezet.bzh","telephone":"0298938003"},"horaires":"Du Lundi au Vendredi : de 09h00 à 12h00 de 13h00 à 17h00","latitude":48.19255,"longitude":-3.71656,"website":"https://www.spezet.bzh/","hasWebsite":true,"hasHoraires":true,"url":"https://lannuaire.service-public.gouv.fr/bretagne/finistere/7f010ae8-a536-44fc-becb-f701ed10a9fe"}
{"nom":"Taulé","nomNormalise":"taule","typeCollectivite":"Commune","region":"Bretagne","departement":"Finistère","departementCode":"29","adresse":{"street":"12 place de la Mairie","postalCode":"29670","city":"Taulé","country":"France"},"contacts":{"email":"mairie@commune-taule.fr","telephone":"0298671114"},"horaires":"Du Lundi au Mercredi : de 08h30 à 12h00 de 13h30 à 17h00\nLe Vendredi : de 08h30 à 12h00 de 13h30 à 17h00\nLe Samedi : de 09h00 à 12h00\n\nEn juillet et août : fermé le samedi matin.","latitude":48.60359,"longitude":-3.900055,"website":"https://commune-taule.fr/","hasWebsite":true,"hasHoraires":true,"url":"https://lannuaire.service-public.gouv.fr/bretagne/finistere/64aa24da-9b00-4585-814c-115791a6853c"}
{"nom":"Telgruc-sur-Mer","nomNormalise":"telgrucsurmer","typeCollectivite":"Commune","region":"Bretagne","departement":"Finistère","departementCode":"29","adresse":{"street":"4 rue du Ménez-Hom","postalCode":"29560","city":"Telgruc-sur-Mer","country":"France"},"contacts":{"email":"mairie@telgruc-sur-mer.bzh","telephone":"0298277365"},"horaires":"Du Lundi au Mercredi : de 08h30 à 12h00 de 13h30 à 17h00\nLe Jeudi : de 08h30 à 12h00\nLe Vendredi : de 08h30 à 12h00 de 13h30 à 17h00\nLe Samedi : de 09h00 à 12h00","latitude":48.231224,"longitude":-4.35482,"website":"https://www.telgruc-sur-mer.bzh/","hasWebsite":true,"hasHoraires":true,"url":"https://lannuaire.service-public.gouv.fr/bretagne/finistere/d8b25418-8910-4754-b772-8f2546f4e8a6"}
{"nom":"Tourch","nomNormalise":"tourch","typeCollectivite":"Commune","region":"Bretagne","departement":"Finistère","departementCode":"29","adresse":{"street":"1 place Guillaume-Guéguen","postalCode":"29140","city":"Tourch","country":"France"},"contacts":{"email":"mairie@tourch.bzh","telephone":"0298591251"},"horaires":"Du Lundi au Mardi : de 09h00 à 12h00 de 13h30 à 17h00\nLe Mercredi : de 09h00 à 12h00\nDu Jeudi au Vendredi : de 09h00 à 12h00 de 13h30 à 17h00\nLe Samedi : de 09h00 à 12h00","latitude":48.025158,"longitude":-3.825329,"website":"https://www.tourch.bzh/","hasWebsite":true,"hasHoraires":true,"url":"https://lannuaire.service-public.gouv.fr/bretagne/finistere/60d78982-d2ab-4813-aaec-597ea0e80396"}
{"nom":"Trébabu","nomNormalise":"trebabu","typeCollectivite":"Commune","region":"Bretagne","departement":"Finistère","departementCode":"29","adresse":{"street":"Le Bourg","postalCode":"29217","city":"Trébabu","country":"France"},"contacts":{"email":"trebabu.mairie@orange.fr","telephone":"0298890184"},"horaires":"Du Lundi au Mardi : de 08h30 à 12h00 de 14h00 à 17h00\nDu Jeudi au Vendredi : de 08h30 à 12h00 de 14h00 à 17h00","latitude":48.3706,"longitude":-4.73514,"website":"","hasWebsite":false,"hasHoraires":true,"url":"https://lannuaire.service-public.gouv.fr/bretagne/finistere/4a5f598e-5604-4613-a2fc-72d18744b034"}
{"nom":"Tréffiagat","nomNormalise":"treffiagat","typeCollectivite":"Commune","region":"Bretagne","departement":"Finistère","departementCode":"29","adresse":{"street":"1 rue de Trouidy","postalCode":"29730","city":"Tréffiagat","country":"France"},"contacts":{"email":"mairie@treffiagat.bzh","telephone":"0298581447"},"horaires":"Du Lundi au Jeudi : de 08h30 à 12h00 de 13h30 à 17h30\nLe Vendredi : de 08h30 à 12h00 de 13h30 à 17h00\nLe Samedi : de 08h30 à 12h00\n\nPermanence uniquement pour l'état civil.","latitude":48.025158,"longitude":-3.825329,"website":"https://treffiagat.bzh/","hasWebsite":true,"hasHoraires":true,"url":"https://lannuaire.service-public.gouv.fr/bretagne/finistere/83402925-8d4a-49ff-a46d-8f33e84cd4d3"}
{"nom":"Tréflaouénan","nomNormalise":"treflaouenan","typeCollectivite":"Commune","region":"Bretagne","departement":"Finistère","departementCode":"29","adresse":{"street":"5 le Bourg","postalCode":"29440","city":"Tréflaouénan","country":"France"},"contacts":{"email":"mairie.treflaouenan@orange.fr","telephone":"0298699781"},"horaires":"Du Lundi au Mardi : de 08h30 à 12h30 de 13h30 à 17h00\nLe Mercredi : de 08h30 à 12h00\n\nFermé le mercredi des semaines paires.\nDu Jeudi au Vendredi : de 08h30 à 12h30 de 13h30 à 17h00","latitude":48.62763,"longitude":-4.096488,"website":"https://treflaouenan.fr/","hasWebsite":true,"hasHoraires":true,"url":"https://lannuaire.service-public.gouv.fr/bretagne/finistere/905d5a58-f098-4a56-a912-725f98cd2642"}
{"nom":"Tréflévénez","nomNormalise":"treflevenez","typeCollectivite":"Commune","region":"Bretagne","departement":"Finistère","departementCode":"29","adresse":{"street":"9 rue de la Mairie","postalCode":"29800","city":"Tréflévénez","country":"France"},"contacts":{"email":"mairie@treflevenez.bzh","telephone":"0298251709"},"horaires":"Le Lundi : de 09h00 à 12h30\nLe Mercredi : de 09h00 à 12h30 de 13h10 à 17h00\nLe Vendredi : de 09h00 à 12h30 de 13h10 à 16h00\nLe Samedi : de 10h00 à 12h00\n\n(fermé en juillet et août)","latitude":48.415096,"longitude":-4.171026,"website":"https://treflevenez.fr/","hasWebsite":true,"hasHoraires":true,"url":"https://lannuaire.service-public.gouv.fr/bretagne/finistere/656e083f-b3b3-4c87-835a-4f9916725141"}
{"nom":"Tréflez","nomNormalise":"treflez","typeCollectivite":"Commune","region":"Bretagne","departement":"Finistère","departementCode":"29","adresse":{"street":"1 place Général-de-Gaulle","postalCode":"29430","city":"Tréflez","country":"France"},"contacts":{"email":"accueil.mairietreflez@orange.fr","telephone":"0298614572"},"horaires":"Du Lundi au Samedi : de 09h00 à 12h00","latitude":48.62286,"longitude":-4.261307,"website":"https://mairie-treflez.fr/","hasWebsite":true,"hasHoraires":true,"url":"https://lannuaire.service-public.gouv.fr/bretagne/finistere/490104cb-54b5-4b98-ae31-9671caad308a"}
{"nom":"Trégarantec","nomNormalise":"tregarantec","typeCollectivite":"Commune","region":"Bretagne","departement":"Finistère","departementCode":"29","adresse":{"street":"6 rue Ménez Bargall","postalCode":"29260","city":"Trégarantec","country":"France"},"contacts":{"email":"mairie.tregarantec@wanadoo.fr","telephone":"0298836165"},"horaires":"Le Lundi : de 08h30 à 12h30\nDu Mardi au Vendredi : de 09h00 à 12h30","latitude":48.55199,"longitude":-4.296912,"website":"https://tregarantec.bzh/","hasWebsite":true,"hasHoraires":true,"url":"https://lannuaire.service-public.gouv.fr/bretagne/finistere/734c80da-ec37-43c9-99e4-661a914558ce"}
{"nom":"Trégarvan","nomNormalise":"tregarvan","typeCollectivite":"Commune","region":"Bretagne","departement":"Finistère","departementCode":"29","adresse":{"street":"568 route de l'Aulne","postalCode":"29560","city":"Trégarvan","country":"France"},"contacts":{"email":"mairie.tregarvan@wanadoo.fr","telephone":"0298260206"},"horaires":"Le Lundi : de 09h00 à 12h00 de 13h30 à 17h30\nLe Jeudi : de 09h00 à 12h00 de 13h30 à 17h30","latitude":48.25127,"longitude":-4.225444,"website":"https://tregarvan.bzh/","hasWebsite":true,"hasHoraires":true,"url":"https://lannuaire.service-public.gouv.fr/bretagne/finistere/87ccb7fb-9950-4511-9784-8e8c6f6ebf03"}
{"nom":"Tréglonou","nomNormalise":"treglonou","typeCollectivite":"Commune","region":"Bretagne","departement":"Finistère","departementCode":"29","adresse":{"street":"18 rue de la Mairie","postalCode":"29870","city":"Tréglonou","country":"France"},"contacts":{"email":"commune-treglonou@wanadoo.fr","telephone":"0298040070"},"horaires":"Du Lundi au Mardi : de 08h30 à 12h00\nLe Jeudi : de 08h30 à 12h00\nLe Vendredi : de 08h30 à 12h00 de 13h00 à 17h00\nLe Samedi : de 08h30 à 12h00","latitude":48.55046,"longitude":-4.539448,"website":"https://www.treglonou.fr/","hasWebsite":true,"hasHoraires":true,"url":"https://lannuaire.service-public.gouv.fr/bretagne/finistere/31ec7d2e-3aaf-47b8-a5c7-83465d842a64"}
{"nom":"Trégourez","nomNormalise":"tregourez","typeCollectivite":"Commune","region":"Bretagne","departement":"Finistère","departementCode":"29","adresse":{"street":"Place de la Mairie","postalCode":"29970","city":"Trégourez","country":"France"},"contacts":{"email":"mairie.tregourez@wanadoo.fr","telephone":"0298591028"},"horaires":"Du Lundi au Mardi : de 08h30 à 12h00 de 13h30 à 16h30\nDu Jeudi au Vendredi : de 08h30 à 12h00 de 13h30 à 16h30\nLe Samedi : de 08h30 à 12h00","latitude":48.10496,"longitude":-3.86201,"website":"https://tregourez.fr/","hasWebsite":true,"hasHoraires":true,"url":"https://lannuaire.service-public.gouv.fr/bretagne/finistere/9d8e8ba5-99b3-4564-8de3-26c8dd05448b"}
{"nom":"Tréguennec","nomNormalise":"treguennec","typeCollectivite":"Commune","region":"Bretagne","departement":"Finistère","departementCode":"29","adresse":{"street":"1 plasenn an Ti-Kêr","postalCode":"29720","city":"Tréguennec","country":"France"},"contacts":{"email":"mairie@treguennec.fr","telephone":"0298876035"},"horaires":"Du Lundi au Vendredi : de 09h00 à 12h00\n\n.","latitude":47.89227,"longitude":-4.33157,"website":"https://www.treguennec.fr/","hasWebsite":true,"hasHoraires":true,"url":"https://lannuaire.service-public.gouv.fr/bretagne/finistere/d3848aa5-6064-4855-b3bc-4dbc68591b0a"}
{"nom":"Trégunc","nomNormalise":"tregunc","typeCollectivite":"Commune","region":"Bretagne","departement":"Finistère","departementCode":"29","adresse":{"street":"Place des Anciens Combattants","postalCode":"29910","city":"Trégunc","country":"France"},"contacts":{"email":"mairie@tregunc.fr","telephone":"0298509595"},"horaires":"Du Lundi au Vendredi : de 08h30 à 12h00 de 13h30 à 17h00\nLe Samedi : de 09h00 à 12h00\n\nAccueil uniquement état civil.","latitude":47.85488,"longitude":-3.85247,"website":"https://www.tregunc.fr/","hasWebsite":true,"hasHoraires":true,"url":"https://lannuaire.service-public.gouv.fr/bretagne/finistere/1855b3cf-ddbf-43a5-88e2-aded7300cfb9"}
{"nom":"Trémaouézan","nomNormalise":"tremaouezan","typeCollectivite":"Commune","region":"Bretagne","departement":"Finistère","departementCode":"29","adresse":{"street":"1 venelle des Enclos","postalCode":"29800","city":"Trémaouézan","country":"France"},"contacts":{"email":"mairie@tremaouezan.bzh","telephone":"0298208712"},"horaires":"Le Lundi : de 09h00 à 12h00 de 13h30 à 17h30\nDu Mardi au Jeudi : de 09h00 à 12h00\nLe Vendredi : de 09h00 à 12h00 de 13h30 à 16h30","latitude":48.5046,"longitude":-4.254874,"website":"https://tremaouezan.bzh/","hasWebsite":true,"hasHoraires":true,"url":"https://lannuaire.service-public.gouv.fr/bretagne/finistere/6d464496-90e9-47fe-ad78-78fa3020ab33"}
{"nom":"Tréméoc","nomNormalise":"tremeoc","typeCollectivite":"Commune","region":"Bretagne","departement":"Finistère","departementCode":"29","adresse":{"street":"1 Plasenn Ti-Ker","postalCode":"29120","city":"Tréméoc","country":"France"},"contacts":{"email":"mairie@tremeoc.bzh","telephone":"0298870806"},"horaires":"Du Lundi au Mardi : de 08h00 à 12h15 de 13h00 à 16h30\nLe Mercredi : de 08h00 à 12h00\nDu Jeudi au Vendredi : de 08h00 à 12h15 de 13h00 à 16h30","latitude":47.90624,"longitude":-4.211624,"website":"http://www.tremeoc.fr/","hasWebsite":true,"hasHoraires":true,"url":"https://lannuaire.service-public.gouv.fr/bretagne/finistere/219b9db2-6df2-40a1-adef-b69d08cdefca"}
{"nom":"Tréméven","nomNormalise":"tremeven","typeCollectivite":"Commune","region":"Bretagne","departement":"Finistère","departementCode":"29","adresse":{"street":"Place de l'Église","postalCode":"29300","city":"Tréméven","country":"France"},"contacts":{"email":"mairie@tremeven.fr","telephone":"0298960802"},"horaires":"Du Lundi au Mardi : de 08h30 à 12h00 de 13h30 à 17h00\nLe Mercredi : de 08h30 à 12h00\nDu Jeudi au Vendredi : de 08h30 à 12h00 de 13h30 à 17h00\nLe Samedi : de 09h00 à 12h00\n\nSauf juillet et août","latitude":47.89908,"longitude":-3.53359,"website":"https://www.tremeven.fr/","hasWebsite":true,"hasHoraires":true,"url":"https://lannuaire.service-public.gouv.fr/bretagne/finistere/84152bc2-4954-442c-a2a4-daa916f5734a"}
{"nom":"Tréogat","nomNormalise":"treogat","typeCollectivite":"Commune","region":"Bretagne","departement":"Finistère","departementCode":"29","adresse":{"street":"3 rue de la Mer","postalCode":"29720","city":"Tréogat","country":"France"},"contacts":{"email":"mairie@treogat.fr","telephone":"0298876081"},"horaires":"Du Lundi au Vendredi : de 08h30 à 12h00\nLe Mercredi : de 08h30 à 12h30\nLe Jeudi : de 08h30 à 12h00 de 13h30 à 17h00\nLe Vendredi : de 08h30 à 12h00\nLe samedi sur rendez-vous.","latitude":47.918015,"longitude":-4.323665,"website":"https://www.treogat.fr/","hasWebsite":true,"hasHoraires":true,"url":"https://lannuaire.service-public.gouv.fr/bretagne/finistere/c8a52f2b-9045-4d88-9044-780308c9f990"}
{"nom":"Tréouergat","nomNormalise":"treouergat","typeCollectivite":"Commune","region":"Bretagne","departement":"Finistère","departementCode":"29","adresse":{"street":"1 le Bourg","postalCode":"29290","city":"Tréouergat","country":"France"},"contacts":{"email":"mairie.treouergat@wanadoo.fr","telephone":"0298892155"},"horaires":"Du Lundi au Vendredi : de 09h00 à 12h00","latitude":48.496674,"longitude":-4.602865,"website":"https://treouergat.bzh/","hasWebsite":true,"hasHoraires":true,"url":"https://lannuaire.service-public.gouv.fr/bretagne/finistere/926463c0-bb27-44a3-b04d-a24b3a2f2bb6"}
{"nom":"Trézilidé","nomNormalise":"trezilide","typeCollectivite":"Commune","region":"Bretagne","departement":"Finistère","departementCode":"29","adresse":{"street":"1 Le Bourg","postalCode":"29440","city":"Trézilidé","country":"France"},"contacts":{"email":"mairie-trezilide@orange.fr","telephone":"0298699527"},"horaires":"Du Lundi au Vendredi : de 08h00 à 12h00","latitude":48.60849,"longitude":-4.088733,"website":"https://mairie-trezilide.fr/","hasWebsite":true,"hasHoraires":true,"url":"https://lannuaire.service-public.gouv.fr/bretagne/finistere/840ae541-7bc6-4acd-b88b-2e3010cd97b1"}
