{"nom":"Aghione","nomNormalise":"aghione","typeCollectivite":"Commune","region":"Corse","departement":"Haute-Corse","departementCode":"2","adresse":{"street":"Casone","postalCode":"20270","city":"Aghione","country":"France"},"contacts":{"email":"commune-aghione@wanadoo.fr","telephone":"0495566033"},"horaires":"Du Lundi au Jeudi : de 09h00 à 12h00","latitude":42.1071,"longitude":9.41805,"website":"","hasWebsite":false,"hasHoraires":true,"url":"https://lannuaire.service-public.gouv.fr/corse/haute-corse/229eeba7-5e15-4796-b9da-d0758c01a246"}
{"nom":"Aiti","nomNormalise":"aiti","typeCollectivite":"Commune","region":"Corse","departement":"Haute-Corse","departementCode":"2","adresse":{"street":"Aiti-Village","postalCode":"20244","city":"Aiti","country":"France"},"contacts":{"email":"mairie.aiti@orange.fr","telephone":"0495484013"},"horaires":"Le Jeudi : de 14h00 à 17h00","latitude":42.398914,"longitude":9.243144,"website":"","hasWebsite":false,"hasHoraires":true,"url":"https://lannuaire.service-public.gouv.fr/corse/haute-corse/7c5b6848-3644-4ad2-a528-98b0dae8e849"}
{"nom":"Alando","nomNormalise":"alando","typeCollectivite":"Commune","region":"Corse","departement":"Haute-Corse","departementCode":"2","adresse":{"street":"Village d'Alando","postalCode":"20212","city":"Alando","country":"France"},"contacts":{"email":"mairiealando@wanadoo.fr","telephone":"0495486691"},"horaires":"Le Jeudi : de 08h30 à 12h30","latitude":42.310387,"longitude":9.300736,"website":"","hasWebsite":false,"hasHoraires":true,"url":"https://lannuaire.service-public.gouv.fr/corse/haute-corse/1f0e6912-ca42-4f5e-bfdf-0a299c45e023"}
{"nom":"Albertacce","nomNormalise":"albertacce","typeCollectivite":"Commune","region":"Corse","departement":"Haute-Corse","departementCode":"2","adresse":{"street":"62 Albertacce","postalCode":"20224","city":"Albertacce","country":"France"},"contacts":{"email":"mairie.albertacce@orange.fr","telephone":"0495480105"},"horaires":"Du Lundi au Vendredi : de 10h00 à 12h00","latitude":42.327477,"longitude":8.984006,"website":"https://albertacce.fr/","hasWebsite":true,"hasHoraires":true,"url":"https://lannuaire.service-public.gouv.fr/corse/haute-corse/205b1732-143e-461f-b8f6-192f299152ad"}
{"nom":"Aléria","nomNormalise":"aleria","typeCollectivite":"Commune","region":"Corse","departement":"Haute-Corse","departementCode":"2","adresse":{"street":"20 cours Charles-Jean-Sarocchi","postalCode":"20270","city":"Aléria","country":"France"},"contacts":{"email":"commune@aleria.fr","telephone":"0495570073"},"horaires":"Du Lundi au Vendredi : de 08h30 à 12h00 de 14h00 à 17h30","latitude":42.104248,"longitude":9.512429,"website":"https://aleria.fr/","hasWebsite":true,"hasHoraires":true,"url":"https://lannuaire.service-public.gouv.fr/corse/haute-corse/a8e7d66e-d87d-4539-a909-0a2ac7182843"}
{"nom":"Algajola","nomNormalise":"algajola","typeCollectivite":"Commune","region":"Corse","departement":"Haute-Corse","departementCode":"2","adresse":{"street":"Place du Monument-aux-Morts","postalCode":"20220","city":"Algajola","country":"France"},"contacts":{"email":"mairie.algajola@gmail.com","telephone":"0495607047"},"horaires":"Du Lundi au Vendredi : de 09h30 à 12h00","latitude":42.60816,"longitude":8.861045,"website":"","hasWebsite":false,"hasHoraires":true,"url":"https://lannuaire.service-public.gouv.fr/corse/haute-corse/249c60c8-9cbb-434b-a888-4456661e5bb9"}
{"nom":"Altiani","nomNormalise":"altiani","typeCollectivite":"Commune","region":"Corse","departement":"Haute-Corse","departementCode":"2","adresse":{"street":"Place de l'Église","postalCode":"20251","city":"Altiani","country":"France"},"contacts":{"email":"mairie.altiani@wanadoo.fr","telephone":"0495488480"},"horaires":"Le Mardi : de 09h00 à 17h00\nLe Jeudi : de 09h00 à 13h00","latitude":42.236786,"longitude":9.290584,"website":"","hasWebsite":false,"hasHoraires":true,"url":"https://lannuaire.service-public.gouv.fr/corse/haute-corse/1fba9a4c-4a52-44c4-a28d-29aecb7faac5"}
{"nom":"Alzi","nomNormalise":"alzi","typeCollectivite":"Commune","region":"Corse","departement":"Haute-Corse","departementCode":"2","adresse":{"street":"Le Village","postalCode":"20212","city":"Alzi","country":"France"},"contacts":{"email":"mairie.alzi@wanadoo.fr","telephone":"0495486827"},"horaires":"Le Vendredi : de 08h30 à 12h00","latitude":42.30309,"longitude":9.300935,"website":"","hasWebsite":false,"hasHoraires":true,"url":"https://lannuaire.service-public.gouv.fr/corse/haute-corse/5b3eb96f-bc78-4885-9fad-0945f33969a4"}
{"nom":"Ampriani","nomNormalise":"ampriani","typeCollectivite":"Commune","region":"Corse","departement":"Haute-Corse","departementCode":"2","adresse":{"street":"Ampriani","postalCode":"20272","city":"Ampriani","country":"France"},"contacts":{"email":"mairie-ampriani@orange.fr","telephone":"0495396210"},"horaires":"Le Vendredi : de 09h00 à 12h00 de 14h00 à 17h00","latitude":42.253113,"longitude":9.356962,"website":"","hasWebsite":false,"hasHoraires":true,"url":"https://lannuaire.service-public.gouv.fr/corse/haute-corse/c2859c68-ba82-43a4-af99-aad65ab93fc4"}
{"nom":"Antisanti","nomNormalise":"antisanti","typeCollectivite":"Commune","region":"Corse","departement":"Haute-Corse","departementCode":"2","adresse":{"street":"Place de l'église","postalCode":"20270","city":"Antisanti","country":"France"},"contacts":{"email":"mairie.antisanti@wanadoo.fr","telephone":"0495444403"},"horaires":"Du Lundi au Jeudi : de 08h30 à 12h00 de 13h30 à 17h30\nLe Vendredi : de 08h30 à 12h00","latitude":42.166634,"longitude":9.346079,"website":"https://mairie-antisanti.com/","hasWebsite":true,"hasHoraires":true,"url":"https://lannuaire.service-public.gouv.fr/corse/haute-corse/c66ca08d-3e2e-4d98-a736-33b1be2958d3"}
{"nom":"Aregno","nomNormalise":"aregno","typeCollectivite":"Commune","region":"Corse","departement":"Haute-Corse","departementCode":"2","adresse":{"street":"105 place de l'Église","postalCode":"20220","city":"Aregno","country":"France"},"contacts":{"email":"mairie.aregno@orange.fr","telephone":"0495617034"},"horaires":"Du Lundi au Vendredi : de 08h30 à 12h00 de 14h00 à 17h30","latitude":42.580097,"longitude":8.895116,"website":"","hasWebsite":false,"hasHoraires":true,"url":"https://lannuaire.service-public.gouv.fr/corse/haute-corse/38a1dc52-f4c4-40bc-997d-3116ac870078"}
{"nom":"Asco","nomNormalise":"asco","typeCollectivite":"Commune","region":"Corse","departement":"Haute-Corse","departementCode":"2","adresse":{"street":"Asco","postalCode":"20276","city":"Asco","country":"France"},"contacts":{"email":"mairie.asco@orange.fr","telephone":"0495478207"},"horaires":"Du Lundi au Vendredi : de 09h30 à 12h30","latitude":42.402073,"longitude":8.920425,"website":"http://www.asco.corsica/","hasWebsite":true,"hasHoraires":true,"url":"https://lannuaire.service-public.gouv.fr/corse/haute-corse/e23f22ff-2949-4dfb-8f3c-33da0cd8f6c5"}
{"nom":"Avapessa","nomNormalise":"avapessa","typeCollectivite":"Commune","region":"Corse","departement":"Haute-Corse","departementCode":"2","adresse":{"street":"Avapessa","postalCode":"20225","city":"Avapessa","country":"France"},"contacts":{"email":"mairie.avapessa@wanadoo.fr","telephone":"0495617410"},"horaires":"Le Mardi : de 09h00 à 12h00\nLe Jeudi : de 14h15 à 17h00","latitude":42.56098,"longitude":8.893849,"website":"https://www.avapessa.fr/","hasWebsite":true,"hasHoraires":true,"url":"https://lannuaire.service-public.gouv.fr/corse/haute-corse/42de70e7-33d6-4f8a-afb7-29aa208480e3"}
{"nom":"Barbaggio","nomNormalise":"barbaggio","typeCollectivite":"Commune","region":"Corse","departement":"Haute-Corse","departementCode":"2","adresse":{"street":"Piazze","postalCode":"20253","city":"Barbaggio","country":"France"},"contacts":{"email":"barbaggio@wanadoo.fr","telephone":"0495370580"},"horaires":"Du Lundi au Mardi : de 09h00 à 12h00\nDu Jeudi au Vendredi : de 09h00 à 12h00","latitude":42.689938,"longitude":9.378206,"website":"https://www.barbaggio.fr/","hasWebsite":true,"hasHoraires":true,"url":"https://lannuaire.service-public.gouv.fr/corse/haute-corse/76963c0b-faab-4ba1-bfe5-66f2887cda2e"}
{"nom":"Barrettali","nomNormalise":"barrettali","typeCollectivite":"Commune","region":"Corse","departement":"Haute-Corse","departementCode":"2","adresse":{"street":"Hameau Chiesa","postalCode":"20228","city":"Barrettali","country":"France"},"contacts":{"email":"secretariat.barrettali@wanadoo.fr","telephone":"0495351054"},"horaires":"Du Lundi au Mardi : de 08h30 à 11h30\nDu Jeudi au Vendredi : de 08h30 à 11h30","latitude":42.876793,"longitude":9.354927,"website":"https://www.barrettali.corsica/","hasWebsite":true,"hasHoraires":true,"url":"https://lannuaire.service-public.gouv.fr/corse/haute-corse/8ad1139c-821f-4260-bbd9-4570d3f393f9"}
{"nom":"Bastia","nomNormalise":"bastia","typeCollectivite":"Commune","region":"Corse","departement":"Haute-Corse","departementCode":"2","adresse":{"street":"Avenue Pierre-Giudicelli","postalCode":"20200","city":"Bastia","country":"France"},"contacts":{"email":"mairie@bastia.corsica","telephone":"0495559555"},"horaires":"Du Lundi au Vendredi : de 08h00 à 12h00 de 13h30 à 17h00","latitude":42.70208,"longitude":9.451469,"website":"https://www.bastia.corsica/","hasWebsite":true,"hasHoraires":true,"url":"https://lannuaire.service-public.gouv.fr/corse/haute-corse/e9393299-fb9d-41fd-a00d-b52a9b9416f9"}
{"nom":"Belgodère","nomNormalise":"belgodere","typeCollectivite":"Commune","region":"Corse","departement":"Haute-Corse","departementCode":"2","adresse":{"street":"Casale Vincentelli","postalCode":"20226","city":"Belgodère","country":"France"},"contacts":{"email":"mairie.belgodere@orange.fr","telephone":"0495613212"},"horaires":"Du Lundi au Vendredi : de 08h30 à 12h30 de 13h30 à 17h30","latitude":42.58584,"longitude":9.017958,"website":"","hasWebsite":false,"hasHoraires":true,"url":"https://lannuaire.service-public.gouv.fr/corse/haute-corse/40f6931e-92fa-4d61-b8eb-7225219851f0"}
{"nom":"Bigorno","nomNormalise":"bigorno","typeCollectivite":"Commune","region":"Corse","departement":"Haute-Corse","departementCode":"2","adresse":{"street":"Place de la Mairie","postalCode":"20252","city":"Bigorno","country":"France"},"contacts":{"email":"bigorno.cne@wanadoo.fr","telephone":"0495387209"},"horaires":"Le Mardi : de 14h00 à 18h00\nLe Vendredi : de 14h00 à 18h00","latitude":42.527428,"longitude":9.299449,"website":"","hasWebsite":false,"hasHoraires":true,"url":"https://lannuaire.service-public.gouv.fr/corse/haute-corse/fbd1eabb-7ba2-49f3-9cc0-13e79bc6e2ff"}
{"nom":"Biguglia","nomNormalise":"biguglia","typeCollectivite":"Commune","region":"Corse","departement":"Haute-Corse","departementCode":"2","adresse":{"street":"Route nationale 193","postalCode":"20620","city":"Biguglia","country":"France"},"contacts":{"email":"mairie.biguglia@wanadoo.fr","telephone":"0495589858"},"horaires":"Du Lundi au Vendredi : de 08h00 à 17h00","latitude":42.607635,"longitude":9.455257,"website":"https://biguglia.corsica/","hasWebsite":true,"hasHoraires":true,"url":"https://lannuaire.service-public.gouv.fr/corse/haute-corse/f5b93bea-9e16-4fc6-8f5f-433c937c714c"}
{"nom":"Bisinchi","nomNormalise":"bisinchi","typeCollectivite":"Commune","region":"Corse","departement":"Haute-Corse","departementCode":"2","adresse":{"street":"Village","postalCode":"20235","city":"Bisinchi","country":"France"},"contacts":{"email":"mairie.bisinchi@wanadoo.fr","telephone":"0495387638"},"horaires":"Le Lundi : de 09h00 à 12h00\nDu Mardi au Mercredi : de 14h00 à 17h00\nLe Jeudi : de 09h00 à 12h00\nLe Vendredi : de 14h00 à 17h00","latitude":42.477028,"longitude":9.324222,"website":"","hasWebsite":false,"hasHoraires":true,"url":"https://lannuaire.service-public.gouv.fr/corse/haute-corse/abc496ed-c0ec-4b0e-809e-f436239b8899"}
{"nom":"Borgo","nomNormalise":"borgo","typeCollectivite":"Commune","region":"Corse","departement":"Haute-Corse","departementCode":"2","adresse":{"street":"120 route de la Gare","postalCode":"20290","city":"Borgo","country":"France"},"contacts":{"email":"contact@mairie-borgo.fr","telephone":"0495584545"},"horaires":"Du Lundi au Jeudi : de 08h30 à 12h00 de 13h30 à 17h00\nLe Vendredi : de 08h30 à 12h00","latitude":42.562,"longitude":9.443048,"website":"https://ville-borgo.com/","hasWebsite":true,"hasHoraires":true,"url":"https://lannuaire.service-public.gouv.fr/corse/haute-corse/b48cd33c-fca3-40ef-9423-0d25e96959df"}
{"nom":"Brando","nomNormalise":"brando","typeCollectivite":"Commune","region":"Corse","departement":"Haute-Corse","departementCode":"2","adresse":{"street":"Erbalunga","postalCode":"20222","city":"Brando","country":"France"},"contacts":{"email":"mairie@brando.corsica","telephone":"0495332084"},"horaires":"Du Lundi au Mardi : de 08h30 à 12h00 de 13h30 à 16h30\nLe Mercredi : de 08h30 à 12h00\nLe Jeudi : de 08h30 à 12h00 de 13h30 à 16h30\nLe Vendredi : de 08h30 à 12h00","latitude":42.774677,"longitude":9.474912,"website":"https://www.commune-brando.fr/","hasWebsite":true,"hasHoraires":true,"url":"https://lannuaire.service-public.gouv.fr/corse/haute-corse/154a0a8c-d39f-4807-bb4b-a8c2711e8070"}
{"nom":"Bustanico","nomNormalise":"bustanico","typeCollectivite":"Commune","region":"Corse","departement":"Haute-Corse","departementCode":"2","adresse":{"street":"Sottano","postalCode":"20212","city":"Bustanico","country":"France"},"contacts":{"email":"mairie-de-bustanico@wanadoo.fr","telephone":"0495486684"},"horaires":"Le Vendredi : de 13h30 à 17h30","latitude":42.3198,"longitude":9.30153,"website":"","hasWebsite":false,"hasHoraires":true,"url":"https://lannuaire.service-public.gouv.fr/corse/haute-corse/db5500ce-ad8e-4cad-99a8-440210088222"}
{"nom":"Cagnano","nomNormalise":"cagnano","typeCollectivite":"Commune","region":"Corse","departement":"Haute-Corse","departementCode":"2","adresse":{"street":"Ortale","postalCode":"20228","city":"Cagnano","country":"France"},"contacts":{"email":"mairie.de.cagnano@orange.fr","telephone":"0495350167"},"horaires":"Le Mardi : de 09h00 à 12h00\nLe Jeudi : de 14h00 à 17h00","latitude":42.876987,"longitude":9.456686,"website":"","hasWebsite":false,"hasHoraires":true,"url":"https://lannuaire.service-public.gouv.fr/corse/haute-corse/038e9024-422d-43b1-a218-9d433a908a66"}
{"nom":"Calacuccia","nomNormalise":"calacuccia","typeCollectivite":"Commune","region":"Corse","departement":"Haute-Corse","departementCode":"2","adresse":{"street":"Avenue Valdoniello","postalCode":"20224","city":"Calacuccia","country":"France"},"contacts":{"email":"mairie.calacuccia@wanadoo.fr","telephone":"0495480021"},"horaires":"Du Lundi au Vendredi : de 09h00 à 12h00 de 14h00 à 17h00","latitude":42.335907,"longitude":9.018704,"website":"","hasWebsite":false,"hasHoraires":true,"url":"https://lannuaire.service-public.gouv.fr/corse/haute-corse/cf37d92c-fe9f-4802-bd1b-a024b653f308"}
{"nom":"Calenzana","nomNormalise":"calenzana","typeCollectivite":"Commune","region":"Corse","departement":"Haute-Corse","departementCode":"2","adresse":{"street":"Place du Monument","postalCode":"20214","city":"Calenzana","country":"France"},"contacts":{"email":"accueil@calenzana.fr","telephone":"0495627008"},"horaires":"Du Lundi au Vendredi : de 08h30 à 12h00 de 13h30 à 17h00","latitude":42.50879,"longitude":8.855482,"website":"https://www.calenzana.corsica/","hasWebsite":true,"hasHoraires":true,"url":"https://lannuaire.service-public.gouv.fr/corse/haute-corse/ed11cdd7-9ca6-49c0-9556-e2e275beebd2"}
{"nom":"Calvi","nomNormalise":"calvi","typeCollectivite":"Commune","region":"Corse","departement":"Haute-Corse","departementCode":"2","adresse":{"street":"Avenue Gérard Marche","postalCode":"20260","city":"Calvi","country":"France"},"contacts":{"email":"secretariat@ville-calvi.corsica","telephone":"0495658200"},"horaires":"Du Lundi au Vendredi : de 08h30 à 12h00 de 14h00 à 17h00","latitude":42.568043,"longitude":8.757228,"website":"https://ville-calvi.corsica/","hasWebsite":true,"hasHoraires":true,"url":"https://lannuaire.service-public.gouv.fr/corse/haute-corse/512a4441-a9ae-43a9-8696-6ef34ccf37db"}
{"nom":"Cambia","nomNormalise":"cambia","typeCollectivite":"Commune","region":"Corse","departement":"Haute-Corse","departementCode":"2","adresse":{"street":"Le Village","postalCode":"20244","city":"Cambia","country":"France"},"contacts":{"email":"cambia.mairie@orange.fr","telephone":"0495484248"},"horaires":"Le Mercredi : de 09h00 à 12h00\nLe Jeudi : de 14h00 à 17h00","latitude":42.3639,"longitude":9.293768,"website":"","hasWebsite":false,"hasHoraires":true,"url":"https://lannuaire.service-public.gouv.fr/corse/haute-corse/cae2bbeb-23f7-4585-8aa1-78ecdaab98f8"}
{"nom":"Campana","nomNormalise":"campana","typeCollectivite":"Commune","region":"Corse","departement":"Haute-Corse","departementCode":"2","adresse":{"street":"32 Piazza A'croce","postalCode":"20229","city":"Campana","country":"France"},"contacts":{"email":"commune-de-campana@orange.fr","telephone":"0495358587"},"horaires":"Le Mardi : de 14h00 à 16h00\nLe Jeudi : de 09h30 à 12h00","latitude":42.33437,"longitude":9.016001,"website":"","hasWebsite":false,"hasHoraires":true,"url":"https://lannuaire.service-public.gouv.fr/corse/haute-corse/f900bd15-a01c-480a-96c8-a481a6a5b904"}
{"nom":"Campi","nomNormalise":"campi","typeCollectivite":"Commune","region":"Corse","departement":"Haute-Corse","departementCode":"2","adresse":{"street":"Mairie","postalCode":"20270","city":"Campi","country":"France"},"contacts":{"email":"","telephone":"0495394031"},"horaires":"Le Vendredi : de 09h00 à 12h00\nAttention, ces horaires peuvent varier en fonction des jours fériés.","latitude":42.271168,"longitude":9.424834,"website":"","hasWebsite":false,"hasHoraires":true,"url":"https://lannuaire.service-public.gouv.fr/corse/haute-corse/5f529b5d-a8e3-42c0-b3d0-1fb081e6bee0"}
{"nom":"Campile","nomNormalise":"campile","typeCollectivite":"Commune","region":"Corse","departement":"Haute-Corse","departementCode":"2","adresse":{"street":"100 place de l'Hôtel-de-Ville","postalCode":"20290","city":"Campile","country":"France"},"contacts":{"email":"mairie.campile@wanadoo.fr","telephone":"0495382121"},"horaires":"Le Mercredi : de 09h00 à 12h00\nLe Samedi : de 09h00 à 12h00","latitude":42.492542,"longitude":9.353724,"website":"http://www.campile.fr/","hasWebsite":true,"hasHoraires":true,"url":"https://lannuaire.service-public.gouv.fr/corse/haute-corse/390f5546-2057-4748-ae73-9d102d0119b6"}
{"nom":"Campitello","nomNormalise":"campitello","typeCollectivite":"Commune","region":"Corse","departement":"Haute-Corse","departementCode":"2","adresse":{"street":"4 Chjassu-Di-Panicale","postalCode":"20252","city":"Campitello","country":"France"},"contacts":{"email":"commune.campitello@orange.fr","telephone":"0495387430"},"horaires":"Le Mardi : de 14h00 à 18h00\nLe Mercredi : de 09h00 à 13h00\nLe Vendredi : de 14h00 à 18h00","latitude":42.525208,"longitude":9.313894,"website":"http://www.campitello.fr/","hasWebsite":true,"hasHoraires":true,"url":"https://lannuaire.service-public.gouv.fr/corse/haute-corse/e7b1e4a7-9d87-428b-8c12-ee29560fd44a"}
{"nom":"Canale-di-Verde","nomNormalise":"canalediverde","typeCollectivite":"Commune","region":"Corse","departement":"Haute-Corse","departementCode":"2","adresse":{"street":"Mairie","postalCode":"20230","city":"Canale-di-Verde","country":"France"},"contacts":{"email":"canalediverde@wanadoo.fr","telephone":"0495388253"},"horaires":"Du Lundi au Vendredi : de 09h00 à 12h00","latitude":42.277096,"longitude":9.474762,"website":"","hasWebsite":false,"hasHoraires":true,"url":"https://lannuaire.service-public.gouv.fr/corse/haute-corse/9bcc3e75-f5ea-43b1-9bf7-389b8ae28340"}
{"nom":"Canari","nomNormalise":"canari","typeCollectivite":"Commune","region":"Corse","departement":"Haute-Corse","departementCode":"2","adresse":{"street":"Place du Clocher","postalCode":"20217","city":"Canari","country":"France"},"contacts":{"email":"mairiecanari@wanadoo.fr","telephone":"0495378017"},"horaires":"Le Lundi : de 09h00 à 12h00\nLe Mardi : de 14h00 à 17h00\nLe Jeudi : de 14h00 à 17h00\nLe Vendredi : de 09h00 à 12h00","latitude":42.845184,"longitude":9.33582,"website":"http://www.canarivillage.com/","hasWebsite":true,"hasHoraires":true,"url":"https://lannuaire.service-public.gouv.fr/corse/haute-corse/eafdb672-4d7c-4821-9048-866cc7102fbc"}
{"nom":"Canavaggia","nomNormalise":"canavaggia","typeCollectivite":"Commune","region":"Corse","departement":"Haute-Corse","departementCode":"2","adresse":{"street":"Village","postalCode":"20235","city":"Canavaggia","country":"France"},"contacts":{"email":"mairie.canavaggia@wanadoo.fr","telephone":"0495387193"},"horaires":"Le Lundi : de 08h00 à 12h00\nLe Jeudi : de 08h00 à 12h00","latitude":42.50407,"longitude":9.262095,"website":"","hasWebsite":false,"hasHoraires":true,"url":"https://lannuaire.service-public.gouv.fr/corse/haute-corse/e772849f-a470-4405-916f-e0c0fd6a7b93"}
{"nom":"Carcheto-Brustico","nomNormalise":"carchetobrustico","typeCollectivite":"Commune","region":"Corse","departement":"Haute-Corse","departementCode":"2","adresse":{"street":"Lieu-dit U-Corsu","postalCode":"20229","city":"Carcheto-Brustico","country":"France"},"contacts":{"email":"mairiecarcheto.brustico@wanadoo.fr","telephone":"0495358408"},"horaires":"Le Mardi : de 09h30 à 18h00","latitude":42.359657,"longitude":9.370251,"website":"","hasWebsite":false,"hasHoraires":true,"url":"https://lannuaire.service-public.gouv.fr/corse/haute-corse/bb748a7b-39ec-4b94-98f5-77644b033113"}
{"nom":"Carpineto","nomNormalise":"carpineto","typeCollectivite":"Commune","region":"Corse","departement":"Haute-Corse","departementCode":"2","adresse":{"street":"Village","postalCode":"20229","city":"Carpineto","country":"France"},"contacts":{"email":"mairiedecarpinetto@orange.fr","telephone":"0495359254"},"horaires":"Le Jeudi : de 14h00 à 17h00","latitude":42.357296,"longitude":9.379332,"website":"","hasWebsite":false,"hasHoraires":true,"url":"https://lannuaire.service-public.gouv.fr/corse/haute-corse/1242b5f8-0238-42c4-b298-963f3f58391b"}
{"nom":"Carticasi","nomNormalise":"carticasi","typeCollectivite":"Commune","region":"Corse","departement":"Haute-Corse","departementCode":"2","adresse":{"street":"Bus France Services Centre Corse","postalCode":"20244","city":"Carticasi","country":"France"},"contacts":{"email":"mairiecarticasi@orange.fr","telephone":"0495484108"},"horaires":"Le Mercredi : de 09h30 à 12h00\nLe Samedi : de 09h30 à 12h00","latitude":42.35695,"longitude":9.290956,"website":"http://www.carticasi.fr/","hasWebsite":true,"hasHoraires":true,"url":"https://lannuaire.service-public.gouv.fr/corse/haute-corse/ae885181-baba-418d-af12-be0bd03b49c6"}
{"nom":"Casabianca","nomNormalise":"casabianca","typeCollectivite":"Commune","region":"Corse","departement":"Haute-Corse","departementCode":"2","adresse":{"street":"Le Village","postalCode":"20237","city":"Casabianca","country":"France"},"contacts":{"email":"mairie.casabianca@wanadoo.fr","telephone":"0495392214"},"horaires":"Le Lundi : de 09h00 à 12h00\nLe Mercredi : de 09h00 à 12h00\nLe Vendredi : de 09h00 à 12h00","latitude":42.413193,"longitude":9.35621,"website":"","hasWebsite":false,"hasHoraires":true,"url":"https://lannuaire.service-public.gouv.fr/corse/haute-corse/56a2148a-48cd-431c-a593-b754f1fb9431"}
{"nom":"Casalta","nomNormalise":"casalta","typeCollectivite":"Commune","region":"Corse","departement":"Haute-Corse","departementCode":"2","adresse":{"street":"Village","postalCode":"20215","city":"Casalta","country":"France"},"contacts":{"email":"mairie.casalta@orange.fr","telephone":"0495392418"},"horaires":"Le Mercredi : de 14h00 à 17h30\nLe Samedi : de 09h00 à 12h00","latitude":42.51769,"longitude":9.027578,"website":"","hasWebsite":false,"hasHoraires":true,"url":"https://lannuaire.service-public.gouv.fr/corse/haute-corse/029a169d-3786-47ee-a1e0-d7e6199cef27"}
{"nom":"Casamaccioli","nomNormalise":"casamaccioli","typeCollectivite":"Commune","region":"Corse","departement":"Haute-Corse","departementCode":"2","adresse":{"street":"Village","postalCode":"20224","city":"Casamaccioli","country":"France"},"contacts":{"email":"mairie.casamaccioli@orange.fr","telephone":"0495480331"},"horaires":"Du Lundi au Vendredi : de 09h00 à 12h00","latitude":42.318462,"longitude":9.002473,"website":"","hasWebsite":false,"hasHoraires":true,"url":"https://lannuaire.service-public.gouv.fr/corse/haute-corse/951e3eb4-e62d-46c8-a9d9-167bf5d74e1d"}
{"nom":"Casanova","nomNormalise":"casanova","typeCollectivite":"Commune","region":"Corse","departement":"Haute-Corse","departementCode":"2","adresse":{"street":"Le Village","postalCode":"20250","city":"Casanova","country":"France"},"contacts":{"email":"commune-casanova-de-venaco@wanadoo.fr","telephone":"0495470683"},"horaires":"Du Lundi au Vendredi : de 09h00 à 12h00 de 13h30 à 16h30","latitude":42.304623,"longitude":9.212364,"website":"","hasWebsite":false,"hasHoraires":true,"url":"https://lannuaire.service-public.gouv.fr/corse/haute-corse/c473ac4d-36a0-4331-9938-c3b64dfe7f9d"}
{"nom":"Casevecchie","nomNormalise":"casevecchie","typeCollectivite":"Commune","region":"Corse","departement":"Haute-Corse","departementCode":"2","adresse":{"street":"Le Village","postalCode":"20270","city":"Casevecchie","country":"France"},"contacts":{"email":"commune-de-casevecchie@wanadoo.fr","telephone":"0495444511"},"horaires":"Le Mercredi : de 09h00 à 12h00\nLe Vendredi : de 14h00 à 17h00","latitude":42.142567,"longitude":9.359761,"website":"","hasWebsite":false,"hasHoraires":true,"url":"https://lannuaire.service-public.gouv.fr/corse/haute-corse/db02910e-2151-4bc3-8f25-4cb57b086ba2"}
{"nom":"Castellare-di-Casinca","nomNormalise":"castellaredicasinca","typeCollectivite":"Commune","region":"Corse","departement":"Haute-Corse","departementCode":"2","adresse":{"street":"Place Sainte-Marguerite","postalCode":"20213","city":"Castellare-di-Casinca","country":"France"},"contacts":{"email":"mairiecastellare@orange.fr","telephone":"0495365039"},"horaires":"Du Lundi au Jeudi : de 08h30 à 12h30\nLe Vendredi : de 08h30 à 12h00","latitude":42.46677,"longitude":9.471999,"website":"https://www.castellare-di-casinca.fr/","hasWebsite":true,"hasHoraires":true,"url":"https://lannuaire.service-public.gouv.fr/corse/haute-corse/dcbc86d6-c9c9-4609-a8bf-b12febc369bc"}
{"nom":"Castellare-di-Mercurio","nomNormalise":"castellaredimercurio","typeCollectivite":"Commune","region":"Corse","departement":"Haute-Corse","departementCode":"2","adresse":{"street":"Village","postalCode":"20212","city":"Castellare-di-Mercurio","country":"France"},"contacts":{"email":"mairiedecastellare-di-mercurio@wanadoo.fr","telephone":"0495471466"},"horaires":"Le Lundi : de 08h30 à 16h30","latitude":42.310455,"longitude":9.246354,"website":"","hasWebsite":false,"hasHoraires":true,"url":"https://lannuaire.service-public.gouv.fr/corse/haute-corse/fe95267e-b319-41aa-ad56-bd9b32b11b29"}
{"nom":"Castello-di-Rostino","nomNormalise":"castellodirostino","typeCollectivite":"Commune","region":"Corse","departement":"Haute-Corse","departementCode":"2","adresse":{"street":"Lieu-dit Pastureccia","postalCode":"20235","city":"Castello-di-Rostino","country":"France"},"contacts":{"email":"mairie.castelludirustinu@wanadoo.fr","telephone":"0495387034"},"horaires":"Du Lundi au Vendredi : de 08h30 à 12h00 de 13h30 à 17h00","latitude":42.45778,"longitude":9.311635,"website":"","hasWebsite":false,"hasHoraires":true,"url":"https://lannuaire.service-public.gouv.fr/corse/haute-corse/37960e60-b74e-4923-ab33-88cefafb81c9"}
{"nom":"Castifao","nomNormalise":"castifao","typeCollectivite":"Commune","region":"Corse","departement":"Haute-Corse","departementCode":"2","adresse":{"street":"Place du Village","postalCode":"20218","city":"Castifao","country":"France"},"contacts":{"email":"mairie-de-castifao@wanadoo.fr","telephone":"0495326413"},"horaires":"Du Lundi au Vendredi : de 08h30 à 10h00 de 13h30 à 17h00","latitude":42.504204,"longitude":9.113006,"website":"","hasWebsite":false,"hasHoraires":true,"url":"https://lannuaire.service-public.gouv.fr/corse/haute-corse/83b750a0-9f18-4bcd-a3d3-99ddceacdc95"}
{"nom":"Castiglione","nomNormalise":"castiglione","typeCollectivite":"Commune","region":"Corse","departement":"Haute-Corse","departementCode":"2","adresse":{"street":"Mairie","postalCode":"20218","city":"Castiglione","country":"France"},"contacts":{"email":"mairie.castiglione@orange.fr","telephone":"0495610494"},"horaires":"","latitude":42.89476,"longitude":9.407606,"website":"","hasWebsite":false,"hasHoraires":false,"url":"https://lannuaire.service-public.gouv.fr/corse/haute-corse/60de8d2a-fdb4-453d-8629-e6c7a7795a7b"}
{"nom":"Castineta","nomNormalise":"castineta","typeCollectivite":"Commune","region":"Corse","departement":"Haute-Corse","departementCode":"2","adresse":{"street":"Castineta Sottana","postalCode":"20218","city":"Castineta","country":"France"},"contacts":{"email":"","telephone":"0495478556"},"horaires":"Du Lundi au Vendredi : de 09h00 à 11h00","latitude":42.4233,"longitude":9.294157,"website":"","hasWebsite":false,"hasHoraires":true,"url":"https://lannuaire.service-public.gouv.fr/corse/haute-corse/3de790c2-aa73-4e30-87d5-00a7c87dc94e"}
{"nom":"Castirla","nomNormalise":"castirla","typeCollectivite":"Commune","region":"Corse","departement":"Haute-Corse","departementCode":"2","adresse":{"street":"Village","postalCode":"20236","city":"Castirla","country":"France"},"contacts":{"email":"communedecastirla@orange.fr","telephone":"0495474140"},"horaires":"Du Lundi au Jeudi : de 09h00 à 12h30 de 14h00 à 16h00\nLe Vendredi : de 09h00 à 12h30","latitude":42.37292,"longitude":9.144123,"website":"http://mairiecastirla.corsica/","hasWebsite":true,"hasHoraires":true,"url":"https://lannuaire.service-public.gouv.fr/corse/haute-corse/836bcfe5-c87d-4250-85aa-6cc4d006a799"}
{"nom":"Cateri","nomNormalise":"cateri","typeCollectivite":"Commune","region":"Corse","departement":"Haute-Corse","departementCode":"2","adresse":{"street":"146 entrée du Village","postalCode":"20225","city":"Cateri","country":"France"},"contacts":{"email":"mairiedecateri@wanadoo.fr","telephone":"0495618170"},"horaires":"Le Lundi : de 14h00 à 17h00\nLe Mercredi : de 09h00 à 12h00\nLe Vendredi : de 09h00 à 12h00","latitude":42.571743,"longitude":8.892446,"website":"","hasWebsite":false,"hasHoraires":true,"url":"https://lannuaire.service-public.gouv.fr/corse/haute-corse/6a4cacaa-b715-47f9-9d7f-0c4ba6e5394d"}
{"nom":"Centuri","nomNormalise":"centuri","typeCollectivite":"Commune","region":"Corse","departement":"Haute-Corse","departementCode":"2","adresse":{"street":"Le Port","postalCode":"20238","city":"Centuri","country":"France"},"contacts":{"email":"secretariat@mairie-centuri.fr","telephone":"0495356006"},"horaires":"Du Lundi au Mardi : de 08h00 à 12h00\n\nSur rendez-vous le mardi après-midi.\nDu Jeudi au Vendredi : de 08h00 à 12h00\n\nSur rendez-vous le jeudi après-midi.","latitude":42.9611,"longitude":9.3697,"website":"https://www.mairie-centuri.com/","hasWebsite":true,"hasHoraires":true,"url":"https://lannuaire.service-public.gouv.fr/corse/haute-corse/542293a0-8787-46d4-a18e-b77ed30b7ce5"}
{"nom":"Cervione","nomNormalise":"cervione","typeCollectivite":"Commune","region":"Corse","departement":"Haute-Corse","departementCode":"2","adresse":{"street":"Rue Philippe Pescetti","postalCode":"20221","city":"Cervione","country":"France"},"contacts":{"email":"mairie@cervione.com","telephone":"0495381028"},"horaires":"Du Lundi au Vendredi : de 08h30 à 12h00 de 13h30 à 17h00","latitude":42.33107,"longitude":9.490362,"website":"https://www.cervione.com/","hasWebsite":true,"hasHoraires":true,"url":"https://lannuaire.service-public.gouv.fr/corse/haute-corse/42b23377-94f9-4979-91d9-61bc0d156bdd"}
{"nom":"Chiatra","nomNormalise":"chiatra","typeCollectivite":"Commune","region":"Corse","departement":"Haute-Corse","departementCode":"2","adresse":{"street":"Le Village","postalCode":"20230","city":"Chiatra","country":"France"},"contacts":{"email":"chiatra.commune@wanadoo.fr","telephone":"0495388209"},"horaires":"Du Lundi au Mardi : de 09h00 à 12h00 de 13h00 à 17h00\nDu Jeudi au Vendredi : de 09h00 à 12h00 de 13h00 à 17h00","latitude":42.291485,"longitude":9.476002,"website":"http://www.mairiechiatradiverde.com/","hasWebsite":true,"hasHoraires":true,"url":"https://lannuaire.service-public.gouv.fr/corse/haute-corse/4bfa40ba-5fd7-4e92-b7be-236fd5fbb474"}
{"nom":"Chisa","nomNormalise":"chisa","typeCollectivite":"Commune","region":"Corse","departement":"Haute-Corse","departementCode":"2","adresse":{"street":"Place de la Mairie","postalCode":"20240","city":"Chisa","country":"France"},"contacts":{"email":"mairie.chisa@wanadoo.fr","telephone":"0495573111"},"horaires":"Du Lundi au Mardi : de 09h00 à 17h00\nLe Mercredi : de 09h00 à 12h00\nDu Jeudi au Vendredi : de 09h00 à 17h00","latitude":41.92422,"longitude":9.26428,"website":"","hasWebsite":false,"hasHoraires":true,"url":"https://lannuaire.service-public.gouv.fr/corse/haute-corse/f6792e78-5ba6-48f6-8ddc-585064ed79d1"}
{"nom":"Corbara","nomNormalise":"corbara","typeCollectivite":"Commune","region":"Corse","departement":"Haute-Corse","departementCode":"2","adresse":{"street":"Lieu-dit Casavecchielle","postalCode":"20256","city":"Corbara","country":"France"},"contacts":{"email":"accueil@corbara.fr","telephone":"0495630650"},"horaires":"Le Lundi : de 09h00 à 12h00 de 14h00 à 16h00\nLe Mardi : de 09h00 à 12h00\nLe Mercredi : de 09h00 à 12h00 de 14h00 à 16h00\nLe Jeudi : de 09h00 à 12h00\nLe Vendredi : de 09h00 à 12h00","latitude":42.61516,"longitude":8.9074,"website":"https://www.corbara.fr/","hasWebsite":true,"hasHoraires":true,"url":"https://lannuaire.service-public.gouv.fr/corse/haute-corse/c1aa63ed-b8e9-4ef3-8bee-40e996f97346"}
{"nom":"Corscia","nomNormalise":"corscia","typeCollectivite":"Commune","region":"Corse","departement":"Haute-Corse","departementCode":"2","adresse":{"street":"Lieu-dit Cavalleracce","postalCode":"20224","city":"Corscia","country":"France"},"contacts":{"email":"mairie-corscia@orange.fr","telephone":"0495480204"},"horaires":"Du Lundi au Mardi : de 09h00 à 16h00\nDu Jeudi au Vendredi : de 09h00 à 16h00","latitude":42.35465,"longitude":9.042521,"website":"","hasWebsite":false,"hasHoraires":true,"url":"https://lannuaire.service-public.gouv.fr/corse/haute-corse/8c6443a2-b006-4a14-9144-5c43ffe6b298"}
{"nom":"Corte","nomNormalise":"corte","typeCollectivite":"Commune","region":"Corse","departement":"Haute-Corse","departementCode":"2","adresse":{"street":"21 cours Paoli","postalCode":"20250","city":"Corte","country":"France"},"contacts":{"email":"secretaire.dgs@ville-corte.fr","telephone":"0495452300"},"horaires":"Du Lundi au Jeudi : de 09h00 à 12h00 de 13h30 à 17h30\nLe Vendredi : de 09h00 à 12h00 de 13h30 à 17h00","latitude":42.3085,"longitude":9.14996,"website":"http://www.mairie-corte.fr/","hasWebsite":true,"hasHoraires":true,"url":"https://lannuaire.service-public.gouv.fr/corse/haute-corse/811ad0ef-777d-4286-a1ec-55f41643bbf4"}
{"nom":"Costa","nomNormalise":"costa","typeCollectivite":"Commune","region":"Corse","departement":"Haute-Corse","departementCode":"2","adresse":{"street":"Castellu Vechju","postalCode":"20226","city":"Costa","country":"France"},"contacts":{"email":"commune-de-costa@orange.fr","telephone":"0495613372"},"horaires":"Le Vendredi : de 14h00 à 17h00","latitude":42.575172,"longitude":9.002497,"website":"","hasWebsite":false,"hasHoraires":true,"url":"https://lannuaire.service-public.gouv.fr/corse/haute-corse/263b5813-0fca-4973-8246-14021db72cac"}
{"nom":"Croce","nomNormalise":"croce","typeCollectivite":"Commune","region":"Corse","departement":"Haute-Corse","departementCode":"2","adresse":{"street":"Croce","postalCode":"20237","city":"Croce","country":"France"},"contacts":{"email":"","telephone":"0495392045"},"horaires":"","latitude":42.413765,"longitude":9.363749,"website":"","hasWebsite":false,"hasHoraires":false,"url":"https://lannuaire.service-public.gouv.fr/corse/haute-corse/e75eeba5-a731-40e6-8e63-716d7275c9d9"}
{"nom":"Crocicchia","nomNormalise":"crocicchia","typeCollectivite":"Commune","region":"Corse","departement":"Haute-Corse","departementCode":"2","adresse":{"street":"Crocicchia Village","postalCode":"20290","city":"Crocicchia","country":"France"},"contacts":{"email":"mairiedecrocicchia@orange.fr","telephone":"0495382238"},"horaires":"Le Vendredi : de 08h00 à 12h00","latitude":42.468174,"longitude":9.353327,"website":"","hasWebsite":false,"hasHoraires":true,"url":"https://lannuaire.service-public.gouv.fr/corse/haute-corse/59d335e6-f3d8-43b5-a32a-74f2bcd04d09"}
{"nom":"Erbajolo","nomNormalise":"erbajolo","typeCollectivite":"Commune","region":"Corse","departement":"Haute-Corse","departementCode":"2","adresse":{"street":"Le Village","postalCode":"20212","city":"Erbajolo","country":"France"},"contacts":{"email":"mairie.erbajolo@orange.fr","telephone":"0495488427"},"horaires":"Le Mardi : de 08h30 à 12h30\nLe Jeudi : de 13h00 à 17h00","latitude":42.265022,"longitude":9.282937,"website":"","hasWebsite":false,"hasHoraires":true,"url":"https://lannuaire.service-public.gouv.fr/corse/haute-corse/16762385-ee75-4214-a696-1f1ab48a7bd5"}
{"nom":"Erone","nomNormalise":"erone","typeCollectivite":"Commune","region":"Corse","departement":"Haute-Corse","departementCode":"2","adresse":{"street":"Village","postalCode":"20244","city":"Erone","country":"France"},"contacts":{"email":"mairie.erone@orange.fr","telephone":"0420047311"},"horaires":"Du Lundi au Vendredi : de 09h00 à 12h00","latitude":42.3731,"longitude":9.27191,"website":"","hasWebsite":false,"hasHoraires":true,"url":"https://lannuaire.service-public.gouv.fr/corse/haute-corse/a88d6a2e-b127-4732-b456-44854a1273cc"}
{"nom":"Ersa","nomNormalise":"ersa","typeCollectivite":"Commune","region":"Corse","departement":"Haute-Corse","departementCode":"2","adresse":{"street":"Lieu-dit Conventu","postalCode":"20275","city":"Ersa","country":"France"},"contacts":{"email":"mairieersa@orange.fr","telephone":"0495356096"},"horaires":"Le Lundi : de 08h00 à 12h00 de 14h00 à 17h00\nDu Mardi au Vendredi : de 08h00 à 12h00","latitude":42.981716,"longitude":9.394445,"website":"https://www.commune-ersa.fr/","hasWebsite":true,"hasHoraires":true,"url":"https://lannuaire.service-public.gouv.fr/corse/haute-corse/5d02b1d3-7ae3-46d8-9984-5bcf3579bc2d"}
{"nom":"Farinole","nomNormalise":"farinole","typeCollectivite":"Commune","region":"Corse","departement":"Haute-Corse","departementCode":"2","adresse":{"street":"Place de l'Église","postalCode":"20253","city":"Farinole","country":"France"},"contacts":{"email":"mairie.de.farinole@wanadoo.fr","telephone":"0495371060"},"horaires":"Le Mardi : de 08h30 à 11h30\nLe Vendredi : de 14h00 à 17h30","latitude":42.728996,"longitude":9.360468,"website":"http://www.commune-farinole.com/","hasWebsite":true,"hasHoraires":true,"url":"https://lannuaire.service-public.gouv.fr/corse/haute-corse/dbd71a47-be70-4821-895e-fd0db33948a6"}
{"nom":"Favalello","nomNormalise":"favalello","typeCollectivite":"Commune","region":"Corse","departement":"Haute-Corse","departementCode":"2","adresse":{"street":"Village","postalCode":"20212","city":"Favalello","country":"France"},"contacts":{"email":"communedefavalello@orange.fr","telephone":"0495486761"},"horaires":"Le Mercredi : de 13h00 à 16h30","latitude":42.29545,"longitude":9.2723,"website":"","hasWebsite":false,"hasHoraires":true,"url":"https://lannuaire.service-public.gouv.fr/corse/haute-corse/df39489c-dd28-4b37-a613-7e4ab336d2aa"}
{"nom":"Felce","nomNormalise":"felce","typeCollectivite":"Commune","region":"Corse","departement":"Haute-Corse","departementCode":"2","adresse":{"street":"Lieu-dit Poggiale","postalCode":"20234","city":"Felce","country":"France"},"contacts":{"email":"mairie.felce@orange.fr","telephone":"0495359392"},"horaires":"Le Lundi : de 14h00 à 17h00","latitude":42.3501,"longitude":9.41932,"website":"","hasWebsite":false,"hasHoraires":true,"url":"https://lannuaire.service-public.gouv.fr/corse/haute-corse/638e8c02-7aaa-42bf-9c55-7420d9145903"}
{"nom":"Feliceto","nomNormalise":"feliceto","typeCollectivite":"Commune","region":"Corse","departement":"Haute-Corse","departementCode":"2","adresse":{"street":"Casa Cumuna","postalCode":"20225","city":"Feliceto","country":"France"},"contacts":{"email":"mairie.feliceto@orange.fr","telephone":"0495617120"},"horaires":"Le Lundi : de 14h00 à 16h00\nDu Jeudi au Vendredi : de 14h00 à 16h00","latitude":42.543373,"longitude":8.935968,"website":"https://www.feliceto-filicetu.com/","hasWebsite":true,"hasHoraires":true,"url":"https://lannuaire.service-public.gouv.fr/corse/haute-corse/991e580b-4964-45df-9881-e7f32ca06c94"}
{"nom":"Ficaja","nomNormalise":"ficaja","typeCollectivite":"Commune","region":"Corse","departement":"Haute-Corse","departementCode":"2","adresse":{"street":"Village","postalCode":"20237","city":"Ficaja","country":"France"},"contacts":{"email":"mairieficaja@wanadoo.fr","telephone":"0495392037"},"horaires":"Le Lundi : de 09h00 à 12h00 de 14h00 à 17h00\nLe Mercredi : de 09h00 à 12h00 de 14h00 à 17h00\nLe Vendredi : de 09h00 à 12h00 de 14h00 à 17h00","latitude":42.422096,"longitude":9.368589,"website":"","hasWebsite":false,"hasHoraires":true,"url":"https://lannuaire.service-public.gouv.fr/corse/haute-corse/c59fe329-03e5-40c0-893e-d005f13b1523"}
{"nom":"Focicchia","nomNormalise":"focicchia","typeCollectivite":"Commune","region":"Corse","departement":"Haute-Corse","departementCode":"2","adresse":{"street":"Le Village","postalCode":"20212","city":"Focicchia","country":"France"},"contacts":{"email":"mairie-focicchia@orange.fr","telephone":"0495488171"},"horaires":"Le Lundi : de 09h00 à 16h00","latitude":42.250294,"longitude":9.295256,"website":"http://www.focicchia.corsica/","hasWebsite":true,"hasHoraires":true,"url":"https://lannuaire.service-public.gouv.fr/corse/haute-corse/03764e24-d4ab-4581-ad9a-63b9f3a13d5a"}
{"nom":"Furiani","nomNormalise":"furiani","typeCollectivite":"Commune","region":"Corse","departement":"Haute-Corse","departementCode":"2","adresse":{"street":"Rue du 5 Mai 1992","postalCode":"20600","city":"Furiani","country":"France"},"contacts":{"email":"secretariatgeneral@mairie-furiani.corsica","telephone":"0495307970"},"horaires":"Du Lundi au Vendredi : de 08h00 à 12h00 de 14h00 à 17h00\nLe Samedi : de 08h00 à 12h00\n\nSeulement pour les titres d'identité","latitude":42.65834,"longitude":9.413169,"website":"https://www.mairie-furiani.corsica/","hasWebsite":true,"hasHoraires":true,"url":"https://lannuaire.service-public.gouv.fr/corse/haute-corse/34fee487-c5fa-4a95-90be-3f14111776d7"}
{"nom":"Galéria","nomNormalise":"galeria","typeCollectivite":"Commune","region":"Corse","departement":"Haute-Corse","departementCode":"2","adresse":{"street":"Place de la Mairie","postalCode":"20245","city":"Galéria","country":"France"},"contacts":{"email":"galeria.mairie@wanadoo.fr","telephone":"0495620009"},"horaires":"Le Lundi : de 09h00 à 12h00\nLe Mercredi : de 09h00 à 12h00\nLe Vendredi : de 09h00 à 12h00","latitude":42.408936,"longitude":8.648228,"website":"","hasWebsite":false,"hasHoraires":true,"url":"https://lannuaire.service-public.gouv.fr/corse/haute-corse/2936b2a5-fc92-49c5-aadb-d4c057dca492"}
{"nom":"Gavignano","nomNormalise":"gavignano","typeCollectivite":"Commune","region":"Corse","departement":"Haute-Corse","departementCode":"2","adresse":{"street":"Place de l'Église","postalCode":"20218","city":"Gavignano","country":"France"},"contacts":{"email":"mairie-gavignano@wanadoo.fr","telephone":"0495484069"},"horaires":"Le Vendredi : de 14h00 à 18h00","latitude":42.418217,"longitude":9.286821,"website":"","hasWebsite":false,"hasHoraires":true,"url":"https://lannuaire.service-public.gouv.fr/corse/haute-corse/126cbee2-cc83-405a-a150-ff3c7762d4b5"}
{"nom":"Ghisonaccia","nomNormalise":"ghisonaccia","typeCollectivite":"Commune","region":"Corse","departement":"Haute-Corse","departementCode":"2","adresse":{"street":"Place de l'Hôtel-de-Ville","postalCode":"20240","city":"Ghisonaccia","country":"France"},"contacts":{"email":"mairie@ghisonaccia.corsica","telephone":"0495561510"},"horaires":"Le Lundi : de 08h00 à 12h00 de 13h30 à 17h30\nLe Mardi : de 08h00 à 12h00\nDu Mercredi au Jeudi : de 08h00 à 12h00 de 13h30 à 17h30\nLe Vendredi : de 08h00 à 12h00 de 13h30 à 17h00","latitude":42.0165,"longitude":9.40364,"website":"https://ghisonaccia.fr/","hasWebsite":true,"hasHoraires":true,"url":"https://lannuaire.service-public.gouv.fr/corse/haute-corse/9daddd8a-2d8c-4966-9718-4bd891c48483"}
{"nom":"Ghisoni","nomNormalise":"ghisoni","typeCollectivite":"Commune","region":"Corse","departement":"Haute-Corse","departementCode":"2","adresse":{"street":"Place de l'Église","postalCode":"20227","city":"Ghisoni","country":"France"},"contacts":{"email":"mairie.ghisoni@wanadoo.fr","telephone":"0495576128"},"horaires":"Le Lundi : de 08h00 à 12h00 de 14h00 à 17h00\nLe Mardi : de 08h00 à 12h00\nLe Mercredi : de 08h00 à 12h00 de 14h00 à 17h00\nLe Jeudi : de 08h00 à 12h00\nLe Vendredi : de 08h00 à 12h00 de 14h00 à 17h00","latitude":42.105392,"longitude":9.213005,"website":"","hasWebsite":false,"hasHoraires":true,"url":"https://lannuaire.service-public.gouv.fr/corse/haute-corse/20d7ff5d-df1b-4a10-96b4-3020a7c19950"}
{"nom":"Giocatojo","nomNormalise":"giocatojo","typeCollectivite":"Commune","region":"Corse","departement":"Haute-Corse","departementCode":"2","adresse":{"street":"Quartier Ajale","postalCode":"20237","city":"Giocatojo","country":"France"},"contacts":{"email":"mairie.giocatojo@wanadoo.fr","telephone":"0495392333"},"horaires":"Le Lundi : de 09h00 à 16h00","latitude":42.4437,"longitude":9.34905,"website":"","hasWebsite":false,"hasHoraires":true,"url":"https://lannuaire.service-public.gouv.fr/corse/haute-corse/ad32709f-e8e0-426a-8ff2-fd8717c40f06"}
{"nom":"Giuncaggio","nomNormalise":"giuncaggio","typeCollectivite":"Commune","region":"Corse","departement":"Haute-Corse","departementCode":"2","adresse":{"street":"Giuncaggio","postalCode":"20251","city":"Giuncaggio","country":"France"},"contacts":{"email":"mairie-de-giuncaggio@wanadoo.fr","telephone":"0495488201"},"horaires":"Du Lundi au Vendredi : de 10h00 à 12h00 de 16h00 à 18h00\nLe Dimanche : de 09h00 à 12h00","latitude":42.217014,"longitude":9.366318,"website":"","hasWebsite":false,"hasHoraires":true,"url":"https://lannuaire.service-public.gouv.fr/corse/haute-corse/36f5190e-95a9-4f12-8638-aef631994cad"}
{"nom":"Isolaccio-di-Fiumorbo","nomNormalise":"isolacciodifiumorbo","typeCollectivite":"Commune","region":"Corse","departement":"Haute-Corse","departementCode":"2","adresse":{"street":"Mairie","postalCode":"20243","city":"Isolaccio-di-Fiumorbo","country":"France"},"contacts":{"email":"mairie.isolacciodifiumorbo@orange.fr","telephone":"0495567121"},"horaires":"Du Lundi au Vendredi : de 08h30 à 16h00","latitude":42.002193,"longitude":9.281554,"website":"","hasWebsite":false,"hasHoraires":true,"url":"https://lannuaire.service-public.gouv.fr/corse/haute-corse/a4d88b1d-dd4b-4e99-bfb5-eb1c76de7fb7"}
{"nom":"L'Île-Rousse","nomNormalise":"lilerousse","typeCollectivite":"Commune","region":"Corse","departement":"Haute-Corse","departementCode":"2","adresse":{"street":"1 avenue David-Dary","postalCode":"20220","city":"L'Île-Rousse","country":"France"},"contacts":{"email":"contact@lilerousse.fr","telephone":"0495630180"},"horaires":"Du Lundi au Jeudi : de 08h30 à 12h00 de 13h00 à 17h00","latitude":42.63732,"longitude":8.936076,"website":"https://mairie-ilerousse.fr/","hasWebsite":true,"hasHoraires":true,"url":"https://lannuaire.service-public.gouv.fr/corse/haute-corse/2849969d-ef44-4cc2-afe4-048498e2f381"}
{"nom":"Lama","nomNormalise":"lama","typeCollectivite":"Commune","region":"Corse","departement":"Haute-Corse","departementCode":"2","adresse":{"street":"Mairie","postalCode":"20218","city":"Lama","country":"France"},"contacts":{"email":"mairie-lama@orange.fr","telephone":"0495482105"},"horaires":"Du Lundi au Vendredi : de 09h00 à 12h00 de 14h00 à 17h00","latitude":42.42255,"longitude":9.307309,"website":"","hasWebsite":false,"hasHoraires":true,"url":"https://lannuaire.service-public.gouv.fr/corse/haute-corse/4292c973-0a64-4165-b55d-d7b06554d3e1"}
{"nom":"Lano","nomNormalise":"lano","typeCollectivite":"Commune","region":"Corse","departement":"Haute-Corse","departementCode":"2","adresse":{"street":"Le Village","postalCode":"20244","city":"Lano","country":"France"},"contacts":{"email":"commune-de-lano@orange.fr","telephone":"0495484221"},"horaires":"Le Vendredi : de 14h00 à 17h00","latitude":42.3873,"longitude":9.25815,"website":"","hasWebsite":false,"hasHoraires":true,"url":"https://lannuaire.service-public.gouv.fr/corse/haute-corse/d5d7dd9e-597c-42d0-a2c7-090524c2a464"}
{"nom":"La Porta","nomNormalise":"laporta","typeCollectivite":"Commune","region":"Corse","departement":"Haute-Corse","departementCode":"2","adresse":{"street":"2 Piazza di U Pianu","postalCode":"20237","city":"La Porta","country":"France"},"contacts":{"email":"mairiedelaporta@gmail.com","telephone":"0495392148"},"horaires":"Du Lundi au Vendredi : de 09h00 à 12h00 de 13h30 à 16h00","latitude":42.413193,"longitude":9.35621,"website":"","hasWebsite":false,"hasHoraires":true,"url":"https://lannuaire.service-public.gouv.fr/corse/haute-corse/50ae2413-f95d-466f-bb97-12180f5a20db"}
{"nom":"Lavatoggio","nomNormalise":"lavatoggio","typeCollectivite":"Commune","region":"Corse","departement":"Haute-Corse","departementCode":"2","adresse":{"street":"26 A Teppa","postalCode":"20225","city":"Lavatoggio","country":"France"},"contacts":{"email":"mairie.lavatoghju@orange.fr","telephone":"0495617070"},"horaires":"Le Lundi : de 09h00 à 16h30\nLe Mercredi : de 09h00 à 16h30\nDu Jeudi au Vendredi : de 09h30 à 11h30","latitude":42.574184,"longitude":8.877604,"website":"","hasWebsite":false,"hasHoraires":true,"url":"https://lannuaire.service-public.gouv.fr/corse/haute-corse/c051f2de-3e90-4517-b0a5-6091e75c9982"}
{"nom":"Lento","nomNormalise":"lento","typeCollectivite":"Commune","region":"Corse","departement":"Haute-Corse","departementCode":"2","adresse":{"street":"Casa Cumuna","postalCode":"20252","city":"Lento","country":"France"},"contacts":{"email":"mairie.lento@orange.fr","telephone":"0495387165"},"horaires":"Le Vendredi : de 14h00 à 18h00","latitude":42.521435,"longitude":9.280059,"website":"","hasWebsite":false,"hasHoraires":true,"url":"https://lannuaire.service-public.gouv.fr/corse/haute-corse/1ed464ac-15f1-40b4-9d20-657207297000"}
{"nom":"Linguizzetta","nomNormalise":"linguizzetta","typeCollectivite":"Commune","region":"Corse","departement":"Haute-Corse","departementCode":"2","adresse":{"street":"313 Chemin de Cipolette","postalCode":"20230","city":"Linguizzetta","country":"France"},"contacts":{"email":"mairie.linguizzetta@wanadoo.fr","telephone":"0495389010"},"horaires":"Du Lundi au Vendredi : de 08h00 à 12h00 de 13h30 à 17h30","latitude":42.26446,"longitude":9.473635,"website":"https://www.linguizzetta.fr/","hasWebsite":true,"hasHoraires":true,"url":"https://lannuaire.service-public.gouv.fr/corse/haute-corse/af7a4985-1c12-470a-86c5-9b5e26451d27"}
{"nom":"Loreto-di-Casinca","nomNormalise":"loretodicasinca","typeCollectivite":"Commune","region":"Corse","departement":"Haute-Corse","departementCode":"2","adresse":{"street":"Bâtiment communal","postalCode":"20215","city":"Loreto-di-Casinca","country":"France"},"contacts":{"email":"mairieloreto@wanadoo.fr","telephone":"0495363017"},"horaires":"Du Lundi au Mardi : de 09h00 à 12h00 de 14h00 à 16h00\nDu Jeudi au Vendredi : de 09h00 à 12h00 de 14h00 à 16h00","latitude":42.476242,"longitude":9.429164,"website":"","hasWebsite":false,"hasHoraires":true,"url":"https://lannuaire.service-public.gouv.fr/corse/haute-corse/9bca2d29-6b72-403d-822f-aa0f6385fd0b"}
{"nom":"Lozzi","nomNormalise":"lozzi","typeCollectivite":"Commune","region":"Corse","departement":"Haute-Corse","departementCode":"2","adresse":{"street":"Village","postalCode":"20224","city":"Lozzi","country":"France"},"contacts":{"email":"cumuna-lozzi@orange.fr","telephone":"0495480048"},"horaires":"Du Lundi au Mardi : de 09h00 à 12h00 de 14h00 à 17h30\nLe Jeudi : de 09h00 à 12h00 de 14h00 à 17h30\nLe Vendredi : de 09h00 à 12h00 de 14h00 à 17h00","latitude":42.34442,"longitude":9.003363,"website":"","hasWebsite":false,"hasHoraires":true,"url":"https://lannuaire.service-public.gouv.fr/corse/haute-corse/815003d3-1341-4e51-9920-a60a998bbc9a"}
{"nom":"Lucciana","nomNormalise":"lucciana","typeCollectivite":"Commune","region":"Corse","departement":"Haute-Corse","departementCode":"2","adresse":{"street":"A Casa Cumuna","postalCode":"20290","city":"Lucciana","country":"France"},"contacts":{"email":"contact@mairie-lucciana.fr","telephone":"0495301430"},"horaires":"Du Lundi au Jeudi : de 08h30 à 12h00 de 13h30 à 17h00\nLe Vendredi : de 08h30 à 12h00 de 13h30 à 16h00","latitude":42.547134,"longitude":9.417275,"website":"https://www.ville-lucciana.com/","hasWebsite":true,"hasHoraires":true,"url":"https://lannuaire.service-public.gouv.fr/corse/haute-corse/51aa70df-8944-4e6a-b9f2-570fa918ea0b"}
{"nom":"Lugo-di-Nazza","nomNormalise":"lugodinazza","typeCollectivite":"Commune","region":"Corse","departement":"Haute-Corse","departementCode":"2","adresse":{"street":"Lieu-dit Casa-della-Chiesa","postalCode":"20240","city":"Lugo-di-Nazza","country":"France"},"contacts":{"email":"lugodinazza2b@orange.fr","telephone":"0495569059"},"horaires":"Du Lundi au Vendredi : de 09h00 à 16h00","latitude":42.07421,"longitude":9.301792,"website":"","hasWebsite":false,"hasHoraires":true,"url":"https://lannuaire.service-public.gouv.fr/corse/haute-corse/312b12b3-41ee-4455-b8a6-3ce4fcea5dbc"}
{"nom":"Lumio","nomNormalise":"lumio","typeCollectivite":"Commune","region":"Corse","departement":"Haute-Corse","departementCode":"2","adresse":{"street":"14 route territoriale 30","postalCode":"20260","city":"Lumio","country":"France"},"contacts":{"email":"casacumuna@mairie-lumio.fr","telephone":"0495608900"},"horaires":"Le Lundi : de 14h00 à 17h00\nLe Mardi : de 08h30 à 12h30\nLe Jeudi : de 14h00 à 17h00\nLe Vendredi : de 08h30 à 12h30","latitude":42.57946,"longitude":8.83139,"website":"http://www.mairie-lumio.fr/","hasWebsite":true,"hasHoraires":true,"url":"https://lannuaire.service-public.gouv.fr/corse/haute-corse/2978034b-65b0-4e84-b863-e8bf0d2b567b"}
{"nom":"Luri","nomNormalise":"luri","typeCollectivite":"Commune","region":"Corse","departement":"Haute-Corse","departementCode":"2","adresse":{"street":"A Piazza","postalCode":"20228","city":"Luri","country":"France"},"contacts":{"email":"mairiedeluri@wanadoo.fr","telephone":"0495350015"},"horaires":"Le Lundi : de 09h00 à 12h00 de 14h00 à 17h00\nLe Mercredi : de 09h00 à 12h00 de 14h00 à 17h00\nLe Vendredi : de 09h00 à 12h00 de 14h00 à 16h00","latitude":42.89718,"longitude":9.409666,"website":"http://www.luri.fr/","hasWebsite":true,"hasHoraires":true,"url":"https://lannuaire.service-public.gouv.fr/corse/haute-corse/179b6f2d-3fdc-4240-8787-35fad43d7edc"}
{"nom":"Manso","nomNormalise":"manso","typeCollectivite":"Commune","region":"Corse","departement":"Haute-Corse","departementCode":"2","adresse":{"street":"Hameau de Bargiana","postalCode":"20245","city":"Manso","country":"France"},"contacts":{"email":"mairie@manso.fr","telephone":"0495620261"},"horaires":"Le Lundi : de 09h00 à 12h00\nDu Mercredi au Jeudi : de 09h00 à 12h00","latitude":42.37765,"longitude":8.777832,"website":"","hasWebsite":false,"hasHoraires":true,"url":"https://lannuaire.service-public.gouv.fr/corse/haute-corse/f3741cdf-8579-4e1a-98ee-d0067f5ad3aa"}
{"nom":"Matra","nomNormalise":"matra","typeCollectivite":"Commune","region":"Corse","departement":"Haute-Corse","departementCode":"2","adresse":{"street":"Aleria","postalCode":"20270","city":"Matra","country":"France"},"contacts":{"email":"mairie.matra@wanadoo.fr","telephone":"0495394282"},"horaires":"Le Vendredi : de 14h00 à 18h00","latitude":42.13925,"longitude":9.478381,"website":"","hasWebsite":false,"hasHoraires":true,"url":"https://lannuaire.service-public.gouv.fr/corse/haute-corse/da68d36b-0c2b-404a-a983-ed6168194860"}
{"nom":"Mausoléo","nomNormalise":"mausoleo","typeCollectivite":"Commune","region":"Corse","departement":"Haute-Corse","departementCode":"2","adresse":{"street":"Village","postalCode":"20259","city":"Mausoléo","country":"France"},"contacts":{"email":"mairie.mausoleo@orange.fr","telephone":"0495473442"},"horaires":"Le Mardi : de 09h00 à 12h00\nLe Vendredi : de 09h00 à 12h00","latitude":42.52064,"longitude":9.007927,"website":"","hasWebsite":false,"hasHoraires":true,"url":"https://lannuaire.service-public.gouv.fr/corse/haute-corse/4856cc25-b8c0-4990-a878-e09bb6e7d1fc"}
{"nom":"Mazzola","nomNormalise":"mazzola","typeCollectivite":"Commune","region":"Corse","departement":"Haute-Corse","departementCode":"2","adresse":{"street":"Mazzola","postalCode":"20212","city":"Mazzola","country":"France"},"contacts":{"email":"mairie-de-mazzola@orange.fr","telephone":"0495486726"},"horaires":"Le Mardi : de 13h30 à 16h30","latitude":42.301224,"longitude":9.310497,"website":"","hasWebsite":false,"hasHoraires":true,"url":"https://lannuaire.service-public.gouv.fr/corse/haute-corse/cff223de-1793-4a95-bdc0-2fe53179da22"}
{"nom":"Meria","nomNormalise":"meria","typeCollectivite":"Commune","region":"Corse","departement":"Haute-Corse","departementCode":"2","adresse":{"street":"Le Village","postalCode":"20287","city":"Meria","country":"France"},"contacts":{"email":"mairie.meria@orange.fr","telephone":"0495354297"},"horaires":"Le Lundi : de 09h00 à 12h00\nLe Mercredi : de 09h00 à 12h00\nLe Jeudi : de 14h00 à 17h00","latitude":42.926235,"longitude":9.451238,"website":"http://www.destination-cap-corse.corsica/","hasWebsite":true,"hasHoraires":true,"url":"https://lannuaire.service-public.gouv.fr/corse/haute-corse/71b139a6-8e3e-4d83-9230-65007698541f"}
{"nom":"Moïta","nomNormalise":"moita","typeCollectivite":"Commune","region":"Corse","departement":"Haute-Corse","departementCode":"2","adresse":{"street":"Le Village","postalCode":"20270","city":"Moïta","country":"France"},"contacts":{"email":"mairie.moita@orange.fr","telephone":"0495394075"},"horaires":"Du Lundi au Mardi : de 09h00 à 12h00\nDu Vendredi au Samedi : de 09h00 à 12h00","latitude":42.27858,"longitude":9.412142,"website":"","hasWebsite":false,"hasHoraires":true,"url":"https://lannuaire.service-public.gouv.fr/corse/haute-corse/c5ac17ce-f98c-4261-8982-b3c593096091"}
{"nom":"Moltifao","nomNormalise":"moltifao","typeCollectivite":"Commune","region":"Corse","departement":"Haute-Corse","departementCode":"2","adresse":{"street":"Quartier Mezzana","postalCode":"20218","city":"Moltifao","country":"France"},"contacts":{"email":"mairie.moltifao@orange.fr","telephone":"0495478007"},"horaires":"Du Lundi au Vendredi : de 08h00 à 12h00 de 14h00 à 16h00","latitude":42.488503,"longitude":9.117601,"website":"","hasWebsite":false,"hasHoraires":true,"url":"https://lannuaire.service-public.gouv.fr/corse/haute-corse/a0e6c75f-282a-4c2d-b251-bda06f05936d"}
{"nom":"Monacia-d'Orezza","nomNormalise":"monaciadorezza","typeCollectivite":"Commune","region":"Corse","departement":"Haute-Corse","departementCode":"2","adresse":{"street":"Village","postalCode":"20229","city":"Monacia-d'Orezza","country":"France"},"contacts":{"email":"mairie.monaciaorezza@orange.fr","telephone":"0495358929"},"horaires":"Le Mardi : de 14h00 à 16h00","latitude":42.38223,"longitude":9.39879,"website":"","hasWebsite":false,"hasHoraires":true,"url":"https://lannuaire.service-public.gouv.fr/corse/haute-corse/ac412f3d-79da-4c09-8918-fca161f11e5e"}
{"nom":"Moncale","nomNormalise":"moncale","typeCollectivite":"Commune","region":"Corse","departement":"Haute-Corse","departementCode":"2","adresse":{"street":"Place de l'Église","postalCode":"20214","city":"Moncale","country":"France"},"contacts":{"email":"moncale.mairie@wanadoo.fr","telephone":"0495627112"},"horaires":"Du Lundi au Vendredi : de 09h00 à 12h00","latitude":42.50984,"longitude":8.836924,"website":"","hasWebsite":false,"hasHoraires":true,"url":"https://lannuaire.service-public.gouv.fr/corse/haute-corse/3a2a7420-0ec3-4bcd-ba19-fab2c0b80903"}
{"nom":"Monte","nomNormalise":"monte","typeCollectivite":"Commune","region":"Corse","departement":"Haute-Corse","departementCode":"2","adresse":{"street":"54 place de l'Église","postalCode":"20290","city":"Monte","country":"France"},"contacts":{"email":"monte.mairie@orange.fr","telephone":"0495360423"},"horaires":"Le Lundi : de 09h00 à 12h00\nLe Mardi : de 09h00 à 12h00 de 14h00 à 16h00\nDu Jeudi au Vendredi : de 09h00 à 12h00 de 14h00 à 16h00","latitude":42.568558,"longitude":9.478381,"website":"http://www.commune-monte.fr/","hasWebsite":true,"hasHoraires":true,"url":"https://lannuaire.service-public.gouv.fr/corse/haute-corse/3ae00fd0-2412-4711-86ab-aee47675109c"}
{"nom":"Montegrosso","nomNormalise":"montegrosso","typeCollectivite":"Commune","region":"Corse","departement":"Haute-Corse","departementCode":"2","adresse":{"street":"Montemaggiore","postalCode":"20214","city":"Montegrosso","country":"France"},"contacts":{"email":"mairie.de.montegrosso@wanadoo.fr","telephone":"0495627278"},"horaires":"Du Lundi au Vendredi : de 09h00 à 12h00 de 14h00 à 17h00","latitude":42.535435,"longitude":8.873982,"website":"","hasWebsite":false,"hasHoraires":true,"url":"https://lannuaire.service-public.gouv.fr/corse/haute-corse/13162761-392b-466a-8bc0-b314e7ae7ae3"}
{"nom":"Monticello","nomNormalise":"monticello","typeCollectivite":"Commune","region":"Corse","departement":"Haute-Corse","departementCode":"2","adresse":{"street":"Lieu-dit A-Chiosella","postalCode":"20220","city":"Monticello","country":"France"},"contacts":{"email":"mairie@monticello.fr","telephone":"0495600571"},"horaires":"Du Lundi au Vendredi : de 08h00 à 12h00 de 13h30 à 16h30\nLe Samedi : de 08h00 à 11h00","latitude":42.616493,"longitude":8.953982,"website":"https://monticello.fr/","hasWebsite":true,"hasHoraires":true,"url":"https://lannuaire.service-public.gouv.fr/corse/haute-corse/f7ebb93f-fc3a-4da5-8981-f1092b269ebc"}
{"nom":"Morosaglia","nomNormalise":"morosaglia","typeCollectivite":"Commune","region":"Corse","departement":"Haute-Corse","departementCode":"2","adresse":{"street":"Lieu-dit Ripale-Cerchio","postalCode":"20218","city":"Morosaglia","country":"France"},"contacts":{"email":"mairie.morosaglia@wanadoo.fr","telephone":"0495476260"},"horaires":"Du Lundi au Jeudi : de 09h00 à 12h00 de 13h30 à 17h00\nLe Vendredi : de 09h00 à 12h00 de 13h00 à 16h00","latitude":42.434994,"longitude":9.298731,"website":"http://www.morosaglia.corsica/","hasWebsite":true,"hasHoraires":true,"url":"https://lannuaire.service-public.gouv.fr/corse/haute-corse/8f95c8e4-973b-465e-adad-2a14ac94bd3a"}
{"nom":"Morsiglia","nomNormalise":"morsiglia","typeCollectivite":"Commune","region":"Corse","departement":"Haute-Corse","departementCode":"2","adresse":{"street":"Lieu-dit Casuccio","postalCode":"20238","city":"Morsiglia","country":"France"},"contacts":{"email":"morsiglia.mairie@wanadoo.fr","telephone":"0495356160"},"horaires":"Le Mardi : de 09h00 à 11h30\nLe Vendredi : de 09h00 à 11h30","latitude":42.944473,"longitude":9.366214,"website":"","hasWebsite":false,"hasHoraires":true,"url":"https://lannuaire.service-public.gouv.fr/corse/haute-corse/27ae75f1-6643-49a9-8fb8-f2c148096bb4"}
{"nom":"Muracciole","nomNormalise":"muracciole","typeCollectivite":"Commune","region":"Corse","departement":"Haute-Corse","departementCode":"2","adresse":{"street":"Le Village","postalCode":"20219","city":"Muracciole","country":"France"},"contacts":{"email":"commune-muracciole@wanadoo.fr","telephone":"0495472305"},"horaires":"Le Lundi : de 14h30 à 16h00","latitude":42.169575,"longitude":9.183474,"website":"","hasWebsite":false,"hasHoraires":true,"url":"https://lannuaire.service-public.gouv.fr/corse/haute-corse/e84a54f7-9180-4526-a790-606a2cda468e"}
{"nom":"Murato","nomNormalise":"murato","typeCollectivite":"Commune","region":"Corse","departement":"Haute-Corse","departementCode":"2","adresse":{"street":"2 Piazza Di a Casa Cumuna","postalCode":"20239","city":"Murato","country":"France"},"contacts":{"email":"mairiemurato@orange.fr","telephone":"0495376010"},"horaires":"Du Lundi au Mardi : de 08h00 à 12h00 de 14h00 à 17h00\nLe Mercredi : de 08h00 à 12h00\nDu Jeudi au Vendredi : de 08h00 à 12h00 de 14h00 à 17h00","latitude":42.57679,"longitude":9.326604,"website":"http://www.murato.fr/","hasWebsite":true,"hasHoraires":true,"url":"https://lannuaire.service-public.gouv.fr/corse/haute-corse/b58cde32-f596-455f-8703-856c5c3dfbb4"}
{"nom":"Muro","nomNormalise":"muro","typeCollectivite":"Commune","region":"Corse","departement":"Haute-Corse","departementCode":"2","adresse":{"street":"Casa Cumuna","postalCode":"20225","city":"Muro","country":"France"},"contacts":{"email":"muromairie@gmail.com","telephone":"0495617216"},"horaires":"Du Lundi au Mardi : de 08h30 à 14h00\nLe Mercredi : de 08h30 à 12h00\nDu Jeudi au Vendredi : de 08h30 à 14h00","latitude":42.545567,"longitude":8.913388,"website":"","hasWebsite":false,"hasHoraires":true,"url":"https://lannuaire.service-public.gouv.fr/corse/haute-corse/6f65c753-d848-48a7-afc1-acd8dd9d92e8"}
{"nom":"Nessa","nomNormalise":"nessa","typeCollectivite":"Commune","region":"Corse","departement":"Haute-Corse","departementCode":"2","adresse":{"street":"Village","postalCode":"20225","city":"Nessa","country":"France"},"contacts":{"email":"mairiedenessa@orange.fr","telephone":"0495617393"},"horaires":"Le Mardi : de 15h00 à 18h00\nLe Vendredi : de 15h00 à 18h00","latitude":42.55012,"longitude":8.948541,"website":"","hasWebsite":false,"hasHoraires":true,"url":"https://lannuaire.service-public.gouv.fr/corse/haute-corse/844fedf0-933d-4c9a-9ec0-294821619d80"}
{"nom":"Nocario","nomNormalise":"nocario","typeCollectivite":"Commune","region":"Corse","departement":"Haute-Corse","departementCode":"2","adresse":{"street":"Lieu-dit Saint-Michel","postalCode":"20229","city":"Nocario","country":"France"},"contacts":{"email":"mairiedenocario@orange.fr","telephone":"0495358580"},"horaires":"Le Mardi : de 09h00 à 12h00\nLe Jeudi : de 14h00 à 17h00","latitude":42.3981,"longitude":9.35212,"website":"","hasWebsite":false,"hasHoraires":true,"url":"https://lannuaire.service-public.gouv.fr/corse/haute-corse/f4ecdb44-800f-44ed-9dae-ccc230d4ba10"}
{"nom":"Noceta","nomNormalise":"noceta","typeCollectivite":"Commune","region":"Corse","departement":"Haute-Corse","departementCode":"2","adresse":{"street":"Noceta","postalCode":"20242","city":"Noceta","country":"France"},"contacts":{"email":"commune-noceta@orange.fr","telephone":"0495440002"},"horaires":"Le Mardi : de 09h00 à 12h00 de 13h00 à 16h00\nDu Jeudi au Vendredi : de 09h00 à 12h00","latitude":42.16225,"longitude":9.080398,"website":"","hasWebsite":false,"hasHoraires":true,"url":"https://lannuaire.service-public.gouv.fr/corse/haute-corse/14e47d09-b4eb-4dd9-ad69-a17a60ca6e7d"}
{"nom":"Nonza","nomNormalise":"nonza","typeCollectivite":"Commune","region":"Corse","departement":"Haute-Corse","departementCode":"2","adresse":{"street":"Place de la Mairie","postalCode":"20217","city":"Nonza","country":"France"},"contacts":{"email":"nonza@wanadoo.fr","telephone":"0495378282"},"horaires":"Du Lundi au Mercredi : de 09h00 à 12h00 de 13h00 à 16h00\nLe Vendredi : de 09h00 à 12h00 de 13h00 à 16h00","latitude":42.78511,"longitude":9.345691,"website":"","hasWebsite":false,"hasHoraires":true,"url":"https://lannuaire.service-public.gouv.fr/corse/haute-corse/d30c219a-464d-4e85-930c-49482e8ad644"}
{"nom":"Novale","nomNormalise":"novale","typeCollectivite":"Commune","region":"Corse","departement":"Haute-Corse","departementCode":"2","adresse":{"street":"Village","postalCode":"20234","city":"Novale","country":"France"},"contacts":{"email":"mairie.novale@orange.fr","telephone":"0495359393"},"horaires":"Le Mercredi : de 14h00 à 17h00","latitude":42.309944,"longitude":9.414051,"website":"","hasWebsite":false,"hasHoraires":true,"url":"https://lannuaire.service-public.gouv.fr/corse/haute-corse/6a47b429-34c6-4ca1-abd4-3bd837c9f1a9"}
{"nom":"Novella","nomNormalise":"novella","typeCollectivite":"Commune","region":"Corse","departement":"Haute-Corse","departementCode":"2","adresse":{"street":"Lieu-dit Custarella","postalCode":"20226","city":"Novella","country":"France"},"contacts":{"email":"mairie.novella@wanadoo.fr","telephone":"0495603599"},"horaires":"Du Lundi au Jeudi : de 14h00 à 18h00","latitude":42.58704,"longitude":9.115972,"website":"","hasWebsite":false,"hasHoraires":true,"url":"https://lannuaire.service-public.gouv.fr/corse/haute-corse/15316709-56a8-466c-b9c7-cee716d695d2"}
{"nom":"Occhiatana","nomNormalise":"occhiatana","typeCollectivite":"Commune","region":"Corse","departement":"Haute-Corse","departementCode":"2","adresse":{"street":"Place de l'Église","postalCode":"20226","city":"Occhiatana","country":"France"},"contacts":{"email":"occhiatana@wanadoo.fr","telephone":"0495613039"},"horaires":"Du Lundi au Mardi : de 09h00 à 12h00 de 13h00 à 17h00\nLe Jeudi : de 09h00 à 12h00 de 13h00 à 17h00","latitude":42.573742,"longitude":9.008688,"website":"","hasWebsite":false,"hasHoraires":true,"url":"https://lannuaire.service-public.gouv.fr/corse/haute-corse/0d4f0ed8-a1f5-4c8f-8764-73ba3758cd5c"}
{"nom":"Ogliastro","nomNormalise":"ogliastro","typeCollectivite":"Commune","region":"Corse","departement":"Haute-Corse","departementCode":"2","adresse":{"street":"Marina d'Albo","postalCode":"20217","city":"Ogliastro","country":"France"},"contacts":{"email":"mairieogliastru@wanadoo.fr","telephone":"0495378185"},"horaires":"Le Jeudi : de 08h30 à 11h00","latitude":42.809082,"longitude":9.334846,"website":"https://ogliastru.corsica/","hasWebsite":true,"hasHoraires":true,"url":"https://lannuaire.service-public.gouv.fr/corse/haute-corse/492887f6-e9ee-4d59-8f13-2e36f2dcf696"}
{"nom":"Olcani","nomNormalise":"olcani","typeCollectivite":"Commune","region":"Corse","departement":"Haute-Corse","departementCode":"2","adresse":{"street":"Hameau de Ferragine","postalCode":"20217","city":"Olcani","country":"France"},"contacts":{"email":"mairieolcani@orange.fr","telephone":"0495378535"},"horaires":"Le Mercredi : de 14h00 à 18h00","latitude":42.80403,"longitude":9.371519,"website":"","hasWebsite":false,"hasHoraires":true,"url":"https://lannuaire.service-public.gouv.fr/corse/haute-corse/4d442780-dbd0-457f-a633-8776356cf098"}
{"nom":"Oletta","nomNormalise":"oletta","typeCollectivite":"Commune","region":"Corse","departement":"Haute-Corse","departementCode":"2","adresse":{"street":"Casa Cumuna lieu dit Fossi","postalCode":"20232","city":"Oletta","country":"France"},"contacts":{"email":"merria@oletta.fr","telephone":"0495390109"},"horaires":"Du Lundi au Jeudi : de 08h00 à 12h00 de 14h00 à 17h00\nLe Vendredi : de 08h00 à 12h00","latitude":42.631847,"longitude":9.358393,"website":"http://www.oletta.fr/","hasWebsite":true,"hasHoraires":true,"url":"https://lannuaire.service-public.gouv.fr/corse/haute-corse/f987bc3c-10e9-4a3a-b2dc-3f3a853a9e54"}
{"nom":"Olmeta-di-Capocorso","nomNormalise":"olmetadicapocorso","typeCollectivite":"Commune","region":"Corse","departement":"Haute-Corse","departementCode":"2","adresse":{"street":"Hameau de Piazze","postalCode":"20217","city":"Olmeta-di-Capocorso","country":"France"},"contacts":{"email":"olmeta.capocorso@wanadoo.fr","telephone":"0495378404"},"horaires":"Le Samedi : de 10h00 à 12h00","latitude":42.76842,"longitude":9.370223,"website":"http://www.olmetadicapocorso.corsica/","hasWebsite":true,"hasHoraires":true,"url":"https://lannuaire.service-public.gouv.fr/corse/haute-corse/f44e354a-e2a0-4da1-9e13-30d919479876"}
{"nom":"Olmeta-di-Tuda","nomNormalise":"olmetadituda","typeCollectivite":"Commune","region":"Corse","departement":"Haute-Corse","departementCode":"2","adresse":{"street":"Village","postalCode":"20232","city":"Olmeta-di-Tuda","country":"France"},"contacts":{"email":"olmeta.dituda.mairie@orange.fr","telephone":"0495390153"},"horaires":"Du Lundi au Mardi : de 09h30 à 12h30\nLe Mercredi : de 09h30 à 16h00\nDu Jeudi au Vendredi : de 09h30 à 12h30","latitude":42.611687,"longitude":9.35412,"website":"http://www.olmetadituda.fr/","hasWebsite":true,"hasHoraires":true,"url":"https://lannuaire.service-public.gouv.fr/corse/haute-corse/5ed609c0-88c0-40e2-9e10-4677c023e99d"}
{"nom":"Olmi-Cappella","nomNormalise":"olmicappella","typeCollectivite":"Commune","region":"Corse","departement":"Haute-Corse","departementCode":"2","adresse":{"street":"Établissement Battaglini","postalCode":"20259","city":"Olmi-Cappella","country":"France"},"contacts":{"email":"mairie-olmi-cappella@wanadoo.fr","telephone":"0495619017"},"horaires":"Du Lundi au Mardi : de 09h00 à 12h00 de 13h30 à 17h30\nLe Jeudi : de 09h00 à 12h00 de 13h30 à 17h30\nLe Vendredi : de 13h30 à 17h30","latitude":42.52567,"longitude":9.019502,"website":"https://www.olmi-cappella.fr/","hasWebsite":true,"hasHoraires":true,"url":"https://lannuaire.service-public.gouv.fr/corse/haute-corse/862c3d23-45cb-4016-9788-1681c3e7b310"}
{"nom":"Olmo","nomNormalise":"olmo","typeCollectivite":"Commune","region":"Corse","departement":"Haute-Corse","departementCode":"2","adresse":{"street":"Mairie Casa Cumula","postalCode":"20290","city":"Olmo","country":"France"},"contacts":{"email":"mairieolmo@orange.fr","telephone":"0495362493"},"horaires":"Du Lundi au Vendredi : de 14h00 à 16h00","latitude":42.33564,"longitude":9.531021,"website":"http://www.olmo.fr/","hasWebsite":true,"hasHoraires":true,"url":"https://lannuaire.service-public.gouv.fr/corse/haute-corse/5303df27-b927-4278-84ad-c997fffb70dc"}
{"nom":"Omessa","nomNormalise":"omessa","typeCollectivite":"Commune","region":"Corse","departement":"Haute-Corse","departementCode":"2","adresse":{"street":"Le Village","postalCode":"20236","city":"Omessa","country":"France"},"contacts":{"email":"mairie-omessa@orange.fr","telephone":"0495474013"},"horaires":"Du Lundi au Vendredi : de 09h00 à 12h00 de 13h30 à 16h30","latitude":42.370728,"longitude":9.198745,"website":"","hasWebsite":false,"hasHoraires":true,"url":"https://lannuaire.service-public.gouv.fr/corse/haute-corse/60cdccc1-01e3-4d92-90c0-73d5804af54f"}
{"nom":"Ortale","nomNormalise":"ortale","typeCollectivite":"Commune","region":"Corse","departement":"Haute-Corse","departementCode":"2","adresse":{"street":"Le Village","postalCode":"20234","city":"Ortale-d'Alesani","country":"France"},"contacts":{"email":"mairie.ortale@wanadoo.fr","telephone":"0495359014"},"horaires":"Du Vendredi au Samedi : de 10h00 à 12h00\nAccueil possible sur rendez-vous en dehors de ces horaires.","latitude":42.5935,"longitude":9.43093,"website":"https://www.ortale.fr/","hasWebsite":true,"hasHoraires":true,"url":"https://lannuaire.service-public.gouv.fr/corse/haute-corse/c91a15a4-db9f-4e9d-a253-fd50c62563f6"}
{"nom":"Ortiporio","nomNormalise":"ortiporio","typeCollectivite":"Commune","region":"Corse","departement":"Haute-Corse","departementCode":"2","adresse":{"street":"Groupe scolaire","postalCode":"20290","city":"Ortiporio","country":"France"},"contacts":{"email":"communeortiporio@orange.fr","telephone":"0495382143"},"horaires":"Du Mardi au Vendredi : de 09h00 à 12h00","latitude":42.45783,"longitude":9.343607,"website":"http://www.ortiporio.fr/","hasWebsite":true,"hasHoraires":true,"url":"https://lannuaire.service-public.gouv.fr/corse/haute-corse/dfbb8024-570a-4717-bb7c-79d1d7298189"}
{"nom":"Palasca","nomNormalise":"palasca","typeCollectivite":"Commune","region":"Corse","departement":"Haute-Corse","departementCode":"2","adresse":{"street":"Casa cumuna","postalCode":"20226","city":"Palasca","country":"France"},"contacts":{"email":"mairiedepalasca@orange.fr","telephone":"0495613302"},"horaires":"Du Lundi au Jeudi : de 09h00 à 12h00 de 14h00 à 17h00\nLe Vendredi : de 09h00 à 12h00","latitude":42.589336,"longitude":9.042874,"website":"https://palasca.corsica/","hasWebsite":true,"hasHoraires":true,"url":"https://lannuaire.service-public.gouv.fr/corse/haute-corse/acaaf69f-c26b-4f52-9a3f-df44dc3d7245"}
{"nom":"Pancheraccia","nomNormalise":"pancheraccia","typeCollectivite":"Commune","region":"Corse","departement":"Haute-Corse","departementCode":"2","adresse":{"street":"Village","postalCode":"20251","city":"Pancheraccia","country":"France"},"contacts":{"email":"mairie.pancheraccia@wanadoo.fr","telephone":"0495488134"},"horaires":"Le Mardi : de 09h00 à 12h00\nLe Jeudi : de 09h00 à 12h00","latitude":42.217846,"longitude":9.371404,"website":"","hasWebsite":false,"hasHoraires":true,"url":"https://lannuaire.service-public.gouv.fr/corse/haute-corse/d6c1a76f-1c2d-46b3-8721-5dc7c5dbaa48"}
{"nom":"Parata","nomNormalise":"parata","typeCollectivite":"Commune","region":"Corse","departement":"Haute-Corse","departementCode":"2","adresse":{"street":"Village","postalCode":"20229","city":"Parata","country":"France"},"contacts":{"email":"commune-de-parata@orange.fr","telephone":"0495358165"},"horaires":"Le Lundi : de 09h00 à 13h00","latitude":42.37236,"longitude":9.378409,"website":"","hasWebsite":false,"hasHoraires":true,"url":"https://lannuaire.service-public.gouv.fr/corse/haute-corse/c2bd46a6-c44b-492a-a114-807e3b47b2bc"}
{"nom":"Patrimonio","nomNormalise":"patrimonio","typeCollectivite":"Commune","region":"Corse","departement":"Haute-Corse","departementCode":"2","adresse":{"street":"Hameau Canale","postalCode":"20253","city":"Patrimonio","country":"France"},"contacts":{"email":"secretariat.patrimonio@mic.fr","telephone":"0495370849"},"horaires":"Du Lundi au Vendredi : de 08h00 à 12h00 de 14h00 à 17h00","latitude":42.706207,"longitude":9.370455,"website":"","hasWebsite":false,"hasHoraires":true,"url":"https://lannuaire.service-public.gouv.fr/corse/haute-corse/4dba3fe9-4666-4119-bd44-d1c1e0277115"}
{"nom":"Penta-Acquatella","nomNormalise":"pentaacquatella","typeCollectivite":"Commune","region":"Corse","departement":"Haute-Corse","departementCode":"2","adresse":{"street":"Hameau de Penta","postalCode":"20290","city":"Penta-Acquatella","country":"France"},"contacts":{"email":"mairie.pentaacquatella@gmail.com","telephone":"0967297940"},"horaires":"Le Lundi : de 14h00 à 17h00\nLe Jeudi : de 14h00 à 17h00","latitude":42.4649,"longitude":9.363631,"website":"http://www.penta-acquatella.fr/","hasWebsite":true,"hasHoraires":true,"url":"https://lannuaire.service-public.gouv.fr/corse/haute-corse/452e9846-7e8c-43c5-bd3a-fa94bf05cafe"}
{"nom":"Penta-di-Casinca","nomNormalise":"pentadicasinca","typeCollectivite":"Commune","region":"Corse","departement":"Haute-Corse","departementCode":"2","adresse":{"street":"Route de la Mer","postalCode":"20213","city":"Penta-di-Casinca","country":"France"},"contacts":{"email":"mairie.pentadicasinca@wanadoo.fr","telephone":"0495369627"},"horaires":"Du Lundi au Jeudi : de 08h30 à 12h00 de 14h00 à 17h00\nLe Vendredi : de 08h30 à 12h00 de 14h00 à 16h00","latitude":42.467144,"longitude":9.459962,"website":"https://www.pentadicasinca.fr/","hasWebsite":true,"hasHoraires":true,"url":"https://lannuaire.service-public.gouv.fr/corse/haute-corse/5459e89a-19a0-42f8-b370-f0e4be950aca"}
{"nom":"Perelli","nomNormalise":"perelli","typeCollectivite":"Commune","region":"Corse","departement":"Haute-Corse","departementCode":"2","adresse":{"street":"Village","postalCode":"20234","city":"Perelli","country":"France"},"contacts":{"email":"mairiedeperelli@orange.fr","telephone":"0495359080"},"horaires":"Le Samedi : de 09h00 à 12h00","latitude":42.323456,"longitude":9.392227,"website":"","hasWebsite":false,"hasHoraires":true,"url":"https://lannuaire.service-public.gouv.fr/corse/haute-corse/908e092a-a7f1-48a3-9504-6667458f783b"}
{"nom":"Pero-Casevecchie","nomNormalise":"perocasevecchie","typeCollectivite":"Commune","region":"Corse","departement":"Haute-Corse","departementCode":"2","adresse":{"street":"Hameau de Pero","postalCode":"20230","city":"Pero-Casevecchie","country":"France"},"contacts":{"email":"perocasevecchie@wanadoo.fr","telephone":"0495369102"},"horaires":"Le Mardi : de 09h00 à 11h30\nLe Jeudi : de 09h00 à 11h30","latitude":42.41427,"longitude":9.464795,"website":"","hasWebsite":false,"hasHoraires":true,"url":"https://lannuaire.service-public.gouv.fr/corse/haute-corse/fe557975-babd-41bb-bbe9-2355f6a85457"}
{"nom":"Pianello","nomNormalise":"pianello","typeCollectivite":"Commune","region":"Corse","departement":"Haute-Corse","departementCode":"2","adresse":{"street":"Place de l'Église","postalCode":"20272","city":"Pianello","country":"France"},"contacts":{"email":"pianello.mairie@wanadoo.fr","telephone":"0495396133"},"horaires":"Le Lundi : de 14h30 à 17h00\nLe Jeudi : de 14h30 à 17h00","latitude":42.28668,"longitude":9.361626,"website":"","hasWebsite":false,"hasHoraires":true,"url":"https://lannuaire.service-public.gouv.fr/corse/haute-corse/b7acc440-6d23-48a0-b406-ee5d6e985540"}
{"nom":"Piano","nomNormalise":"piano","typeCollectivite":"Commune","region":"Corse","departement":"Haute-Corse","departementCode":"2","adresse":{"street":"Place de la Mairie","postalCode":"20215","city":"Piano","country":"France"},"contacts":{"email":"mairie.piano@wanadoo.fr","telephone":"0495392403"},"horaires":"Le Mardi : de 08h00 à 12h00 de 14h00 à 17h00\nDu Jeudi au Vendredi : de 08h00 à 12h00 de 14h00 à 17h00","latitude":42.448692,"longitude":9.403195,"website":"","hasWebsite":false,"hasHoraires":true,"url":"https://lannuaire.service-public.gouv.fr/corse/haute-corse/dec7c496-7fca-4d48-a476-35067e2a4332"}
{"nom":"Piazzali","nomNormalise":"piazzali","typeCollectivite":"Commune","region":"Corse","departement":"Haute-Corse","departementCode":"2","adresse":{"street":"Rue Traversa","postalCode":"20234","city":"Piazzali","country":"France"},"contacts":{"email":"communedepiazzali@orange.fr","telephone":"0495359141"},"horaires":"Le Jeudi : de 09h00 à 12h00","latitude":42.31904,"longitude":9.407494,"website":"","hasWebsite":false,"hasHoraires":true,"url":"https://lannuaire.service-public.gouv.fr/corse/haute-corse/c2281c63-c898-4933-b831-ce7d36960690"}
{"nom":"Piazzole","nomNormalise":"piazzole","typeCollectivite":"Commune","region":"Corse","departement":"Haute-Corse","departementCode":"2","adresse":{"street":"70 Piazza a i fiori","postalCode":"20229","city":"Piazzole d'Orezza","country":"France"},"contacts":{"email":"mairie.piazzole-orezza@orange.fr","telephone":"0495358307"},"horaires":"Le Mercredi : de 10h00 à 12h00 de 14h00 à 16h00","latitude":42.392998,"longitude":9.402662,"website":"","hasWebsite":false,"hasHoraires":true,"url":"https://lannuaire.service-public.gouv.fr/corse/haute-corse/64d1cd92-74ec-4a36-9b8e-8a2f25a8b996"}
{"nom":"Piedicorte-di-Gaggio","nomNormalise":"piedicortedigaggio","typeCollectivite":"Commune","region":"Corse","departement":"Haute-Corse","departementCode":"2","adresse":{"street":"25 Cullata-di-a-Suarella","postalCode":"20251","city":"Piedicorte-di-Gaggio","country":"France"},"contacts":{"email":"maire.piedicorte@orange.fr","telephone":"0495488122"},"horaires":"Du Lundi au Jeudi : de 14h00 à 17h00","latitude":42.2365,"longitude":9.3279,"website":"https://piedicorte-di-gaggio.fr/","hasWebsite":true,"hasHoraires":true,"url":"https://lannuaire.service-public.gouv.fr/corse/haute-corse/578ec9ff-3ca1-47fc-8ac5-df134fc5a3cc"}
{"nom":"Piedicroce","nomNormalise":"piedicroce","typeCollectivite":"Commune","region":"Corse","departement":"Haute-Corse","departementCode":"2","adresse":{"street":"Maison des services publics","postalCode":"20229","city":"Piedicroce","country":"France"},"contacts":{"email":"mairiepiedicroce@orange.fr","telephone":"0495358186"},"horaires":"Le Mercredi : de 14h00 à 17h00","latitude":42.376038,"longitude":9.367617,"website":"","hasWebsite":false,"hasHoraires":true,"url":"https://lannuaire.service-public.gouv.fr/corse/haute-corse/e7cf34d0-1fea-4cd8-a487-41916dd9bc92"}
{"nom":"Piedigriggio","nomNormalise":"piedigriggio","typeCollectivite":"Commune","region":"Corse","departement":"Haute-Corse","departementCode":"2","adresse":{"street":"Piedigriggio","postalCode":"20218","city":"Piedigriggio","country":"France"},"contacts":{"email":"mairie-piedigriggio@wanadoo.fr","telephone":"0495476278"},"horaires":"Le Jeudi : de 14h00 à 17h00\n\nAccueil possible en dehors de ces horaires sur rendez-vous uniquement.\nAccueil possible en dehors de ces horaires sur rendez-vous uniquement.","latitude":42.448223,"longitude":9.171372,"website":"","hasWebsite":false,"hasHoraires":true,"url":"https://lannuaire.service-public.gouv.fr/corse/haute-corse/35e83325-ad9e-44ec-9e09-78d2bb510dce"}
{"nom":"Piedipartino","nomNormalise":"piedipartino","typeCollectivite":"Commune","region":"Corse","departement":"Haute-Corse","departementCode":"2","adresse":{"street":"Le Village","postalCode":"20229","city":"Piedipartino","country":"France"},"contacts":{"email":"mairiepiedipartino@orange.fr","telephone":"0495358508"},"horaires":"Le Mercredi : de 14h00 à 18h00","latitude":42.36835,"longitude":9.360738,"website":"","hasWebsite":false,"hasHoraires":true,"url":"https://lannuaire.service-public.gouv.fr/corse/haute-corse/a75e1fb7-5f37-439b-af55-f9e83de72f4d"}
{"nom":"Pie d'Orezza","nomNormalise":"piedorezza","typeCollectivite":"Commune","region":"Corse","departement":"Haute-Corse","departementCode":"2","adresse":{"street":"Pie d'Orezza","postalCode":"20229","city":"Pie d'Orezza","country":"France"},"contacts":{"email":"commune-de-pie-d-orezza@orange.fr","telephone":"0495358312"},"horaires":"Le Jeudi : de 13h00 à 15h30","latitude":42.373386,"longitude":9.355659,"website":"","hasWebsite":false,"hasHoraires":true,"url":"https://lannuaire.service-public.gouv.fr/corse/haute-corse/bc25c59d-3a61-4896-a869-82ae4b91a200"}
{"nom":"Pietracorbara","nomNormalise":"pietracorbara","typeCollectivite":"Commune","region":"Corse","departement":"Haute-Corse","departementCode":"2","adresse":{"street":"Hameau Oreta","postalCode":"20233","city":"Pietracorbara","country":"France"},"contacts":{"email":"mairie.pietracorbara@wanadoo.fr","telephone":"0495352059"},"horaires":"Du Lundi au Mardi : de 08h30 à 12h00 de 13h30 à 17h30\nDu Jeudi au Vendredi : de 08h30 à 12h00 de 13h30 à 17h30","latitude":42.84453,"longitude":9.446967,"website":"https://pietracorbara.fr/","hasWebsite":true,"hasHoraires":true,"url":"https://lannuaire.service-public.gouv.fr/corse/haute-corse/a3f8ff22-82d9-417e-a82b-214eb29a2f0b"}
{"nom":"Pietra-di-Verde","nomNormalise":"pietradiverde","typeCollectivite":"Commune","region":"Corse","departement":"Haute-Corse","departementCode":"2","adresse":{"street":"Lieu-dit Mucchio","postalCode":"20230","city":"Pietra-di-Verde","country":"France"},"contacts":{"email":"mairie.pietradiverde@wanadoo.fr","telephone":"0495362402"},"horaires":"Du Lundi au Mardi : de 09h00 à 12h00 de 14h00 à 17h00\nDu Jeudi au Vendredi : de 09h00 à 12h00 de 14h00 à 17h00","latitude":42.29886,"longitude":9.451057,"website":"https://www.mairiepietradiverde.fr/","hasWebsite":true,"hasHoraires":true,"url":"https://lannuaire.service-public.gouv.fr/corse/haute-corse/fd9e2cea-be3e-42fb-8673-12a089b66774"}
{"nom":"Pietralba","nomNormalise":"pietralba","typeCollectivite":"Commune","region":"Corse","departement":"Haute-Corse","departementCode":"2","adresse":{"street":"Village","postalCode":"20218","city":"Pietralba","country":"France"},"contacts":{"email":"mairie-de-pietralba@wanadoo.fr","telephone":"0495482007"},"horaires":"Du Lundi au Vendredi : de 09h00 à 12h30","latitude":42.545647,"longitude":9.185779,"website":"","hasWebsite":false,"hasHoraires":true,"url":"https://lannuaire.service-public.gouv.fr/corse/haute-corse/973262e5-0fa6-4c61-86f1-3c1d27e83a02"}
{"nom":"Pietraserena","nomNormalise":"pietraserena","typeCollectivite":"Commune","region":"Corse","departement":"Haute-Corse","departementCode":"2","adresse":{"street":"138 corsu duttore antoniotti","postalCode":"20251","city":"Pietraserena","country":"France"},"contacts":{"email":"pietraserenamairie@orange.fr","telephone":"0495488430"},"horaires":"Le Samedi : de 09h00 à 12h00\nLe Dimanche : de 10h00 à 12h00 de 16h00 à 18h00","latitude":42.23546,"longitude":9.346074,"website":"","hasWebsite":false,"hasHoraires":true,"url":"https://lannuaire.service-public.gouv.fr/corse/haute-corse/a9f3cc45-85f6-4a46-9f1e-b83b48b3a7e3"}
{"nom":"Pietricaggio","nomNormalise":"pietricaggio","typeCollectivite":"Commune","region":"Corse","departement":"Haute-Corse","departementCode":"2","adresse":{"street":"Le Village","postalCode":"20234","city":"Pietricaggio","country":"France"},"contacts":{"email":"mairie.pietricaggio@orange.fr","telephone":"0495359430"},"horaires":"Le Jeudi : de 14h00 à 17h00","latitude":42.334705,"longitude":9.387895,"website":"","hasWebsite":false,"hasHoraires":true,"url":"https://lannuaire.service-public.gouv.fr/corse/haute-corse/43081b54-d995-40f5-959f-24e05286ec8d"}
{"nom":"Pietroso","nomNormalise":"pietroso","typeCollectivite":"Commune","region":"Corse","departement":"Haute-Corse","departementCode":"2","adresse":{"street":"Pietroso","postalCode":"20242","city":"Pietroso","country":"France"},"contacts":{"email":"contact@cumunadiupetrosu.fr","telephone":"0495440254"},"horaires":"Du Lundi au Mardi : de 09h30 à 17h00\nLe Vendredi : de 09h30 à 17h00","latitude":42.158382,"longitude":9.270556,"website":"","hasWebsite":false,"hasHoraires":true,"url":"https://lannuaire.service-public.gouv.fr/corse/haute-corse/b99246da-9e43-4070-99a1-5b9bdd40c580"}
{"nom":"Piève","nomNormalise":"pieve","typeCollectivite":"Commune","region":"Corse","departement":"Haute-Corse","departementCode":"2","adresse":{"street":"Village","postalCode":"20246","city":"Piève","country":"France"},"contacts":{"email":"mairie-de-pieve@orange.fr","telephone":"0495376339"},"horaires":"Le Lundi : de 13h30 à 17h30\nDu Mardi au Mercredi : de 08h30 à 12h30\nLe Vendredi : de 08h30 à 12h30","latitude":42.580395,"longitude":9.28709,"website":"","hasWebsite":false,"hasHoraires":true,"url":"https://lannuaire.service-public.gouv.fr/corse/haute-corse/79d4824a-91d1-4c0f-b50a-9652260e97fc"}
{"nom":"Pigna","nomNormalise":"pigna","typeCollectivite":"Commune","region":"Corse","departement":"Haute-Corse","departementCode":"2","adresse":{"street":"Place de l'Église","postalCode":"20220","city":"Pigna","country":"France"},"contacts":{"email":"mairiepigna@orange.fr","telephone":"0495617730"},"horaires":"Du Lundi au Vendredi : de 09h00 à 12h00","latitude":42.599403,"longitude":8.902716,"website":"http://www.pigna.fr/","hasWebsite":true,"hasHoraires":true,"url":"https://lannuaire.service-public.gouv.fr/corse/haute-corse/72cb0bb4-e22b-425e-b4b3-f34853ab7a39"}
{"nom":"Pino","nomNormalise":"pino","typeCollectivite":"Commune","region":"Corse","departement":"Haute-Corse","departementCode":"2","adresse":{"street":"238 Stradone Di U Rè Albertu U Primu","postalCode":"20228","city":"Pino","country":"France"},"contacts":{"email":"mairie.pino@orange.fr","telephone":"0495351270"},"horaires":"Du Mardi au Vendredi : de 08h00 à 12h00 de 13h30 à 16h00","latitude":42.90868,"longitude":9.351442,"website":"https://mairiepino.wixsite.com/monsite","hasWebsite":true,"hasHoraires":true,"url":"https://lannuaire.service-public.gouv.fr/corse/haute-corse/d7630ae6-a42e-4b2c-83e7-2766930d1cbe"}
{"nom":"Piobetta","nomNormalise":"piobetta","typeCollectivite":"Commune","region":"Corse","departement":"Haute-Corse","departementCode":"2","adresse":{"street":"Mairie","postalCode":"20234","city":"Piobetta","country":"France"},"contacts":{"email":"mairiedepiobbeta@orange.fr","telephone":"0495358876"},"horaires":"Le Lundi : de 09h00 à 12h00\nAccueil ouvert uniquement sur rendez-vous du mardi au vendredi.","latitude":42.344776,"longitude":9.382711,"website":"","hasWebsite":false,"hasHoraires":true,"url":"https://lannuaire.service-public.gouv.fr/corse/haute-corse/337ddb19-57c8-4ae6-8877-876e7ff3a70f"}
{"nom":"Pioggiola","nomNormalise":"pioggiola","typeCollectivite":"Commune","region":"Corse","departement":"Haute-Corse","departementCode":"2","adresse":{"street":"22 Stradone di u pase paesolu di e Burnulacce","postalCode":"20259","city":"Pioggiola","country":"France"},"contacts":{"email":"mairiepioggiola@orange.fr","telephone":"0495619007"},"horaires":"Du Lundi au Jeudi : de 09h00 à 11h30","latitude":42.53773,"longitude":8.998237,"website":"","hasWebsite":false,"hasHoraires":true,"url":"https://lannuaire.service-public.gouv.fr/corse/haute-corse/404d2703-b3f8-4f69-a973-0c107ce9b505"}
{"nom":"Poggio-d'Oletta","nomNormalise":"poggiodoletta","typeCollectivite":"Commune","region":"Corse","departement":"Haute-Corse","departementCode":"2","adresse":{"street":"Poggio-d'Oletta","postalCode":"20232","city":"Poggio-d'Oletta","country":"France"},"contacts":{"email":"mairie@upoghjudoletta.fr","telephone":"0495390116"},"horaires":"Le Mardi : de 14h00 à 17h30\nDu Jeudi au Vendredi : de 14h00 à 17h30\nLe Samedi : de 09h00 à 12h00","latitude":42.639503,"longitude":9.362297,"website":"http://www.upoghjudoletta.fr/","hasWebsite":true,"hasHoraires":true,"url":"https://lannuaire.service-public.gouv.fr/corse/haute-corse/23d7fd32-09d7-4624-a300-e81f02f66ddf"}
{"nom":"Poggio-di-Nazza","nomNormalise":"poggiodinazza","typeCollectivite":"Commune","region":"Corse","departement":"Haute-Corse","departementCode":"2","adresse":{"street":"Chiesa","postalCode":"20240","city":"Poggio-di-Nazza","country":"France"},"contacts":{"email":"mairie.poggio-di-nazza@orange.fr","telephone":"0495569050"},"horaires":"Du Lundi au Vendredi : de 08h00 à 14h30","latitude":42.056885,"longitude":9.29808,"website":"https://www.upoghjudinazza.corsica/","hasWebsite":true,"hasHoraires":true,"url":"https://lannuaire.service-public.gouv.fr/corse/haute-corse/4e8f84f9-be00-420e-bf46-3386c4b599a9"}
{"nom":"Poggio-di-Venaco","nomNormalise":"poggiodivenaco","typeCollectivite":"Commune","region":"Corse","departement":"Haute-Corse","departementCode":"2","adresse":{"street":"Place Saint-Roch","postalCode":"20250","city":"Poggio-di-Venaco","country":"France"},"contacts":{"email":"poggiodivenaco@aol.com","telephone":"0961460040"},"horaires":"Du Lundi au Vendredi : de 09h00 à 17h00","latitude":42.25754,"longitude":9.186111,"website":"","hasWebsite":false,"hasHoraires":true,"url":"https://lannuaire.service-public.gouv.fr/corse/haute-corse/a69cc77d-238c-4fda-82df-05b10a136dfa"}
{"nom":"Poggio-Marinaccio","nomNormalise":"poggiomarinaccio","typeCollectivite":"Commune","region":"Corse","departement":"Haute-Corse","departementCode":"2","adresse":{"street":"Hameau de Poggio","postalCode":"20237","city":"Poggio-Marinaccio","country":"France"},"contacts":{"email":"mairie.poggio.marinaccio@orange.fr","telephone":"0495392024"},"horaires":"Le Samedi : de 14h00 à 16h00","latitude":42.434795,"longitude":9.36322,"website":"","hasWebsite":false,"hasHoraires":true,"url":"https://lannuaire.service-public.gouv.fr/corse/haute-corse/988dc5d8-5a82-4201-9723-e35975275517"}
{"nom":"Poggio-Mezzana","nomNormalise":"poggiomezzana","typeCollectivite":"Commune","region":"Corse","departement":"Haute-Corse","departementCode":"2","adresse":{"street":"Ponticchio-Sottano","postalCode":"20230","city":"Poggio-Mezzana","country":"France"},"contacts":{"email":"mairie.poggiomezzana@orange.fr","telephone":"0495380793"},"horaires":"Du Lundi au Jeudi : de 08h30 à 15h30\nLe Vendredi : de 08h30 à 12h00","latitude":42.397835,"longitude":9.492342,"website":"https://poggio-mezzana.fr/","hasWebsite":true,"hasHoraires":true,"url":"https://lannuaire.service-public.gouv.fr/corse/haute-corse/03412148-5f87-4325-bc10-e93c60e0487b"}
{"nom":"Polveroso","nomNormalise":"polveroso","typeCollectivite":"Commune","region":"Corse","departement":"Haute-Corse","departementCode":"2","adresse":{"street":"Polveroso","postalCode":"20229","city":"Polveroso","country":"France"},"contacts":{"email":"mairie-polveroso@orange.fr","telephone":"0495358005"},"horaires":"Le Mardi : de 09h00 à 12h00\nLe Vendredi : de 09h00 à 12h00","latitude":42.4005,"longitude":9.364191,"website":"","hasWebsite":false,"hasHoraires":true,"url":"https://lannuaire.service-public.gouv.fr/corse/haute-corse/3474caae-1ae2-4cd3-9605-676304d1e399"}
{"nom":"Popolasca","nomNormalise":"popolasca","typeCollectivite":"Commune","region":"Corse","departement":"Haute-Corse","departementCode":"2","adresse":{"street":"Le Village","postalCode":"20218","city":"Popolasca","country":"France"},"contacts":{"email":"mairie.popolasca@orange.fr","telephone":"0495610058"},"horaires":"Le Mardi : de 09h30 à 16h30\nLe Jeudi : de 09h30 à 16h30","latitude":42.43353,"longitude":9.134603,"website":"","hasWebsite":false,"hasHoraires":true,"url":"https://lannuaire.service-public.gouv.fr/corse/haute-corse/2a506b60-7082-4465-9363-c4840b2e208f"}
{"nom":"Porri","nomNormalise":"porri","typeCollectivite":"Commune","region":"Corse","departement":"Haute-Corse","departementCode":"2","adresse":{"street":"Village de Porri","postalCode":"20215","city":"Porri","country":"France"},"contacts":{"email":"mairie.porri@wanadoo.fr","telephone":"0977300541"},"horaires":"Le Mardi : de 08h00 à 12h00\nLe Vendredi : de 08h00 à 12h00","latitude":42.453236,"longitude":9.433452,"website":"","hasWebsite":false,"hasHoraires":true,"url":"https://lannuaire.service-public.gouv.fr/corse/haute-corse/d7af56a5-3fac-4059-8d2e-a4470cfb5e27"}
{"nom":"Prato-di-Giovellina","nomNormalise":"pratodigiovellina","typeCollectivite":"Commune","region":"Corse","departement":"Haute-Corse","departementCode":"2","adresse":{"street":"Prato Mezzo","postalCode":"20218","city":"Prato-di-Giovellina","country":"France"},"contacts":{"email":"mairieprato@orange.fr","telephone":"0495610023"},"horaires":"Le Mardi : de 14h00 à 17h00\nLe Samedi : de 10h00 à 12h00","latitude":42.424667,"longitude":9.16336,"website":"https://mairiepratodigiovellina.com/","hasWebsite":true,"hasHoraires":true,"url":"https://lannuaire.service-public.gouv.fr/corse/haute-corse/61d8406a-f4d2-4ece-ada9-2d84a437ed2f"}
{"nom":"Prunelli-di-Casacconi","nomNormalise":"prunellidicasacconi","typeCollectivite":"Commune","region":"Corse","departement":"Haute-Corse","departementCode":"2","adresse":{"street":"76 Place Saint-Quilicus","postalCode":"20290","city":"Prunelli-di-Casacconi","country":"France"},"contacts":{"email":"communeprunellidicasacconi@gmail.com","telephone":"0495360445"},"horaires":"Du Lundi au Vendredi : de 08h00 à 12h00 de 14h00 à 17h00","latitude":42.504223,"longitude":9.40237,"website":"https://prunelli-di-casacconi.fr/","hasWebsite":true,"hasHoraires":true,"url":"https://lannuaire.service-public.gouv.fr/corse/haute-corse/3988cd93-d469-47cc-811a-431df9c5aca5"}
{"nom":"Prunelli-di-Fiumorbo","nomNormalise":"prunellidifiumorbo","typeCollectivite":"Commune","region":"Corse","departement":"Haute-Corse","departementCode":"2","adresse":{"street":"Migliacciaru","postalCode":"20243","city":"Prunelli-di-Fiumorbo","country":"France"},"contacts":{"email":"secretariat-general@prunellidifiumorbu.fr","telephone":"0495565110"},"horaires":"Du Lundi au Mercredi : de 09h00 à 11h45 de 13h30 à 17h00\nLe Jeudi : de 09h00 à 11h45 de 15h30 à 17h00\nLe Vendredi : de 09h00 à 11h45 de 13h30 à 17h00","latitude":42.005226,"longitude":9.364731,"website":"http://www.prunellidifiumorbu.fr/","hasWebsite":true,"hasHoraires":true,"url":"https://lannuaire.service-public.gouv.fr/corse/haute-corse/05c38a21-6643-4e9b-b7ff-56b343006506"}
{"nom":"Pruno","nomNormalise":"pruno","typeCollectivite":"Commune","region":"Corse","departement":"Haute-Corse","departementCode":"2","adresse":{"street":"Le village","postalCode":"20213","city":"Pruno","country":"France"},"contacts":{"email":"mairiedepruno@wanadoo.fr","telephone":"0495392604"},"horaires":"Le Lundi : de 10h00 à 16h00\nLe Mardi : de 10h00 à 16h00\nLe Jeudi : de 10h00 à 12h00","latitude":42.622486,"longitude":8.914301,"website":"","hasWebsite":false,"hasHoraires":true,"url":"https://lannuaire.service-public.gouv.fr/corse/haute-corse/a737557e-f59c-4672-a463-38cdba8d7b1c"}
{"nom":"Quercitello","nomNormalise":"quercitello","typeCollectivite":"Commune","region":"Corse","departement":"Haute-Corse","departementCode":"2","adresse":{"street":"Quercitello","postalCode":"20237","city":"Quercitello","country":"France"},"contacts":{"email":"mairie.quercitello@wanadoo.fr","telephone":"0495305995"},"horaires":"Du Lundi au Mercredi : de 08h00 à 12h00 de 14h00 à 17h00\nLe Jeudi : de 08h00 à 12h00","latitude":42.42742,"longitude":9.348875,"website":"","hasWebsite":false,"hasHoraires":true,"url":"https://lannuaire.service-public.gouv.fr/corse/haute-corse/bccceb17-1268-44c9-8fda-5bc62c7fc394"}
{"nom":"Rapaggio","nomNormalise":"rapaggio","typeCollectivite":"Commune","region":"Corse","departement":"Haute-Corse","departementCode":"2","adresse":{"street":"Rapaggio","postalCode":"20229","city":"Rapaggio","country":"France"},"contacts":{"email":"mairie.rapaggio@orange.fr","telephone":"0495358137"},"horaires":"Le Vendredi : de 10h00 à 16h00","latitude":42.372864,"longitude":9.389402,"website":"","hasWebsite":false,"hasHoraires":true,"url":"https://lannuaire.service-public.gouv.fr/corse/haute-corse/e7d5c2eb-b4bb-451e-82b8-a9a131694126"}
{"nom":"Rapale","nomNormalise":"rapale","typeCollectivite":"Commune","region":"Corse","departement":"Haute-Corse","departementCode":"2","adresse":{"street":"Lieu-dit Pastino","postalCode":"20246","city":"Rapale","country":"France"},"contacts":{"email":"mairiederapale@wanadoo.fr","telephone":"0495376647"},"horaires":"Le Lundi : de 14h00 à 16h00\nLe Jeudi : de 09h00 à 12h00","latitude":42.58971,"longitude":9.302357,"website":"http://www.mairiederapale.com/","hasWebsite":true,"hasHoraires":true,"url":"https://lannuaire.service-public.gouv.fr/corse/haute-corse/b7b48389-cf12-4afb-8cf1-96ca9499630e"}
{"nom":"Riventosa","nomNormalise":"riventosa","typeCollectivite":"Commune","region":"Corse","departement":"Haute-Corse","departementCode":"2","adresse":{"street":"Rue Saint-Antoine","postalCode":"20250","city":"Riventosa","country":"France"},"contacts":{"email":"mairie.riventosa@wanadoo.fr","telephone":"0495470181"},"horaires":"Le Mardi : de 09h30 à 12h00\nDu Jeudi au Vendredi : de 09h30 à 12h00","latitude":42.251762,"longitude":9.182387,"website":"","hasWebsite":false,"hasHoraires":true,"url":"https://lannuaire.service-public.gouv.fr/corse/haute-corse/443e141e-9348-4227-828e-107469a36c41"}
{"nom":"Rogliano","nomNormalise":"rogliano","typeCollectivite":"Commune","region":"Corse","departement":"Haute-Corse","departementCode":"2","adresse":{"street":"Rogliano","postalCode":"20247","city":"Rogliano","country":"France"},"contacts":{"email":"mairiederogliano@ruglianu.corsica","telephone":"0495354204"},"horaires":"Du Lundi au Samedi : de 09h00 à 12h00","latitude":42.967,"longitude":9.4235,"website":"https://www.commune-rogliano.fr/","hasWebsite":true,"hasHoraires":true,"url":"https://lannuaire.service-public.gouv.fr/corse/haute-corse/d37d88d1-dd06-4cff-9de1-66f39a597276"}
{"nom":"Rospigliani","nomNormalise":"rospigliani","typeCollectivite":"Commune","region":"Corse","departement":"Haute-Corse","departementCode":"2","adresse":{"street":"Rospigliani","postalCode":"20242","city":"Rospigliani","country":"France"},"contacts":{"email":"commune.de.rospigliani@orange.fr","telephone":"0495440283"},"horaires":"Le Lundi : de 09h00 à 12h00\nLe Jeudi : de 14h00 à 18h00","latitude":42.18884,"longitude":9.230654,"website":"","hasWebsite":false,"hasHoraires":true,"url":"https://lannuaire.service-public.gouv.fr/corse/haute-corse/80c67cd3-0d75-4775-a8b1-91166082993c"}
{"nom":"Rusio","nomNormalise":"rusio","typeCollectivite":"Commune","region":"Corse","departement":"Haute-Corse","departementCode":"2","adresse":{"street":"Place de l'Église","postalCode":"20244","city":"Rusio","country":"France"},"contacts":{"email":"mairie.rusio@orange.fr","telephone":"0495484292"},"horaires":"Du Lundi au Vendredi : de 15h00 à 19h00","latitude":42.361504,"longitude":9.260367,"website":"http://www.rusio.fr/","hasWebsite":true,"hasHoraires":true,"url":"https://lannuaire.service-public.gouv.fr/corse/haute-corse/d437fa60-21b2-4d71-94e1-2376f7e09cf8"}
{"nom":"Rutali","nomNormalise":"rutali","typeCollectivite":"Commune","region":"Corse","departement":"Haute-Corse","departementCode":"2","adresse":{"street":"Le Village","postalCode":"20239","city":"Rutali","country":"France"},"contacts":{"email":"mairie.rutali@orange.fr","telephone":"0495376238"},"horaires":"Du Lundi au Vendredi : de 13h30 à 17h00","latitude":42.580044,"longitude":9.364509,"website":"https://www.rutali.fr/","hasWebsite":true,"hasHoraires":true,"url":"https://lannuaire.service-public.gouv.fr/corse/haute-corse/201debf1-f074-44c1-acbc-6ca9c43a9cfa"}
{"nom":"Saint-Florent","nomNormalise":"saintflorent","typeCollectivite":"Commune","region":"Corse","departement":"Haute-Corse","departementCode":"2","adresse":{"street":"Bâtiment administratif","postalCode":"20217","city":"Saint-Florent","country":"France"},"contacts":{"email":"contact@mairiedesaintflorent.fr","telephone":"0495371063"},"horaires":"Du Lundi au Vendredi : de 09h00 à 12h00 de 14h00 à 17h30","latitude":42.68047,"longitude":9.302516,"website":"https://www.mairiedesaintflorent.fr/","hasWebsite":true,"hasHoraires":true,"url":"https://lannuaire.service-public.gouv.fr/corse/haute-corse/1d47b1de-b2bc-4adb-9942-c635cb38f64f"}
{"nom":"Saliceto","nomNormalise":"saliceto","typeCollectivite":"Commune","region":"Corse","departement":"Haute-Corse","departementCode":"2","adresse":{"street":"Village de Saliceto","postalCode":"20218","city":"Saliceto","country":"France"},"contacts":{"email":"commune-de-saliceto@orange.fr","telephone":"0495461987"},"horaires":"Le Jeudi : de 09h00 à 12h00","latitude":42.399284,"longitude":9.294711,"website":"","hasWebsite":false,"hasHoraires":true,"url":"https://lannuaire.service-public.gouv.fr/corse/haute-corse/21fd2076-e00d-4d26-b808-ea55b9acccdd"}
{"nom":"San Damiano","nomNormalise":"sandamiano","typeCollectivite":"Commune","region":"Corse","departement":"Haute-Corse","departementCode":"2","adresse":{"street":"Hameau de Alzi","postalCode":"20213","city":"San-Damiano","country":"France"},"contacts":{"email":"mairiedesandamianu@orange.fr","telephone":"0495392624"},"horaires":"","latitude":42.406048,"longitude":9.414592,"website":"","hasWebsite":false,"hasHoraires":false,"url":"https://lannuaire.service-public.gouv.fr/corse/haute-corse/95304356-1a04-45ff-ade3-d9191def66f2"}
{"nom":"San-Gavino-d'Ampugnani","nomNormalise":"sangavinodampugnani","typeCollectivite":"Commune","region":"Corse","departement":"Haute-Corse","departementCode":"2","adresse":{"street":"Lieu-dit Poggio","postalCode":"20213","city":"San-Gavino-d'Ampugnani","country":"France"},"contacts":{"email":"commune-san-gavino-dampugnani@orange.fr","telephone":"0495392556"},"horaires":"Le Lundi : de 13h30 à 16h30\nLe Mardi : de 09h00 à 12h00 de 13h30 à 16h30\nLe Jeudi : de 09h00 à 12h00 de 13h30 à 16h30\nLe Vendredi : de 09h00 à 12h00","latitude":42.4131,"longitude":9.4233,"website":"","hasWebsite":false,"hasHoraires":true,"url":"https://lannuaire.service-public.gouv.fr/corse/haute-corse/51692634-46ee-436e-8dc2-ece66f512577"}
{"nom":"San-Gavino-di-Fiumorbo","nomNormalise":"sangavinodifiumorbo","typeCollectivite":"Commune","region":"Corse","departement":"Haute-Corse","departementCode":"2","adresse":{"street":"Place de la Mairie","postalCode":"20243","city":"San-Gavino-di-Fiumorbo","country":"France"},"contacts":{"email":"mairie.sangavinodifiumo@wanadoo.fr","telephone":"0495567053"},"horaires":"Du Lundi au Vendredi : de 09h00 à 11h30","latitude":41.982594,"longitude":9.268451,"website":"","hasWebsite":false,"hasHoraires":true,"url":"https://lannuaire.service-public.gouv.fr/corse/haute-corse/6533483d-f53b-4817-b092-9163e7e6b35a"}
{"nom":"San-Gavino-di-Tenda","nomNormalise":"sangavinoditenda","typeCollectivite":"Commune","region":"Corse","departement":"Haute-Corse","departementCode":"2","adresse":{"street":"Hameau Chiesa","postalCode":"20246","city":"San-Gavino-di-Tenda","country":"France"},"contacts":{"email":"sangavinoditenda@orange.fr","telephone":"0495377084"},"horaires":"Du Lundi au Vendredi : de 08h30 à 12h00","latitude":42.59808,"longitude":9.264734,"website":"","hasWebsite":false,"hasHoraires":true,"url":"https://lannuaire.service-public.gouv.fr/corse/haute-corse/8cbfaa57-7d72-463f-9854-7121af160cc0"}
{"nom":"San-Giovanni-di-Moriani","nomNormalise":"sangiovannidimoriani","typeCollectivite":"Commune","region":"Corse","departement":"Haute-Corse","departementCode":"2","adresse":{"street":"Hameau de Regetto","postalCode":"20230","city":"San-Giovanni-di-Moriani","country":"France"},"contacts":{"email":"sangiovanni@wanadoo.fr","telephone":"0495385268"},"horaires":"Du Lundi au Mercredi : de 13h30 à 18h00\nLe Jeudi : de 13h30 à 17h30","latitude":42.377277,"longitude":9.47701,"website":"","hasWebsite":false,"hasHoraires":true,"url":"https://lannuaire.service-public.gouv.fr/corse/haute-corse/e719077f-3224-48f1-bf0a-aa7ce4603aea"}
{"nom":"San-Giuliano","nomNormalise":"sangiuliano","typeCollectivite":"Commune","region":"Corse","departement":"Haute-Corse","departementCode":"2","adresse":{"street":"Alistro","postalCode":"20230","city":"San-Giuliano","country":"France"},"contacts":{"email":"san-giulianomairie@wanadoo.fr","telephone":"0495388984"},"horaires":"Du Lundi au Vendredi : de 08h00 à 12h00 de 13h30 à 16h30","latitude":42.26054,"longitude":9.542623,"website":"","hasWebsite":false,"hasHoraires":true,"url":"https://lannuaire.service-public.gouv.fr/corse/haute-corse/3926e431-e2c7-4e82-8b42-2c2d62ef48c1"}
{"nom":"San-Lorenzo","nomNormalise":"sanlorenzo","typeCollectivite":"Commune","region":"Corse","departement":"Haute-Corse","departementCode":"2","adresse":{"street":"Lieu-dit Tribio","postalCode":"20244","city":"San-Lorenzo","country":"France"},"contacts":{"email":"mairie.sanlorenzo@gmail.com","telephone":"0495484015"},"horaires":"Du Lundi au Vendredi : de 08h00 à 12h00 de 14h00 à 17h00","latitude":42.38387,"longitude":9.288956,"website":"","hasWebsite":false,"hasHoraires":true,"url":"https://lannuaire.service-public.gouv.fr/corse/haute-corse/46ded84f-0e66-4c43-8cbd-dd35fb92d7be"}
{"nom":"San-Martino-di-Lota","nomNormalise":"sanmartinodilota","typeCollectivite":"Commune","region":"Corse","departement":"Haute-Corse","departementCode":"2","adresse":{"street":"Route du Cap","postalCode":"20200","city":"San-Martino-di-Lota","country":"France"},"contacts":{"email":"mairie@sanmartino.corsica","telephone":"0495310285"},"horaires":"Du Lundi au Jeudi : de 08h30 à 17h00\nLe Vendredi : de 08h30 à 15h30","latitude":42.728485,"longitude":9.459131,"website":"https://www.san-martino-di-lota.fr/","hasWebsite":true,"hasHoraires":true,"url":"https://lannuaire.service-public.gouv.fr/corse/haute-corse/c2ebd139-9289-4813-be4d-41a05423f86a"}
{"nom":"San-Nicolao","nomNormalise":"sannicolao","typeCollectivite":"Commune","region":"Corse","departement":"Haute-Corse","departementCode":"2","adresse":{"street":"25 route de Timone","postalCode":"20230","city":"San-Nicolao","country":"France"},"contacts":{"email":"contact@mairiesannicolao.corsica","telephone":"0495385874"},"horaires":"Du Lundi au Jeudi : de 08h30 à 12h00 de 13h30 à 17h00\nLe Vendredi : de 08h30 à 12h00","latitude":42.369865,"longitude":9.501274,"website":"https://www.mairiesannicolao.corsica/","hasWebsite":true,"hasHoraires":true,"url":"https://lannuaire.service-public.gouv.fr/corse/haute-corse/b9e6fdc2-804f-433c-9ace-6998100dc685"}
{"nom":"Sant'Andréa-di-Bozio","nomNormalise":"santandreadibozio","typeCollectivite":"Commune","region":"Corse","departement":"Haute-Corse","departementCode":"2","adresse":{"street":"Hameau Rebbia","postalCode":"20212","city":"Sant'Andréa-di-Bozio","country":"France"},"contacts":{"email":"mairie.santandreadibozio@orange.fr","telephone":"0495486873"},"horaires":"Le Jeudi : de 13h30 à 17h00","latitude":42.297592,"longitude":9.303605,"website":"","hasWebsite":false,"hasHoraires":true,"url":"https://lannuaire.service-public.gouv.fr/corse/haute-corse/578aa70d-e79b-4f90-b9ed-9d9d4eb4c7b9"}
{"nom":"Sant'Andréa-di-Cotone","nomNormalise":"santandreadicotone","typeCollectivite":"Commune","region":"Corse","departement":"Haute-Corse","departementCode":"2","adresse":{"street":"Lieu-dit Ciglio","postalCode":"20221","city":"Sant'Andréa-di-Cotone","country":"France"},"contacts":{"email":"mairie.santandreacotone@orange.fr","telephone":"0495381030"},"horaires":"Le Lundi : de 08h00 à 12h00\nLe Mardi : de 14h00 à 18h00\nLe Mercredi : de 08h00 à 12h00\nLe Jeudi : de 14h00 à 18h00\nLe Vendredi : de 08h00 à 12h00","latitude":42.3098,"longitude":9.47539,"website":"","hasWebsite":false,"hasHoraires":true,"url":"https://lannuaire.service-public.gouv.fr/corse/haute-corse/ec7fbe05-9ff3-4034-bfcb-bbe958b0640b"}
{"nom":"Sant'Antonino","nomNormalise":"santantonino","typeCollectivite":"Commune","region":"Corse","departement":"Haute-Corse","departementCode":"2","adresse":{"street":"36 Village","postalCode":"20220","city":"Sant'Antonino","country":"France"},"contacts":{"email":"mairiesantantonino@wanadoo.fr","telephone":"0495617838"},"horaires":"Le Lundi : de 09h00 à 12h00\nLe Mercredi : de 09h00 à 12h00\nLe Vendredi : de 09h00 à 12h00","latitude":42.589355,"longitude":8.905029,"website":"http://www.santantonino.fr/","hasWebsite":true,"hasHoraires":true,"url":"https://lannuaire.service-public.gouv.fr/corse/haute-corse/20075652-a43b-4cee-a5ea-8f2d5576a3c5"}
{"nom":"Santa-Lucia-di-Mercurio","nomNormalise":"santaluciadimercurio","typeCollectivite":"Commune","region":"Corse","departement":"Haute-Corse","departementCode":"2","adresse":{"street":"Santa-Lucia-di-Mercurio","postalCode":"20250","city":"Santa-Lucia-di-Mercurio","country":"France"},"contacts":{"email":"mairie.santaluciadimercoriu@orange.fr","telephone":"0495471200"},"horaires":"Le Lundi : de 14h00 à 17h00\nLe Mercredi : de 09h00 à 12h00\nLe Vendredi : de 13h30 à 17h00","latitude":42.32745,"longitude":9.220855,"website":"","hasWebsite":false,"hasHoraires":true,"url":"https://lannuaire.service-public.gouv.fr/corse/haute-corse/f634fa1b-10a8-441a-8400-2076d10d8cae"}
{"nom":"Santa-Lucia-di-Moriani","nomNormalise":"santaluciadimoriani","typeCollectivite":"Commune","region":"Corse","departement":"Haute-Corse","departementCode":"2","adresse":{"street":"RT 10","postalCode":"20230","city":"Santa-Lucia-di-Moriani","country":"France"},"contacts":{"email":"msldm@orange.fr","telephone":"0495385632"},"horaires":"Du Lundi au Jeudi : de 10h00 à 12h00 de 13h30 à 17h00\nLe Vendredi : de 08h00 à 12h00\n\nContacter l'accueil afin d'obtenir les horaires d'ouverture pour juillet et août.","latitude":42.38524,"longitude":9.517293,"website":"https://www.mairiesantaluciadimoriani.fr/","hasWebsite":true,"hasHoraires":true,"url":"https://lannuaire.service-public.gouv.fr/corse/haute-corse/b1f9557f-406d-4c81-9396-54948e46c35c"}
{"nom":"Santa-Maria-di-Lota","nomNormalise":"santamariadilota","typeCollectivite":"Commune","region":"Corse","departement":"Haute-Corse","departementCode":"2","adresse":{"street":"Lieu-dit Mocali","postalCode":"20200","city":"Santa-Maria-di-Lota","country":"France"},"contacts":{"email":"mairie@smdl.net","telephone":"0495332499"},"horaires":"Du Lundi au Vendredi : de 08h00 à 12h00 de 14h00 à 17h00\nLe Mercredi : de 08h00 à 12h00\nDu Jeudi au Vendredi : de 08h00 à 12h00 de 14h00 à 17h00","latitude":42.7414,"longitude":9.4605465,"website":"https://www.santamariadilota.corsica/","hasWebsite":true,"hasHoraires":true,"url":"https://lannuaire.service-public.gouv.fr/corse/haute-corse/f3bdbd41-a650-4925-b93b-f3450fc1beca"}
{"nom":"Santa-Maria-Poggio","nomNormalise":"santamariapoggio","typeCollectivite":"Commune","region":"Corse","departement":"Haute-Corse","departementCode":"2","adresse":{"street":"Port de Taverne","postalCode":"20221","city":"Santa-Maria-Poggio","country":"France"},"contacts":{"email":"mairie.santamariapoghju@wanadoo.fr","telephone":"0495385044"},"horaires":"Du Lundi au Vendredi : de 08h30 à 12h00 de 13h30 à 17h00","latitude":42.345955,"longitude":9.49689,"website":"https://smpoghju.fr/","hasWebsite":true,"hasHoraires":true,"url":"https://lannuaire.service-public.gouv.fr/corse/haute-corse/7f046f27-7b6b-4bb1-951f-ad0bf902207c"}
{"nom":"Santa-Reparata-di-Balagna","nomNormalise":"santareparatadibalagna","typeCollectivite":"Commune","region":"Corse","departement":"Haute-Corse","departementCode":"2","adresse":{"street":"Mairie","postalCode":"20220","city":"Santa-Reparata-di-Balagna","country":"France"},"contacts":{"email":"mairie.santareparata@wanadoo.fr","telephone":"0495600868"},"horaires":"Du Lundi au Vendredi : de 08h30 à 12h00","latitude":42.6042,"longitude":8.929852,"website":"","hasWebsite":false,"hasHoraires":true,"url":"https://lannuaire.service-public.gouv.fr/corse/haute-corse/021ef5f3-ad7c-4b87-bef7-728e1b141e12"}
{"nom":"Santa-Reparata-di-Moriani","nomNormalise":"santareparatadimoriani","typeCollectivite":"Commune","region":"Corse","departement":"Haute-Corse","departementCode":"2","adresse":{"street":"Hameau de Penti","postalCode":"20230","city":"Santa-Reparata-di-Moriani","country":"France"},"contacts":{"email":"commune-santa-reparata-moriani@orange.fr","telephone":"0495385089"},"horaires":"Le Lundi : de 09h00 à 12h00 de 14h00 à 17h00\nDu Mardi au Jeudi : de 09h00 à 12h00\nLe Vendredi : de 09h00 à 12h00 de 14h00 à 17h00","latitude":42.355896,"longitude":9.450268,"website":"","hasWebsite":false,"hasHoraires":true,"url":"https://lannuaire.service-public.gouv.fr/corse/haute-corse/27ae2db0-cb8f-4b87-8aef-5b287fa1520e"}
{"nom":"Santo-Pietro-di-Tenda","nomNormalise":"santopietroditenda","typeCollectivite":"Commune","region":"Corse","departement":"Haute-Corse","departementCode":"2","adresse":{"street":"150 U Corsu","postalCode":"20246","city":"Santo-Pietro-di-Tenda","country":"France"},"contacts":{"email":"mairie.santo-pietro-di-tenda@orange.fr","telephone":"0495377070"},"horaires":"Du Lundi au Mardi : de 09h00 à 12h00 de 14h00 à 16h00\nDu Jeudi au Vendredi : de 09h00 à 12h00 de 14h00 à 16h00","latitude":42.605347,"longitude":9.258417,"website":"http://www.santo-pietro-di-tenda.fr/","hasWebsite":true,"hasHoraires":true,"url":"https://lannuaire.service-public.gouv.fr/corse/haute-corse/9b153306-e978-4c5b-b024-7783bf2fc875"}
{"nom":"Santo-Pietro-di-Venaco","nomNormalise":"santopietrodivenaco","typeCollectivite":"Commune","region":"Corse","departement":"Haute-Corse","departementCode":"2","adresse":{"street":"Mairie","postalCode":"20250","city":"Santo-Pietro-di-Venaco","country":"France"},"contacts":{"email":"santopietrodivenaco@gmail.com","telephone":"0495470777"},"horaires":"Du Lundi au Mardi : de 09h00 à 12h00\nDu Jeudi au Vendredi : de 09h00 à 12h00","latitude":42.245926,"longitude":9.173218,"website":"","hasWebsite":false,"hasHoraires":true,"url":"https://lannuaire.service-public.gouv.fr/corse/haute-corse/4e31e4aa-750b-4de9-b9d5-82bcc8505c6b"}
{"nom":"Scata","nomNormalise":"scata","typeCollectivite":"Commune","region":"Corse","departement":"Haute-Corse","departementCode":"2","adresse":{"street":"Le Village","postalCode":"20213","city":"Scata","country":"France"},"contacts":{"email":"mairie.scata@orange.fr","telephone":"0495392623"},"horaires":"Le Mardi : de 10h00 à 12h00\nLe Jeudi : de 14h00 à 16h00","latitude":42.462482,"longitude":9.467268,"website":"","hasWebsite":false,"hasHoraires":true,"url":"https://lannuaire.service-public.gouv.fr/corse/haute-corse/ee494f02-415e-4d9c-a0b6-07f585b27bce"}
{"nom":"Scolca","nomNormalise":"scolca","typeCollectivite":"Commune","region":"Corse","departement":"Haute-Corse","departementCode":"2","adresse":{"street":"Scolca","postalCode":"20290","city":"Scolca","country":"France"},"contacts":{"email":"mairiedescolca@yahoo.fr","telephone":"0495382027"},"horaires":"Du Mardi au Vendredi : de 09h00 à 12h00 de 14h00 à 17h00","latitude":42.53094,"longitude":9.362493,"website":"https://scolca.fr/","hasWebsite":true,"hasHoraires":true,"url":"https://lannuaire.service-public.gouv.fr/corse/haute-corse/b055913a-d9ad-443a-a5ff-45b95066e6d8"}
{"nom":"Sermano","nomNormalise":"sermano","typeCollectivite":"Commune","region":"Corse","departement":"Haute-Corse","departementCode":"2","adresse":{"street":"Village","postalCode":"20212","city":"Sermano","country":"France"},"contacts":{"email":"mairiedesermano@orange.fr","telephone":"0495486727"},"horaires":"Le Mardi : de 12h30 à 16h30\nLe Mercredi : de 14h00 à 17h00\nLe Vendredi : de 08h30 à 12h30","latitude":42.314655,"longitude":9.267083,"website":"","hasWebsite":false,"hasHoraires":true,"url":"https://lannuaire.service-public.gouv.fr/corse/haute-corse/28190b06-2e93-4bc6-8445-fb7f026eb145"}
{"nom":"Serra-di-Fiumorbo","nomNormalise":"serradifiumorbo","typeCollectivite":"Commune","region":"Corse","departement":"Haute-Corse","departementCode":"2","adresse":{"street":"Serra-di-Fiumorbo","postalCode":"20243","city":"Serra-di-Fiumorbo","country":"France"},"contacts":{"email":"mairieserra@wanadoo.fr","telephone":"0495567109"},"horaires":"Du Lundi au Mardi : de 08h30 à 12h00 de 13h30 à 16h30\nDu Jeudi au Vendredi : de 08h30 à 12h00 de 13h30 à 16h30","latitude":41.985798,"longitude":9.336243,"website":"","hasWebsite":false,"hasHoraires":true,"url":"https://lannuaire.service-public.gouv.fr/corse/haute-corse/bd0939da-8975-4fed-8c8b-5d726676c8fd"}
{"nom":"Silvareccio","nomNormalise":"silvareccio","typeCollectivite":"Commune","region":"Corse","departement":"Haute-Corse","departementCode":"2","adresse":{"street":"Bâtiment communal","postalCode":"20215","city":"Silvareccio","country":"France"},"contacts":{"email":"silvareccio@wanadoo.fr","telephone":"0495392438"},"horaires":"Le Lundi : de 09h00 à 12h00 de 14h00 à 16h00\nLe Mardi : de 09h00 à 12h00 de 13h30 à 16h30\nLe Mercredi : de 09h00 à 12h00\nDu Jeudi au Vendredi : de 13h30 à 16h30","latitude":42.450844,"longitude":9.409078,"website":"","hasWebsite":false,"hasHoraires":true,"url":"https://lannuaire.service-public.gouv.fr/corse/haute-corse/4731be24-2eb3-4a14-a980-9c07b50eb0a3"}
{"nom":"Sisco","nomNormalise":"sisco","typeCollectivite":"Commune","region":"Corse","departement":"Haute-Corse","departementCode":"2","adresse":{"street":"Hameau Munacaghja","postalCode":"20233","city":"Sisco","country":"France"},"contacts":{"email":"accueil@siscu.fr","telephone":"0495352001"},"horaires":"Du Lundi au Mardi : de 08h00 à 16h15\nLe Mercredi : de 08h00 à 13h00\nDu Jeudi au Vendredi : de 08h00 à 16h15\nLe maire reçoit en semaine sur rendez-vous","latitude":42.814358,"longitude":9.427905,"website":"https://www.mairie-de-sisco.com/","hasWebsite":true,"hasHoraires":true,"url":"https://lannuaire.service-public.gouv.fr/corse/haute-corse/a80b88a6-4272-4091-8db2-286e33bf1b7a"}
{"nom":"Solaro","nomNormalise":"solaro","typeCollectivite":"Commune","region":"Corse","departement":"Haute-Corse","departementCode":"2","adresse":{"street":"Le Village","postalCode":"20240","city":"Solaro","country":"France"},"contacts":{"email":"mairie@solaro.fr","telephone":"0495573052"},"horaires":"Du Lundi au Vendredi : de 09h00 à 16h00\nL'annexe de la mairie à PUZZONE Puzzone est ouverte de du lundi au vendredi de 8h à 12h et de 13h30 à 16h30.","latitude":41.90473,"longitude":9.326794,"website":"https://www.solaro.fr/","hasWebsite":true,"hasHoraires":true,"url":"https://lannuaire.service-public.gouv.fr/corse/haute-corse/c6fe8d72-ab08-43d5-b78c-e2d54dc57069"}
{"nom":"Sorbo-Ocagnano","nomNormalise":"sorboocagnano","typeCollectivite":"Commune","region":"Corse","departement":"Haute-Corse","departementCode":"2","adresse":{"street":"Route de Sorbo","postalCode":"20213","city":"Sorbo-Ocagnano","country":"France"},"contacts":{"email":"mairie.sorbo.ocagnano@orange.fr","telephone":"0495364048"},"horaires":"Du Lundi au Jeudi : de 08h30 à 12h00 de 14h00 à 17h00\nLe Vendredi : de 08h30 à 12h00","latitude":42.475548,"longitude":9.456989,"website":"https://www.sorbo-ocagnano.fr/","hasWebsite":true,"hasHoraires":true,"url":"https://lannuaire.service-public.gouv.fr/corse/haute-corse/7a62d5a0-4acd-438a-a51a-60c98e7b7e6e"}
{"nom":"Sorio","nomNormalise":"sorio","typeCollectivite":"Commune","region":"Corse","departement":"Haute-Corse","departementCode":"2","adresse":{"street":"Mairie","postalCode":"20246","city":"Sorio","country":"France"},"contacts":{"email":"mairiedesorio@wanadoo.fr","telephone":"0495377282"},"horaires":"Le Lundi : de 09h00 à 12h00 de 14h00 à 16h00\nLe Mercredi : de 09h00 à 12h00 de 14h00 à 16h00\nLe Vendredi : de 09h00 à 12h00 de 14h00 à 16h00","latitude":42.583282,"longitude":9.272004,"website":"","hasWebsite":false,"hasHoraires":true,"url":"https://lannuaire.service-public.gouv.fr/corse/haute-corse/ba4b8981-6788-478f-9a55-f6aa8fb4447b"}
{"nom":"Soveria","nomNormalise":"soveria","typeCollectivite":"Commune","region":"Corse","departement":"Haute-Corse","departementCode":"2","adresse":{"street":"Place de l'Église","postalCode":"20250","city":"Soveria","country":"France"},"contacts":{"email":"mairiesoveria@orange.fr","telephone":"0495474324"},"horaires":"Le Vendredi : de 10h00 à 12h00","latitude":42.3589,"longitude":9.164854,"website":"","hasWebsite":false,"hasHoraires":true,"url":"https://lannuaire.service-public.gouv.fr/corse/haute-corse/a0c5c270-d8ae-46a1-b97b-9b3001077223"}
{"nom":"Speloncato","nomNormalise":"speloncato","typeCollectivite":"Commune","region":"Corse","departement":"Haute-Corse","departementCode":"2","adresse":{"street":"Place du Village","postalCode":"20226","city":"Speloncato","country":"France"},"contacts":{"email":"commune.speloncato@orange.fr","telephone":"0495615900"},"horaires":"Le Lundi : de 10h00 à 12h00\nLe Mercredi : de 10h00 à 12h00\nLe Vendredi : de 10h00 à 12h00","latitude":42.561325,"longitude":8.980962,"website":"","hasWebsite":false,"hasHoraires":true,"url":"https://lannuaire.service-public.gouv.fr/corse/haute-corse/cf9aec6a-bd5f-4a69-bd23-30d124cccbea"}
{"nom":"Stazzona","nomNormalise":"stazzona","typeCollectivite":"Commune","region":"Corse","departement":"Haute-Corse","departementCode":"2","adresse":{"street":"8 Rue de La Traverse","postalCode":"20229","city":"Stazzona","country":"France"},"contacts":{"email":"mairiestazzona@orange.fr","telephone":"0495382306"},"horaires":"Le Lundi : de 14h00 à 18h00","latitude":42.37022,"longitude":9.371866,"website":"","hasWebsite":false,"hasHoraires":true,"url":"https://lannuaire.service-public.gouv.fr/corse/haute-corse/cb05f4f5-abbe-417b-bc86-af8851bbc7d8"}
{"nom":"Taglio-Isolaccio","nomNormalise":"taglioisolaccio","typeCollectivite":"Commune","region":"Corse","departement":"Haute-Corse","departementCode":"2","adresse":{"street":"Maghiese","postalCode":"20230","city":"Taglio-Isolaccio","country":"France"},"contacts":{"email":"mairie.taglio.isolaccio@wanadoo.fr","telephone":"0495368322"},"horaires":"Du Lundi au Vendredi : de 09h00 à 12h00","latitude":42.435253,"longitude":9.470459,"website":"","hasWebsite":false,"hasHoraires":true,"url":"https://lannuaire.service-public.gouv.fr/corse/haute-corse/49b5ed9b-a614-4906-92fc-5fe76e7e921a"}
{"nom":"Talasani","nomNormalise":"talasani","typeCollectivite":"Commune","region":"Corse","departement":"Haute-Corse","departementCode":"2","adresse":{"street":"Lieu-dit Figaretto","postalCode":"20230","city":"Talasani","country":"France"},"contacts":{"email":"mairietalasani@wanadoo.fr","telephone":"0495369115"},"horaires":"Du Lundi au Jeudi : de 08h30 à 12h00 de 13h30 à 17h00\nLe Vendredi : de 08h30 à 12h00","latitude":42.4094,"longitude":9.479025,"website":"https://talasani.corsica/","hasWebsite":true,"hasHoraires":true,"url":"https://lannuaire.service-public.gouv.fr/corse/haute-corse/3b7bdf8f-50e7-414f-8dc3-0c89f96a4f11"}
{"nom":"Tallone","nomNormalise":"tallone","typeCollectivite":"Commune","region":"Corse","departement":"Haute-Corse","departementCode":"2","adresse":{"street":"Tompolaccie","postalCode":"20270","city":"Tallone","country":"France"},"contacts":{"email":"mairietallone@wanadoo.fr","telephone":"0495396017"},"horaires":"Du Lundi au Mardi : de 09h00 à 12h00 de 14h00 à 17h00\nLe Mercredi : de 09h00 à 12h00\nDu Jeudi au Vendredi : de 09h00 à 12h00 de 14h00 à 17h00","latitude":42.231438,"longitude":9.41344,"website":"http://www.tallone.fr/","hasWebsite":true,"hasHoraires":true,"url":"https://lannuaire.service-public.gouv.fr/corse/haute-corse/4632eda7-0821-43cb-b473-50fbfa8ae933"}
{"nom":"Tarrano","nomNormalise":"tarrano","typeCollectivite":"Commune","region":"Corse","departement":"Haute-Corse","departementCode":"2","adresse":{"street":"Le Village","postalCode":"20234","city":"Tarrano","country":"France"},"contacts":{"email":"mairie.tarrano@orange.fr","telephone":"0495359022"},"horaires":"Le Jeudi : de 09h00 à 12h00","latitude":42.3414,"longitude":9.39943,"website":"","hasWebsite":false,"hasHoraires":true,"url":"https://lannuaire.service-public.gouv.fr/corse/haute-corse/51c682c7-5e5a-4923-a9f5-7e42786f9a7b"}
{"nom":"Tomino","nomNormalise":"tomino","typeCollectivite":"Commune","region":"Corse","departement":"Haute-Corse","departementCode":"2","adresse":{"street":"Lieu-dit Mandolacce","postalCode":"20248","city":"Tomino","country":"France"},"contacts":{"email":"mairie.tomino@wanadoo.fr","telephone":"0495354237"},"horaires":"Le Lundi : de 13h00 à 17h00\nLe Mercredi : de 13h00 à 17h00\nLe Jeudi : de 08h00 à 12h00","latitude":42.946796,"longitude":9.447652,"website":"https://www.commune-tomino.com/","hasWebsite":true,"hasHoraires":true,"url":"https://lannuaire.service-public.gouv.fr/corse/haute-corse/c183513c-ed82-46ef-ad21-dff5c2c3c993"}
{"nom":"Tox","nomNormalise":"tox","typeCollectivite":"Commune","region":"Corse","departement":"Haute-Corse","departementCode":"2","adresse":{"street":"Le Village","postalCode":"20270","city":"Tox","country":"France"},"contacts":{"email":"mairiedetox@orange.fr","telephone":"0495394088"},"horaires":"Le Jeudi : de 14h00 à 17h00","latitude":42.251278,"longitude":9.429849,"website":"","hasWebsite":false,"hasHoraires":true,"url":"https://lannuaire.service-public.gouv.fr/corse/haute-corse/0de6a12f-eb68-48d2-aed8-513fa7684c89"}
{"nom":"Tralonca","nomNormalise":"tralonca","typeCollectivite":"Commune","region":"Corse","departement":"Haute-Corse","departementCode":"2","adresse":{"street":"Le Village","postalCode":"20250","city":"Tralonca","country":"France"},"contacts":{"email":"mairie-de-tralonca@orange.fr","telephone":"0495471304"},"horaires":"Le Lundi : de 09h00 à 12h00\nLe Jeudi : de 09h00 à 12h00 de 14h00 à 16h00","latitude":42.343285,"longitude":9.207567,"website":"","hasWebsite":false,"hasHoraires":true,"url":"https://lannuaire.service-public.gouv.fr/corse/haute-corse/8719287d-cd56-46fd-b9f1-8b9024f8ba56"}
{"nom":"Urtaca","nomNormalise":"urtaca","typeCollectivite":"Commune","region":"Corse","departement":"Haute-Corse","departementCode":"2","adresse":{"street":"Casa Cumuna","postalCode":"20218","city":"Urtaca","country":"France"},"contacts":{"email":"mairie-urtaca@wanadoo.fr","telephone":"0495482139"},"horaires":"Du Lundi au Jeudi : de 09h00 à 17h00\nLe Vendredi : de 09h00 à 14h00","latitude":42.594948,"longitude":9.164439,"website":"","hasWebsite":false,"hasHoraires":true,"url":"https://lannuaire.service-public.gouv.fr/corse/haute-corse/0df85970-42cf-43dd-8acb-a3e282ab92cc"}
{"nom":"Vallecalle","nomNormalise":"vallecalle","typeCollectivite":"Commune","region":"Corse","departement":"Haute-Corse","departementCode":"2","adresse":{"street":"Le Village","postalCode":"20232","city":"Vallecalle","country":"France"},"contacts":{"email":"commune-vallecalle@orange.fr","telephone":"0495376211"},"horaires":"Le Lundi : de 08h00 à 12h00\nLe Mardi : de 15h00 à 19h00\nLe Jeudi : de 15h00 à 19h00","latitude":42.598927,"longitude":9.338562,"website":"","hasWebsite":false,"hasHoraires":true,"url":"https://lannuaire.service-public.gouv.fr/corse/haute-corse/e5b5a8d6-0c6c-4537-aa65-b68a6ad83ff1"}
{"nom":"Valle-d'Alesani","nomNormalise":"valledalesani","typeCollectivite":"Commune","region":"Corse","departement":"Haute-Corse","departementCode":"2","adresse":{"street":"Castagneto","postalCode":"20234","city":"Valle-d'Alesani","country":"France"},"contacts":{"email":"mairievallealesani@orange.fr","telephone":"0495359203"},"horaires":"Le Mercredi : de 14h30 à 17h30\nAccueil également sur rendez-vous.","latitude":42.326027,"longitude":9.415113,"website":"","hasWebsite":false,"hasHoraires":true,"url":"https://lannuaire.service-public.gouv.fr/corse/haute-corse/ee7fdc34-2cd5-4a87-adbf-d893353ac366"}
{"nom":"Valle-d'Orezza","nomNormalise":"valledorezza","typeCollectivite":"Commune","region":"Corse","departement":"Haute-Corse","departementCode":"2","adresse":{"street":"Lieu-dit Poggio","postalCode":"20229","city":"Valle-d'Orezza","country":"France"},"contacts":{"email":"mairie.valledorezza@orange.fr","telephone":"0495354954"},"horaires":"Le Jeudi : de 09h00 à 15h00","latitude":42.36875,"longitude":9.39689,"website":"","hasWebsite":false,"hasHoraires":true,"url":"https://lannuaire.service-public.gouv.fr/corse/haute-corse/09fcb2dc-7d13-441c-84f4-2296698695a6"}
{"nom":"Valle-di-Campoloro","nomNormalise":"valledicampoloro","typeCollectivite":"Commune","region":"Corse","departement":"Haute-Corse","departementCode":"2","adresse":{"street":"Place de l'Église","postalCode":"20221","city":"Valle-di-Campoloro","country":"France"},"contacts":{"email":"commune.valle-di-campoloro@wanadoo.fr","telephone":"0495381140"},"horaires":"Du Lundi au Mardi : de 08h00 à 12h00 de 13h00 à 16h00\nLe Jeudi : de 08h00 à 12h00 de 13h00 à 16h00\nLe Vendredi : de 08h00 à 12h00","latitude":42.335407,"longitude":9.493992,"website":"","hasWebsite":false,"hasHoraires":true,"url":"https://lannuaire.service-public.gouv.fr/corse/haute-corse/ffa6286f-538a-46b6-8e69-5702b599f76a"}
{"nom":"Valle-di-Rostino","nomNormalise":"valledirostino","typeCollectivite":"Commune","region":"Corse","departement":"Haute-Corse","departementCode":"2","adresse":{"street":"Hameau de Valle","postalCode":"20235","city":"Valle-di-Rostino","country":"France"},"contacts":{"email":"mairie-valledirostino@wanadoo.fr","telephone":"0495387054"},"horaires":"Du Lundi au Mardi : de 09h30 à 12h00 de 14h00 à 16h30\nLe Mercredi : de 09h30 à 12h00\nDu Jeudi au Vendredi : de 09h30 à 12h00 de 14h00 à 16h30","latitude":42.45731,"longitude":9.28016,"website":"http://www.valledirostino.com/","hasWebsite":true,"hasHoraires":true,"url":"https://lannuaire.service-public.gouv.fr/corse/haute-corse/3503e1f5-bc4e-4fb6-9ecb-ae676f184e47"}
{"nom":"Vallica","nomNormalise":"vallica","typeCollectivite":"Commune","region":"Corse","departement":"Haute-Corse","departementCode":"2","adresse":{"street":"Village","postalCode":"20259","city":"Vallica","country":"France"},"contacts":{"email":"commune.vallica@orange.fr","telephone":"0495619015"},"horaires":"Le Lundi : de 09h00 à 12h00\nLe Mercredi : de 08h00 à 16h00\nLe Vendredi : de 08h00 à 12h00","latitude":42.52107,"longitude":9.051195,"website":"https://vallica.info/","hasWebsite":true,"hasHoraires":true,"url":"https://lannuaire.service-public.gouv.fr/corse/haute-corse/6c03a27d-532f-40ff-8683-473a6fb9b8c8"}
{"nom":"Velone-Orneto","nomNormalise":"veloneorneto","typeCollectivite":"Commune","region":"Corse","departement":"Haute-Corse","departementCode":"2","adresse":{"street":"Hameau de Carbonaccia","postalCode":"20230","city":"Velone-Orneto","country":"France"},"contacts":{"email":"communedeveloneorneto@orange.fr","telephone":"0495369956"},"horaires":"Du Lundi au Vendredi : de 08h00 à 12h00","latitude":42.400417,"longitude":9.47114,"website":"","hasWebsite":false,"hasHoraires":true,"url":"https://lannuaire.service-public.gouv.fr/corse/haute-corse/08fe694e-7463-4035-87b1-ec9083b3409e"}
{"nom":"Venaco","nomNormalise":"venaco","typeCollectivite":"Commune","region":"Corse","departement":"Haute-Corse","departementCode":"2","adresse":{"street":"Saint-Michel","postalCode":"20231","city":"Venaco","country":"France"},"contacts":{"email":"secretariat@mairie-venaco.fr","telephone":"0495470015"},"horaires":"Du Lundi au Vendredi : de 09h00 à 12h00","latitude":42.23732,"longitude":9.17468,"website":"https://www.mairiedevenaco.corsica/","hasWebsite":true,"hasHoraires":true,"url":"https://lannuaire.service-public.gouv.fr/corse/haute-corse/02cc9462-a666-415e-8681-07c082a9a44f"}
{"nom":"Ventiseri","nomNormalise":"ventiseri","typeCollectivite":"Commune","region":"Corse","departement":"Haute-Corse","departementCode":"2","adresse":{"street":"Travo","postalCode":"20240","city":"Ventiseri","country":"France"},"contacts":{"email":"accueil@ventiseri.fr","telephone":"0495579910"},"horaires":"Du Lundi au Vendredi : de 08h00 à 12h00 de 13h30 à 16h30","latitude":41.92469,"longitude":9.385984,"website":"http://www.ventiseri.fr/","hasWebsite":true,"hasHoraires":true,"url":"https://lannuaire.service-public.gouv.fr/corse/haute-corse/658e3b4b-bdc9-484c-9f20-b8b7722e9fdc"}
{"nom":"Venzolasca","nomNormalise":"venzolasca","typeCollectivite":"Commune","region":"Corse","departement":"Haute-Corse","departementCode":"2","adresse":{"street":"Lieu-dit Vignarella","postalCode":"20215","city":"Venzolasca","country":"France"},"contacts":{"email":"mairie.venzolasca@orange.fr","telephone":"0495367012"},"horaires":"Du Lundi au Jeudi : de 09h00 à 12h00 de 14h00 à 17h00\nLe Vendredi : de 09h00 à 12h00","latitude":42.48459,"longitude":9.452472,"website":"","hasWebsite":false,"hasHoraires":true,"url":"https://lannuaire.service-public.gouv.fr/corse/haute-corse/4631e80f-cd3b-40e0-8520-8b656e169c43"}
{"nom":"Verdèse","nomNormalise":"verdese","typeCollectivite":"Commune","region":"Corse","departement":"Haute-Corse","departementCode":"2","adresse":{"street":"Le Bourg","postalCode":"20229","city":"Verdèse","country":"France"},"contacts":{"email":"mairie-de-verdese@orange.fr","telephone":"0495358975"},"horaires":"Le Lundi : de 14h00 à 16h00\nLe Vendredi : de 09h00 à 12h00","latitude":42.392574,"longitude":9.3642,"website":"","hasWebsite":false,"hasHoraires":true,"url":"https://lannuaire.service-public.gouv.fr/corse/haute-corse/7c3135f1-faaf-40f8-8b82-9f4509660f3e"}
{"nom":"Vescovato","nomNormalise":"vescovato","typeCollectivite":"Commune","region":"Corse","departement":"Haute-Corse","departementCode":"2","adresse":{"street":"Place Luce-de-Casabianca","postalCode":"20215","city":"Vescovato","country":"France"},"contacts":{"email":"mairie@vescovato.fr","telephone":"0495367019"},"horaires":"Du Lundi au Jeudi : de 08h00 à 12h00 de 14h00 à 17h00\nLe Vendredi : de 08h00 à 12h00 de 14h00 à 16h00","latitude":42.492577,"longitude":9.439183,"website":"https://vescovato.fr/","hasWebsite":true,"hasHoraires":true,"url":"https://lannuaire.service-public.gouv.fr/corse/haute-corse/99d664c6-c112-466c-bec2-0cb0a257d592"}
{"nom":"Vezzani","nomNormalise":"vezzani","typeCollectivite":"Commune","region":"Corse","departement":"Haute-Corse","departementCode":"2","adresse":{"street":"Place de la Mairie","postalCode":"20242","city":"Vezzani","country":"France"},"contacts":{"email":"mairie@vezzani.corsica","telephone":"0495440121"},"horaires":"Du Lundi au Vendredi : de 09h30 à 12h00 de 14h00 à 17h00","latitude":42.175537,"longitude":9.246758,"website":"","hasWebsite":false,"hasHoraires":true,"url":"https://lannuaire.service-public.gouv.fr/corse/haute-corse/f982b23e-74c0-4a01-9e82-a732ec5d437a"}
{"nom":"Vignale","nomNormalise":"vignale","typeCollectivite":"Commune","region":"Corse","departement":"Haute-Corse","departementCode":"2","adresse":{"street":"Village","postalCode":"20290","city":"Vignale","country":"France"},"contacts":{"email":"mairie.vignale@hotmail.com","telephone":"0495382382"},"horaires":"Le Mardi : de 09h00 à 12h00 de 14h00 à 17h00\nLe Vendredi : de 09h00 à 12h00 de 14h00 à 17h00","latitude":42.568558,"longitude":9.478381,"website":"https://vignale.fr/","hasWebsite":true,"hasHoraires":true,"url":"https://lannuaire.service-public.gouv.fr/corse/haute-corse/85c3f897-6f94-48d9-96a8-4b29e58936a2"}
{"nom":"Ville-di-Paraso","nomNormalise":"villediparaso","typeCollectivite":"Commune","region":"Corse","departement":"Haute-Corse","departementCode":"2","adresse":{"street":"Centre du Village","postalCode":"20279","city":"Ville-di-Paraso","country":"France"},"contacts":{"email":"mairie.ville.di.paraso@wanadoo.fr","telephone":"0495615081"},"horaires":"Du Lundi au Mardi : de 10h00 à 12h00\nLe Jeudi : de 10h00 à 12h00","latitude":42.565628,"longitude":8.98576,"website":"","hasWebsite":false,"hasHoraires":true,"url":"https://lannuaire.service-public.gouv.fr/corse/haute-corse/ea48b1ff-0db0-422a-94f3-484718b69124"}
{"nom":"Ville-di-Pietrabugno","nomNormalise":"villedipietrabugno","typeCollectivite":"Commune","region":"Corse","departement":"Haute-Corse","departementCode":"2","adresse":{"street":"Hameau de Guaïtella","postalCode":"20200","city":"Ville-di-Pietrabugno","country":"France"},"contacts":{"email":"mairie@pietrabugno.com","telephone":"0495328832"},"horaires":"Le Lundi : de 08h30 à 12h00 de 13h30 à 17h00\nLe Mardi : de 13h30 à 17h00\nDu Mercredi au Jeudi : de 08h30 à 12h00 de 13h30 à 17h00\nLe Vendredi : de 08h30 à 12h00","latitude":42.712433,"longitude":9.433085,"website":"http://www.pietrabugno.com/","hasWebsite":true,"hasHoraires":true,"url":"https://lannuaire.service-public.gouv.fr/corse/haute-corse/9c9f5488-d717-4665-b288-a7e18adbdc08"}
{"nom":"Vivario","nomNormalise":"vivario","typeCollectivite":"Commune","region":"Corse","departement":"Haute-Corse","departementCode":"2","adresse":{"street":"Village","postalCode":"20219","city":"Vivario","country":"France"},"contacts":{"email":"mairie.vivario@wanadoo.fr","telephone":"0495472005"},"horaires":"Du Lundi au Vendredi : de 09h30 à 12h00","latitude":42.171585,"longitude":9.171044,"website":"","hasWebsite":false,"hasHoraires":true,"url":"https://lannuaire.service-public.gouv.fr/corse/haute-corse/2cd88d7c-713b-4f92-82a9-a129ae9b31cb"}
{"nom":"Volpajola","nomNormalise":"volpajola","typeCollectivite":"Commune","region":"Corse","departement":"Haute-Corse","departementCode":"2","adresse":{"street":"Village","postalCode":"20290","city":"Volpajola","country":"France"},"contacts":{"email":"mairie.de.volpajola@orange.fr","telephone":"0495382051"},"horaires":"Du Lundi au Vendredi : de 09h00 à 12h00","latitude":42.568558,"longitude":9.478381,"website":"http://www.volpajola.fr/","hasWebsite":true,"hasHoraires":true,"url":"https://lannuaire.service-public.gouv.fr/corse/haute-corse/2d5e30cd-50c5-491c-98c8-0ab136f037cc"}
{"nom":"Zalana","nomNormalise":"zalana","typeCollectivite":"Commune","region":"Corse","departement":"Haute-Corse","departementCode":"2","adresse":{"street":"Place de l'Église","postalCode":"20272","city":"Zalana","country":"France"},"contacts":{"email":"mairiedezalana@wanadoo.fr","telephone":"0495396289"},"horaires":"Le Lundi : de 09h00 à 12h00\nLe Vendredi : de 09h00 à 12h00\nLe Samedi : de 09h00 à 12h00 de 13h30 à 16h30","latitude":42.26253,"longitude":9.372904,"website":"","hasWebsite":false,"hasHoraires":true,"url":"https://lannuaire.service-public.gouv.fr/corse/haute-corse/80d4bfaa-29da-46ca-9761-8d221ec176cc"}
{"nom":"Zilia","nomNormalise":"zilia","typeCollectivite":"Commune","region":"Corse","departement":"Haute-Corse","departementCode":"2","adresse":{"street":"Hôtel de Ville","postalCode":"20214","city":"Zilia","country":"France"},"contacts":{"email":"mairie.zilia380@orange.fr","telephone":"0495627159"},"horaires":"Du Lundi au Vendredi : de 08h00 à 12h00 de 13h30 à 16h30","latitude":42.530624,"longitude":8.900574,"website":"","hasWebsite":false,"hasHoraires":true,"url":"https://lannuaire.service-public.gouv.fr/corse/haute-corse/0c058bd4-679e-40d8-841d-a904cae5d56d"}
{"nom":"Zuani","nomNormalise":"zuani","typeCollectivite":"Commune","region":"Corse","departement":"Haute-Corse","departementCode":"2","adresse":{"street":"Zuani","postalCode":"20272","city":"Zuani","country":"France"},"contacts":{"email":"ics.christiane@wanadoo.fr","telephone":"0495396294"},"horaires":"","latitude":42.270874,"longitude":9.346659,"website":"","hasWebsite":false,"hasHoraires":false,"url":"https://lannuaire.service-public.gouv.fr/corse/haute-corse/80f6ef9d-4ccb-444c-aeb0-9ec92e43ff70"}
