{"nom":"Aigurande","nomNormalise":"aigurande","typeCollectivite":"Commune","region":"Centre-Val de Loire","departement":"Indre","departementCode":"36","adresse":{"street":"1 place de la Promenade","postalCode":"36140","city":"Aigurande","country":"France"},"contacts":{"email":"mairie.aigurande@wanadoo.fr","telephone":"0254063056"},"horaires":"Le Lundi : de 08h15 à 12h15\nDu Mardi au Vendredi : de 08h15 à 12h15 de 14h00 à 18h00\nLe Samedi : de 08h00 à 12h00","latitude":46.4347,"longitude":1.82937,"website":"https://www.aigurande.fr/","hasWebsite":true,"hasHoraires":true,"url":"https://lannuaire.service-public.gouv.fr/centre-val-de-loire/indre/1a7c69b5-42ab-4246-bfa1-8f6e19c23e5e"}
{"nom":"Aize","nomNormalise":"aize","typeCollectivite":"Commune","region":"Centre-Val de Loire","departement":"Indre","departementCode":"36","adresse":{"street":"4 rue de la Mairie","postalCode":"36150","city":"Aize","country":"France"},"contacts":{"email":"","telephone":"0254498073"},"horaires":"Le Mardi : de 13h30 à 17h30\nLe Jeudi : de 13h30 à 17h30","latitude":47.103535,"longitude":1.7013586,"website":"","hasWebsite":false,"hasHoraires":true,"url":"https://lannuaire.service-public.gouv.fr/centre-val-de-loire/indre/fd3728e1-4465-42e1-8817-8a832806b7f8"}
{"nom":"Ambrault","nomNormalise":"ambrault","typeCollectivite":"Commune","region":"Centre-Val de Loire","departement":"Indre","departementCode":"36","adresse":{"street":"1 place de l'Église","postalCode":"36120","city":"Ambrault","country":"France"},"contacts":{"email":"mairie@ambrault.fr","telephone":"0254490316"},"horaires":"Le Lundi : de 14h00 à 17h00\nDu Mardi au Vendredi : de 09h00 à 12h00 de 14h00 à 17h00\nLe Samedi : de 09h00 à 12h00\n\nUn samedi sur deux","latitude":46.785473,"longitude":1.959796,"website":"http://www.ambrault.fr/","hasWebsite":true,"hasHoraires":true,"url":"https://lannuaire.service-public.gouv.fr/centre-val-de-loire/indre/53d2e0b0-1673-40c5-bb97-43a3fc89b9d4"}
{"nom":"Anjouin","nomNormalise":"anjouin","typeCollectivite":"Commune","region":"Centre-Val de Loire","departement":"Indre","departementCode":"36","adresse":{"street":"Le Bourg","postalCode":"36210","city":"Anjouin","country":"France"},"contacts":{"email":"mairieanjouin@wanadoo.fr","telephone":"0254406369"},"horaires":"Du Lundi au Mardi : de 08h00 à 12h00 de 13h30 à 17h30\nLe Mercredi : de 08h00 à 12h00\nLe Jeudi : de 08h00 à 12h00 de 13h30 à 17h30","latitude":47.189816,"longitude":1.801584,"website":"","hasWebsite":false,"hasHoraires":true,"url":"https://lannuaire.service-public.gouv.fr/centre-val-de-loire/indre/4c771907-5507-4980-94b9-0d2220ff947b"}
{"nom":"Ardentes","nomNormalise":"ardentes","typeCollectivite":"Commune","region":"Centre-Val de Loire","departement":"Indre","departementCode":"36","adresse":{"street":"Place de la République","postalCode":"36120","city":"Ardentes","country":"France"},"contacts":{"email":"infos@mairie-ardentes.com","telephone":"0254362133"},"horaires":"Le Lundi : de 08h30 à 12h00\nDu Mardi au Vendredi : de 08h30 à 12h00 de 13h30 à 17h00","latitude":46.7405,"longitude":1.82769,"website":"http://www.mairie-ardentes.com/","hasWebsite":true,"hasHoraires":true,"url":"https://lannuaire.service-public.gouv.fr/centre-val-de-loire/indre/b2c2a00e-7eb5-4121-8155-584526930277"}
{"nom":"Argenton-sur-Creuse","nomNormalise":"argentonsurcreuse","typeCollectivite":"Commune","region":"Centre-Val de Loire","departement":"Indre","departementCode":"36","adresse":{"street":"69 rue Auclerc-Descottes","postalCode":"36200","city":"Argenton-sur-Creuse","country":"France"},"contacts":{"email":"contact@mairie-argenton-sur-creuse.fr","telephone":"0254241250"},"horaires":"Du Lundi au Vendredi : de 08h30 à 12h00 de 13h30 à 17h30\nLe Samedi : de 08h30 à 12h00","latitude":46.58599,"longitude":1.5231,"website":"https://www.mairieargentonsurcreuse.com/","hasWebsite":true,"hasHoraires":true,"url":"https://lannuaire.service-public.gouv.fr/centre-val-de-loire/indre/a63d1606-acbd-4be6-be38-c94c5b9df76e"}
{"nom":"Argy","nomNormalise":"argy","typeCollectivite":"Commune","region":"Centre-Val de Loire","departement":"Indre","departementCode":"36","adresse":{"street":"11 place de la Mairie","postalCode":"36500","city":"Argy","country":"France"},"contacts":{"email":"mairie.argy36@orange.fr","telephone":"0254841497"},"horaires":"Le Lundi : de 08h30 à 12h30 de 13h30 à 17h00\nLe Mardi : de 13h30 à 17h00\nDu Mercredi au Jeudi : de 08h30 à 12h30 de 13h30 à 17h00\nLe Vendredi : de 13h30 à 17h00","latitude":46.939274,"longitude":1.4365772,"website":"","hasWebsite":false,"hasHoraires":true,"url":"https://lannuaire.service-public.gouv.fr/centre-val-de-loire/indre/4bb8b822-449a-4412-9f37-fb78a8f38dc8"}
{"nom":"Arpheuilles","nomNormalise":"arpheuilles","typeCollectivite":"Commune","region":"Centre-Val de Loire","departement":"Indre","departementCode":"36","adresse":{"street":"6 place de l'Église","postalCode":"36700","city":"Arpheuilles","country":"France"},"contacts":{"email":"com.arph36@wanadoo.fr","telephone":"0254384217"},"horaires":"Du Lundi au Mardi : de 09h00 à 12h00\nDu Jeudi au Vendredi : de 09h00 à 12h00","latitude":46.900272,"longitude":1.277479,"website":"","hasWebsite":false,"hasHoraires":true,"url":"https://lannuaire.service-public.gouv.fr/centre-val-de-loire/indre/8df42b8e-2499-498d-af47-124e92f6133c"}
{"nom":"Arthon","nomNormalise":"arthon","typeCollectivite":"Commune","region":"Centre-Val de Loire","departement":"Indre","departementCode":"36","adresse":{"street":"7 place de la Mairie","postalCode":"36330","city":"Arthon","country":"France"},"contacts":{"email":"mairie@arthon.fr","telephone":"0254361409"},"horaires":"Le Lundi : de 09h00 à 12h00 de 14h00 à 17h00\nLe Mardi : de 09h00 à 12h00\nLe Mercredi : de 09h00 à 12h00 de 14h00 à 17h00\nLe Jeudi : de 09h00 à 12h00\nLe Vendredi : de 09h00 à 12h00 de 14h00 à 17h00","latitude":46.6934,"longitude":1.69824,"website":"http://www.arthon.fr/","hasWebsite":true,"hasHoraires":true,"url":"https://lannuaire.service-public.gouv.fr/centre-val-de-loire/indre/1bac7c54-18f5-4edb-942f-ce81ae621513"}
{"nom":"Azay-le-Ferron","nomNormalise":"azayleferron","typeCollectivite":"Commune","region":"Centre-Val de Loire","departement":"Indre","departementCode":"36","adresse":{"street":"7 place de Verdun","postalCode":"36290","city":"Azay-le-Ferron","country":"France"},"contacts":{"email":"mairie-azayleferron@orange.fr","telephone":"0254392191"},"horaires":"Le Lundi : de 08h00 à 12h00 de 13h30 à 17h30\nLe Mardi : de 08h00 à 12h00\nLe Mercredi : de 08h00 à 12h00 de 13h30 à 17h30\nLe Jeudi : de 08h00 à 12h00 de 13h30 à 16h00\nLe Vendredi : de 08h00 à 12h00 de 13h30 à 16h30","latitude":46.8518,"longitude":1.07006,"website":"https://www.azay-le-ferron.fr/","hasWebsite":true,"hasHoraires":true,"url":"https://lannuaire.service-public.gouv.fr/centre-val-de-loire/indre/99979495-3a63-4a81-bba9-c67197e2a582"}
{"nom":"Badecon-le-Pin","nomNormalise":"badeconlepin","typeCollectivite":"Commune","region":"Centre-Val de Loire","departement":"Indre","departementCode":"36","adresse":{"street":"4 place de la Mairie","postalCode":"36200","city":"Badecon-le-Pin","country":"France"},"contacts":{"email":"mairie.badeconlepin@wanadoo.fr","telephone":"0254478027"},"horaires":"Du Lundi au Vendredi : de 09h00 à 12h00 de 13h30 à 17h30\nLe Samedi : de 09h00 à 12h00","latitude":46.5406,"longitude":1.58842,"website":"","hasWebsite":false,"hasHoraires":true,"url":"https://lannuaire.service-public.gouv.fr/centre-val-de-loire/indre/e3a71f1b-7af5-4e2a-8d29-5d022e4540ba"}
{"nom":"Bagneux","nomNormalise":"bagneux","typeCollectivite":"Commune","region":"Centre-Val de Loire","departement":"Indre","departementCode":"36","adresse":{"street":"5 rue Fontaine-Saint-Clair","postalCode":"36210","city":"Bagneux","country":"France"},"contacts":{"email":"mairie5@wanadoo.fr","telephone":"0254406353"},"horaires":"Le Lundi : de 08h15 à 12h15\nLe Jeudi : de 09h15 à 16h00\nLe Vendredi : de 08h15 à 16h00","latitude":47.182617,"longitude":1.752175,"website":"","hasWebsite":false,"hasHoraires":true,"url":"https://lannuaire.service-public.gouv.fr/centre-val-de-loire/indre/66df7432-5e94-4f14-9255-1cba824e137b"}
{"nom":"Baraize","nomNormalise":"baraize","typeCollectivite":"Commune","region":"Centre-Val de Loire","departement":"Indre","departementCode":"36","adresse":{"street":"1 rue Fontaine-Saint-Cloud","postalCode":"36270","city":"Baraize","country":"France"},"contacts":{"email":"mairie.baraize@wanadoo.fr","telephone":"0254254283"},"horaires":"Du Lundi au Mardi : de 14h00 à 17h00\nDu Jeudi au Vendredi : de 14h00 à 17h00\nLe Samedi : de 09h00 à 12h00","latitude":46.4902,"longitude":1.55865,"website":"","hasWebsite":false,"hasHoraires":true,"url":"https://lannuaire.service-public.gouv.fr/centre-val-de-loire/indre/489320ba-35ee-4dff-b560-72aa40848281"}
{"nom":"Baudres","nomNormalise":"baudres","typeCollectivite":"Commune","region":"Centre-Val de Loire","departement":"Indre","departementCode":"36","adresse":{"street":"29 rue de la Mairie","postalCode":"36110","city":"Baudres","country":"France"},"contacts":{"email":"mairie-de-baudres@wanadoo.fr","telephone":"0254408211"},"horaires":"Du Lundi au Mardi : de 08h30 à 12h00 de 13h30 à 18h00\nLe Mercredi : de 08h30 à 11h30\nDu Jeudi au Vendredi : de 08h30 à 12h00 de 13h30 à 18h00","latitude":47.0577,"longitude":1.57873,"website":"https://www.commune-de-baudres.fr/","hasWebsite":true,"hasHoraires":true,"url":"https://lannuaire.service-public.gouv.fr/centre-val-de-loire/indre/d752cb10-2aa3-4c65-8e41-6c4a59cb0b67"}
{"nom":"Bazaiges","nomNormalise":"bazaiges","typeCollectivite":"Commune","region":"Centre-Val de Loire","departement":"Indre","departementCode":"36","adresse":{"street":"1 route de Celon","postalCode":"36270","city":"Bazaiges","country":"France"},"contacts":{"email":"mairiedebazaiges@wanadoo.fr","telephone":"0254253259"},"horaires":"Le Mardi : de 09h00 à 12h00 de 14h00 à 17h00\nLe Jeudi : de 09h00 à 12h00 de 14h00 à 17h00\nLe Vendredi : de 14h00 à 17h00","latitude":46.498856,"longitude":1.5338835,"website":"","hasWebsite":false,"hasHoraires":true,"url":"https://lannuaire.service-public.gouv.fr/centre-val-de-loire/indre/a9053430-f5df-476a-92ed-4715b457297d"}
{"nom":"Beaulieu","nomNormalise":"beaulieu","typeCollectivite":"Commune","region":"Centre-Val de Loire","departement":"Indre","departementCode":"36","adresse":{"street":"3 rue de la Mairie","postalCode":"36310","city":"Beaulieu","country":"France"},"contacts":{"email":"mairie-beaulieu-36@wanadoo.fr","telephone":"0254257346"},"horaires":"Le Lundi : de 09h00 à 12h00\nLe Mardi : de 14h00 à 17h00\nDu Jeudi au Vendredi : de 14h00 à 17h00","latitude":46.386436,"longitude":1.307976,"website":"","hasWebsite":false,"hasHoraires":true,"url":"https://lannuaire.service-public.gouv.fr/centre-val-de-loire/indre/ea1f94ea-3d2b-4d52-bd81-e3f257dd987c"}
{"nom":"Bélâbre","nomNormalise":"belabre","typeCollectivite":"Commune","region":"Centre-Val de Loire","departement":"Indre","departementCode":"36","adresse":{"street":"8 avenue Jean-Jaurès","postalCode":"36370","city":"Bélâbre","country":"France"},"contacts":{"email":"mairie.belabre@wanadoo.fr","telephone":"0254376180"},"horaires":"Le Lundi : de 08h30 à 12h15\nDu Mardi au Mercredi : de 08h30 à 12h15 de 13h30 à 17h00\nLe Jeudi : de 08h30 à 12h15\nLe Vendredi : de 08h30 à 12h15 de 13h30 à 17h00","latitude":46.5516,"longitude":1.15754,"website":"http://www.ville-belabre.fr/","hasWebsite":true,"hasHoraires":true,"url":"https://lannuaire.service-public.gouv.fr/centre-val-de-loire/indre/663ca74d-4bc1-4548-ae8d-3b50cb83d2b1"}
{"nom":"Bommiers","nomNormalise":"bommiers","typeCollectivite":"Commune","region":"Centre-Val de Loire","departement":"Indre","departementCode":"36","adresse":{"street":"17 rue de l'Ouche","postalCode":"36120","city":"Bommiers","country":"France"},"contacts":{"email":"mairie.bommiers@wanadoo.fr","telephone":"0254490915"},"horaires":"Du Lundi au Mardi : de 14h00 à 17h30\nDu Jeudi au Vendredi : de 14h00 à 17h30\nLe Samedi : de 09h00 à 12h00","latitude":46.79393,"longitude":1.9865897,"website":"","hasWebsite":false,"hasHoraires":true,"url":"https://lannuaire.service-public.gouv.fr/centre-val-de-loire/indre/816c2432-b97b-4e36-b99b-d1b4c32dbec4"}
{"nom":"Bonneuil","nomNormalise":"bonneuil","typeCollectivite":"Commune","region":"Centre-Val de Loire","departement":"Indre","departementCode":"36","adresse":{"street":"6 route de la Marche","postalCode":"36310","city":"Bonneuil","country":"France"},"contacts":{"email":"mairie-bonneuil36@wanadoo.fr","telephone":"0254257480"},"horaires":"Le Lundi : de 14h00 à 17h00\nLe Mardi : de 09h00 à 12h00\nDu Jeudi au Vendredi : de 09h00 à 12h00","latitude":46.373943,"longitude":1.22625,"website":"","hasWebsite":false,"hasHoraires":true,"url":"https://lannuaire.service-public.gouv.fr/centre-val-de-loire/indre/687982a5-a095-4835-85df-0eb9f1aea460"}
{"nom":"Bouesse","nomNormalise":"bouesse","typeCollectivite":"Commune","region":"Centre-Val de Loire","departement":"Indre","departementCode":"36","adresse":{"street":"12 route d'Arthon","postalCode":"36200","city":"Bouesse","country":"France"},"contacts":{"email":"mairie.bouesse@wanadoo.fr","telephone":"0254251071"},"horaires":"Du Lundi au Mardi : de 09h00 à 12h00\nDu Jeudi au Vendredi : de 09h00 à 12h00","latitude":46.653057,"longitude":1.699606,"website":"","hasWebsite":false,"hasHoraires":true,"url":"https://lannuaire.service-public.gouv.fr/centre-val-de-loire/indre/040a81c5-aa6c-46fc-95de-42863e3388df"}
{"nom":"Bouges-le-Château","nomNormalise":"bougeslechateau","typeCollectivite":"Commune","region":"Centre-Val de Loire","departement":"Indre","departementCode":"36","adresse":{"street":"1 place de la Mairie","postalCode":"36110","city":"Bouges-le-Château","country":"France"},"contacts":{"email":"mairie.bouges-le-chateau-indre@wanadoo.fr","telephone":"0254358817"},"horaires":"Du Mardi au Jeudi : de 09h00 à 12h30 de 13h30 à 17h00\nLe Vendredi : de 09h00 à 12h30 de 13h30 à 16h00\nLe Samedi : de 09h00 à 12h00","latitude":47.040966,"longitude":1.673057,"website":"","hasWebsite":false,"hasHoraires":true,"url":"https://lannuaire.service-public.gouv.fr/centre-val-de-loire/indre/454fc5ec-1c7b-4e07-aae1-fb27956d8bd9"}
{"nom":"Bretagne","nomNormalise":"bretagne","typeCollectivite":"Commune","region":"Centre-Val de Loire","departement":"Indre","departementCode":"36","adresse":{"street":"45 route de Bouges-le-Château","postalCode":"36110","city":"Bretagne","country":"France"},"contacts":{"email":"contact@commune-bretagne.fr","telephone":"0254356128"},"horaires":"Le Mardi : de 09h00 à 12h00\nLe Vendredi : de 09h00 à 12h00","latitude":47.003136,"longitude":1.682157,"website":"https://commune-bretagne.fr/","hasWebsite":true,"hasHoraires":true,"url":"https://lannuaire.service-public.gouv.fr/centre-val-de-loire/indre/15606a8e-544f-47a7-a2a3-bbb777044053"}
{"nom":"Briantes","nomNormalise":"briantes","typeCollectivite":"Commune","region":"Centre-Val de Loire","departement":"Indre","departementCode":"36","adresse":{"street":"4 place Jean-Moulin","postalCode":"36400","city":"Briantes","country":"France"},"contacts":{"email":"mairie.de.briantes@orange.fr","telephone":"0254480906"},"horaires":"Le Lundi : de 09h00 à 12h30 de 13h30 à 17h30\nLe Mardi : de 08h30 à 12h30\nLe Mercredi : de 08h30 à 12h30\nLe Jeudi : de 08h30 à 12h30 de 13h30 à 17h30\nLe Vendredi : de 08h30 à 12h30 de 13h30 à 17h00","latitude":46.584,"longitude":1.98935,"website":"https://www.briantes.fr/","hasWebsite":true,"hasHoraires":true,"url":"https://lannuaire.service-public.gouv.fr/centre-val-de-loire/indre/da855def-772b-475a-8258-37d8e880dc03"}
{"nom":"Brion","nomNormalise":"brion","typeCollectivite":"Commune","region":"Centre-Val de Loire","departement":"Indre","departementCode":"36","adresse":{"street":"1 route d'Issoudun","postalCode":"36110","city":"Brion","country":"France"},"contacts":{"email":"biblio.brion@orange.fr","telephone":"0254358632"},"horaires":"Le Lundi : de 13h00 à 17h00\nLe Mardi : de 08h30 à 12h30 de 13h30 à 17h00\nLe Mercredi : de 08h30 à 12h30 de 13h00 à 16h00\nLe Jeudi : de 08h30 à 12h30 de 13h00 à 17h00\nLe Vendredi : de 08h30 à 12h30","latitude":46.957012,"longitude":1.728923,"website":"https://www.brion36.fr/","hasWebsite":true,"hasHoraires":true,"url":"https://lannuaire.service-public.gouv.fr/centre-val-de-loire/indre/196c53e3-7549-4b27-bb80-96f83febbc8a"}
{"nom":"Brives","nomNormalise":"brives","typeCollectivite":"Commune","region":"Centre-Val de Loire","departement":"Indre","departementCode":"36","adresse":{"street":"4 chaussée de César","postalCode":"36100","city":"Brives","country":"France"},"contacts":{"email":"mairie.brives@wanadoo.fr","telephone":"0254490305"},"horaires":"Le Lundi : de 13h00 à 18h00\nLe Mardi : de 08h00 à 12h00 de 13h30 à 17h30\nLe Mercredi : de 13h30 à 18h00\nLe Jeudi : de 08h00 à 12h00 de 13h30 à 17h30","latitude":46.8439,"longitude":1.94596,"website":"","hasWebsite":false,"hasHoraires":true,"url":"https://lannuaire.service-public.gouv.fr/centre-val-de-loire/indre/c7f02cf2-8a88-4d3f-b2cc-cef74c7627eb"}
{"nom":"Buxeuil","nomNormalise":"buxeuil","typeCollectivite":"Commune","region":"Centre-Val de Loire","departement":"Indre","departementCode":"36","adresse":{"street":"2 place de l'Église","postalCode":"36150","city":"Buxeuil","country":"France"},"contacts":{"email":"mairie.buxeuil@wanadoo.fr","telephone":"0254409388"},"horaires":"Le Lundi : de 08h30 à 12h00\nLe Mardi : de 08h30 à 12h00 de 13h30 à 17h15\nLe Mercredi : de 09h00 à 12h00 de 13h30 à 17h00\nLe Jeudi : de 08h30 à 12h00 de 13h30 à 17h15\nLe Vendredi : de 08h30 à 12h00","latitude":47.13299,"longitude":1.686113,"website":"","hasWebsite":false,"hasHoraires":true,"url":"https://lannuaire.service-public.gouv.fr/centre-val-de-loire/indre/199adfb1-8db8-4314-9957-d3f55b431848"}
{"nom":"Buxières-d'Aillac","nomNormalise":"buxieresdaillac","typeCollectivite":"Commune","region":"Centre-Val de Loire","departement":"Indre","departementCode":"36","adresse":{"street":"11 route de Châteauroux","postalCode":"36230","city":"Buxières-d'Aillac","country":"France"},"contacts":{"email":"contact@mairie-buxieres-d-aillac.fr","telephone":"0254362259"},"horaires":"Du Lundi au Samedi : de 09h00 à 12h00\nLe samedi sur rendez-vous.","latitude":46.63938,"longitude":1.75171,"website":"https://mairie-buxieres-d-aillac.fr/","hasWebsite":true,"hasHoraires":true,"url":"https://lannuaire.service-public.gouv.fr/centre-val-de-loire/indre/ede462cc-99cb-42c9-b3af-b81ac11c7a71"}
{"nom":"Buzançais","nomNormalise":"buzancais","typeCollectivite":"Commune","region":"Centre-Val de Loire","departement":"Indre","departementCode":"36","adresse":{"street":"10 avenue de la République","postalCode":"36500","city":"Buzançais","country":"France"},"contacts":{"email":"mairie@buzancais.fr","telephone":"0254841933"},"horaires":"Le Lundi : de 09h00 à 12h30 de 14h30 à 17h30\nLe Mardi : de 09h30 à 12h30 de 14h30 à 18h30\nLe Mercredi : de 09h00 à 12h30 de 14h30 à 17h30\nLe Jeudi : de 09h30 à 12h30 de 14h30 à 18h30\nLe Vendredi : de 09h00 à 12h30 de 14h30 à 17h30","latitude":46.88864,"longitude":1.421935,"website":"https://www.buzancais.fr/","hasWebsite":true,"hasHoraires":true,"url":"https://lannuaire.service-public.gouv.fr/centre-val-de-loire/indre/b2a68599-96cd-46f4-be3f-274445d7bf62"}
{"nom":"Ceaulmont","nomNormalise":"ceaulmont","typeCollectivite":"Commune","region":"Centre-Val de Loire","departement":"Indre","departementCode":"36","adresse":{"street":"Les Granges","postalCode":"36200","city":"Ceaulmont","country":"France"},"contacts":{"email":"mairie.ceaulmont@wanadoo.fr","telephone":"0254254232"},"horaires":"Du Lundi au Vendredi : de 13h30 à 17h30\nLe Samedi : de 09h00 à 12h00","latitude":46.531876,"longitude":1.551414,"website":"http://www.ceaulmont.fr/","hasWebsite":true,"hasHoraires":true,"url":"https://lannuaire.service-public.gouv.fr/centre-val-de-loire/indre/a6db9c9b-0e59-4087-9ae0-8717b35af0cb"}
{"nom":"Celon","nomNormalise":"celon","typeCollectivite":"Commune","region":"Centre-Val de Loire","departement":"Indre","departementCode":"36","adresse":{"street":"11 rue de l'Église","postalCode":"36200","city":"Celon","country":"France"},"contacts":{"email":"mairie.de.celon@wanadoo.fr","telephone":"0254253291"},"horaires":"Le Mardi : de 14h00 à 17h00\nDu Jeudi au Vendredi : de 14h00 à 17h00\nLe Samedi : de 10h00 à 12h00","latitude":46.5203,"longitude":1.50201,"website":"","hasWebsite":false,"hasHoraires":true,"url":"https://lannuaire.service-public.gouv.fr/centre-val-de-loire/indre/24bf5089-bf48-4e31-a8c6-a3b3a10a37f4"}
{"nom":"Chabris","nomNormalise":"chabris","typeCollectivite":"Commune","region":"Centre-Val de Loire","departement":"Indre","departementCode":"36","adresse":{"street":"9 place Albert-Boivin","postalCode":"36210","city":"Chabris","country":"France"},"contacts":{"email":"contact.mairie@chabris.fr","telephone":"0254400332"},"horaires":"Du Lundi au Vendredi : de 08h30 à 12h30 de 14h00 à 17h30\nLe Samedi : de 09h00 à 12h00","latitude":47.255,"longitude":1.65386,"website":"https://www.chabris.fr/","hasWebsite":true,"hasHoraires":true,"url":"https://lannuaire.service-public.gouv.fr/centre-val-de-loire/indre/4363db74-70bb-491c-8428-989e43e57b96"}
{"nom":"Chaillac","nomNormalise":"chaillac","typeCollectivite":"Commune","region":"Centre-Val de Loire","departement":"Indre","departementCode":"36","adresse":{"street":"Place Fernand-Portier","postalCode":"36310","city":"Chaillac","country":"France"},"contacts":{"email":"chaillac.mairie@wanadoo.fr","telephone":"0254257426"},"horaires":"Le Lundi : de 09h00 à 12h30\nLe Mercredi : de 09h00 à 13h30\nLe Vendredi : de 09h00 à 12h30","latitude":46.434704,"longitude":1.298755,"website":"http://www.chaillac36.fr/","hasWebsite":true,"hasHoraires":true,"url":"https://lannuaire.service-public.gouv.fr/centre-val-de-loire/indre/e82726a0-67ed-4fab-b01c-c218fe28d02f"}
{"nom":"Chalais","nomNormalise":"chalais","typeCollectivite":"Commune","region":"Centre-Val de Loire","departement":"Indre","departementCode":"36","adresse":{"street":"17 rue Désiré-Gourdin","postalCode":"36370","city":"Chalais","country":"France"},"contacts":{"email":"mairie@chalais36370.fr","telephone":"0254376163"},"horaires":"Du Lundi au Mardi : de 13h30 à 17h30\nLe Jeudi : de 08h30 à 12h30 de 13h30 à 17h30\nLe Vendredi : de 08h30 à 12h30","latitude":46.536182,"longitude":1.197026,"website":"https://www.chalais.net/","hasWebsite":true,"hasHoraires":true,"url":"https://lannuaire.service-public.gouv.fr/centre-val-de-loire/indre/5b288abe-f3a5-449f-b821-fdb184dcdf7a"}
{"nom":"Champillet","nomNormalise":"champillet","typeCollectivite":"Commune","region":"Centre-Val de Loire","departement":"Indre","departementCode":"36","adresse":{"street":"1 rue de l'Étang","postalCode":"36160","city":"Champillet","country":"France"},"contacts":{"email":"champillet-mairie@wanadoo.fr","telephone":"0254314101"},"horaires":"Le Lundi : de 09h00 à 12h00\nLe Mercredi : de 09h00 à 12h00\nLe Vendredi : de 14h00 à 17h00","latitude":46.547794,"longitude":2.1129625,"website":"","hasWebsite":false,"hasHoraires":true,"url":"https://lannuaire.service-public.gouv.fr/centre-val-de-loire/indre/f9f4e56e-d8b8-4e64-a8a0-b571436b00fa"}
{"nom":"Chasseneuil","nomNormalise":"chasseneuil","typeCollectivite":"Commune","region":"Centre-Val de Loire","departement":"Indre","departementCode":"36","adresse":{"street":"1 rue des Combattants","postalCode":"36800","city":"Chasseneuil","country":"France"},"contacts":{"email":"mairie.chasseneuil.berry@wanadoo.fr","telephone":"0254258020"},"horaires":"Du Mardi au Samedi : de 08h00 à 12h00","latitude":46.646915,"longitude":1.496227,"website":"","hasWebsite":false,"hasHoraires":true,"url":"https://lannuaire.service-public.gouv.fr/centre-val-de-loire/indre/6122e4ef-ff28-4e0d-adfe-e41760f57c88"}
{"nom":"Chassignolles","nomNormalise":"chassignolles","typeCollectivite":"Commune","region":"Centre-Val de Loire","departement":"Indre","departementCode":"36","adresse":{"street":"4 rue des Échoppes","postalCode":"36400","city":"Chassignolles","country":"France"},"contacts":{"email":"mairie.chassignolles36@orange.fr","telephone":"0254480702"},"horaires":"Le Mardi : de 08h30 à 12h00 de 13h30 à 17h30\nDu Jeudi au Vendredi : de 08h30 à 12h00 de 13h30 à 17h30\nLe Samedi : de 08h00 à 11h00","latitude":46.541077,"longitude":1.938929,"website":"https://www.chassignolles.fr/","hasWebsite":true,"hasHoraires":true,"url":"https://lannuaire.service-public.gouv.fr/centre-val-de-loire/indre/8d710261-82b0-4366-876a-f6f8fdae6566"}
{"nom":"Châteauroux","nomNormalise":"chateauroux","typeCollectivite":"Commune","region":"Centre-Val de Loire","departement":"Indre","departementCode":"36","adresse":{"street":"Place de la République","postalCode":"36000","city":"Châteauroux","country":"France"},"contacts":{"email":"communication@chateauroux-metropole.fr","telephone":"0254083300"},"horaires":"Du Lundi au Vendredi : de 09h00 à 17h00","latitude":46.810963,"longitude":1.6919754,"website":"https://www.chateauroux-metropole.fr/","hasWebsite":true,"hasHoraires":true,"url":"https://lannuaire.service-public.gouv.fr/centre-val-de-loire/indre/4713696f-e0e2-47a4-af3d-5296930c48ea"}
{"nom":"Châtillon-sur-Indre","nomNormalise":"chatillonsurindre","typeCollectivite":"Commune","region":"Centre-Val de Loire","departement":"Indre","departementCode":"36","adresse":{"street":"50 rue Grande","postalCode":"36700","city":"Châtillon-sur-Indre","country":"France"},"contacts":{"email":"mairie@chatillon-sur-indre.fr","telephone":"0254387544"},"horaires":"Le Lundi : de 09h00 à 12h00\nDu Mardi au Vendredi : de 09h00 à 12h00 de 14h00 à 16h45","latitude":46.989708,"longitude":1.173482,"website":"https://www.chatillon-sur-indre.fr/","hasWebsite":true,"hasHoraires":true,"url":"https://lannuaire.service-public.gouv.fr/centre-val-de-loire/indre/081b678a-e9c7-4468-8c45-aed8575cd4fb"}
{"nom":"Chavin","nomNormalise":"chavin","typeCollectivite":"Commune","region":"Centre-Val de Loire","departement":"Indre","departementCode":"36","adresse":{"street":"5 rue du Commerce","postalCode":"36200","city":"Chavin","country":"France"},"contacts":{"email":"mairie.chavin@wanadoo.fr","telephone":"0254478301"},"horaires":"Du Lundi au Vendredi : de 09h00 à 12h30 de 13h30 à 17h00","latitude":46.5618,"longitude":1.61167,"website":"https://www.mairie-chavin.com/","hasWebsite":true,"hasHoraires":true,"url":"https://lannuaire.service-public.gouv.fr/centre-val-de-loire/indre/7b49cd78-67c1-4bd2-b212-3c8c3a865cff"}
{"nom":"Chazelet","nomNormalise":"chazelet","typeCollectivite":"Commune","region":"Centre-Val de Loire","departement":"Indre","departementCode":"36","adresse":{"street":"10 rue du Chêne-Vert","postalCode":"36170","city":"Chazelet","country":"France"},"contacts":{"email":"chazelet-mairie@wanadoo.fr","telephone":"0254255055"},"horaires":"Le Mardi : de 08h30 à 12h30 de 13h30 à 17h00\nLe Vendredi : de 08h30 à 12h30 de 13h30 à 17h00","latitude":46.508427,"longitude":1.441347,"website":"","hasWebsite":false,"hasHoraires":true,"url":"https://lannuaire.service-public.gouv.fr/centre-val-de-loire/indre/717c878c-dbfc-4d20-936e-27ab5c10bc76"}
{"nom":"Chezelles","nomNormalise":"chezelles","typeCollectivite":"Commune","region":"Centre-Val de Loire","departement":"Indre","departementCode":"36","adresse":{"street":"2B rue de l'Église","postalCode":"36500","city":"Chezelles","country":"France"},"contacts":{"email":"contact@mairie-chezelles.fr","telephone":"0254366609"},"horaires":"Du Lundi au Mardi : de 09h00 à 12h00 de 14h00 à 17h00\nLe Jeudi : de 14h00 à 17h00\nLe Vendredi : de 09h00 à 12h00 de 14h00 à 16h00","latitude":46.888435,"longitude":1.5769655,"website":"","hasWebsite":false,"hasHoraires":true,"url":"https://lannuaire.service-public.gouv.fr/centre-val-de-loire/indre/a03d00fe-3170-415b-bbf9-63ac6d2cefa0"}
{"nom":"Chitray","nomNormalise":"chitray","typeCollectivite":"Commune","region":"Centre-Val de Loire","departement":"Indre","departementCode":"36","adresse":{"street":"13 rue de la Mairie","postalCode":"36800","city":"Chitray","country":"France"},"contacts":{"email":"commune.chitray@wanadoo.fr","telephone":"0254471094"},"horaires":"Du Lundi au Vendredi : de 08h30 à 12h00","latitude":46.635723,"longitude":1.358215,"website":"","hasWebsite":false,"hasHoraires":true,"url":"https://lannuaire.service-public.gouv.fr/centre-val-de-loire/indre/d0069275-7d21-4740-be25-c816032f8968"}
{"nom":"Chouday","nomNormalise":"chouday","typeCollectivite":"Commune","region":"Centre-Val de Loire","departement":"Indre","departementCode":"36","adresse":{"street":"15 place de la Mairie","postalCode":"36100","city":"Chouday","country":"France"},"contacts":{"email":"mairie.chouday.36@wanadoo.fr","telephone":"0254211813"},"horaires":"Le Mardi : de 09h00 à 13h00\nLe Mercredi : de 09h00 à 12h00\nLe Vendredi : de 09h00 à 13h00","latitude":46.910366,"longitude":2.064768,"website":"http://www.chouday.fr/","hasWebsite":true,"hasHoraires":true,"url":"https://lannuaire.service-public.gouv.fr/centre-val-de-loire/indre/7f149546-0852-4833-8967-20c931da7aac"}
{"nom":"Ciron","nomNormalise":"ciron","typeCollectivite":"Commune","region":"Centre-Val de Loire","departement":"Indre","departementCode":"36","adresse":{"street":"51 route Nationale","postalCode":"36300","city":"Ciron","country":"France"},"contacts":{"email":"mairie@ciron.fr","telephone":"0254379592"},"horaires":"Le Lundi : de 14h00 à 17h15\nLe Mardi : de 10h00 à 12h00 de 14h00 à 17h15\nLe Mercredi : de 08h30 à 12h00\nLe Jeudi : de 10h00 à 12h00 de 14h00 à 17h15\nLe Vendredi : de 10h00 à 12h00 de 14h00 à 16h00\nLe Samedi : de 08h30 à 12h00","latitude":46.63082,"longitude":1.250521,"website":"https://www.ciron.fr/","hasWebsite":true,"hasHoraires":true,"url":"https://lannuaire.service-public.gouv.fr/centre-val-de-loire/indre/9cd5ebb6-5f64-4c65-9abc-a651c1872efe"}
{"nom":"Cléré-du-Bois","nomNormalise":"cleredubois","typeCollectivite":"Commune","region":"Centre-Val de Loire","departement":"Indre","departementCode":"36","adresse":{"street":"3 rue de l'Orée-du-Bois","postalCode":"36700","city":"Cléré-du-Bois","country":"France"},"contacts":{"email":"mairie.clere.du.bois@orange.fr","telephone":"0254387074"},"horaires":"Le Mardi : de 08h30 à 12h30 de 13h00 à 17h30\nLe Jeudi : de 08h30 à 12h30 de 13h00 à 17h30\nPendant les vacances scolaire, la mairie est également ouverture le mercredi et le vendredi de 8h30 à 12h30","latitude":46.98842,"longitude":1.173641,"website":"http://www.clere-du-bois.com/","hasWebsite":true,"hasHoraires":true,"url":"https://lannuaire.service-public.gouv.fr/centre-val-de-loire/indre/7ddf0173-bd6b-48f6-bae2-62205e8179ac"}
{"nom":"Clion","nomNormalise":"clion","typeCollectivite":"Commune","region":"Centre-Val de Loire","departement":"Indre","departementCode":"36","adresse":{"street":"2 place de la Mairie","postalCode":"36700","city":"Clion","country":"France"},"contacts":{"email":"mairie.clion-indre@orange.fr","telephone":"0254386427"},"horaires":"Du Lundi au Jeudi : de 09h00 à 12h00 de 14h00 à 17h30\nLe Vendredi : de 09h00 à 12h00 de 14h00 à 17h00","latitude":46.941544,"longitude":1.2327772,"website":"https://clion-sur-indre.fr/","hasWebsite":true,"hasHoraires":true,"url":"https://lannuaire.service-public.gouv.fr/centre-val-de-loire/indre/948f26c6-7c86-4c36-b04f-93f41351fbe3"}
{"nom":"Cluis","nomNormalise":"cluis","typeCollectivite":"Commune","region":"Centre-Val de Loire","departement":"Indre","departementCode":"36","adresse":{"street":"12 rue du Château","postalCode":"36340","city":"Cluis","country":"France"},"contacts":{"email":"mairie.cluis@wanadoo.fr","telephone":"0254312106"},"horaires":"Le Lundi : de 09h00 à 12h00\nDu Mardi au Mercredi : de 09h00 à 12h00 de 15h00 à 17h00\nLe Jeudi : de 09h00 à 12h00\nLe Vendredi : de 09h00 à 12h00 de 15h00 à 17h00\nLe Samedi : de 09h00 à 12h00","latitude":46.544,"longitude":1.75003,"website":"https://www.cluis.fr/","hasWebsite":true,"hasHoraires":true,"url":"https://lannuaire.service-public.gouv.fr/centre-val-de-loire/indre/7dddca3a-2346-4c6f-93ee-2d60063fcd83"}
{"nom":"Coings","nomNormalise":"coings","typeCollectivite":"Commune","region":"Centre-Val de Loire","departement":"Indre","departementCode":"36","adresse":{"street":"9 route de la Mairie","postalCode":"36130","city":"Coings","country":"France"},"contacts":{"email":"mairie-de-coings@orange.fr","telephone":"0254222739"},"horaires":"Le Lundi : de 13h30 à 18h00\nLe Mardi : de 13h30 à 17h30\nLe Mercredi : de 08h30 à 12h00\nLe Jeudi : de 13h30 à 17h30\nLe Vendredi : de 13h30 à 17h00","latitude":46.88629,"longitude":1.714718,"website":"https://coings.fr/","hasWebsite":true,"hasHoraires":true,"url":"https://lannuaire.service-public.gouv.fr/centre-val-de-loire/indre/eced0c95-5eea-4b56-8e2d-95bf09de3e79"}
{"nom":"Concremiers","nomNormalise":"concremiers","typeCollectivite":"Commune","region":"Centre-Val de Loire","departement":"Indre","departementCode":"36","adresse":{"street":"4 place des Combattants","postalCode":"36300","city":"Concremiers","country":"France"},"contacts":{"email":"concremiers-mairie@wanadoo.fr","telephone":"0254374080"},"horaires":"Du Lundi au Mardi : de 09h00 à 12h00 de 13h30 à 17h30\nLe Jeudi : de 09h00 à 12h00 de 13h30 à 17h30\nLe Vendredi : de 09h00 à 12h00 de 13h30 à 16h45\n\nFermeture à 16h50.","latitude":46.596832,"longitude":1.017344,"website":"","hasWebsite":false,"hasHoraires":true,"url":"https://lannuaire.service-public.gouv.fr/centre-val-de-loire/indre/5d8e4177-5ec7-4786-b3a8-71310b4718c3"}
{"nom":"Condé","nomNormalise":"conde","typeCollectivite":"Commune","region":"Centre-Val de Loire","departement":"Indre","departementCode":"36","adresse":{"street":"12 rue des Marronniers","postalCode":"36100","city":"Condé","country":"France"},"contacts":{"email":"mairie-conde@wanadoo.fr","telephone":"0254211754"},"horaires":"Le Lundi : de 09h00 à 12h00\nLe Mardi : de 13h30 à 18h00\nLe Jeudi : de 08h30 à 12h00 de 14h00 à 18h00\nLe Vendredi : de 13h30 à 17h00","latitude":46.878456,"longitude":1.9858332,"website":"","hasWebsite":false,"hasHoraires":true,"url":"https://lannuaire.service-public.gouv.fr/centre-val-de-loire/indre/62e4d7af-1c84-4a82-bd9a-39c2524d57f2"}
{"nom":"Crevant","nomNormalise":"crevant","typeCollectivite":"Commune","region":"Centre-Val de Loire","departement":"Indre","departementCode":"36","adresse":{"street":"4 route de la Châtre","postalCode":"36140","city":"Crevant","country":"France"},"contacts":{"email":"mairie@crevant.fr","telephone":"0254302077"},"horaires":"Le Lundi : de 08h30 à 12h00 de 13h30 à 17h00\nLe Mardi : de 08h30 à 12h00 de 13h30 à 17h30\nLe Mercredi : de 08h30 à 12h00\nLe Jeudi : de 08h30 à 12h00\nLe Vendredi : de 08h30 à 12h00 de 13h30 à 16h00\nLe Samedi : de 08h30 à 12h00","latitude":46.487183,"longitude":1.946282,"website":"https://www.crevant.fr/","hasWebsite":true,"hasHoraires":true,"url":"https://lannuaire.service-public.gouv.fr/centre-val-de-loire/indre/177ee29d-291e-403e-9512-f869fadabb56"}
{"nom":"Crozon-sur-Vauvre","nomNormalise":"crozonsurvauvre","typeCollectivite":"Commune","region":"Centre-Val de Loire","departement":"Indre","departementCode":"36","adresse":{"street":"7 rue Principale","postalCode":"36140","city":"Crozon-sur-Vauvre","country":"France"},"contacts":{"email":"mairie@crozonsurvauvre.fr","telephone":"0254307117"},"horaires":"Le Lundi : de 08h00 à 12h00 de 13h30 à 16h30\nLe Mardi : de 08h00 à 12h00\nLe Jeudi : de 08h00 à 12h00\nLe Vendredi : de 08h00 à 12h00 de 13h30 à 16h30","latitude":46.48919,"longitude":1.870507,"website":"https://www.crozonsurvauvre.fr/","hasWebsite":true,"hasHoraires":true,"url":"https://lannuaire.service-public.gouv.fr/centre-val-de-loire/indre/4545e4f1-68cc-4ca8-a7fa-161832bf37d3"}
{"nom":"Cuzion","nomNormalise":"cuzion","typeCollectivite":"Commune","region":"Centre-Val de Loire","departement":"Indre","departementCode":"36","adresse":{"street":"35 rue du Pré-Brétory","postalCode":"36190","city":"Cuzion","country":"France"},"contacts":{"email":"mairiedecuzion@orange.fr","telephone":"0254472451"},"horaires":"Le Lundi : de 09h00 à 12h00\nLe Mardi : de 09h00 à 12h00 de 14h00 à 17h00\nLe Mercredi : de 09h00 à 12h00\nLe Jeudi : de 09h00 à 12h00 de 14h00 à 17h00\nLe Vendredi : de 09h00 à 12h00","latitude":46.478394,"longitude":1.6086,"website":"https://cuzion.fr/","hasWebsite":true,"hasHoraires":true,"url":"https://lannuaire.service-public.gouv.fr/centre-val-de-loire/indre/8950e7a4-274a-4350-ae02-8c19d67ce238"}
{"nom":"Déols","nomNormalise":"deols","typeCollectivite":"Commune","region":"Centre-Val de Loire","departement":"Indre","departementCode":"36","adresse":{"street":"2 avenue du Général-de-Gaulle","postalCode":"36130","city":"Déols","country":"France"},"contacts":{"email":"le.maire@ville-deols.fr","telephone":"0254341914"},"horaires":"Du Lundi au Jeudi : de 08h30 à 12h00 de 13h30 à 17h30\nLe Vendredi : de 08h30 à 12h00 de 13h30 à 16h00","latitude":46.825905,"longitude":1.700723,"website":"http://www.ville-deols.fr/","hasWebsite":true,"hasHoraires":true,"url":"https://lannuaire.service-public.gouv.fr/centre-val-de-loire/indre/c695ee9b-d79d-41ed-a042-49cc5ae84e0f"}
{"nom":"Diors","nomNormalise":"diors","typeCollectivite":"Commune","region":"Centre-Val de Loire","departement":"Indre","departementCode":"36","adresse":{"street":"2 rue des Écoles","postalCode":"36130","city":"Diors","country":"France"},"contacts":{"email":"mairie.diors@wanadoo.fr","telephone":"0254260161"},"horaires":"Le Lundi : de 10h00 à 12h00 de 13h30 à 17h30\nLe Mardi : de 13h30 à 17h30\nLe Mercredi : de 10h00 à 12h00 de 13h30 à 17h30\nLe Vendredi : de 10h00 à 12h00 de 13h30 à 17h30","latitude":46.8262,"longitude":1.80973,"website":"http://www.commune-diors.fr/","hasWebsite":true,"hasHoraires":true,"url":"https://lannuaire.service-public.gouv.fr/centre-val-de-loire/indre/7724b64e-157e-4971-b844-e68fff26a29b"}
{"nom":"Diou","nomNormalise":"diou","typeCollectivite":"Commune","region":"Centre-Val de Loire","departement":"Indre","departementCode":"36","adresse":{"street":"302 place François-Brûlé","postalCode":"36260","city":"Diou","country":"France"},"contacts":{"email":"accueil@mairiediou36.fr","telephone":"0254492358"},"horaires":"Du Lundi au Mardi : de 09h00 à 17h00\nDu Jeudi au Vendredi : de 09h00 à 17h00\nLe Samedi : de 11h00 à 12h00","latitude":47.046192,"longitude":2.026806,"website":"","hasWebsite":false,"hasHoraires":true,"url":"https://lannuaire.service-public.gouv.fr/centre-val-de-loire/indre/5fb31d5e-ced4-42e5-a52f-19810fcda73a"}
{"nom":"Douadic","nomNormalise":"douadic","typeCollectivite":"Commune","region":"Centre-Val de Loire","departement":"Indre","departementCode":"36","adresse":{"street":"1 place de la Mairie","postalCode":"36300","city":"Douadic","country":"France"},"contacts":{"email":"mairie@douadic.fr","telephone":"0254371192"},"horaires":"Le Lundi : de 09h00 à 12h00\nLe Mardi : de 09h00 à 12h00\nLe Mercredi : de 09h00 à 12h00 de 14h00 à 17h30\nDu Jeudi au Vendredi : de 09h00 à 12h00","latitude":46.704624,"longitude":1.1119606,"website":"https://douadic.fr/","hasWebsite":true,"hasHoraires":true,"url":"https://lannuaire.service-public.gouv.fr/centre-val-de-loire/indre/dc162079-801e-44c7-8914-dcbeb1584fd6"}
{"nom":"Dunet","nomNormalise":"dunet","typeCollectivite":"Commune","region":"Centre-Val de Loire","departement":"Indre","departementCode":"36","adresse":{"street":"Le Bourg","postalCode":"36310","city":"Dunet","country":"France"},"contacts":{"email":"mairie.dunet@orange.fr","telephone":"0254257101"},"horaires":"Le Lundi : de 14h00 à 17h00\nLe Mardi : de 09h00 à 12h00\nDu Mercredi au Jeudi : de 14h00 à 17h00\nLe Vendredi : de 09h00 à 12h00","latitude":46.435543,"longitude":1.299559,"website":"","hasWebsite":false,"hasHoraires":true,"url":"https://lannuaire.service-public.gouv.fr/centre-val-de-loire/indre/5ed99a80-1eab-4ecd-913f-c80b94c9ba29"}
{"nom":"Dun-le-Poëlier","nomNormalise":"dunlepoelier","typeCollectivite":"Commune","region":"Centre-Val de Loire","departement":"Indre","departementCode":"36","adresse":{"street":"1 place de la Mairie","postalCode":"36210","city":"Dun-le-Poëlier","country":"France"},"contacts":{"email":"dun-le-poelier.mairie@wanadoo.fr","telephone":"0254406147"},"horaires":"Du Lundi au Mardi : de 09h00 à 12h00\nLe Mercredi : de 09h00 à 12h00 de 13h30 à 16h00\nLe Jeudi : de 09h00 à 12h00\nLe Vendredi : de 09h00 à 12h00 de 13h30 à 16h00","latitude":47.203495,"longitude":1.7532973,"website":"","hasWebsite":false,"hasHoraires":true,"url":"https://lannuaire.service-public.gouv.fr/centre-val-de-loire/indre/5507da32-86b8-48bc-af80-41111daf303b"}
{"nom":"Écueillé","nomNormalise":"ecueille","typeCollectivite":"Commune","region":"Centre-Val de Loire","departement":"Indre","departementCode":"36","adresse":{"street":"Place du 8e-Cuirassiers","postalCode":"36240","city":"Écueillé","country":"France"},"contacts":{"email":"mairie.ecueille@wanadoo.fr","telephone":"0254402110"},"horaires":"Du Lundi au Vendredi : de 09h00 à 12h00 de 14h00 à 16h00","latitude":47.084457,"longitude":1.34561,"website":"http://www.ecueille.fr/","hasWebsite":true,"hasHoraires":true,"url":"https://lannuaire.service-public.gouv.fr/centre-val-de-loire/indre/ff199165-1005-45b7-9319-24f75199bfbf"}
{"nom":"Éguzon-Chantôme","nomNormalise":"eguzonchantome","typeCollectivite":"Commune","region":"Centre-Val de Loire","departement":"Indre","departementCode":"36","adresse":{"street":"2 rue de la Gare","postalCode":"36270","city":"Éguzon-Chantôme","country":"France"},"contacts":{"email":"mairie.eguzon-chantome@orange.fr","telephone":"0254474304"},"horaires":"Le Lundi : de 09h00 à 12h00\nLe Mardi : de 09h00 à 12h00 de 14h00 à 17h00\nLe Mercredi : de 09h00 à 12h00\nDu Jeudi au Vendredi : de 09h00 à 12h00 de 14h00 à 17h00\nLe Samedi : de 09h00 à 12h00","latitude":46.4425,"longitude":1.58264,"website":"","hasWebsite":false,"hasHoraires":true,"url":"https://lannuaire.service-public.gouv.fr/centre-val-de-loire/indre/255f5cc8-3735-4e49-a9d7-552c90533b72"}
{"nom":"Étrechet","nomNormalise":"etrechet","typeCollectivite":"Commune","region":"Centre-Val de Loire","departement":"Indre","departementCode":"36","adresse":{"street":"Rue Sully","postalCode":"36120","city":"Étrechet","country":"France"},"contacts":{"email":"mairie.etrechet@wanadoo.fr","telephone":"0254269817"},"horaires":"","latitude":46.7779,"longitude":1.78438,"website":"https://www.mairie-etrechet.fr/","hasWebsite":true,"hasHoraires":false,"url":"https://lannuaire.service-public.gouv.fr/centre-val-de-loire/indre/9852abd5-c4f4-4e7b-9ffd-52d143ef5047"}
{"nom":"Mairie déléguée - Faverolles-en-Berry","nomNormalise":"mairiedelegueefaverollesenberry","typeCollectivite":"Commune","region":"Centre-Val de Loire","departement":"Indre","departementCode":"36","adresse":{"street":"Faverolles-en-Berry","postalCode":"36360","city":"Villentrois-Faverolles-en-Berry","country":"France"},"contacts":{"email":"villentroisfaverolles@orange.fr","telephone":"0254404211"},"horaires":"Du Mardi au Vendredi : de 09h00 à 12h15","latitude":47.171143,"longitude":1.410464,"website":"https://www.villentrois-faverollesenberry.fr/","hasWebsite":true,"hasHoraires":true,"url":"https://lannuaire.service-public.gouv.fr/centre-val-de-loire/indre/51d0546b-1488-4875-8377-238024098dc3"}
{"nom":"Feusines","nomNormalise":"feusines","typeCollectivite":"Commune","region":"Centre-Val de Loire","departement":"Indre","departementCode":"36","adresse":{"street":"2 place Pierre-Autissier","postalCode":"36160","city":"Feusines","country":"France"},"contacts":{"email":"mairie-feusines@orange.fr","telephone":"0254314342"},"horaires":"Le Mardi : de 09h00 à 12h00\nDu Jeudi au Vendredi : de 09h00 à 12h00","latitude":46.52267,"longitude":2.101889,"website":"","hasWebsite":false,"hasHoraires":true,"url":"https://lannuaire.service-public.gouv.fr/centre-val-de-loire/indre/fa54233a-59e4-4b1f-9869-b012e09ac9fa"}
{"nom":"Fléré-la-Rivière","nomNormalise":"flerelariviere","typeCollectivite":"Commune","region":"Centre-Val de Loire","departement":"Indre","departementCode":"36","adresse":{"street":"2 rue Nationale","postalCode":"36700","city":"Fléré-la-Rivière","country":"France"},"contacts":{"email":"mairie@flerelariviere.fr","telephone":"0254393101"},"horaires":"Du Lundi au Mardi : de 09h00 à 12h00 de 14h00 à 17h00\nDu Jeudi au Vendredi : de 09h00 à 12h00 de 14h00 à 17h00","latitude":47.020374,"longitude":1.107175,"website":"https://www.flerelariviere.fr/","hasWebsite":true,"hasHoraires":true,"url":"https://lannuaire.service-public.gouv.fr/centre-val-de-loire/indre/72cb568d-1fc7-43b0-a4f3-9231f116d0ee"}
{"nom":"Fontenay","nomNormalise":"fontenay","typeCollectivite":"Commune","region":"Centre-Val de Loire","departement":"Indre","departementCode":"36","adresse":{"street":"4 le Bourg","postalCode":"36150","city":"Fontenay","country":"France"},"contacts":{"email":"mairie-fontenay@wanadoo.fr","telephone":"0254497393"},"horaires":"Du Lundi au Mercredi : de 08h00 à 12h00\nLe Vendredi : de 08h00 à 12h00","latitude":47.059566,"longitude":1.745324,"website":"","hasWebsite":false,"hasHoraires":true,"url":"https://lannuaire.service-public.gouv.fr/centre-val-de-loire/indre/3a4262b9-194c-49d6-9a1f-5299c79ad1e1"}
{"nom":"Fontgombault","nomNormalise":"fontgombault","typeCollectivite":"Commune","region":"Centre-Val de Loire","departement":"Indre","departementCode":"36","adresse":{"street":"36 rue de l'Abbaye","postalCode":"36220","city":"Fontgombault","country":"France"},"contacts":{"email":"fontgombault-mairie@orange.fr","telephone":"0254371045"},"horaires":"Du Lundi au Jeudi : de 13h00 à 18h00","latitude":46.6751,"longitude":0.983431,"website":"http://www.fontgombault.com/","hasWebsite":true,"hasHoraires":true,"url":"https://lannuaire.service-public.gouv.fr/centre-val-de-loire/indre/2100ca18-f4b8-4c9b-af62-10e10f6dca07"}
{"nom":"Fontguenand","nomNormalise":"fontguenand","typeCollectivite":"Commune","region":"Centre-Val de Loire","departement":"Indre","departementCode":"36","adresse":{"street":"19 rue Principale","postalCode":"36600","city":"Fontguenand","country":"France"},"contacts":{"email":"mairie.fontguenand@wanadoo.fr","telephone":"0254001388"},"horaires":"Le Lundi : de 09h30 à 12h30\nLe Mardi : de 13h00 à 17h00\nDu Jeudi au Vendredi : de 09h30 à 12h30","latitude":47.21944,"longitude":1.537077,"website":"https://www.fontguenand.fr/","hasWebsite":true,"hasHoraires":true,"url":"https://lannuaire.service-public.gouv.fr/centre-val-de-loire/indre/c26380a1-0c97-4a4d-b8c4-0d0b7d81344b"}
{"nom":"Fougerolles","nomNormalise":"fougerolles","typeCollectivite":"Commune","region":"Centre-Val de Loire","departement":"Indre","departementCode":"36","adresse":{"street":"5 place de la Mairie","postalCode":"36230","city":"Fougerolles","country":"France"},"contacts":{"email":"mairiefougerolles@orange.fr","telephone":"0254313055"},"horaires":"Du Lundi au Vendredi : de 08h00 à 12h00\nLe Vendredi : de 14h00 à 16h30","latitude":46.56328,"longitude":1.8646542,"website":"https://fougerolles36.fr/","hasWebsite":true,"hasHoraires":true,"url":"https://lannuaire.service-public.gouv.fr/centre-val-de-loire/indre/d4050804-2325-4edb-b9c8-cd34f71ba57d"}
{"nom":"Francillon","nomNormalise":"francillon","typeCollectivite":"Commune","region":"Centre-Val de Loire","departement":"Indre","departementCode":"36","adresse":{"street":"12 rue du Muguet","postalCode":"36110","city":"Francillon","country":"France"},"contacts":{"email":"mairie-francillon@wanadoo.fr","telephone":"0254356024"},"horaires":"Le Mercredi : de 09h00 à 16h30","latitude":46.941048,"longitude":1.561889,"website":"","hasWebsite":false,"hasHoraires":true,"url":"https://lannuaire.service-public.gouv.fr/centre-val-de-loire/indre/151c6472-4e2e-49d0-a89d-2fef1638a218"}
{"nom":"Frédille","nomNormalise":"fredille","typeCollectivite":"Commune","region":"Centre-Val de Loire","departement":"Indre","departementCode":"36","adresse":{"street":"3 route de Pellevoisin","postalCode":"36180","city":"Frédille","country":"France"},"contacts":{"email":"mairie.fredille@wanadoo.fr","telephone":"0254356252"},"horaires":"Du Lundi au Mardi : de 09h00 à 12h00 de 14h00 à 16h00\nLe Mercredi : de 08h00 à 12h30 de 13h30 à 16h30\nLe Jeudi : de 09h00 à 12h00 de 14h00 à 16h00\nLe Vendredi : de 08h00 à 12h30 de 13h30 à 16h30","latitude":47.001595,"longitude":1.479858,"website":"","hasWebsite":false,"hasHoraires":true,"url":"https://lannuaire.service-public.gouv.fr/centre-val-de-loire/indre/7d8b93c6-10b8-43b9-baa8-771c71584415"}
{"nom":"Gargilesse-Dampierre","nomNormalise":"gargilessedampierre","typeCollectivite":"Commune","region":"Centre-Val de Loire","departement":"Indre","departementCode":"36","adresse":{"street":"1 place Fernand-Baudat","postalCode":"36190","city":"Gargilesse-Dampierre","country":"France"},"contacts":{"email":"mairie.gargilesse-dampierre@wanadoo.fr","telephone":"0254478311"},"horaires":"Du Lundi au Mardi : de 09h00 à 12h30 de 14h00 à 17h30\nLe Mercredi : de 09h00 à 12h30\nDu Jeudi au Vendredi : de 09h00 à 12h30 de 14h00 à 17h30\n\nUniquement par téléphone les vendredis après-midi.\nLe Samedi : de 09h00 à 12h30","latitude":46.51289,"longitude":1.595348,"website":"https://gargilesse.fr/","hasWebsite":true,"hasHoraires":true,"url":"https://lannuaire.service-public.gouv.fr/centre-val-de-loire/indre/340ea443-2b62-43a5-a3be-19d132e97d65"}
{"nom":"Géhée","nomNormalise":"gehee","typeCollectivite":"Commune","region":"Centre-Val de Loire","departement":"Indre","departementCode":"36","adresse":{"street":"4 route de Valençay","postalCode":"36240","city":"Géhée","country":"France"},"contacts":{"email":"mairie.gehee@wanadoo.fr","telephone":"0254408207"},"horaires":"Du Lundi au Mardi : de 13h30 à 17h00\nLe Jeudi : de 13h30 à 17h00","latitude":47.0477,"longitude":1.502288,"website":"","hasWebsite":false,"hasHoraires":true,"url":"https://lannuaire.service-public.gouv.fr/centre-val-de-loire/indre/12bdf8fe-8d78-4c74-9b8c-5fca13a8fcf2"}
{"nom":"Giroux","nomNormalise":"giroux","typeCollectivite":"Commune","region":"Centre-Val de Loire","departement":"Indre","departementCode":"36","adresse":{"street":"8 route de Graçay","postalCode":"36150","city":"Giroux","country":"France"},"contacts":{"email":"mairie.giroux@wanadoo.fr","telephone":"0254497382"},"horaires":"Le Lundi : de 13h30 à 17h30\nLe Mercredi : de 13h30 à 17h30\nLe Jeudi : de 08h00 à 12h00\nLe Vendredi : de 13h30 à 16h30","latitude":47.068024,"longitude":1.90872,"website":"","hasWebsite":false,"hasHoraires":true,"url":"https://lannuaire.service-public.gouv.fr/centre-val-de-loire/indre/df6c381a-e792-4f87-a740-7192b63b2b2f"}
{"nom":"Gournay","nomNormalise":"gournay","typeCollectivite":"Commune","region":"Centre-Val de Loire","departement":"Indre","departementCode":"36","adresse":{"street":"1 rue de la Chapelle","postalCode":"36230","city":"Gournay","country":"France"},"contacts":{"email":"contact@mairie-gournay.com","telephone":"0254308411"},"horaires":"Du Lundi au Mardi : de 09h00 à 12h00 de 14h00 à 17h00\nLe Jeudi : de 09h00 à 12h00 de 14h00 à 17h00\nLe Vendredi : de 09h00 à 12h00","latitude":46.58243,"longitude":1.7305899,"website":"https://www.mairie-gournay.com/","hasWebsite":true,"hasHoraires":true,"url":"https://lannuaire.service-public.gouv.fr/centre-val-de-loire/indre/6d6b0a2e-a633-424a-9aa3-de566d44d48b"}
{"nom":"Guilly","nomNormalise":"guilly","typeCollectivite":"Commune","region":"Centre-Val de Loire","departement":"Indre","departementCode":"36","adresse":{"street":"4 place Ferdinand-de-Lesseps","postalCode":"36150","city":"Guilly","country":"France"},"contacts":{"email":"mairieguilly36@orange.fr","telephone":"0254497485"},"horaires":"Le Lundi : de 09h00 à 12h30 de 13h15 à 16h45\nLe Mercredi : de 09h00 à 12h30 de 13h15 à 16h45\nLe Vendredi : de 09h00 à 12h30","latitude":47.081894,"longitude":1.7257286,"website":"","hasWebsite":false,"hasHoraires":true,"url":"https://lannuaire.service-public.gouv.fr/centre-val-de-loire/indre/10bcecc7-f17d-416a-8d4c-4cd46e8664d4"}
{"nom":"Heugnes","nomNormalise":"heugnes","typeCollectivite":"Commune","region":"Centre-Val de Loire","departement":"Indre","departementCode":"36","adresse":{"street":"1 route d'Écueillé","postalCode":"36180","city":"Heugnes","country":"France"},"contacts":{"email":"mairie.heugnes@wanadoo.fr","telephone":"0254390185"},"horaires":"Du Mardi au Samedi : de 09h00 à 12h00","latitude":47.01189,"longitude":1.408601,"website":"https://heugnes.fr/","hasWebsite":true,"hasHoraires":true,"url":"https://lannuaire.service-public.gouv.fr/centre-val-de-loire/indre/d7b4542a-94e2-4bf2-a2cf-71523824b3cc"}
{"nom":"Ingrandes","nomNormalise":"ingrandes","typeCollectivite":"Commune","region":"Centre-Val de Loire","departement":"Indre","departementCode":"36","adresse":{"street":"3 route Nationale","postalCode":"36300","city":"Ingrandes","country":"France"},"contacts":{"email":"ingrandes-mairie@wanadoo.fr","telephone":"0254374211"},"horaires":"Du Lundi au Vendredi : de 08h30 à 13h30","latitude":46.597546,"longitude":0.964066,"website":"","hasWebsite":false,"hasHoraires":true,"url":"https://lannuaire.service-public.gouv.fr/centre-val-de-loire/indre/4ee8a05a-da3e-48f0-8531-b80d5f322114"}
{"nom":"Issoudun","nomNormalise":"issoudun","typeCollectivite":"Commune","region":"Centre-Val de Loire","departement":"Indre","departementCode":"36","adresse":{"street":"Place des Droits-de-l'Homme","postalCode":"36100","city":"Issoudun","country":"France"},"contacts":{"email":"mairie@issoudun.fr","telephone":"0254033636"},"horaires":"Le Lundi : de 13h30 à 18h00\nDu Mardi au Vendredi : de 08h30 à 12h00 de 13h30 à 18h00\nLe Samedi : de 08h30 à 12h00","latitude":46.949596,"longitude":1.994483,"website":"https://www.issoudun.fr/","hasWebsite":true,"hasHoraires":true,"url":"https://lannuaire.service-public.gouv.fr/centre-val-de-loire/indre/b16446d9-f7ee-441c-9286-a616008260c9"}
{"nom":"Jeu-les-Bois","nomNormalise":"jeulesbois","typeCollectivite":"Commune","region":"Centre-Val de Loire","departement":"Indre","departementCode":"36","adresse":{"street":"1 place Bellevue","postalCode":"36120","city":"Jeu-les-Bois","country":"France"},"contacts":{"email":"mairie.jeu-les-bois@wanadoo.fr","telephone":"0254362165"},"horaires":"Du Lundi au Mardi : de 08h30 à 12h30 de 14h00 à 17h45\nLe Mercredi : de 08h30 à 12h30\nDu Jeudi au Vendredi : de 08h30 à 12h30 de 14h00 à 17h45","latitude":46.6736,"longitude":1.79573,"website":"http://www.jeu-les-bois.fr/","hasWebsite":true,"hasHoraires":true,"url":"https://lannuaire.service-public.gouv.fr/centre-val-de-loire/indre/65ef02ec-f364-45e0-b32b-e1b00cff9a2f"}
{"nom":"Jeu-Maloches","nomNormalise":"jeumaloches","typeCollectivite":"Commune","region":"Centre-Val de Loire","departement":"Indre","departementCode":"36","adresse":{"street":"5 route de Levroux","postalCode":"36240","city":"Jeu-Maloches","country":"France"},"contacts":{"email":"mairie.jeu-maloches@wanadoo.fr","telephone":"0254408345"},"horaires":"Du Lundi au Mardi : de 08h00 à 12h30 de 13h30 à 16h30\nLe Jeudi : de 08h00 à 12h30 de 13h30 à 15h50","latitude":47.03756,"longitude":1.458206,"website":"","hasWebsite":false,"hasHoraires":true,"url":"https://lannuaire.service-public.gouv.fr/centre-val-de-loire/indre/a79565e0-2ab1-471c-b953-88d6af3d4c18"}
{"nom":"La Berthenoux","nomNormalise":"laberthenoux","typeCollectivite":"Commune","region":"Centre-Val de Loire","departement":"Indre","departementCode":"36","adresse":{"street":"15 rue de la Mairie","postalCode":"36400","city":"La Berthenoux","country":"France"},"contacts":{"email":"mairie-la-berthenoux@orange.fr","telephone":"0254300185"},"horaires":"Le Lundi : de 09h00 à 12h00 de 14h00 à 18h00\nLe Mardi : de 14h00 à 18h00\nLe Jeudi : de 14h00 à 18h00\nLe Vendredi : de 09h00 à 12h00 de 14h00 à 18h00","latitude":46.66115,"longitude":2.061659,"website":"https://www.mairie-la-berthenoux.fr/","hasWebsite":true,"hasHoraires":true,"url":"https://lannuaire.service-public.gouv.fr/centre-val-de-loire/indre/34a04032-96f6-46f2-9bf1-11c4777f926c"}
{"nom":"La Buxerette","nomNormalise":"labuxerette","typeCollectivite":"Commune","region":"Centre-Val de Loire","departement":"Indre","departementCode":"36","adresse":{"street":"1 rue du Buis","postalCode":"36140","city":"La Buxerette","country":"France"},"contacts":{"email":"mairie.la-buxerette@wanadoo.fr","telephone":"0254307275"},"horaires":"Le Lundi : de 14h00 à 18h00\nLe Mardi : de 08h00 à 12h00 de 14h00 à 18h00\nLe Jeudi : de 08h00 à 12h00 de 14h00 à 18h00","latitude":46.495506,"longitude":1.804104,"website":"","hasWebsite":false,"hasHoraires":true,"url":"https://lannuaire.service-public.gouv.fr/centre-val-de-loire/indre/501eeee0-a50a-489c-baf3-f48beedfdb08"}
{"nom":"La Champenoise","nomNormalise":"lachampenoise","typeCollectivite":"Commune","region":"Centre-Val de Loire","departement":"Indre","departementCode":"36","adresse":{"street":"22 rue de la Mairie","postalCode":"36100","city":"La Champenoise","country":"France"},"contacts":{"email":"mairie-la-champenoise@orange.fr","telephone":"0254356900"},"horaires":"Du Lundi au Mardi : de 08h30 à 12h30 de 13h00 à 17h00\nLe Jeudi : de 08h30 à 12h30 de 13h00 à 17h00\nLe Vendredi : de 08h30 à 12h30","latitude":46.941456,"longitude":1.80227,"website":"","hasWebsite":false,"hasHoraires":true,"url":"https://lannuaire.service-public.gouv.fr/centre-val-de-loire/indre/0e622e7d-adfc-40dc-9476-31a2a95584e8"}
{"nom":"La Chapelle-Orthemale","nomNormalise":"lachapelleorthemale","typeCollectivite":"Commune","region":"Centre-Val de Loire","departement":"Indre","departementCode":"36","adresse":{"street":"2 route de Neuillay-les-Bois","postalCode":"36500","city":"La Chapelle-Orthemale","country":"France"},"contacts":{"email":"chapelleorthemale.mairie@wanadoo.fr","telephone":"0254842106"},"horaires":"Du Mardi au Jeudi : de 09h00 à 12h30 de 13h15 à 16h45\nLe Vendredi : de 14h00 à 17h30","latitude":46.843014,"longitude":1.452035,"website":"https://lachapelleorthemale.jimdofree.com/","hasWebsite":true,"hasHoraires":true,"url":"https://lannuaire.service-public.gouv.fr/centre-val-de-loire/indre/d33279ac-04b1-4215-a595-9794a33672d3"}
{"nom":"La Chapelle-Saint-Laurian","nomNormalise":"lachapellesaintlaurian","typeCollectivite":"Commune","region":"Centre-Val de Loire","departement":"Indre","departementCode":"36","adresse":{"street":"1 place de la Mairie","postalCode":"36150","city":"La Chapelle-Saint-Laurian","country":"France"},"contacts":{"email":"mairie.lachapellesaintlaurian@wanadoo.fr","telephone":"0254497102"},"horaires":"Du Lundi au Mardi : de 13h00 à 17h30\nLe Jeudi : de 13h00 à 17h30\nLe Vendredi : de 13h00 à 16h00","latitude":47.062054,"longitude":1.782135,"website":"","hasWebsite":false,"hasHoraires":true,"url":"https://lannuaire.service-public.gouv.fr/centre-val-de-loire/indre/5baf9ccc-09e9-488f-b07d-f9368bb8a8d8"}
{"nom":"La Châtre","nomNormalise":"lachatre","typeCollectivite":"Commune","region":"Centre-Val de Loire","departement":"Indre","departementCode":"36","adresse":{"street":"Place de l'Hôtel-de-Ville","postalCode":"36400","city":"La Châtre","country":"France"},"contacts":{"email":"contact@mairie-lachatre.fr","telephone":"0254062606"},"horaires":"Du Lundi au Jeudi : de 08h00 à 12h00 de 13h30 à 17h30\nLe Vendredi : de 08h00 à 12h00 de 13h30 à 16h30","latitude":46.5816,"longitude":1.98651,"website":"https://www.lachatre.fr/","hasWebsite":true,"hasHoraires":true,"url":"https://lannuaire.service-public.gouv.fr/centre-val-de-loire/indre/411b0873-4f5e-47b3-b882-e892aa4a48bc"}
{"nom":"La Châtre-Langlin","nomNormalise":"lachatrelanglin","typeCollectivite":"Commune","region":"Centre-Val de Loire","departement":"Indre","departementCode":"36","adresse":{"street":"7 route de la Marche","postalCode":"36170","city":"La Châtre-Langlin","country":"France"},"contacts":{"email":"secretariat@la-chatre-langlin.fr","telephone":"0254475401"},"horaires":"Le Lundi : de 08h30 à 12h00 de 14h00 à 17h00\nLe Mardi : de 08h30 à 12h00\nLe Mercredi : de 08h30 à 12h00 de 14h00 à 17h00\nLe Vendredi : de 08h30 à 12h00 de 14h00 à 17h00","latitude":46.411247,"longitude":1.3919628,"website":"https://la-chatre-langlin.fr/","hasWebsite":true,"hasHoraires":true,"url":"https://lannuaire.service-public.gouv.fr/centre-val-de-loire/indre/0b96bd91-a95a-4ddc-8bea-a0f74507de90"}
{"nom":"Lacs","nomNormalise":"lacs","typeCollectivite":"Commune","region":"Centre-Val de Loire","departement":"Indre","departementCode":"36","adresse":{"street":"52 rue Henri-Prieuré","postalCode":"36400","city":"Lacs","country":"France"},"contacts":{"email":"mairie.de.lacs.36@orange.fr","telephone":"0254481004"},"horaires":"Du Lundi au Mardi : de 09h00 à 12h00 de 14h00 à 17h00\nLe Mercredi : de 09h00 à 12h00\nDu Jeudi au Vendredi : de 09h00 à 12h00 de 14h00 à 17h00\nLe Samedi : de 09h00 à 12h00","latitude":46.58601,"longitude":2.022295,"website":"http://www.site-commune-de-lacs.fr/","hasWebsite":true,"hasHoraires":true,"url":"https://lannuaire.service-public.gouv.fr/centre-val-de-loire/indre/b7d019cf-38ad-4af4-a4b3-4d9fa8930401"}
{"nom":"La Motte-Feuilly","nomNormalise":"lamottefeuilly","typeCollectivite":"Commune","region":"Centre-Val de Loire","departement":"Indre","departementCode":"36","adresse":{"street":"Le Bourg","postalCode":"36160","city":"La Motte-Feuilly","country":"France"},"contacts":{"email":"mairie.lamottefeuilly@wanadoo.fr","telephone":"0254314187"},"horaires":"Le Mardi : de 14h00 à 17h00\nLe Vendredi : de 09h00 à 12h00","latitude":46.543648,"longitude":2.088031,"website":"","hasWebsite":false,"hasHoraires":true,"url":"https://lannuaire.service-public.gouv.fr/centre-val-de-loire/indre/5fab99fa-ceba-4bd6-be24-15a487e5025c"}
{"nom":"Langé","nomNormalise":"lange","typeCollectivite":"Commune","region":"Centre-Val de Loire","departement":"Indre","departementCode":"36","adresse":{"street":"8 rue de la Mairie","postalCode":"36600","city":"Langé","country":"France"},"contacts":{"email":"mairie.lange@wanadoo.fr","telephone":"0254408009"},"horaires":"Le Lundi : de 09h00 à 12h00 de 14h00 à 18h00\nLe Mardi : de 09h00 à 12h00 de 14h00 à 17h00\nLe Mercredi : de 09h00 à 12h00\nLe Jeudi : de 14h00 à 18h00\nLe Vendredi : de 09h00 à 12h00 de 14h00 à 18h00","latitude":47.072845,"longitude":1.513407,"website":"http://www.mairie-lange.fr/","hasWebsite":true,"hasHoraires":true,"url":"https://lannuaire.service-public.gouv.fr/centre-val-de-loire/indre/5167c87b-8740-4808-b7d9-335226ae7b1e"}
{"nom":"La Pérouille","nomNormalise":"laperouille","typeCollectivite":"Commune","region":"Centre-Val de Loire","departement":"Indre","departementCode":"36","adresse":{"street":"25 le Bourg","postalCode":"36350","city":"La Pérouille","country":"France"},"contacts":{"email":"laperouille-mairie@wanadoo.fr","telephone":"0254361260"},"horaires":"Du Lundi au Mardi : de 08h30 à 12h30 de 15h00 à 17h30\nLe Jeudi : de 08h30 à 12h30 de 15h00 à 17h30\nLe Vendredi : de 08h30 à 12h30 de 15h00 à 17h00","latitude":46.70399,"longitude":1.515926,"website":"","hasWebsite":false,"hasHoraires":true,"url":"https://lannuaire.service-public.gouv.fr/centre-val-de-loire/indre/615d3efe-335d-49bd-9a3a-38f7d4eac964"}
{"nom":"La Vernelle","nomNormalise":"lavernelle","typeCollectivite":"Commune","region":"Centre-Val de Loire","departement":"Indre","departementCode":"36","adresse":{"street":"50 route de Valençay","postalCode":"36600","city":"La Vernelle","country":"France"},"contacts":{"email":"accueil@mairielavernelle.fr","telephone":"0254975864"},"horaires":"Le Lundi : de 14h00 à 17h00\nDu Mardi au Jeudi : de 09h00 à 12h00\nLe Vendredi : de 14h00 à 17h00\nLe Samedi : de 09h00 à 12h00","latitude":47.247814,"longitude":1.5423851,"website":"","hasWebsite":false,"hasHoraires":true,"url":"https://lannuaire.service-public.gouv.fr/centre-val-de-loire/indre/fec69530-14d3-492f-9a11-677704d6b8b1"}
{"nom":"Le Blanc","nomNormalise":"leblanc","typeCollectivite":"Commune","region":"Centre-Val de Loire","departement":"Indre","departementCode":"36","adresse":{"street":"Place René-Thimel","postalCode":"36300","city":"Le Blanc","country":"France"},"contacts":{"email":"mairie@ville-leblanc.fr","telephone":"0254283636"},"horaires":"Le Lundi : de 08h30 à 17h30\nLe Mardi : de 08h30 à 12h00 de 13h30 à 17h00\nLe Mercredi : de 08h30 à 17h00\nDu Jeudi au Vendredi : de 08h30 à 12h00 de 13h30 à 17h00","latitude":46.6331,"longitude":1.06419,"website":"http://www.ville-leblanc.fr/","hasWebsite":true,"hasHoraires":true,"url":"https://lannuaire.service-public.gouv.fr/centre-val-de-loire/indre/16301742-bd76-4bb0-b58d-3485784ec4e5"}
{"nom":"Le Magny","nomNormalise":"lemagny","typeCollectivite":"Commune","region":"Centre-Val de Loire","departement":"Indre","departementCode":"36","adresse":{"street":"Domaine du Prieuré","postalCode":"36400","city":"Le Magny","country":"France"},"contacts":{"email":"mairie.lemagny36@wanadoo.fr","telephone":"0254621000"},"horaires":"Le Lundi : de 08h00 à 12h00 de 13h30 à 19h00\nDu Mardi au Jeudi : de 13h30 à 17h30\nLe Vendredi : de 08h00 à 12h00\nLe Samedi : de 09h00 à 12h00\n\nAccueil fermé le 1er samedi du mois.","latitude":46.566135,"longitude":1.9597187,"website":"http://www.lemagny36.fr/","hasWebsite":true,"hasHoraires":true,"url":"https://lannuaire.service-public.gouv.fr/centre-val-de-loire/indre/df4d10de-33a8-47dc-ae98-e60a1f9bae88"}
{"nom":"Le Menoux","nomNormalise":"lemenoux","typeCollectivite":"Commune","region":"Centre-Val de Loire","departement":"Indre","departementCode":"36","adresse":{"street":"8 route du Moulin-Neuf","postalCode":"36200","city":"Le Menoux","country":"France"},"contacts":{"email":"mairie.lemenoux@orange.fr","telephone":"0254478747"},"horaires":"Le Lundi : de 08h30 à 12h00 de 14h00 à 18h00\nLe Mardi : de 14h00 à 18h00\nLe Mercredi : de 08h30 à 12h00 de 14h00 à 18h00\nLe Jeudi : de 14h00 à 18h00\nLe Vendredi : de 08h00 à 13h00","latitude":46.5569,"longitude":1.56608,"website":"","hasWebsite":false,"hasHoraires":true,"url":"https://lannuaire.service-public.gouv.fr/centre-val-de-loire/indre/e9e16c89-ade6-4691-a542-d808203ab61a"}
{"nom":"Le Pêchereau","nomNormalise":"lepechereau","typeCollectivite":"Commune","region":"Centre-Val de Loire","departement":"Indre","departementCode":"36","adresse":{"street":"Château-du-Courbat","postalCode":"36200","city":"Le Pêchereau","country":"France"},"contacts":{"email":"mairie.dupechereau@orange.fr","telephone":"0254240497"},"horaires":"Le Lundi : de 14h00 à 16h30\nLe Mardi : de 08h30 à 12h00 de 14h00 à 16h30\nDu Mercredi au Jeudi : de 08h30 à 12h00 de 13h30 à 16h30\nLe Vendredi : de 13h30 à 16h30\nLe Samedi : de 08h30 à 12h00","latitude":46.57776,"longitude":1.548602,"website":"https://www.lepechereau.fr/","hasWebsite":true,"hasHoraires":true,"url":"https://lannuaire.service-public.gouv.fr/centre-val-de-loire/indre/4e2766db-a167-40dc-b07c-aaf621e478aa"}
{"nom":"Le Poinçonnet","nomNormalise":"lepoinconnet","typeCollectivite":"Commune","region":"Centre-Val de Loire","departement":"Indre","departementCode":"36","adresse":{"street":"Place du 1er-Mai","postalCode":"36330","city":"Le Poinçonnet","country":"France"},"contacts":{"email":"mairie@ville-lepoinconnet.fr","telephone":"0254605535"},"horaires":"Du Lundi au Mardi : de 09h00 à 12h00 de 14h00 à 18h00\nLe Mercredi : de 09h00 à 17h00\nLe Jeudi : de 09h00 à 12h00 de 14h00 à 18h00\nLe Vendredi : de 09h00 à 17h00","latitude":46.764404,"longitude":1.7187812,"website":"http://www.ville-lepoinconnet.fr/","hasWebsite":true,"hasHoraires":true,"url":"https://lannuaire.service-public.gouv.fr/centre-val-de-loire/indre/0b411d8f-f3f0-4c61-b71d-ac8cb7cfc1fb"}
{"nom":"Le Pont-Chrétien-Chabenet","nomNormalise":"lepontchretienchabenet","typeCollectivite":"Commune","region":"Centre-Val de Loire","departement":"Indre","departementCode":"36","adresse":{"street":"20 allée du Broutet","postalCode":"36800","city":"Le Pont-Chrétien-Chabenet","country":"France"},"contacts":{"email":"secretariat@lepontchretienchabenet.fr","telephone":"0254258140"},"horaires":"Du Lundi au Vendredi : de 14h00 à 17h30","latitude":46.628,"longitude":1.47807,"website":"https://www.lepontchretienchabenet.fr/","hasWebsite":true,"hasHoraires":true,"url":"https://lannuaire.service-public.gouv.fr/centre-val-de-loire/indre/70da4b6e-ab46-4546-af32-d6d031994b8f"}
{"nom":"Les Bordes","nomNormalise":"lesbordes","typeCollectivite":"Commune","region":"Centre-Val de Loire","departement":"Indre","departementCode":"36","adresse":{"street":"19 rue des Davignons","postalCode":"36100","city":"Les Bordes","country":"France"},"contacts":{"email":"mairielesbordes@orange.fr","telephone":"0254210416"},"horaires":"Du Lundi au Mardi : de 08h30 à 12h00 de 13h30 à 17h15\nLe Mercredi : de 08h30 à 12h00\nDu Jeudi au Vendredi : de 08h30 à 12h00 de 13h30 à 17h15","latitude":46.9803,"longitude":1.97344,"website":"","hasWebsite":false,"hasHoraires":true,"url":"https://lannuaire.service-public.gouv.fr/centre-val-de-loire/indre/6f418db1-71d0-43a3-9bb3-e2b4062f35a6"}
{"nom":"Le Tranger","nomNormalise":"letranger","typeCollectivite":"Commune","region":"Centre-Val de Loire","departement":"Indre","departementCode":"36","adresse":{"street":"5 route de Châtillon","postalCode":"36700","city":"Le Tranger","country":"France"},"contacts":{"email":"mairie-le-tranger@wanadoo.fr","telephone":"0254386491"},"horaires":"Le Mardi : de 08h30 à 12h30 de 13h30 à 17h30\nLe Jeudi : de 08h30 à 12h30 de 13h30 à 17h30\nLe Vendredi : de 08h30 à 13h00","latitude":46.9573,"longitude":1.24056,"website":"","hasWebsite":false,"hasHoraires":true,"url":"https://lannuaire.service-public.gouv.fr/centre-val-de-loire/indre/57cf143e-a0b4-4303-951f-12ec282f8ebe"}
{"nom":"Levroux","nomNormalise":"levroux","typeCollectivite":"Commune","region":"Centre-Val de Loire","departement":"Indre","departementCode":"36","adresse":{"street":"10 place de l'Hôtel-de-Ville","postalCode":"36110","city":"Levroux","country":"France"},"contacts":{"email":"accueil@levroux.fr","telephone":"0254357054"},"horaires":"Du Lundi au Jeudi : de 09h00 à 12h00 de 14h00 à 17h00\nLe Vendredi : de 09h00 à 12h00 de 14h00 à 16h00","latitude":46.9796,"longitude":1.61388,"website":"https://www.ville-levroux.fr/","hasWebsite":true,"hasHoraires":true,"url":"https://lannuaire.service-public.gouv.fr/centre-val-de-loire/indre/24f37173-b062-424e-8dce-934f85e16cb7"}
{"nom":"Lignac","nomNormalise":"lignac","typeCollectivite":"Commune","region":"Centre-Val de Loire","departement":"Indre","departementCode":"36","adresse":{"street":"4 place Saint-Christophe","postalCode":"36370","city":"Lignac","country":"France"},"contacts":{"email":"mairie@communedelignac.fr","telephone":"0254257475"},"horaires":"Du Lundi au Jeudi : de 09h00 à 12h00 de 14h00 à 16h00\nDu Mercredi au Vendredi : de 09h00 à 12h00","latitude":46.466198,"longitude":1.217556,"website":"","hasWebsite":false,"hasHoraires":true,"url":"https://lannuaire.service-public.gouv.fr/centre-val-de-loire/indre/650ccf88-0ae8-47fb-98fb-865bb385e822"}
{"nom":"Lignerolles","nomNormalise":"lignerolles","typeCollectivite":"Commune","region":"Centre-Val de Loire","departement":"Indre","departementCode":"36","adresse":{"street":"2 le Bourg","postalCode":"36160","city":"Lignerolles","country":"France"},"contacts":{"email":"lignerolles-mairie@orange.fr","telephone":"0254305453"},"horaires":"Le Mardi : de 09h00 à 12h00\nLe Vendredi : de 09h00 à 12h00","latitude":46.493492,"longitude":2.14549,"website":"","hasWebsite":false,"hasHoraires":true,"url":"https://lannuaire.service-public.gouv.fr/centre-val-de-loire/indre/2d33104a-d302-46d5-8c8c-24aea56e98a7"}
{"nom":"Lingé","nomNormalise":"linge","typeCollectivite":"Commune","region":"Centre-Val de Loire","departement":"Indre","departementCode":"36","adresse":{"street":"4 route de Rosnay","postalCode":"36220","city":"Lingé","country":"France"},"contacts":{"email":"mairie.linge@orange.fr","telephone":"0967487860"},"horaires":"Le Mardi : de 08h30 à 12h30 de 13h00 à 17h00\nDu Jeudi au Vendredi : de 08h30 à 12h30","latitude":46.754017,"longitude":1.083657,"website":"","hasWebsite":false,"hasHoraires":true,"url":"https://lannuaire.service-public.gouv.fr/centre-val-de-loire/indre/233cc07d-2c63-4221-866f-7f420dbd5d8d"}
{"nom":"Liniez","nomNormalise":"liniez","typeCollectivite":"Commune","region":"Centre-Val de Loire","departement":"Indre","departementCode":"36","adresse":{"street":"4 route de Vatan","postalCode":"36150","city":"Liniez","country":"France"},"contacts":{"email":"mairie-de-liniez@wanadoo.fr","telephone":"0254497612"},"horaires":"Du Lundi au Mardi : de 09h00 à 12h00 de 14h00 à 17h00\nLe Mercredi : de 09h00 à 11h00\nDu Jeudi au Vendredi : de 09h00 à 12h00 de 14h00 à 17h00","latitude":47.023613,"longitude":1.751548,"website":"","hasWebsite":false,"hasHoraires":true,"url":"https://lannuaire.service-public.gouv.fr/centre-val-de-loire/indre/11487a71-0069-4b92-9b40-6b68a633e4e4"}
{"nom":"Lizeray","nomNormalise":"lizeray","typeCollectivite":"Commune","region":"Centre-Val de Loire","departement":"Indre","departementCode":"36","adresse":{"street":"2 place des Tilleuls","postalCode":"36100","city":"Lizeray","country":"France"},"contacts":{"email":"commune-lizeray@orange.fr","telephone":"0254494082"},"horaires":"Le Lundi : de 14h00 à 18h30\nLe Mardi : de 08h30 à 12h00\nLe Mercredi : de 08h00 à 10h30\nLe Vendredi : de 08h30 à 12h00","latitude":46.98181,"longitude":1.9062525,"website":"","hasWebsite":false,"hasHoraires":true,"url":"https://lannuaire.service-public.gouv.fr/centre-val-de-loire/indre/d986e2fd-dd92-407b-b324-98cc580ea271"}
{"nom":"Lourdoueix-Saint-Michel","nomNormalise":"lourdoueixsaintmichel","typeCollectivite":"Commune","region":"Centre-Val de Loire","departement":"Indre","departementCode":"36","adresse":{"street":"11 rue de la Mairie","postalCode":"36140","city":"Lourdoueix-Saint-Michel","country":"France"},"contacts":{"email":"mairie.lourdoueix@wanadoo.fr","telephone":"0254063484"},"horaires":"Du Lundi au Mardi : de 09h00 à 12h00 de 14h00 à 17h00\nLe Jeudi : de 09h00 à 12h00 de 14h00 à 17h00\nLe Vendredi : de 09h00 à 12h00 de 14h00 à 16h00","latitude":46.416306,"longitude":1.777119,"website":"","hasWebsite":false,"hasHoraires":true,"url":"https://lannuaire.service-public.gouv.fr/centre-val-de-loire/indre/949a8e8f-a30f-4461-a7b9-16a27bd40305"}
{"nom":"Lourouer-Saint-Laurent","nomNormalise":"lourouersaintlaurent","typeCollectivite":"Commune","region":"Centre-Val de Loire","departement":"Indre","departementCode":"36","adresse":{"street":"3 route de l'Orme-Rateau","postalCode":"36400","city":"Lourouer-Saint-Laurent","country":"France"},"contacts":{"email":"","telephone":"0254480653"},"horaires":"Du Mardi au Mercredi : de 14h00 à 16h30\nLe Jeudi : de 09h00 à 11h30\nLe Vendredi : de 14h00 à 16h30\nLe Samedi : de 09h00 à 11h30","latitude":46.624058,"longitude":2.011864,"website":"","hasWebsite":false,"hasHoraires":true,"url":"https://lannuaire.service-public.gouv.fr/centre-val-de-loire/indre/eeb3a5c9-4e6e-41d7-8c1b-d6ddcb32a541"}
{"nom":"Luant","nomNormalise":"luant","typeCollectivite":"Commune","region":"Centre-Val de Loire","departement":"Indre","departementCode":"36","adresse":{"street":"2 rue du 11-Novembre","postalCode":"36350","city":"Luant","country":"France"},"contacts":{"email":"administration@luant.fr","telephone":"0254361806"},"horaires":"Le Lundi : de 09h00 à 12h00\n\nfermé l'après-midi\nDu Mardi au Mercredi : de 09h00 à 12h00 de 13h30 à 17h00\nLe Jeudi : de 09h00 à 12h00\n\nfermé l'après-midi\nLe Vendredi : de 09h00 à 12h00 de 13h30 à 17h00\nLe Samedi : de 09h00 à 12h00\n\nSecrétariat 1 samedi par mois.","latitude":46.73363,"longitude":1.558079,"website":"https://www.luant.fr/","hasWebsite":true,"hasHoraires":true,"url":"https://lannuaire.service-public.gouv.fr/centre-val-de-loire/indre/2266237f-5dd6-488e-bb77-821c8c704d86"}
{"nom":"Luçay-le-Libre","nomNormalise":"lucaylelibre","typeCollectivite":"Commune","region":"Centre-Val de Loire","departement":"Indre","departementCode":"36","adresse":{"street":"1 Le Bourg","postalCode":"36150","city":"Luçay-le-Libre","country":"France"},"contacts":{"email":"mairielucaylelibre@wanadoo.fr","telephone":"0254497295"},"horaires":"Le Lundi : de 14h00 à 17h00\nLe Vendredi : de 14h00 à 17h00","latitude":47.0859,"longitude":1.9047,"website":"","hasWebsite":false,"hasHoraires":true,"url":"https://lannuaire.service-public.gouv.fr/centre-val-de-loire/indre/774288d7-3558-40ba-b4ce-dba030939a97"}
{"nom":"Luçay-le-Mâle","nomNormalise":"lucaylemale","typeCollectivite":"Commune","region":"Centre-Val de Loire","departement":"Indre","departementCode":"36","adresse":{"street":"22 rue Docteur-Réau","postalCode":"36360","city":"Luçay-le-Mâle","country":"France"},"contacts":{"email":"mairie@ville-lucaylemale.fr","telephone":"0254404331"},"horaires":"Du Lundi au Vendredi : de 09h00 à 12h30 de 14h00 à 18h00","latitude":47.125023,"longitude":1.4370656,"website":"http://www.lucaylemale.fr/","hasWebsite":true,"hasHoraires":true,"url":"https://lannuaire.service-public.gouv.fr/centre-val-de-loire/indre/ca54c5ec-e1a3-4342-aae5-ee8f30d1e7fc"}
{"nom":"Lurais","nomNormalise":"lurais","typeCollectivite":"Commune","region":"Centre-Val de Loire","departement":"Indre","departementCode":"36","adresse":{"street":"7 place des Tilleuls","postalCode":"36220","city":"Lurais","country":"France"},"contacts":{"email":"lurais-mairie@wanadoo.fr","telephone":"0254375117"},"horaires":"Du Lundi au Vendredi : de 14h00 à 17h00","latitude":46.70513,"longitude":0.951298,"website":"http://www.communedelurais.com/","hasWebsite":true,"hasHoraires":true,"url":"https://lannuaire.service-public.gouv.fr/centre-val-de-loire/indre/266ff935-54b3-45b4-8396-be969afdaf02"}
{"nom":"Lureuil","nomNormalise":"lureuil","typeCollectivite":"Commune","region":"Centre-Val de Loire","departement":"Indre","departementCode":"36","adresse":{"street":"6 rue de la Mairie","postalCode":"36220","city":"Lureuil","country":"France"},"contacts":{"email":"mairie@lureuil.fr","telephone":"0254280095"},"horaires":"Du Lundi au Jeudi : de 09h00 à 12h00 de 14h00 à 17h00\nLe Vendredi : de 09h00 à 12h00 de 14h00 à 16h00","latitude":46.744625,"longitude":1.042645,"website":"","hasWebsite":false,"hasHoraires":true,"url":"https://lannuaire.service-public.gouv.fr/centre-val-de-loire/indre/800b89dd-8c67-44c6-8062-acc6ade9c769"}
{"nom":"Luzeret","nomNormalise":"luzeret","typeCollectivite":"Commune","region":"Centre-Val de Loire","departement":"Indre","departementCode":"36","adresse":{"street":"5 route de Prissac","postalCode":"36800","city":"Luzeret","country":"France"},"contacts":{"email":"luzeret-mairie@orange.fr","telephone":"0254250499"},"horaires":"Le Lundi : de 08h30 à 12h30\nLe Mercredi : de 08h30 à 12h30\nLe Vendredi : de 08h30 à 12h30","latitude":46.602978,"longitude":1.303445,"website":"","hasWebsite":false,"hasHoraires":true,"url":"https://lannuaire.service-public.gouv.fr/centre-val-de-loire/indre/ef2cd3ef-278a-45d9-94a1-e9a86ee1f321"}
{"nom":"Lye","nomNormalise":"lye","typeCollectivite":"Commune","region":"Centre-Val de Loire","departement":"Indre","departementCode":"36","adresse":{"street":"37 route de Saint-Aignan","postalCode":"36600","city":"Lye","country":"France"},"contacts":{"email":"accueil@mairielye.fr","telephone":"0254410513"},"horaires":"Du Lundi au Vendredi : de 08h00 à 12h00\nLe Samedi : de 09h00 à 12h00\n\nLes semaines impaires.","latitude":47.228554,"longitude":1.473242,"website":"http://www.mairielye.fr/","hasWebsite":true,"hasHoraires":true,"url":"https://lannuaire.service-public.gouv.fr/centre-val-de-loire/indre/34dd28f8-fd43-4ede-83d4-4bf15f3dbfe2"}
{"nom":"Lys-Saint-Georges","nomNormalise":"lyssaintgeorges","typeCollectivite":"Commune","region":"Centre-Val de Loire","departement":"Indre","departementCode":"36","adresse":{"street":"19 rue du Château","postalCode":"36230","city":"Lys-Saint-Georges","country":"France"},"contacts":{"email":"mairie.lys-st-georges@wanadoo.fr","telephone":"0254308152"},"horaires":"Le Mercredi : de 09h15 à 13h00 de 13h45 à 18h30\nLe Vendredi : de 09h15 à 13h00 de 13h45 à 18h00","latitude":46.643806,"longitude":1.826231,"website":"http://www.lys-saint-georges.fr/","hasWebsite":true,"hasHoraires":true,"url":"https://lannuaire.service-public.gouv.fr/centre-val-de-loire/indre/581434ff-00ee-4483-8aad-a985e55f2c7c"}
{"nom":"Maillet","nomNormalise":"maillet","typeCollectivite":"Commune","region":"Centre-Val de Loire","departement":"Indre","departementCode":"36","adresse":{"street":"2 place de l'Église","postalCode":"36340","city":"Maillet","country":"France"},"contacts":{"email":"mairie-maillet@wanadoo.fr","telephone":"0254240424"},"horaires":"Du Mardi au Jeudi : de 09h00 à 12h00 de 14h00 à 17h00","latitude":46.574062,"longitude":1.678472,"website":"","hasWebsite":false,"hasHoraires":true,"url":"https://lannuaire.service-public.gouv.fr/centre-val-de-loire/indre/c5b94a0d-e638-453b-8677-43e7aaa92286"}
{"nom":"Malicornay","nomNormalise":"malicornay","typeCollectivite":"Commune","region":"Centre-Val de Loire","departement":"Indre","departementCode":"36","adresse":{"street":"11 rue des Paradisiers","postalCode":"36340","city":"Malicornay","country":"France"},"contacts":{"email":"mairie.malicornay@wanadoo.fr","telephone":"0254241172"},"horaires":"Le Mardi : de 09h00 à 12h15 de 13h00 à 17h00\nLe Mercredi : de 09h00 à 12h15\nLe Jeudi : de 09h00 à 12h15 de 13h00 à 17h00\nLe Vendredi : de 09h15 à 12h00\nLe Samedi : de 09h00 à 12h00","latitude":46.575424,"longitude":1.646674,"website":"","hasWebsite":false,"hasHoraires":true,"url":"https://lannuaire.service-public.gouv.fr/centre-val-de-loire/indre/faec30c9-64b5-4f87-897b-db9108fc49ca"}
{"nom":"Mâron","nomNormalise":"maron","typeCollectivite":"Commune","region":"Centre-Val de Loire","departement":"Indre","departementCode":"36","adresse":{"street":"Le Bourg","postalCode":"36120","city":"Mâron","country":"France"},"contacts":{"email":"mairiedemaron@orange.fr","telephone":"0254260106"},"horaires":"Le Lundi : de 13h30 à 17h30\nLe Mercredi : de 08h30 à 12h00\nLe Vendredi : de 08h30 à 12h45 de 13h15 à 17h30\nLe Samedi : de 09h30 à 12h00","latitude":46.806427,"longitude":1.870268,"website":"https://www.maronenberry.fr/","hasWebsite":true,"hasHoraires":true,"url":"https://lannuaire.service-public.gouv.fr/centre-val-de-loire/indre/ffef643c-9493-432e-9ee4-790377f44657"}
{"nom":"Martizay","nomNormalise":"martizay","typeCollectivite":"Commune","region":"Centre-Val de Loire","departement":"Indre","departementCode":"36","adresse":{"street":"6 rue de l'Europe","postalCode":"36220","city":"Martizay","country":"France"},"contacts":{"email":"mairie@martizay.fr","telephone":"0254280132"},"horaires":"Le Lundi : de 08h30 à 12h00 de 13h30 à 17h00\nLe Mardi : de 08h30 à 12h00\nLe Mercredi : de 08h30 à 12h00 de 13h30 à 17h00\nLe Jeudi : de 08h30 à 12h00\nLe Vendredi : de 08h30 à 12h00 de 13h30 à 17h00\nLe Samedi : de 08h30 à 12h00","latitude":46.806767,"longitude":1.042622,"website":"http://www.martizay.fr/","hasWebsite":true,"hasHoraires":true,"url":"https://lannuaire.service-public.gouv.fr/centre-val-de-loire/indre/a837a05e-a936-466a-ad10-098b12695f0f"}
{"nom":"Mauvières","nomNormalise":"mauvieres","typeCollectivite":"Commune","region":"Centre-Val de Loire","departement":"Indre","departementCode":"36","adresse":{"street":"9 place Saint-Léger","postalCode":"36370","city":"Mauvières","country":"France"},"contacts":{"email":"mairiemauvieres@orange.fr","telephone":"0254370893"},"horaires":"Le Lundi : de 08h30 à 12h00 de 13h30 à 17h30\nLe Mardi : de 08h30 à 12h00\nLe Mercredi : de 08h30 à 11h30\nLe Jeudi : de 08h30 à 12h00\nLe Vendredi : de 08h30 à 12h00 de 13h30 à 17h30","latitude":46.57418,"longitude":1.088807,"website":"http://www.mairiemauvieres.fr/","hasWebsite":true,"hasHoraires":true,"url":"https://lannuaire.service-public.gouv.fr/centre-val-de-loire/indre/ddcdb816-ae9d-4233-b098-9b449e0ed112"}
{"nom":"Menetou-sur-Nahon","nomNormalise":"menetousurnahon","typeCollectivite":"Commune","region":"Centre-Val de Loire","departement":"Indre","departementCode":"36","adresse":{"street":"3 place de la Mairie","postalCode":"36210","city":"Menetou-sur-Nahon","country":"France"},"contacts":{"email":"secretariat@mairiedemenetousurnahon.fr","telephone":"0254411500"},"horaires":"Le Mardi : de 09h00 à 12h00 de 13h00 à 17h00\nLe Jeudi : de 09h00 à 12h00 de 13h00 à 17h00","latitude":47.21321,"longitude":1.6062739,"website":"","hasWebsite":false,"hasHoraires":true,"url":"https://lannuaire.service-public.gouv.fr/centre-val-de-loire/indre/9805d41d-90b3-4165-9c0c-1e523983bd8c"}
{"nom":"Ménétréols-sous-Vatan","nomNormalise":"menetreolssousvatan","typeCollectivite":"Commune","region":"Centre-Val de Loire","departement":"Indre","departementCode":"36","adresse":{"street":"9 rue Principale","postalCode":"36150","city":"Ménétréols-sous-Vatan","country":"France"},"contacts":{"email":"commune-menetreols-sous-vatan1@orange.fr","telephone":"0254494067"},"horaires":"Le Mardi : de 08h30 à 12h30 de 13h30 à 17h30\nLe Jeudi : de 12h30 à 17h30\nLe Vendredi : de 13h00 à 17h30","latitude":47.0182,"longitude":1.84102,"website":"","hasWebsite":false,"hasHoraires":true,"url":"https://lannuaire.service-public.gouv.fr/centre-val-de-loire/indre/0fe959ff-4631-4fa2-8583-dd569df65890"}
{"nom":"Méobecq","nomNormalise":"meobecq","typeCollectivite":"Commune","region":"Centre-Val de Loire","departement":"Indre","departementCode":"36","adresse":{"street":"15 route de Buzançais","postalCode":"36500","city":"Méobecq","country":"France"},"contacts":{"email":"meobecqmairie@wanadoo.fr","telephone":"0254394315"},"horaires":"Le Mardi : de 09h00 à 12h00 de 13h30 à 17h00\nLe Mercredi : de 09h00 à 12h00\nDu Jeudi au Vendredi : de 09h00 à 12h00 de 13h30 à 17h00\nLe Samedi : de 09h00 à 12h00","latitude":46.7679,"longitude":1.47508,"website":"http://www.meobecqbrenne.com/accueil.php","hasWebsite":true,"hasHoraires":true,"url":"https://lannuaire.service-public.gouv.fr/centre-val-de-loire/indre/fd14456c-4364-4fa7-9b3b-e7b7bfbaacea"}
{"nom":"Mérigny","nomNormalise":"merigny","typeCollectivite":"Commune","region":"Centre-Val de Loire","departement":"Indre","departementCode":"36","adresse":{"street":"5 rue de la Mairie","postalCode":"36220","city":"Mérigny","country":"France"},"contacts":{"email":"merigny-mairie@wanadoo.fr","telephone":"0254374271"},"horaires":"Le Lundi : de 13h30 à 17h00\nDu Mardi au Vendredi : de 08h00 à 12h00 de 13h15 à 17h15\nLe Samedi : de 09h00 à 12h00","latitude":46.63075,"longitude":0.9266984,"website":"http://merigny.pagesperso-orange.fr/","hasWebsite":true,"hasHoraires":true,"url":"https://lannuaire.service-public.gouv.fr/centre-val-de-loire/indre/4209f570-c56b-49f7-9d9e-2f3f56ed455d"}
{"nom":"Mers-sur-Indre","nomNormalise":"merssurindre","typeCollectivite":"Commune","region":"Centre-Val de Loire","departement":"Indre","departementCode":"36","adresse":{"street":"1 place Saint-Martin","postalCode":"36230","city":"Mers-sur-Indre","country":"France"},"contacts":{"email":"contact@mers-sur-indre.fr","telephone":"0254310652"},"horaires":"Le Lundi : de 14h00 à 17h00\nLe Mardi : de 09h00 à 12h00\nLe Mercredi : de 09h00 à 12h00 de 14h00 à 17h00\nDu Jeudi au Samedi : de 09h00 à 12h00","latitude":46.658096,"longitude":1.881942,"website":"https://mers-sur-indre-village.fr/","hasWebsite":true,"hasHoraires":true,"url":"https://lannuaire.service-public.gouv.fr/centre-val-de-loire/indre/b9cd3f39-951b-423e-a109-b0e940bf5df6"}
{"nom":"Meunet-Planches","nomNormalise":"meunetplanches","typeCollectivite":"Commune","region":"Centre-Val de Loire","departement":"Indre","departementCode":"36","adresse":{"street":"7 route Villechaud","postalCode":"36100","city":"Meunet-Planches","country":"France"},"contacts":{"email":"mairie.meunet.planches@orange.fr","telephone":"0254490205"},"horaires":"Du Lundi au Mardi : de 09h00 à 12h00 de 14h00 à 16h00\nDu Jeudi au Vendredi : de 09h00 à 12h00 de 14h00 à 16h00","latitude":46.836353,"longitude":1.960193,"website":"","hasWebsite":false,"hasHoraires":true,"url":"https://lannuaire.service-public.gouv.fr/centre-val-de-loire/indre/573a9aa9-f400-47c0-8f06-f8750981b009"}
{"nom":"Meunet-sur-Vatan","nomNormalise":"meunetsurvatan","typeCollectivite":"Commune","region":"Centre-Val de Loire","departement":"Indre","departementCode":"36","adresse":{"street":"1 place Alphonse-Bruno","postalCode":"36150","city":"Meunet-sur-Vatan","country":"France"},"contacts":{"email":"mairie.meunetsurvatan@wanadoo.fr","telephone":"0254497703"},"horaires":"Le Lundi : de 08h30 à 17h00\nLe Jeudi : de 08h30 à 12h30\nLe Vendredi : de 08h30 à 17h00\nLe Samedi : de 08h30 à 12h30","latitude":47.0795,"longitude":1.86605,"website":"","hasWebsite":false,"hasHoraires":true,"url":"https://lannuaire.service-public.gouv.fr/centre-val-de-loire/indre/cf6b97c4-b930-425f-9a49-8234ef720937"}
{"nom":"Mézières-en-Brenne","nomNormalise":"mezieresenbrenne","typeCollectivite":"Commune","region":"Centre-Val de Loire","departement":"Indre","departementCode":"36","adresse":{"street":"8 place Jean-Moulin","postalCode":"36290","city":"Mézières-en-Brenne","country":"France"},"contacts":{"email":"mairie@mezieres-en-brenne.fr","telephone":"0254380423"},"horaires":"Le Lundi : de 08h45 à 12h00 de 13h30 à 16h30\nLe Mardi : de 09h00 à 12h00\nDu Mercredi au Vendredi : de 08h45 à 12h00 de 13h30 à 16h30\nLe Samedi : de 09h00 à 12h00\n\nAccueil ouvert uniquement les semaines impaires.","latitude":46.819695,"longitude":1.2088844,"website":"http://www.coeurdebrenne.fr/","hasWebsite":true,"hasHoraires":true,"url":"https://lannuaire.service-public.gouv.fr/centre-val-de-loire/indre/9cfbe891-107f-4d50-a3bb-8918b1448dee"}
{"nom":"Migné","nomNormalise":"migne","typeCollectivite":"Commune","region":"Centre-Val de Loire","departement":"Indre","departementCode":"36","adresse":{"street":"14 rue des Dames","postalCode":"36800","city":"Migné","country":"France"},"contacts":{"email":"mairie@migne36.fr","telephone":"0254378610"},"horaires":"Du Lundi au Mardi : de 09h00 à 12h30 de 13h00 à 16h30\nDu Jeudi au Vendredi : de 09h00 à 12h30 de 13h00 à 16h30","latitude":46.716408,"longitude":1.3190078,"website":"","hasWebsite":false,"hasHoraires":true,"url":"https://lannuaire.service-public.gouv.fr/centre-val-de-loire/indre/23ea2f76-6399-43ba-8736-5df5dfa1af37"}
{"nom":"Migny","nomNormalise":"migny","typeCollectivite":"Commune","region":"Centre-Val de Loire","departement":"Indre","departementCode":"36","adresse":{"street":"1 route d'Issoudun","postalCode":"36260","city":"Migny","country":"France"},"contacts":{"email":"commune-migny@orange.fr","telephone":"0254040146"},"horaires":"Le Lundi : de 08h00 à 12h00\nLe Mercredi : de 08h00 à 12h00\nLe Vendredi : de 08h00 à 12h00 de 14h00 à 17h00","latitude":47.024296,"longitude":2.067601,"website":"","hasWebsite":false,"hasHoraires":true,"url":"https://lannuaire.service-public.gouv.fr/centre-val-de-loire/indre/f1244896-2d26-494c-8741-e1e513817e47"}
{"nom":"Montchevrier","nomNormalise":"montchevrier","typeCollectivite":"Commune","region":"Centre-Val de Loire","departement":"Indre","departementCode":"36","adresse":{"street":"10 rue la Mairie","postalCode":"36140","city":"Montchevrier","country":"France"},"contacts":{"email":"commune.montchevrier@orange.fr","telephone":"0254063515"},"horaires":"Du Lundi au Mardi : de 08h00 à 12h00 de 14h00 à 18h00\nLe Mercredi : de 08h00 à 12h00\nDu Jeudi au Vendredi : de 08h00 à 12h00 de 14h00 à 18h00\nLe Samedi : de 08h00 à 12h00","latitude":46.48084,"longitude":1.742515,"website":"","hasWebsite":false,"hasHoraires":true,"url":"https://lannuaire.service-public.gouv.fr/centre-val-de-loire/indre/956802ee-0ef2-41bf-9c5d-1c7a754c7495"}
{"nom":"Montgivray","nomNormalise":"montgivray","typeCollectivite":"Commune","region":"Centre-Val de Loire","departement":"Indre","departementCode":"36","adresse":{"street":"2 rue du Pont","postalCode":"36400","city":"Montgivray","country":"France"},"contacts":{"email":"contact@montgivray.fr","telephone":"0254061036"},"horaires":"Le Mardi : de 08h00 à 12h00 de 13h30 à 17h30\nLe Mercredi : de 08h00 à 12h00\nDu Jeudi au Vendredi : de 08h00 à 12h00 de 13h30 à 17h30\nLe Samedi : de 09h00 à 12h00","latitude":46.5993,"longitude":1.9773,"website":"https://montgivray.fr/","hasWebsite":true,"hasHoraires":true,"url":"https://lannuaire.service-public.gouv.fr/centre-val-de-loire/indre/b960ac42-1b07-497a-a514-b1f4660e9074"}
{"nom":"Montierchaume","nomNormalise":"montierchaume","typeCollectivite":"Commune","region":"Centre-Val de Loire","departement":"Indre","departementCode":"36","adresse":{"street":"1 place Raymond-Couturier","postalCode":"36130","city":"Montierchaume","country":"France"},"contacts":{"email":"mairie@montierchaume.fr","telephone":"0254260014"},"horaires":"Du Lundi au Mardi : de 09h00 à 12h00 de 14h00 à 18h00\nLe Mercredi : de 09h00 à 12h00\nDu Jeudi au Vendredi : de 09h00 à 12h00 de 14h00 à 18h00","latitude":46.863876,"longitude":1.772593,"website":"https://www.montierchaume.fr/","hasWebsite":true,"hasHoraires":true,"url":"https://lannuaire.service-public.gouv.fr/centre-val-de-loire/indre/d1067a11-ae23-44f4-bec8-cb9593cc85bf"}
{"nom":"Montipouret","nomNormalise":"montipouret","typeCollectivite":"Commune","region":"Centre-Val de Loire","departement":"Indre","departementCode":"36","adresse":{"street":"14 rue de la République","postalCode":"36230","city":"Montipouret","country":"France"},"contacts":{"email":"mairie.montipouret@wanadoo.fr","telephone":"0254310327"},"horaires":"Du Lundi au Mardi : de 08h45 à 12h00 de 13h30 à 17h00\nDu Jeudi au Vendredi : de 08h45 à 12h00 de 13h30 à 17h00\nLe Samedi : de 09h00 à 12h00\n\nAccueil uniquement sur rendez-vous.","latitude":46.6495,"longitude":1.90279,"website":"","hasWebsite":false,"hasHoraires":true,"url":"https://lannuaire.service-public.gouv.fr/centre-val-de-loire/indre/7157501c-1bd4-4759-820f-da019126c024"}
{"nom":"Montlevicq","nomNormalise":"montlevicq","typeCollectivite":"Commune","region":"Centre-Val de Loire","departement":"Indre","departementCode":"36","adresse":{"street":"4 rue des Tilleuls","postalCode":"36400","city":"Montlevicq","country":"France"},"contacts":{"email":"mairie.montlevicq@wanadoo.fr","telephone":"0254482028"},"horaires":"Du Lundi au Mardi : de 14h00 à 17h00\nDu Jeudi au Vendredi : de 14h00 à 17h00","latitude":46.57869,"longitude":2.070825,"website":"","hasWebsite":false,"hasHoraires":true,"url":"https://lannuaire.service-public.gouv.fr/centre-val-de-loire/indre/fc4792ae-69b6-4746-9747-c72909def01a"}
{"nom":"Mosnay","nomNormalise":"mosnay","typeCollectivite":"Commune","region":"Centre-Val de Loire","departement":"Indre","departementCode":"36","adresse":{"street":"30 route de Tendu","postalCode":"36200","city":"Mosnay","country":"France"},"contacts":{"email":"contactmairie@mosnay.fr","telephone":"0254240505"},"horaires":"Le Lundi : de 08h00 à 12h00 de 13h30 à 17h30\nLe Mercredi : de 08h00 à 12h00 de 14h00 à 17h00\nLe Jeudi : de 08h00 à 12h00\nLe Vendredi : de 08h00 à 12h00 de 13h30 à 17h30\nLe Samedi : de 08h00 à 12h00","latitude":46.62239,"longitude":1.626853,"website":"","hasWebsite":false,"hasHoraires":true,"url":"https://lannuaire.service-public.gouv.fr/centre-val-de-loire/indre/053968e7-3e3f-47cd-ba36-424c98050f95"}
{"nom":"Mouhers","nomNormalise":"mouhers","typeCollectivite":"Commune","region":"Centre-Val de Loire","departement":"Indre","departementCode":"36","adresse":{"street":"1 jardins de la Mairie","postalCode":"36340","city":"Mouhers","country":"France"},"contacts":{"email":"mairie.mouhers@wanadoo.fr","telephone":"0254308128"},"horaires":"Du Lundi au Mardi : de 08h30 à 12h30 de 13h30 à 17h30\nLe Mercredi : de 08h30 à 12h00\nLe Jeudi : de 08h30 à 12h30 de 13h30 à 17h30\nLe Vendredi : de 08h30 à 12h30 de 13h30 à 17h00","latitude":46.564465,"longitude":1.777296,"website":"https://mairie-mouhers.fr/","hasWebsite":true,"hasHoraires":true,"url":"https://lannuaire.service-public.gouv.fr/centre-val-de-loire/indre/899b1046-083b-4eec-bdda-7dcfc0c1bba6"}
{"nom":"Mouhet","nomNormalise":"mouhet","typeCollectivite":"Commune","region":"Centre-Val de Loire","departement":"Indre","departementCode":"36","adresse":{"street":"1 place Henri-Lathiere","postalCode":"36170","city":"Mouhet","country":"France"},"contacts":{"email":"secretariat.mairie@mouhet.fr","telephone":"0254475512"},"horaires":"Le Lundi : de 08h30 à 12h30 de 14h00 à 17h00\nLe Mardi : de 08h30 à 12h30\nLe Mercredi : de 08h30 à 12h30 de 14h00 à 17h00\nLe Jeudi : de 08h30 à 12h30\nLe Vendredi : de 08h30 à 12h30 de 14h00 à 17h00","latitude":46.38308,"longitude":1.433328,"website":"https://mouhet.fr/","hasWebsite":true,"hasHoraires":true,"url":"https://lannuaire.service-public.gouv.fr/centre-val-de-loire/indre/306e22f4-906e-4f3c-86a2-0b7ea9d2b66b"}
{"nom":"Moulins-sur-Céphons","nomNormalise":"moulinssurcephons","typeCollectivite":"Commune","region":"Centre-Val de Loire","departement":"Indre","departementCode":"36","adresse":{"street":"1 rue Amable-Vivier","postalCode":"36110","city":"Moulins-sur-Céphons","country":"France"},"contacts":{"email":"mairie@moulins-sur-cephons.fr","telephone":"0254356139"},"horaires":"Du Lundi au Vendredi : de 08h30 à 12h00 de 13h30 à 16h30","latitude":47.0104,"longitude":1.55545,"website":"","hasWebsite":false,"hasHoraires":true,"url":"https://lannuaire.service-public.gouv.fr/centre-val-de-loire/indre/ba6ff4a7-f6f5-45d8-8b98-9e03c5b4927e"}
{"nom":"Murs","nomNormalise":"murs","typeCollectivite":"Commune","region":"Centre-Val de Loire","departement":"Indre","departementCode":"36","adresse":{"street":"5 place Saint-Hilaire","postalCode":"36700","city":"Murs","country":"France"},"contacts":{"email":"mairie.murs@wanadoo.fr","telephone":"0254387742"},"horaires":"Le Mardi : de 08h30 à 12h30\nLe Jeudi : de 08h00 à 12h00\nLe Vendredi : de 13h30 à 17h30","latitude":46.9148,"longitude":1.160898,"website":"","hasWebsite":false,"hasHoraires":true,"url":"https://lannuaire.service-public.gouv.fr/centre-val-de-loire/indre/d79d8715-28ac-417e-bf2c-015d2f1f5073"}
{"nom":"Néons-sur-Creuse","nomNormalise":"neonssurcreuse","typeCollectivite":"Commune","region":"Centre-Val de Loire","departement":"Indre","departementCode":"36","adresse":{"street":"1 place des Marronniers","postalCode":"36220","city":"Néons-sur-Creuse","country":"France"},"contacts":{"email":"neons-mairie@wanadoo.fr","telephone":"0254375356"},"horaires":"Du Mardi au Jeudi : de 09h00 à 12h00\nLe Vendredi : de 09h00 à 12h00 de 14h00 à 16h30\nLe Samedi : de 09h00 à 12h00","latitude":46.74628,"longitude":0.928482,"website":"http://www.communedeneons.fr/","hasWebsite":true,"hasHoraires":true,"url":"https://lannuaire.service-public.gouv.fr/centre-val-de-loire/indre/86602073-dd82-4d52-a446-d633a67208fe"}
{"nom":"Néret","nomNormalise":"neret","typeCollectivite":"Commune","region":"Centre-Val de Loire","departement":"Indre","departementCode":"36","adresse":{"street":"6 allée des Marronniers","postalCode":"36400","city":"Néret","country":"France"},"contacts":{"email":"mairiedeneret@orange.fr","telephone":"0254314167"},"horaires":"Le Lundi : de 08h00 à 12h30\nLe Mercredi : de 08h00 à 12h30\nLe Vendredi : de 08h00 à 13h00","latitude":46.569645,"longitude":2.148053,"website":"","hasWebsite":false,"hasHoraires":true,"url":"https://lannuaire.service-public.gouv.fr/centre-val-de-loire/indre/8128a735-ffa0-4fa8-a399-e5ac418647b1"}
{"nom":"Neuillay-les-Bois","nomNormalise":"neuillaylesbois","typeCollectivite":"Commune","region":"Centre-Val de Loire","departement":"Indre","departementCode":"36","adresse":{"street":"19 rue Principale","postalCode":"36500","city":"Neuillay-les-Bois","country":"France"},"contacts":{"email":"mairie-neuillaylesbois@wanadoo.fr","telephone":"0254394012"},"horaires":"Le Lundi : de 08h30 à 12h00 de 13h30 à 17h00\nLe Mardi : de 08h30 à 12h00\nLe Mercredi : de 08h30 à 12h00 de 13h30 à 17h00\nLe Jeudi : de 08h30 à 12h00\nLe Vendredi : de 08h30 à 12h00 de 13h30 à 16h00","latitude":46.764706,"longitude":1.475622,"website":"","hasWebsite":false,"hasHoraires":true,"url":"https://lannuaire.service-public.gouv.fr/centre-val-de-loire/indre/e88a6cdc-c7c4-4e94-b257-108b08e1b683"}
{"nom":"Neuvy-Pailloux","nomNormalise":"neuvypailloux","typeCollectivite":"Commune","region":"Centre-Val de Loire","departement":"Indre","departementCode":"36","adresse":{"street":"16 place de la Mairie","postalCode":"36100","city":"Neuvy-Pailloux","country":"France"},"contacts":{"email":"mairieneuvypailloux@gmail.com","telephone":"0254495224"},"horaires":"Du Lundi au Mardi : de 08h30 à 12h00 de 13h30 à 17h30\nLe Mercredi : de 08h30 à 12h00\nDu Jeudi au Vendredi : de 08h30 à 12h00 de 13h30 à 17h30","latitude":46.9413,"longitude":1.80349,"website":"https://neuvy-pailloux.fr/","hasWebsite":true,"hasHoraires":true,"url":"https://lannuaire.service-public.gouv.fr/centre-val-de-loire/indre/97cac53b-4ad0-409d-9d8a-72c7df90455b"}
{"nom":"Neuvy-Saint-Sépulchre","nomNormalise":"neuvysaintsepulchre","typeCollectivite":"Commune","region":"Centre-Val de Loire","departement":"Indre","departementCode":"36","adresse":{"street":"1 place Clemenceau","postalCode":"36230","city":"Neuvy-Saint-Sépulchre","country":"France"},"contacts":{"email":"mairie@neuvysaintsepulchre.fr","telephone":"0254308027"},"horaires":"Du Lundi au Mardi : de 09h00 à 12h00\nLe Mercredi : de 09h00 à 12h00 de 15h00 à 17h30\nLe Jeudi : de 09h00 à 12h00\nLe Vendredi : de 09h00 à 12h00 de 15h00 à 17h30","latitude":46.59608,"longitude":1.8071535,"website":"https://neuvysaintsepulchre.fr/","hasWebsite":true,"hasHoraires":true,"url":"https://lannuaire.service-public.gouv.fr/centre-val-de-loire/indre/195efdb1-36b5-47ab-a3f2-b6372dcaf1c9"}
{"nom":"Niherne","nomNormalise":"niherne","typeCollectivite":"Commune","region":"Centre-Val de Loire","departement":"Indre","departementCode":"36","adresse":{"street":"1-4 place de l'Église","postalCode":"36250","city":"Niherne","country":"France"},"contacts":{"email":"accueil@mairiedeniherne.fr","telephone":"0254298915"},"horaires":"Du Lundi au Jeudi : de 08h45 à 12h00 de 13h30 à 17h30\nLe Vendredi : de 08h45 à 12h00 de 13h30 à 17h00","latitude":46.82906,"longitude":1.5638479,"website":"http://www.mairiedeniherne.fr/","hasWebsite":true,"hasHoraires":true,"url":"https://lannuaire.service-public.gouv.fr/centre-val-de-loire/indre/fb1a46b4-2965-4885-a9df-c60df9aa9579"}
{"nom":"Nohant-Vic","nomNormalise":"nohantvic","typeCollectivite":"Commune","region":"Centre-Val de Loire","departement":"Indre","departementCode":"36","adresse":{"street":"1 allée de la Forge","postalCode":"36400","city":"Nohant-Vic","country":"France"},"contacts":{"email":"nohant.vic.mairie@wanadoo.fr","telephone":"0254310107"},"horaires":"Le Lundi : de 09h00 à 12h00 de 13h30 à 17h00\nDu Mardi au Jeudi : de 09h00 à 12h00\nLe Vendredi : de 09h00 à 12h00 de 13h30 à 17h00","latitude":46.638336,"longitude":1.959811,"website":"","hasWebsite":false,"hasHoraires":true,"url":"https://lannuaire.service-public.gouv.fr/centre-val-de-loire/indre/1a30e63a-13d3-47ab-b7be-f655ae418b80"}
{"nom":"Nuret-le-Ferron","nomNormalise":"nuretleferron","typeCollectivite":"Commune","region":"Centre-Val de Loire","departement":"Indre","departementCode":"36","adresse":{"street":"10 rue Principale","postalCode":"36800","city":"Nuret-le-Ferron","country":"France"},"contacts":{"email":"nuret.mairie@wanadoo.fr","telephone":"0254470505"},"horaires":"Le Lundi : de 08h30 à 12h30 de 13h30 à 17h30\nLe Mardi : de 08h30 à 11h30 de 14h00 à 19h00\nLe Mercredi : de 08h30 à 11h30\nLe Jeudi : de 13h30 à 17h30\nLe Vendredi : de 08h30 à 12h30 de 13h30 à 17h30","latitude":46.683533,"longitude":1.4346402,"website":"https://www.intramuros.org/nuret-le-ferron","hasWebsite":true,"hasHoraires":true,"url":"https://lannuaire.service-public.gouv.fr/centre-val-de-loire/indre/3e65b1ad-d3c8-4788-899e-88e2f24c3910"}
{"nom":"Obterre","nomNormalise":"obterre","typeCollectivite":"Commune","region":"Centre-Val de Loire","departement":"Indre","departementCode":"36","adresse":{"street":"8 rue de Touraine","postalCode":"36290","city":"Obterre","country":"France"},"contacts":{"email":"mairie@obterre.fr","telephone":"0254392166"},"horaires":"Du Lundi au Vendredi : de 09h00 à 12h30","latitude":46.9155,"longitude":1.037321,"website":"https://www.obterre.fr/","hasWebsite":true,"hasHoraires":true,"url":"https://lannuaire.service-public.gouv.fr/centre-val-de-loire/indre/99664199-e9f0-4fb4-b9c2-b00838814a93"}
{"nom":"Orsennes","nomNormalise":"orsennes","typeCollectivite":"Commune","region":"Centre-Val de Loire","departement":"Indre","departementCode":"36","adresse":{"street":"2 rue de la Mairie","postalCode":"36190","city":"Orsennes","country":"France"},"contacts":{"email":"mairie-dorsennes@wanadoo.fr","telephone":"0254472321"},"horaires":"Du Lundi au Jeudi : de 08h00 à 12h00 de 14h00 à 17h00\nLe Vendredi : de 08h00 à 12h00 de 13h30 à 16h30","latitude":46.456654,"longitude":1.672289,"website":"","hasWebsite":false,"hasHoraires":true,"url":"https://lannuaire.service-public.gouv.fr/centre-val-de-loire/indre/9df6c012-87d7-43fa-bc99-8961d09a5d7a"}
{"nom":"Orville","nomNormalise":"orville","typeCollectivite":"Commune","region":"Centre-Val de Loire","departement":"Indre","departementCode":"36","adresse":{"street":"2 rue de la Marine","postalCode":"36210","city":"Orville","country":"France"},"contacts":{"email":"communeorville@orange.fr","telephone":"0254406033"},"horaires":"Le Lundi : de 09h00 à 13h00\nLe Mardi : de 09h00 à 12h00\nLe Jeudi : de 13h15 à 17h15","latitude":47.152214,"longitude":1.789126,"website":"","hasWebsite":false,"hasHoraires":true,"url":"https://lannuaire.service-public.gouv.fr/centre-val-de-loire/indre/d10fc4b6-9d24-40ff-9e9b-d1f30648cbf7"}
{"nom":"Oulches","nomNormalise":"oulches","typeCollectivite":"Commune","region":"Centre-Val de Loire","departement":"Indre","departementCode":"36","adresse":{"street":"1 place Menneton","postalCode":"36800","city":"Oulches","country":"France"},"contacts":{"email":"mairie@oulches.fr","telephone":"0254379510"},"horaires":"Du Lundi au Mardi : de 09h00 à 12h00 de 14h00 à 17h00\nDu Jeudi au Vendredi : de 09h00 à 12h00 de 14h00 à 17h00\nLe Samedi : de 09h00 à 12h00","latitude":46.61408,"longitude":1.295788,"website":"https://www.intramuros.org/oulches","hasWebsite":true,"hasHoraires":true,"url":"https://lannuaire.service-public.gouv.fr/centre-val-de-loire/indre/2c2ae824-b231-4b39-911a-69e06bd93a1f"}
{"nom":"Palluau-sur-Indre","nomNormalise":"palluausurindre","typeCollectivite":"Commune","region":"Centre-Val de Loire","departement":"Indre","departementCode":"36","adresse":{"street":"Rue de Verdun","postalCode":"36500","city":"Palluau-sur-Indre","country":"France"},"contacts":{"email":"mairie.palluau-indre@orange.fr","telephone":"0254384555"},"horaires":"Du Lundi au Mardi : de 08h30 à 12h00 de 13h30 à 17h30\nLe Mercredi : de 08h30 à 12h00\nLe Jeudi : de 08h30 à 12h00 de 13h30 à 17h30\nLe Vendredi : de 08h30 à 12h00","latitude":46.943806,"longitude":1.3147691,"website":"https://www.palluausurindre.fr/","hasWebsite":true,"hasHoraires":true,"url":"https://lannuaire.service-public.gouv.fr/centre-val-de-loire/indre/4a9a447d-be88-41b8-a253-a533bfb05b19"}
{"nom":"Parnac","nomNormalise":"parnac","typeCollectivite":"Commune","region":"Centre-Val de Loire","departement":"Indre","departementCode":"36","adresse":{"street":"1 route de Saint-Benoît","postalCode":"36170","city":"Parnac","country":"France"},"contacts":{"email":"parnac.mairie@wanadoo.fr","telephone":"0254475206"},"horaires":"Du Mardi au Mercredi : de 09h00 à 12h30 de 13h30 à 17h00\nLe Vendredi : de 09h00 à 12h30 de 13h30 à 17h00","latitude":46.45325,"longitude":1.44233,"website":"http://www.mairie-parnac.fr/","hasWebsite":true,"hasHoraires":true,"url":"https://lannuaire.service-public.gouv.fr/centre-val-de-loire/indre/b228494d-9fc2-4eaa-8a6f-a5364534a6d9"}
{"nom":"Paudy","nomNormalise":"paudy","typeCollectivite":"Commune","region":"Centre-Val de Loire","departement":"Indre","departementCode":"36","adresse":{"street":"3 place de la Mairie","postalCode":"36260","city":"Paudy","country":"France"},"contacts":{"email":"mairie.de.paudy@wanadoo.fr","telephone":"0254494175"},"horaires":"Le Lundi : de 07h00 à 12h00 de 13h30 à 17h45\nLe Mardi : de 09h00 à 12h00 de 13h30 à 16h45\nLe Jeudi : de 09h00 à 12h00\nLe Vendredi : de 09h00 à 12h00 de 13h30 à 16h45\nLe Samedi : de 09h00 à 12h00","latitude":47.038757,"longitude":1.918953,"website":"http://www.paudy.fr/","hasWebsite":true,"hasHoraires":true,"url":"https://lannuaire.service-public.gouv.fr/centre-val-de-loire/indre/852ea96e-30f4-41e9-ae7a-1951da3dc0c8"}
{"nom":"Paulnay","nomNormalise":"paulnay","typeCollectivite":"Commune","region":"Centre-Val de Loire","departement":"Indre","departementCode":"36","adresse":{"street":"3 rue Georges-Clemenceau","postalCode":"36290","city":"Paulnay","country":"France"},"contacts":{"email":"mairie.paulnay@wanadoo.fr","telephone":"0254380225"},"horaires":"Du Lundi au Vendredi : de 08h30 à 12h00","latitude":46.850445,"longitude":1.147866,"website":"","hasWebsite":false,"hasHoraires":true,"url":"https://lannuaire.service-public.gouv.fr/centre-val-de-loire/indre/fad4ca57-f2cc-4a0a-84ff-59a753962151"}
{"nom":"Pellevoisin","nomNormalise":"pellevoisin","typeCollectivite":"Commune","region":"Centre-Val de Loire","departement":"Indre","departementCode":"36","adresse":{"street":"3 avenue de la République","postalCode":"36180","city":"Pellevoisin","country":"France"},"contacts":{"email":"pellevoisin@orange.fr","telephone":"0254390068"},"horaires":"Le Lundi : de 09h00 à 12h00 de 13h30 à 17h00\nLe Mardi : de 09h00 à 12h00\nLe Mercredi : de 09h00 à 12h00 de 13h30 à 17h00\nLe Jeudi : de 09h00 à 12h00\nLe Vendredi : de 09h00 à 12h00 de 13h30 à 17h00","latitude":46.983196,"longitude":1.411438,"website":"https://www.pellevoisin.fr/","hasWebsite":true,"hasHoraires":true,"url":"https://lannuaire.service-public.gouv.fr/centre-val-de-loire/indre/29003581-e17a-4f56-8d24-e3ae8bf6b552"}
{"nom":"Pérassay","nomNormalise":"perassay","typeCollectivite":"Commune","region":"Centre-Val de Loire","departement":"Indre","departementCode":"36","adresse":{"street":"5 rue Principale","postalCode":"36160","city":"Pérassay","country":"France"},"contacts":{"email":"mairie.perassay@orange.fr","telephone":"0254305356"},"horaires":"Le Lundi : de 14h00 à 18h00\nLe Mardi : de 09h00 à 12h00 de 14h00 à 18h00\nLe Jeudi : de 09h00 à 12h00 de 14h00 à 18h00\nDu Vendredi au Samedi : de 09h00 à 12h00","latitude":46.47197,"longitude":2.150512,"website":"","hasWebsite":false,"hasHoraires":true,"url":"https://lannuaire.service-public.gouv.fr/centre-val-de-loire/indre/837d867a-b9a1-4d8a-a25b-a33fb59661e9"}
{"nom":"Pommiers","nomNormalise":"pommiers","typeCollectivite":"Commune","region":"Centre-Val de Loire","departement":"Indre","departementCode":"36","adresse":{"street":"27 rue Grande","postalCode":"36190","city":"Pommiers","country":"France"},"contacts":{"email":"mairie.de.pommiers@wanadoo.fr","telephone":"0254478505"},"horaires":"Du Lundi au Vendredi : de 13h00 à 17h00","latitude":46.522583,"longitude":1.656327,"website":"https://mairie-pommiers-en-berry.fr/","hasWebsite":true,"hasHoraires":true,"url":"https://lannuaire.service-public.gouv.fr/centre-val-de-loire/indre/f6d061e7-979d-4a54-a8c1-4d4d0f8aaab9"}
{"nom":"Poulaines","nomNormalise":"poulaines","typeCollectivite":"Commune","region":"Centre-Val de Loire","departement":"Indre","departementCode":"36","adresse":{"street":"13 rue de la République","postalCode":"36210","city":"Poulaines","country":"France"},"contacts":{"email":"mairie@poulaines.fr","telephone":"0254409314"},"horaires":"Du Lundi au Vendredi : de 09h00 à 12h30\nLe Samedi : de 09h00 à 12h00","latitude":47.152122,"longitude":1.661808,"website":"https://www.poulaines.fr/","hasWebsite":true,"hasHoraires":true,"url":"https://lannuaire.service-public.gouv.fr/centre-val-de-loire/indre/ad9ef096-4b7d-4881-9a91-5538f1d38f90"}
{"nom":"Pouligny-Notre-Dame","nomNormalise":"poulignynotredame","typeCollectivite":"Commune","region":"Centre-Val de Loire","departement":"Indre","departementCode":"36","adresse":{"street":"2 rue du Golf","postalCode":"36160","city":"Pouligny-Notre-Dame","country":"France"},"contacts":{"email":"poulignynotredamemairie@wanadoo.fr","telephone":"0254302115"},"horaires":"Du Lundi au Mardi : de 09h00 à 12h00 de 14h00 à 17h00\nDu Jeudi au Vendredi : de 09h00 à 12h00 de 14h00 à 17h00\nLe Samedi : de 09h00 à 11h30","latitude":46.4852,"longitude":2.00713,"website":"http://www.pouligny-notre-dame.fr/","hasWebsite":true,"hasHoraires":true,"url":"https://lannuaire.service-public.gouv.fr/centre-val-de-loire/indre/3fe3026f-8c52-442e-b0a8-28ca8713496a"}
{"nom":"Pouligny-Saint-Martin","nomNormalise":"poulignysaintmartin","typeCollectivite":"Commune","region":"Centre-Val de Loire","departement":"Indre","departementCode":"36","adresse":{"street":"9 Route-de-Champillet","postalCode":"36160","city":"Pouligny-Saint-Martin","country":"France"},"contacts":{"email":"","telephone":"0254302288"},"horaires":"Le Mardi : de 08h30 à 12h00\nLe Jeudi : de 08h30 à 12h00\nLe Vendredi : de 13h30 à 16h00","latitude":46.516026,"longitude":2.0144024,"website":"https://www.intramuros.org/pouligny-saint-martin","hasWebsite":true,"hasHoraires":true,"url":"https://lannuaire.service-public.gouv.fr/centre-val-de-loire/indre/8b2347f2-0ffa-4cba-83bc-49fe0eb1597b"}
{"nom":"Pouligny-Saint-Pierre","nomNormalise":"poulignysaintpierre","typeCollectivite":"Commune","region":"Centre-Val de Loire","departement":"Indre","departementCode":"36","adresse":{"street":"1 place des Anciens-Combattants","postalCode":"36300","city":"Pouligny-Saint-Pierre","country":"France"},"contacts":{"email":"mairie@poulignystpierre.fr","telephone":"0254371001"},"horaires":"Du Lundi au Vendredi : de 09h00 à 12h00 de 13h30 à 17h30","latitude":46.6378,"longitude":1.06331,"website":"","hasWebsite":false,"hasHoraires":true,"url":"https://lannuaire.service-public.gouv.fr/centre-val-de-loire/indre/449eabe0-4d91-47b5-ae7d-627be10e5b53"}
{"nom":"Préaux","nomNormalise":"preaux","typeCollectivite":"Commune","region":"Centre-Val de Loire","departement":"Indre","departementCode":"36","adresse":{"street":"6 route de Châtillon","postalCode":"36240","city":"Préaux","country":"France"},"contacts":{"email":"mairiepreaux@wanadoo.fr","telephone":"0254387500"},"horaires":"Du Lundi au Mardi : de 08h30 à 12h15 de 13h30 à 17h00\nDu Jeudi au Vendredi : de 08h30 à 12h15 de 13h30 à 17h00","latitude":47.021206,"longitude":1.2920893,"website":"http://www.preaux36.fr/","hasWebsite":true,"hasHoraires":true,"url":"https://lannuaire.service-public.gouv.fr/centre-val-de-loire/indre/ffb4a883-05ed-443d-8fe5-3181ae293d67"}
{"nom":"Preuilly-la-Ville","nomNormalise":"preuillylaville","typeCollectivite":"Commune","region":"Centre-Val de Loire","departement":"Indre","departementCode":"36","adresse":{"street":"1 rue du Campanile","postalCode":"36220","city":"Preuilly-la-Ville","country":"France"},"contacts":{"email":"mairie.preuilly.laville@orange.fr","telephone":"0254375311"},"horaires":"Le Lundi : de 08h30 à 12h30\nLe Mercredi : de 13h00 à 17h00\nLe Jeudi : de 08h30 à 12h30 de 13h30 à 17h30","latitude":46.697132,"longitude":0.9683363,"website":"","hasWebsite":false,"hasHoraires":true,"url":"https://lannuaire.service-public.gouv.fr/centre-val-de-loire/indre/1149a716-656b-4b79-8872-e6ead476b863"}
{"nom":"Prissac","nomNormalise":"prissac","typeCollectivite":"Commune","region":"Centre-Val de Loire","departement":"Indre","departementCode":"36","adresse":{"street":"1 place du 8-Mai","postalCode":"36370","city":"Prissac","country":"France"},"contacts":{"email":"mairie@prissac.fr","telephone":"0254250010"},"horaires":"Le Lundi : de 13h30 à 17h30\nLe Mardi : de 09h00 à 12h00 de 13h30 à 17h30\nLe Mercredi : de 09h00 à 12h00\nDu Jeudi au Vendredi : de 09h00 à 12h00 de 13h30 à 17h30\nLe Samedi : de 09h00 à 12h00","latitude":46.50991,"longitude":1.30858,"website":"https://prissac.fr/","hasWebsite":true,"hasHoraires":true,"url":"https://lannuaire.service-public.gouv.fr/centre-val-de-loire/indre/5a209033-1c28-44dc-98c8-953008a30277"}
{"nom":"Pruniers","nomNormalise":"pruniers","typeCollectivite":"Commune","region":"Centre-Val de Loire","departement":"Indre","departementCode":"36","adresse":{"street":"1 place de la Mairie","postalCode":"36120","city":"Pruniers","country":"France"},"contacts":{"email":"commune.pruniers@wanadoo.fr","telephone":"0254490302"},"horaires":"Le Mardi : de 08h30 à 12h00 de 13h30 à 18h15\nLe Mercredi : de 08h30 à 12h00\nDu Jeudi au Vendredi : de 08h30 à 12h00 de 13h30 à 18h15\nLe Samedi : de 08h00 à 12h00","latitude":46.78886,"longitude":2.048571,"website":"","hasWebsite":false,"hasHoraires":true,"url":"https://lannuaire.service-public.gouv.fr/centre-val-de-loire/indre/b84e73a7-6916-4350-8bf4-e5c61e8a23fb"}
{"nom":"Reboursin","nomNormalise":"reboursin","typeCollectivite":"Commune","region":"Centre-Val de Loire","departement":"Indre","departementCode":"36","adresse":{"street":"120 place de la mairie","postalCode":"36150","city":"Reboursin","country":"France"},"contacts":{"email":"mairiereboursin@free.fr","telephone":"0254497202"},"horaires":"Du Lundi au Mardi : de 13h30 à 16h00\nDu Jeudi au Vendredi : de 13h30 à 16h00","latitude":47.10316,"longitude":1.82983,"website":"","hasWebsite":false,"hasHoraires":true,"url":"https://lannuaire.service-public.gouv.fr/centre-val-de-loire/indre/2fd57ac0-cb11-4d18-bf9a-7a952303206e"}
{"nom":"Reuilly","nomNormalise":"reuilly","typeCollectivite":"Commune","region":"Centre-Val de Loire","departement":"Indre","departementCode":"36","adresse":{"street":"6 place des Écoles","postalCode":"36260","city":"Reuilly","country":"France"},"contacts":{"email":"mairie@reuilly.fr","telephone":"0254034900"},"horaires":"Le Lundi : de 13h30 à 18h00\nDu Mardi au Mercredi : de 08h30 à 12h00 de 13h30 à 17h30\nLe Vendredi : de 08h30 à 12h00 de 13h30 à 17h30","latitude":47.08537,"longitude":2.041388,"website":"https://www.reuilly.fr/","hasWebsite":true,"hasHoraires":true,"url":"https://lannuaire.service-public.gouv.fr/centre-val-de-loire/indre/dc366437-b64d-470d-abc5-549c25c51d1b"}
{"nom":"Rivarennes","nomNormalise":"rivarennes","typeCollectivite":"Commune","region":"Centre-Val de Loire","departement":"Indre","departementCode":"36","adresse":{"street":"4 place Valéry-Gilbert-Tournois","postalCode":"36800","city":"Rivarennes","country":"France"},"contacts":{"email":"mairie@rivarennes36.fr","telephone":"0254470469"},"horaires":"Du Lundi au Mardi : de 10h00 à 12h00\nDu Mercredi au Vendredi : de 10h00 à 12h00\nLe Samedi : de 10h00 à 12h00\n\nAccueil ouvert uniquement les semaines paires.","latitude":46.636112,"longitude":1.386212,"website":"http://www.rivarennes.fr/","hasWebsite":true,"hasHoraires":true,"url":"https://lannuaire.service-public.gouv.fr/centre-val-de-loire/indre/c30a7e48-557c-4a1d-add6-d8e998e4c3f5"}
{"nom":"Rosnay","nomNormalise":"rosnay","typeCollectivite":"Commune","region":"Centre-Val de Loire","departement":"Indre","departementCode":"36","adresse":{"street":"4 place de la Mairie","postalCode":"36300","city":"Rosnay","country":"France"},"contacts":{"email":"rosnay-mairie@wanadoo.fr","telephone":"0254378017"},"horaires":"Le Lundi : de 08h00 à 12h00\nLe Mardi : de 08h00 à 12h00 de 13h00 à 17h00\nDu Mercredi au Jeudi : de 08h00 à 12h00\nLe Vendredi : de 08h00 à 12h00 de 13h00 à 17h00","latitude":46.7015,"longitude":1.21426,"website":"","hasWebsite":false,"hasHoraires":true,"url":"https://lannuaire.service-public.gouv.fr/centre-val-de-loire/indre/9040e58e-cba7-45f3-a639-5f7c07317850"}
{"nom":"Roussines","nomNormalise":"roussines","typeCollectivite":"Commune","region":"Centre-Val de Loire","departement":"Indre","departementCode":"36","adresse":{"street":"1 rue de la Croix-Bleue","postalCode":"36170","city":"Roussines","country":"France"},"contacts":{"email":"mairie.roussines@orange.fr","telephone":"0254475603"},"horaires":"Le Lundi : de 08h30 à 12h00 de 13h30 à 17h00\nLe Mardi : de 08h30 à 12h00\nLe Mercredi : de 13h30 à 17h00\nLe Vendredi : de 08h30 à 12h00 de 13h30 à 17h00","latitude":46.468464,"longitude":1.3889341,"website":"","hasWebsite":false,"hasHoraires":true,"url":"https://lannuaire.service-public.gouv.fr/centre-val-de-loire/indre/7d99d0ee-2749-4763-a292-1eb129d0709f"}
{"nom":"Rouvres-les-Bois","nomNormalise":"rouvreslesbois","typeCollectivite":"Commune","region":"Centre-Val de Loire","departement":"Indre","departementCode":"36","adresse":{"street":"22 rue Principale","postalCode":"36110","city":"Rouvres-les-Bois","country":"France"},"contacts":{"email":"rouvres.les.bois@wanadoo.fr","telephone":"0254356205"},"horaires":"Du Lundi au Vendredi : de 08h30 à 12h30","latitude":47.070503,"longitude":1.658714,"website":"http://www.mairiederouvreslesbois.blogspot.fr/","hasWebsite":true,"hasHoraires":true,"url":"https://lannuaire.service-public.gouv.fr/centre-val-de-loire/indre/3a513108-b0dc-44c5-89df-1d03dfd1e600"}
{"nom":"Ruffec","nomNormalise":"ruffec","typeCollectivite":"Commune","region":"Centre-Val de Loire","departement":"Indre","departementCode":"36","adresse":{"street":"9 rue de la Mairie","postalCode":"36300","city":"Ruffec","country":"France"},"contacts":{"email":"accueil@mairieruffec.fr","telephone":"0254377011"},"horaires":"Du Lundi au Mardi : de 08h00 à 12h30 de 13h30 à 16h30\nLe Mercredi : de 08h00 à 12h30\nLe Jeudi : de 08h00 à 12h30 de 13h30 à 17h30\nLe Vendredi : de 08h00 à 12h00 de 13h30 à 16h30","latitude":46.628487,"longitude":1.17088,"website":"","hasWebsite":false,"hasHoraires":true,"url":"https://lannuaire.service-public.gouv.fr/centre-val-de-loire/indre/d8cd99a9-66d2-42e7-b915-3548c1ec28b8"}
{"nom":"Sacierges-Saint-Martin","nomNormalise":"saciergessaintmartin","typeCollectivite":"Commune","region":"Centre-Val de Loire","departement":"Indre","departementCode":"36","adresse":{"street":"5 rue de l'Ébaupin","postalCode":"36170","city":"Sacierges-Saint-Martin","country":"France"},"contacts":{"email":"sacierges-mairie@wanadoo.fr","telephone":"0254475504"},"horaires":"Du Lundi au Mardi : de 09h00 à 12h00\nDu Jeudi au Vendredi : de 09h00 à 12h00","latitude":46.494804,"longitude":1.3659257,"website":"http://www.mairie-sacierges.com/","hasWebsite":true,"hasHoraires":true,"url":"https://lannuaire.service-public.gouv.fr/centre-val-de-loire/indre/36b8e3e0-24bd-4d30-a711-976c579432fe"}
{"nom":"Saint-Aigny","nomNormalise":"saintaigny","typeCollectivite":"Commune","region":"Centre-Val de Loire","departement":"Indre","departementCode":"36","adresse":{"street":"Le Bourg","postalCode":"36300","city":"Saint-Aigny","country":"France"},"contacts":{"email":"mairie@saint-aigny.fr","telephone":"0254370902"},"horaires":"Le Lundi : de 09h00 à 12h00\nLe Mardi : de 14h00 à 17h00\nLe Jeudi : de 14h00 à 17h00\nLe Vendredi : de 09h00 à 12h00","latitude":46.64516,"longitude":1.026084,"website":"","hasWebsite":false,"hasHoraires":true,"url":"https://lannuaire.service-public.gouv.fr/centre-val-de-loire/indre/d16987cd-5733-49ca-bb38-515f1c45cd30"}
{"nom":"Saint-Aoustrille","nomNormalise":"saintaoustrille","typeCollectivite":"Commune","region":"Centre-Val de Loire","departement":"Indre","departementCode":"36","adresse":{"street":"1 place des Tilleuls","postalCode":"36100","city":"Saint-Aoustrille","country":"France"},"contacts":{"email":"mairie.saint-aoustrille@wanadoo.fr","telephone":"0254212566"},"horaires":"Du Lundi au Mardi : de 14h00 à 17h00\nDu Jeudi au Vendredi : de 09h00 à 12h00","latitude":46.938625,"longitude":1.92209,"website":"","hasWebsite":false,"hasHoraires":true,"url":"https://lannuaire.service-public.gouv.fr/centre-val-de-loire/indre/1e827b02-db59-4e69-98a8-5c18aeb41ae4"}
{"nom":"Saint-Août","nomNormalise":"saintaout","typeCollectivite":"Commune","region":"Centre-Val de Loire","departement":"Indre","departementCode":"36","adresse":{"street":"21 route d'Issoudun","postalCode":"36120","city":"Saint-Août","country":"France"},"contacts":{"email":"mairie@saint-aout.fr","telephone":"0254362819"},"horaires":"Le Lundi : de 13h30 à 18h00\nLe Mardi : de 08h30 à 12h30\nLe Mercredi : de 09h00 à 12h00\nDu Jeudi au Vendredi : de 08h30 à 12h30\nLe Samedi : de 09h00 à 12h00","latitude":46.731876,"longitude":1.96563,"website":"https://www.saint-aout.fr/","hasWebsite":true,"hasHoraires":true,"url":"https://lannuaire.service-public.gouv.fr/centre-val-de-loire/indre/f2bb6bca-4f4d-400d-b23f-fa3c5e9c36f5"}
{"nom":"Saint-Aubin","nomNormalise":"saintaubin","typeCollectivite":"Commune","region":"Centre-Val de Loire","departement":"Indre","departementCode":"36","adresse":{"street":"2 rue du Bois-Chevet","postalCode":"36100","city":"Saint-Aubin","country":"France"},"contacts":{"email":"mairie.saint-aubin.36100@orange.fr","telephone":"0964203084"},"horaires":"Le Lundi : de 09h00 à 12h00 de 13h00 à 17h00\nLe Jeudi : de 09h00 à 12h00 de 13h00 à 17h00\nLe Samedi : de 09h00 à 12h00","latitude":46.85124,"longitude":2.02416,"website":"","hasWebsite":false,"hasHoraires":true,"url":"https://lannuaire.service-public.gouv.fr/centre-val-de-loire/indre/4af67d32-8857-4ba2-99eb-e765c9314576"}
{"nom":"Saint-Benoît-du-Sault","nomNormalise":"saintbenoitdusault","typeCollectivite":"Commune","region":"Centre-Val de Loire","departement":"Indre","departementCode":"36","adresse":{"street":"1 rue Joseph-Besge","postalCode":"36170","city":"Saint-Benoît-du-Sault","country":"France"},"contacts":{"email":"saint.benoit.du.sault@orange.fr","telephone":"0254475144"},"horaires":"Le Mardi : de 10h45 à 12h30 de 14h30 à 17h30\nLe Jeudi : de 10h45 à 12h30 de 14h30 à 17h30\nLe Vendredi : de 10h45 à 12h30","latitude":46.440777,"longitude":1.389259,"website":"http://www.saint-benoit-du-sault.fr/","hasWebsite":true,"hasHoraires":true,"url":"https://lannuaire.service-public.gouv.fr/centre-val-de-loire/indre/9ea59766-fe55-4444-9cd0-7ec0896cf93b"}
{"nom":"Saint-Chartier","nomNormalise":"saintchartier","typeCollectivite":"Commune","region":"Centre-Val de Loire","departement":"Indre","departementCode":"36","adresse":{"street":"7 rue des Maîtres-Sonneurs","postalCode":"36400","city":"Saint-Chartier","country":"France"},"contacts":{"email":"mairie.saintchartier@orange.fr","telephone":"0254310251"},"horaires":"Du Lundi au Vendredi : de 08h30 à 12h30 de 13h30 à 16h15","latitude":46.647305,"longitude":1.9774159,"website":"","hasWebsite":false,"hasHoraires":true,"url":"https://lannuaire.service-public.gouv.fr/centre-val-de-loire/indre/a19c8f80-c716-4ffb-8bc4-14aba38ccd71"}
{"nom":"Saint-Christophe-en-Bazelle","nomNormalise":"saintchristopheenbazelle","typeCollectivite":"Commune","region":"Centre-Val de Loire","departement":"Indre","departementCode":"36","adresse":{"street":"6 rue de la Mairie","postalCode":"36210","city":"Saint-Christophe-en-Bazelle","country":"France"},"contacts":{"email":"mairie.saint-christophe-en-bazelle@orange.fr","telephone":"0254406112"},"horaires":"Le Lundi : de 09h00 à 12h00\nLe Mercredi : de 09h00 à 12h00 de 13h00 à 17h00\nLe Vendredi : de 09h00 à 12h00","latitude":47.1913,"longitude":1.71273,"website":"https://stchristopheenbazelle.fr/","hasWebsite":true,"hasHoraires":true,"url":"https://lannuaire.service-public.gouv.fr/centre-val-de-loire/indre/fcd9d5d2-f523-429e-a8a6-03ba634de939"}
{"nom":"Saint-Christophe-en-Boucherie","nomNormalise":"saintchristopheenboucherie","typeCollectivite":"Commune","region":"Centre-Val de Loire","departement":"Indre","departementCode":"36","adresse":{"street":"1 place de la Mairie","postalCode":"36400","city":"Saint-Christophe-en-Boucherie","country":"France"},"contacts":{"email":"st.christophe36.mairie@wanadoo.fr","telephone":"0254300110"},"horaires":"Le Mardi : de 08h30 à 12h30\nLe Jeudi : de 14h00 à 18h30\nLe Vendredi : de 08h30 à 12h00","latitude":46.661118,"longitude":2.0615726,"website":"","hasWebsite":false,"hasHoraires":true,"url":"https://lannuaire.service-public.gouv.fr/centre-val-de-loire/indre/45702f4c-3712-4770-b8d2-92298eb1f2c9"}
{"nom":"Saint-Civran","nomNormalise":"saintcivran","typeCollectivite":"Commune","region":"Centre-Val de Loire","departement":"Indre","departementCode":"36","adresse":{"street":"21 rue de la République","postalCode":"36170","city":"Saint-Civran","country":"France"},"contacts":{"email":"saintcivran-mairie@wanadoo.fr","telephone":"0254475314"},"horaires":"Le Mardi : de 09h00 à 12h00 de 14h00 à 18h00\nDu Jeudi au Vendredi : de 09h00 à 12h00","latitude":46.496952,"longitude":1.39028,"website":"","hasWebsite":false,"hasHoraires":true,"url":"https://lannuaire.service-public.gouv.fr/centre-val-de-loire/indre/29ecb5b8-b23c-4cb2-ac44-8d12ee580060"}
{"nom":"Saint-Cyran-du-Jambot","nomNormalise":"saintcyrandujambot","typeCollectivite":"Commune","region":"Centre-Val de Loire","departement":"Indre","departementCode":"36","adresse":{"street":"6 route de Châtillon","postalCode":"36700","city":"Saint-Cyran-du-Jambot","country":"France"},"contacts":{"email":"mairie.stcyrandujambot@orange.fr","telephone":"0254393057"},"horaires":"Du Lundi au Jeudi : de 08h30 à 12h30 de 13h00 à 16h30\nLe Vendredi : de 08h30 à 13h30","latitude":47.01723,"longitude":1.138944,"website":"","hasWebsite":false,"hasHoraires":true,"url":"https://lannuaire.service-public.gouv.fr/centre-val-de-loire/indre/b11067d0-dcbf-416e-85a7-aa8d96824ecd"}
{"nom":"Saint-Denis-de-Jouhet","nomNormalise":"saintdenisdejouhet","typeCollectivite":"Commune","region":"Centre-Val de Loire","departement":"Indre","departementCode":"36","adresse":{"street":"4 place de l'Église","postalCode":"36230","city":"Saint-Denis-de-Jouhet","country":"France"},"contacts":{"email":"mairie.sd.jouhet@wanadoo.fr","telephone":"0254307019"},"horaires":"Le Lundi : de 14h00 à 16h00\nLe Mardi : de 09h00 à 12h00 de 14h00 à 18h00\nDu Mercredi au Vendredi : de 09h00 à 12h00 de 14h00 à 16h00\nLe Samedi : de 09h00 à 12h00","latitude":46.4885,"longitude":1.87139,"website":"https://saintdenisdejouhet.fr/","hasWebsite":true,"hasHoraires":true,"url":"https://lannuaire.service-public.gouv.fr/centre-val-de-loire/indre/8a3d1d53-bef5-4a0f-8525-88c70018a7b6"}
{"nom":"Sainte-Fauste","nomNormalise":"saintefauste","typeCollectivite":"Commune","region":"Centre-Val de Loire","departement":"Indre","departementCode":"36","adresse":{"street":"24 rue des Pommiers","postalCode":"36100","city":"Sainte-Fauste","country":"France"},"contacts":{"email":"mairie.sainte-fauste@wanadoo.fr","telephone":"0254495108"},"horaires":"Du Lundi au Mardi : de 09h30 à 12h30 de 13h30 à 17h30\nLe Mercredi : de 09h30 à 12h00\nLe Vendredi : de 09h30 à 12h30 de 13h30 à 17h00","latitude":46.8575,"longitude":1.86558,"website":"https://www.sainte-fauste.fr/","hasWebsite":true,"hasHoraires":true,"url":"https://lannuaire.service-public.gouv.fr/centre-val-de-loire/indre/932e268c-755d-4658-8449-97a78f2b006b"}
{"nom":"Sainte-Gemme","nomNormalise":"saintegemme","typeCollectivite":"Commune","region":"Centre-Val de Loire","departement":"Indre","departementCode":"36","adresse":{"street":"10 place de l'Église","postalCode":"36500","city":"Sainte-Gemme","country":"France"},"contacts":{"email":"mairie.ste.gemme@wanadoo.fr","telephone":"0254380159"},"horaires":"Le Lundi : de 13h30 à 18h00\nLe Mercredi : de 13h30 à 18h00\nLe Vendredi : de 13h30 à 17h30","latitude":46.85221,"longitude":1.3398134,"website":"","hasWebsite":false,"hasHoraires":true,"url":"https://lannuaire.service-public.gouv.fr/centre-val-de-loire/indre/f37fc5ca-cc9b-4d62-827c-f0dc1175798d"}
{"nom":"Sainte-Lizaigne","nomNormalise":"saintelizaigne","typeCollectivite":"Commune","region":"Centre-Val de Loire","departement":"Indre","departementCode":"36","adresse":{"street":"1 route de Paudy","postalCode":"36260","city":"Sainte-Lizaigne","country":"France"},"contacts":{"email":"mairie.stelizaigne@wanadoo.fr","telephone":"0254040016"},"horaires":"Le Lundi : de 08h30 à 12h15 de 14h30 à 18h00\nLe Mardi : de 08h30 à 12h15 de 14h30 à 18h00\nLe Mercredi : de 08h30 à 12h15\nLe Jeudi : de 08h30 à 12h15 de 14h30 à 18h00\nLe Vendredi : de 08h30 à 12h15 de 14h30 à 18h00","latitude":47.01,"longitude":2.01158,"website":"http://www.saintelizaigne.fr/","hasWebsite":true,"hasHoraires":true,"url":"https://lannuaire.service-public.gouv.fr/centre-val-de-loire/indre/ffe5f420-9e83-44a4-9117-6f77112358d9"}
{"nom":"Sainte-Sévère-sur-Indre","nomNormalise":"sainteseveresurindre","typeCollectivite":"Commune","region":"Centre-Val de Loire","departement":"Indre","departementCode":"36","adresse":{"street":"31 avenue d'Auvergne","postalCode":"36160","city":"Sainte-Sévère-sur-Indre","country":"France"},"contacts":{"email":"mairie.stesevere@wanadoo.fr","telephone":"0254305028"},"horaires":"Du Lundi au Mardi : de 09h30 à 12h00 de 13h30 à 17h30\nLe Mercredi : de 09h30 à 12h00 de 13h30 à 18h00\nLe Jeudi : de 08h30 à 12h00\nLe Vendredi : de 09h30 à 12h00 de 13h30 à 16h30","latitude":46.48633,"longitude":2.0708792,"website":"http://www.sainte-severe-sur-indre.fr/","hasWebsite":true,"hasHoraires":true,"url":"https://lannuaire.service-public.gouv.fr/centre-val-de-loire/indre/0c2b581c-ad75-4d17-8744-4acc54be175c"}
{"nom":"Saint-Florentin","nomNormalise":"saintflorentin","typeCollectivite":"Commune","region":"Centre-Val de Loire","departement":"Indre","departementCode":"36","adresse":{"street":"2 rue Bruyère","postalCode":"36150","city":"Saint-Florentin","country":"France"},"contacts":{"email":"mairie-stflorentin@wanadoo.fr","telephone":"0254497853"},"horaires":"Le Lundi : de 08h30 à 12h30 de 13h30 à 17h30\nLe Mardi : de 08h30 à 12h30\nLe Mercredi : de 09h30 à 12h30\nLe Jeudi : de 08h30 à 12h30\nLe Vendredi : de 08h30 à 12h30 de 13h30 à 17h30","latitude":47.0784,"longitude":1.80019,"website":"","hasWebsite":false,"hasHoraires":true,"url":"https://lannuaire.service-public.gouv.fr/centre-val-de-loire/indre/4e3a8f84-ac0d-422a-8805-bd8227276483"}
{"nom":"Saint-Gaultier","nomNormalise":"saintgaultier","typeCollectivite":"Commune","region":"Centre-Val de Loire","departement":"Indre","departementCode":"36","adresse":{"street":"9 place de l'Hôtel-de-Ville","postalCode":"36800","city":"Saint-Gaultier","country":"France"},"contacts":{"email":"st-gaultier.mairie@wanadoo.fr","telephone":"0254016600"},"horaires":"Du Lundi au Vendredi : de 09h00 à 12h15 de 14h00 à 17h30\nLe Samedi : de 09h00 à 12h15","latitude":46.635094,"longitude":1.4228321,"website":"https://www.mairie-saintgaultier.fr/","hasWebsite":true,"hasHoraires":true,"url":"https://lannuaire.service-public.gouv.fr/centre-val-de-loire/indre/0aa77f48-3501-4fee-9683-9c4d9144e6dc"}
{"nom":"Saint-Genou","nomNormalise":"saintgenou","typeCollectivite":"Commune","region":"Centre-Val de Loire","departement":"Indre","departementCode":"36","adresse":{"street":"6 boulevard Rabelais","postalCode":"36500","city":"Saint-Genou","country":"France"},"contacts":{"email":"mairie.saintgenou@orange.fr","telephone":"0254384595"},"horaires":"Le Lundi : de 14h00 à 17h30\nDu Mardi au Mercredi : de 08h30 à 12h00 de 14h00 à 17h30\nLe Jeudi : de 08h30 à 12h00\nLe Vendredi : de 08h30 à 12h00 de 14h00 à 17h30\nLe Samedi : de 10h00 à 12h00\n\nPermanence des élus uniquement.","latitude":46.9309,"longitude":1.33811,"website":"http://www.saintgenou.fr/","hasWebsite":true,"hasHoraires":true,"url":"https://lannuaire.service-public.gouv.fr/centre-val-de-loire/indre/0eb74807-56fa-47ce-8405-022ab0da16f5"}
{"nom":"Saint-Georges-sur-Arnon","nomNormalise":"saintgeorgessurarnon","typeCollectivite":"Commune","region":"Centre-Val de Loire","departement":"Indre","departementCode":"36","adresse":{"street":"1 route des Tilleuls","postalCode":"36100","city":"Saint-Georges-sur-Arnon","country":"France"},"contacts":{"email":"mairie-st.georges.sur.arnon@wanadoo.fr","telephone":"0254040105"},"horaires":"Le Lundi : de 08h30 à 12h15 de 14h00 à 18h00\nDu Mardi au Mercredi : de 08h30 à 12h15 de 14h00 à 18h00\nLe Jeudi : de 08h30 à 12h15\nLe Vendredi : de 08h30 à 12h15 de 14h00 à 17h00","latitude":46.9959,"longitude":2.08768,"website":"","hasWebsite":false,"hasHoraires":true,"url":"https://lannuaire.service-public.gouv.fr/centre-val-de-loire/indre/d399f712-c36a-4bd3-ae3c-3cdfe25af606"}
{"nom":"Saint-Gilles","nomNormalise":"saintgilles","typeCollectivite":"Commune","region":"Centre-Val de Loire","departement":"Indre","departementCode":"36","adresse":{"street":"21 rue de la Mairie","postalCode":"36170","city":"Saint-Gilles","country":"France"},"contacts":{"email":"saintgilles.mairie@wanadoo.fr","telephone":"0254255057"},"horaires":"Le Lundi : de 08h00 à 12h30 de 13h30 à 17h00\nLe Mercredi : de 08h00 à 12h00\n\nUniquement sur rendez-vous\nLe Jeudi : de 08h00 à 12h30 de 13h30 à 17h00","latitude":46.479366,"longitude":1.458078,"website":"","hasWebsite":false,"hasHoraires":true,"url":"https://lannuaire.service-public.gouv.fr/centre-val-de-loire/indre/97fdd5d5-45be-4d60-b6a6-62e7991d8efd"}
{"nom":"Saint-Hilaire-sur-Benaize","nomNormalise":"sainthilairesurbenaize","typeCollectivite":"Commune","region":"Centre-Val de Loire","departement":"Indre","departementCode":"36","adresse":{"street":"9 route du Blanc","postalCode":"36370","city":"Saint-Hilaire-sur-Benaize","country":"France"},"contacts":{"email":"mairie.sthilaire.benaize@wanadoo.fr","telephone":"0254370866"},"horaires":"Le Lundi : de 09h00 à 12h30\nLe Mardi : de 13h30 à 17h15\nLe Mercredi : de 09h00 à 12h30\nLe Vendredi : de 09h00 à 12h30","latitude":46.5999,"longitude":1.02008,"website":"","hasWebsite":false,"hasHoraires":true,"url":"https://lannuaire.service-public.gouv.fr/centre-val-de-loire/indre/db245f21-f211-43f4-b5d1-09f5df0ffe57"}
{"nom":"Saint-Lactencin","nomNormalise":"saintlactencin","typeCollectivite":"Commune","region":"Centre-Val de Loire","departement":"Indre","departementCode":"36","adresse":{"street":"11 rue de la Mairie","postalCode":"36500","city":"Saint-Lactencin","country":"France"},"contacts":{"email":"mairie.st.lactencin@wanadoo.fr","telephone":"0254841578"},"horaires":"Le Lundi : de 13h30 à 17h30\nLe Mardi : de 09h00 à 12h00 de 13h30 à 17h30\nLe Jeudi : de 09h00 à 12h00\nLe Vendredi : de 09h00 à 12h00 de 13h30 à 17h30\nLe Samedi : de 09h00 à 12h00","latitude":46.8443,"longitude":1.54285,"website":"","hasWebsite":false,"hasHoraires":true,"url":"https://lannuaire.service-public.gouv.fr/centre-val-de-loire/indre/464f7a3f-90e7-42cd-a385-b4d000b0978a"}
{"nom":"Saint-Marcel","nomNormalise":"saintmarcel","typeCollectivite":"Commune","region":"Centre-Val de Loire","departement":"Indre","departementCode":"36","adresse":{"street":"2 rue du Point-du-Jour","postalCode":"36200","city":"Saint-Marcel","country":"France"},"contacts":{"email":"contact@mairie-stmarcel36.com","telephone":"0254241507"},"horaires":"Le Lundi : de 13h30 à 17h30\nDu Mardi au Vendredi : de 09h00 à 12h00 de 13h30 à 17h30\nLe Samedi : de 09h00 à 12h00","latitude":46.6012,"longitude":1.51489,"website":"https://saint-marcel-36.fr/","hasWebsite":true,"hasHoraires":true,"url":"https://lannuaire.service-public.gouv.fr/centre-val-de-loire/indre/10dc91a9-39e3-40b3-8bcb-a882659403ff"}
{"nom":"Saint-Maur","nomNormalise":"saintmaur","typeCollectivite":"Commune","region":"Centre-Val de Loire","departement":"Indre","departementCode":"36","adresse":{"street":"Place de la Mairie","postalCode":"36250","city":"Saint-Maur","country":"France"},"contacts":{"email":"contact@saint-maur36.com","telephone":"0254082630"},"horaires":"Du Lundi au Mardi : de 08h30 à 12h00 de 13h30 à 17h15\nLe Mercredi : de 08h30 à 12h00 de 13h30 à 17h15\nLe Jeudi : de 08h30 à 12h00\nLe Vendredi : de 08h30 à 12h00 de 13h30 à 16h15","latitude":46.8053,"longitude":1.63937,"website":"http://www.saint-maur36.fr/","hasWebsite":true,"hasHoraires":true,"url":"https://lannuaire.service-public.gouv.fr/centre-val-de-loire/indre/1c622fd0-58a0-4ae2-a937-8036d07e3102"}
{"nom":"Saint-Médard","nomNormalise":"saintmedard","typeCollectivite":"Commune","region":"Centre-Val de Loire","departement":"Indre","departementCode":"36","adresse":{"street":"Le Bourg","postalCode":"36700","city":"Saint-Médard","country":"France"},"contacts":{"email":"mairie@stmedard36.fr","telephone":"0254387547"},"horaires":"Le Lundi : de 08h00 à 12h00 de 14h00 à 18h00\nLe Vendredi : de 14h00 à 18h00","latitude":46.999374,"longitude":1.247129,"website":"http://www.saint-medard36.com/","hasWebsite":true,"hasHoraires":true,"url":"https://lannuaire.service-public.gouv.fr/centre-val-de-loire/indre/cafe102f-9692-4a09-bda1-4ce22882c34c"}
{"nom":"Saint-Michel-en-Brenne","nomNormalise":"saintmichelenbrenne","typeCollectivite":"Commune","region":"Centre-Val de Loire","departement":"Indre","departementCode":"36","adresse":{"street":"1 rue du Prieuré","postalCode":"36290","city":"Saint-Michel-en-Brenne","country":"France"},"contacts":{"email":"mairie@saint-michel-en-brenne.fr","telephone":"0254380069"},"horaires":"Le Lundi : de 08h00 à 12h00\nLe Mardi : de 13h00 à 17h30\nDu Jeudi au Vendredi : de 08h00 à 12h00","latitude":46.807617,"longitude":1.15941,"website":"","hasWebsite":false,"hasHoraires":true,"url":"https://lannuaire.service-public.gouv.fr/centre-val-de-loire/indre/9ac81114-29a1-4e24-9df8-db8eae543faa"}
{"nom":"Saint-Pierre-de-Jards","nomNormalise":"saintpierredejards","typeCollectivite":"Commune","region":"Centre-Val de Loire","departement":"Indre","departementCode":"36","adresse":{"street":"1 place de la Mairie","postalCode":"36260","city":"Saint-Pierre-de-Jards","country":"France"},"contacts":{"email":"secretariat@saintpierredejards.fr","telephone":"0254492417"},"horaires":"Du Lundi au Vendredi : de 09h00 à 12h00","latitude":47.09797,"longitude":1.9673263,"website":"","hasWebsite":false,"hasHoraires":true,"url":"https://lannuaire.service-public.gouv.fr/centre-val-de-loire/indre/0de104cb-7c27-4038-b053-3d8a76aa2884"}
{"nom":"Saint-Plantaire","nomNormalise":"saintplantaire","typeCollectivite":"Commune","region":"Centre-Val de Loire","departement":"Indre","departementCode":"36","adresse":{"street":"23 rue Principale","postalCode":"36190","city":"Saint-Plantaire","country":"France"},"contacts":{"email":"mairie.stplantaire@wanadoo.fr","telephone":"0254472118"},"horaires":"Du Lundi au Mercredi : de 09h00 à 12h00 de 14h00 à 17h00\nLe Jeudi : de 09h00 à 12h00\nLe Vendredi : de 09h00 à 12h00 de 14h00 à 17h00","latitude":46.45653,"longitude":1.671988,"website":"http://www.saint-plantaire.fr/","hasWebsite":true,"hasHoraires":true,"url":"https://lannuaire.service-public.gouv.fr/centre-val-de-loire/indre/63106d94-f6c5-4d95-be7d-1782be39d009"}
{"nom":"Saint-Valentin","nomNormalise":"saintvalentin","typeCollectivite":"Commune","region":"Centre-Val de Loire","departement":"Indre","departementCode":"36","adresse":{"street":"1 place de la Mairie","postalCode":"36100","city":"Saint-Valentin","country":"France"},"contacts":{"email":"info@village-saint-valentin.com","telephone":"0254212211"},"horaires":"Du Lundi au Vendredi : de 08h30 à 12h00","latitude":46.9413,"longitude":1.80349,"website":"http://www.village-saint-valentin.com/","hasWebsite":true,"hasHoraires":true,"url":"https://lannuaire.service-public.gouv.fr/centre-val-de-loire/indre/f7d1cff6-da5c-4eae-a038-43c870e69778"}
{"nom":"Sarzay","nomNormalise":"sarzay","typeCollectivite":"Commune","region":"Centre-Val de Loire","departement":"Indre","departementCode":"36","adresse":{"street":"3 place Raymond-Plique","postalCode":"36230","city":"Sarzay","country":"France"},"contacts":{"email":"mairie.sarzay@orange.fr","telephone":"0254313102"},"horaires":"Le Mardi : de 08h00 à 12h00 de 13h30 à 17h30\nLe Mercredi : de 13h30 à 17h30\nLe Vendredi : de 08h00 à 12h00 de 13h30 à 17h30","latitude":46.601597,"longitude":1.904063,"website":"https://sites.google.com/site/mairiedesarzay/","hasWebsite":true,"hasHoraires":true,"url":"https://lannuaire.service-public.gouv.fr/centre-val-de-loire/indre/1ff7688c-23b4-4100-980e-17b302c3be7e"}
{"nom":"Sassierges-Saint-Germain","nomNormalise":"sassiergessaintgermain","typeCollectivite":"Commune","region":"Centre-Val de Loire","departement":"Indre","departementCode":"36","adresse":{"street":"1 place de la Mairie","postalCode":"36120","city":"Sassierges-Saint-Germain","country":"France"},"contacts":{"email":"com.sassierges@orange.fr","telephone":"0254362209"},"horaires":"Du Lundi au Vendredi : de 09h00 à 12h00 de 13h30 à 17h30\nLe Samedi : de 09h00 à 12h00\n\nAccueil ouvert uniquement le 1e samedi du mois.","latitude":46.76935,"longitude":1.894025,"website":"http://www.sassiergessaintgermain.fr/","hasWebsite":true,"hasHoraires":true,"url":"https://lannuaire.service-public.gouv.fr/centre-val-de-loire/indre/bbc03ed4-5e62-4b1a-b9cf-1d66a2bc0244"}
{"nom":"Saulnay","nomNormalise":"saulnay","typeCollectivite":"Commune","region":"Centre-Val de Loire","departement":"Indre","departementCode":"36","adresse":{"street":"16 route de Mézières","postalCode":"36290","city":"Saulnay","country":"France"},"contacts":{"email":"mairie-saulnay@orange.fr","telephone":"0254384745"},"horaires":"Du Lundi au Mardi : de 14h00 à 17h00\nDu Jeudi au Vendredi : de 14h00 à 17h00","latitude":46.866455,"longitude":1.2689054,"website":"","hasWebsite":false,"hasHoraires":true,"url":"https://lannuaire.service-public.gouv.fr/centre-val-de-loire/indre/f9787460-b382-4f86-a6eb-a121ee0e17d8"}
{"nom":"Sauzelles","nomNormalise":"sauzelles","typeCollectivite":"Commune","region":"Centre-Val de Loire","departement":"Indre","departementCode":"36","adresse":{"street":"4 rue Mijault","postalCode":"36220","city":"Sauzelles","country":"France"},"contacts":{"email":"secretariat@sauzelles-mairie.fr","telephone":"0254370297"},"horaires":"Le Lundi : de 14h00 à 17h00\nLe Mardi : de 09h00 à 12h00\nLe Jeudi : de 09h00 à 12h00\nLe Vendredi : de 14h00 à 17h00","latitude":46.663982,"longitude":1.003835,"website":"","hasWebsite":false,"hasHoraires":true,"url":"https://lannuaire.service-public.gouv.fr/centre-val-de-loire/indre/360f57df-f48f-4dbb-8638-1a971def00a0"}
{"nom":"Sazeray","nomNormalise":"sazeray","typeCollectivite":"Commune","region":"Centre-Val de Loire","departement":"Indre","departementCode":"36","adresse":{"street":"19 avenue de la Marche","postalCode":"36160","city":"Sazeray","country":"France"},"contacts":{"email":"mairie.sazeray@orange.fr","telephone":"0254305104"},"horaires":"Le Mardi : de 09h00 à 12h00 de 14h00 à 17h30\nDu Jeudi au Vendredi : de 09h00 à 12h00 de 14h00 à 17h30\nLe Samedi : de 09h00 à 12h00","latitude":46.429188,"longitude":2.053714,"website":"","hasWebsite":false,"hasHoraires":true,"url":"https://lannuaire.service-public.gouv.fr/centre-val-de-loire/indre/c10f5533-e715-447d-9822-36d22f4a9273"}
{"nom":"Ségry","nomNormalise":"segry","typeCollectivite":"Commune","region":"Centre-Val de Loire","departement":"Indre","departementCode":"36","adresse":{"street":"1 rue de la Mairie","postalCode":"36100","city":"Ségry","country":"France"},"contacts":{"email":"mairie.segry@wanadoo.fr","telephone":"0254212147"},"horaires":"Du Lundi au Vendredi : de 09h00 à 12h00\nPossibilité sur rendez-vous l'après-midi (sauf le mercredi).","latitude":46.89062,"longitude":2.0845323,"website":"","hasWebsite":false,"hasHoraires":true,"url":"https://lannuaire.service-public.gouv.fr/centre-val-de-loire/indre/d8f4b8a6-f605-4e77-9def-a07688b89825"}
{"nom":"Selles-sur-Nahon","nomNormalise":"sellessurnahon","typeCollectivite":"Commune","region":"Centre-Val de Loire","departement":"Indre","departementCode":"36","adresse":{"street":"10 route de Frédille","postalCode":"36180","city":"Selles-sur-Nahon","country":"France"},"contacts":{"email":"mairie.selles-sur-nahon@orange.fr","telephone":"0254408425"},"horaires":"Le Mercredi : de 09h00 à 12h00\nLe Vendredi : de 09h00 à 12h00","latitude":47.0162,"longitude":1.45097,"website":"","hasWebsite":false,"hasHoraires":true,"url":"https://lannuaire.service-public.gouv.fr/centre-val-de-loire/indre/2be45ac1-f887-48ab-8c66-437aea2f5e1c"}
{"nom":"Sembleçay","nomNormalise":"semblecay","typeCollectivite":"Commune","region":"Centre-Val de Loire","departement":"Indre","departementCode":"36","adresse":{"street":"283 rue Léon Gibault","postalCode":"36210","city":"Sembleçay","country":"France"},"contacts":{"email":"semblecay.mairie@wanadoo.fr","telephone":"0254406588"},"horaires":"Le Mardi : de 09h30 à 13h00 de 13h30 à 18h00\nLe Jeudi : de 08h30 à 12h30","latitude":47.22228,"longitude":1.682993,"website":"","hasWebsite":false,"hasHoraires":true,"url":"https://lannuaire.service-public.gouv.fr/centre-val-de-loire/indre/9f884bc0-c414-4d13-8030-6dc4181afd11"}
{"nom":"Sougé","nomNormalise":"souge","typeCollectivite":"Commune","region":"Centre-Val de Loire","departement":"Indre","departementCode":"36","adresse":{"street":"12 route de Chézelles","postalCode":"36500","city":"Sougé","country":"France"},"contacts":{"email":"mairie.souge.36@wanadoo.fr","telephone":"0254358440"},"horaires":"Le Lundi : de 09h00 à 12h00\nLe Mardi : de 09h00 à 12h00 de 14h00 à 17h00\nLe Jeudi : de 09h00 à 12h00 de 14h00 à 17h00\nLe Vendredi : de 14h00 à 17h00","latitude":46.963352,"longitude":1.487107,"website":"","hasWebsite":false,"hasHoraires":true,"url":"https://lannuaire.service-public.gouv.fr/centre-val-de-loire/indre/b7f9a7b7-58ee-448f-b618-1ed19a13255e"}
{"nom":"Tendu","nomNormalise":"tendu","typeCollectivite":"Commune","region":"Centre-Val de Loire","departement":"Indre","departementCode":"36","adresse":{"street":"Place des Anciens-Combattants","postalCode":"36200","city":"Tendu","country":"France"},"contacts":{"email":"mairie.tendu@wanadoo.fr","telephone":"0254241356"},"horaires":"Du Mardi au Vendredi : de 14h00 à 17h00\nLe Samedi : de 09h00 à 12h00","latitude":46.64439,"longitude":1.5587014,"website":"https://tendu.fr/","hasWebsite":true,"hasHoraires":true,"url":"https://lannuaire.service-public.gouv.fr/centre-val-de-loire/indre/c22ff39a-1213-4c8c-8dbc-c089b898d1e3"}
{"nom":"Thenay","nomNormalise":"thenay","typeCollectivite":"Commune","region":"Centre-Val de Loire","departement":"Indre","departementCode":"36","adresse":{"street":"140 rue de la Paix","postalCode":"36800","city":"Thenay","country":"France"},"contacts":{"email":"secretariat@thenay36.fr","telephone":"0254470227"},"horaires":"Le Mardi : de 08h30 à 12h30\nLe Jeudi : de 08h30 à 12h30 de 13h30 à 17h00\nLe Vendredi : de 13h30 à 17h00\nLe Samedi : de 09h00 à 12h00\n\nle 1er et 3ème samedi du mois.","latitude":46.631187,"longitude":1.430704,"website":"https://www.intramuros.org/thenay","hasWebsite":true,"hasHoraires":true,"url":"https://lannuaire.service-public.gouv.fr/centre-val-de-loire/indre/59c3f242-cfcf-4776-a03c-21854ccdefdf"}
{"nom":"Thevet-Saint-Julien","nomNormalise":"thevetsaintjulien","typeCollectivite":"Commune","region":"Centre-Val de Loire","departement":"Indre","departementCode":"36","adresse":{"street":"14 place de la Mairie","postalCode":"36400","city":"Thevet-Saint-Julien","country":"France"},"contacts":{"email":"mairie.thevetsaintjulien.36@wanadoo.fr","telephone":"0254300009"},"horaires":"Du Lundi au Vendredi : de 09h00 à 12h00","latitude":46.637203,"longitude":2.067321,"website":"","hasWebsite":false,"hasHoraires":true,"url":"https://lannuaire.service-public.gouv.fr/centre-val-de-loire/indre/0aa2927e-9fd3-432f-bceb-e7079739ef2e"}
{"nom":"Thizay","nomNormalise":"thizay","typeCollectivite":"Commune","region":"Centre-Val de Loire","departement":"Indre","departementCode":"36","adresse":{"street":"1 place de l'Église","postalCode":"36100","city":"Thizay","country":"France"},"contacts":{"email":"mairie.thizay36@orange.fr","telephone":"0254213130"},"horaires":"Du Lundi au Mardi : de 09h00 à 12h00\nDu Jeudi au Vendredi : de 14h00 à 17h00","latitude":46.8979,"longitude":1.91096,"website":"","hasWebsite":false,"hasHoraires":true,"url":"https://lannuaire.service-public.gouv.fr/centre-val-de-loire/indre/6d5f9f74-5b01-4494-9fb2-2cefe4ba0032"}
{"nom":"Tilly","nomNormalise":"tilly","typeCollectivite":"Commune","region":"Centre-Val de Loire","departement":"Indre","departementCode":"36","adresse":{"street":"1 place de l'Église","postalCode":"36310","city":"Tilly","country":"France"},"contacts":{"email":"mairie.tilly@wanadoo.fr","telephone":"0254257190"},"horaires":"Le Lundi : de 14h00 à 17h00\nLe Mardi : de 14h00 à 17h00\nLe Mercredi : de 09h00 à 12h00\nLe Vendredi : de 14h00 à 17h00","latitude":46.406406,"longitude":1.201924,"website":"","hasWebsite":false,"hasHoraires":true,"url":"https://lannuaire.service-public.gouv.fr/centre-val-de-loire/indre/0b357cd8-e3ec-452c-81bd-0876a081666b"}
{"nom":"Tournon-Saint-Martin","nomNormalise":"tournonsaintmartin","typeCollectivite":"Commune","region":"Centre-Val de Loire","departement":"Indre","departementCode":"36","adresse":{"street":"23 rue de la Mairie","postalCode":"36220","city":"Tournon-Saint-Martin","country":"France"},"contacts":{"email":"tournon-mairie@wanadoo.fr","telephone":"0242160018"},"horaires":"Du Lundi au Vendredi : de 09h00 à 12h00 de 14h00 à 17h00\nLe Samedi : de 08h30 à 11h30","latitude":46.73559,"longitude":0.953103,"website":"https://www.tournonstmartin.fr/","hasWebsite":true,"hasHoraires":true,"url":"https://lannuaire.service-public.gouv.fr/centre-val-de-loire/indre/a71c3512-05aa-4e7e-874e-39a652ec7592"}
{"nom":"Tranzault","nomNormalise":"tranzault","typeCollectivite":"Commune","region":"Centre-Val de Loire","departement":"Indre","departementCode":"36","adresse":{"street":"1 route du Chassin","postalCode":"36230","city":"Tranzault","country":"France"},"contacts":{"email":"mairie.tranzault@wanadoo.fr","telephone":"0254308105"},"horaires":"Le Lundi : de 08h30 à 12h30 de 14h00 à 18h00\nLe Mercredi : de 08h30 à 12h30\nLe Jeudi : de 08h30 à 12h30 de 14h00 à 18h00\nPermanence des élus sur rendez-vous.","latitude":46.630825,"longitude":1.850783,"website":"https://tranzault.fr/","hasWebsite":true,"hasHoraires":true,"url":"https://lannuaire.service-public.gouv.fr/centre-val-de-loire/indre/e359e711-c501-426d-a9db-bf97dacb55e2"}
{"nom":"Urciers","nomNormalise":"urciers","typeCollectivite":"Commune","region":"Centre-Val de Loire","departement":"Indre","departementCode":"36","adresse":{"street":"10 le Bourg","postalCode":"36160","city":"Urciers","country":"France"},"contacts":{"email":"mairie.urciers@orange.fr","telephone":"0254314240"},"horaires":"Le Mardi : de 14h00 à 17h00\nDu Jeudi au Vendredi : de 14h00 à 17h00","latitude":46.534595,"longitude":2.1312852,"website":"","hasWebsite":false,"hasHoraires":true,"url":"https://lannuaire.service-public.gouv.fr/centre-val-de-loire/indre/ff08dc93-5e49-470c-80b0-75efdb8d292c"}
{"nom":"Valençay","nomNormalise":"valencay","typeCollectivite":"Commune","region":"Centre-Val de Loire","departement":"Indre","departementCode":"36","adresse":{"street":"4 rue Talleyrand","postalCode":"36600","city":"Valençay","country":"France"},"contacts":{"email":"commune@mairie-valencay.fr","telephone":"0254003232"},"horaires":"Du Lundi au Mardi : de 09h00 à 12h00 de 13h30 à 17h00\nLe Mercredi : de 09h00 à 12h00 de 13h30 à 19h00\nLe Jeudi : de 09h00 à 12h00 de 13h30 à 17h00\nLe Vendredi : de 09h00 à 12h00 de 13h30 à 16h30","latitude":47.16092,"longitude":1.567972,"website":"http://www.valencay.fr/","hasWebsite":true,"hasHoraires":true,"url":"https://lannuaire.service-public.gouv.fr/centre-val-de-loire/indre/faff2af5-7111-4611-b4a4-c3835d5fa38d"}
{"nom":"Val-Fouzon","nomNormalise":"valfouzon","typeCollectivite":"Commune","region":"Centre-Val de Loire","departement":"Indre","departementCode":"36","adresse":{"street":"Varennes-sur-Fouzon","postalCode":"36210","city":"Val-Fouzon","country":"France"},"contacts":{"email":"mairie@val-fouzon.fr","telephone":"0254411326"},"horaires":"Du Lundi au Mardi : de 08h30 à 12h30 de 13h30 à 17h30\nLe Mercredi : de 08h30 à 12h30\nDu Jeudi au Vendredi : de 08h30 à 12h30 de 13h30 à 17h30","latitude":47.2125,"longitude":1.6056,"website":"https://www.val-fouzon.fr/","hasWebsite":true,"hasHoraires":true,"url":"https://lannuaire.service-public.gouv.fr/centre-val-de-loire/indre/3ea67b3c-b259-4473-8d09-7ce6e3c26962"}
{"nom":"Vatan","nomNormalise":"vatan","typeCollectivite":"Commune","region":"Centre-Val de Loire","departement":"Indre","departementCode":"36","adresse":{"street":"Place de la République","postalCode":"36150","city":"Vatan","country":"France"},"contacts":{"email":"accueil@vatan.fr","telephone":"0254497631"},"horaires":"Du Lundi au Jeudi : de 08h30 à 12h00 de 13h30 à 18h00\nLe Vendredi : de 08h30 à 12h00 de 13h30 à 17h00","latitude":47.0713,"longitude":1.80996,"website":"https://www.vatan.fr/vivre_a_vatan.php","hasWebsite":true,"hasHoraires":true,"url":"https://lannuaire.service-public.gouv.fr/centre-val-de-loire/indre/f7277caa-807e-4247-92c9-2ba2c07f8e19"}
{"nom":"Velles","nomNormalise":"velles","typeCollectivite":"Commune","region":"Centre-Val de Loire","departement":"Indre","departementCode":"36","adresse":{"street":"11 rue des Anciens-Combattants","postalCode":"36330","city":"Velles","country":"France"},"contacts":{"email":"mairie@velles.fr","telephone":"0254361613"},"horaires":"Le Mardi : de 09h00 à 12h30\nLe Mercredi : de 09h00 à 12h30 de 13h30 à 16h30\nLe Jeudi : de 09h00 à 12h30\nLe Vendredi : de 09h00 à 12h30 de 13h30 à 16h00","latitude":46.688927,"longitude":1.65052,"website":"https://www.velles.fr/","hasWebsite":true,"hasHoraires":true,"url":"https://lannuaire.service-public.gouv.fr/centre-val-de-loire/indre/c96e2ee4-236b-4a5d-a2a1-06fa197c92a0"}
{"nom":"Vendœuvres","nomNormalise":"venduvres","typeCollectivite":"Commune","region":"Centre-Val de Loire","departement":"Indre","departementCode":"36","adresse":{"street":"57 bis rue Grande","postalCode":"36500","city":"Vendœuvres","country":"France"},"contacts":{"email":"vendoeuvresmairie@wanadoo.fr","telephone":"0254383101"},"horaires":"Le Lundi : de 14h00 à 17h00\nDu Mardi au Vendredi : de 08h00 à 12h00 de 14h00 à 17h00\nLe Samedi : de 08h00 à 12h00","latitude":46.8014,"longitude":1.35503,"website":"https://www.vendoeuvres.fr/","hasWebsite":true,"hasHoraires":true,"url":"https://lannuaire.service-public.gouv.fr/centre-val-de-loire/indre/e9370b07-7d93-4f0f-88ca-a2f2a3ab8cad"}
{"nom":"Verneuil-sur-Igneraie","nomNormalise":"verneuilsurigneraie","typeCollectivite":"Commune","region":"Centre-Val de Loire","departement":"Indre","departementCode":"36","adresse":{"street":"1 rue de la Vallée-Noire","postalCode":"36400","city":"Verneuil-sur-Igneraie","country":"France"},"contacts":{"email":"mairie.verneuilsurigneraie@wanadoo.fr","telephone":"0254310219"},"horaires":"Du Lundi au Mardi : de 09h00 à 12h15 de 14h00 à 17h30\nDu Jeudi au Vendredi : de 09h00 à 12h15 de 14h00 à 17h30","latitude":46.6552,"longitude":2.01063,"website":"https://lapagelocale.fr/36400-verneuil-sur-igneraie","hasWebsite":true,"hasHoraires":true,"url":"https://lannuaire.service-public.gouv.fr/centre-val-de-loire/indre/0a082357-1209-470c-9c9e-1895f5a8568d"}
{"nom":"Veuil","nomNormalise":"veuil","typeCollectivite":"Commune","region":"Centre-Val de Loire","departement":"Indre","departementCode":"36","adresse":{"street":"2 rue de la Fontaine","postalCode":"36600","city":"Veuil","country":"France"},"contacts":{"email":"mairie@mairiedeveuil.fr","telephone":"0254403271"},"horaires":"Du Lundi au Mardi : de 08h45 à 12h30\nDu Jeudi au Vendredi : de 08h45 à 12h30","latitude":47.14751,"longitude":1.546214,"website":"","hasWebsite":false,"hasHoraires":true,"url":"https://lannuaire.service-public.gouv.fr/centre-val-de-loire/indre/9cb71844-7dd0-4156-ba10-7ce2908c2911"}
{"nom":"Vicq-Exemplet","nomNormalise":"vicqexemplet","typeCollectivite":"Commune","region":"Centre-Val de Loire","departement":"Indre","departementCode":"36","adresse":{"street":"20 route de la Châtre","postalCode":"36400","city":"Vicq-Exemplet","country":"France"},"contacts":{"email":"mairie.vicq-exemplet@wanadoo.fr","telephone":"0254300211"},"horaires":"Le Lundi : de 14h00 à 18h00\nDu Mardi au Mercredi : de 09h00 à 12h00\nLe Vendredi : de 09h00 à 12h00","latitude":46.629402,"longitude":2.139711,"website":"https://vicq-exemplet.jimdofree.com/","hasWebsite":true,"hasHoraires":true,"url":"https://lannuaire.service-public.gouv.fr/centre-val-de-loire/indre/1a7d8b90-b1bb-4bbc-bda2-8d13f40f1474"}
{"nom":"Vicq-sur-Nahon","nomNormalise":"vicqsurnahon","typeCollectivite":"Commune","region":"Centre-Val de Loire","departement":"Indre","departementCode":"36","adresse":{"street":"2 rue de l'Église","postalCode":"36600","city":"Vicq-sur-Nahon","country":"France"},"contacts":{"email":"mairie@vicqsurnahon.fr","telephone":"0254403135"},"horaires":"Du Lundi au Vendredi : de 08h45 à 12h30 de 13h30 à 17h15","latitude":47.1078,"longitude":1.52832,"website":"https://vicqsurnahon.fr/","hasWebsite":true,"hasHoraires":true,"url":"https://lannuaire.service-public.gouv.fr/centre-val-de-loire/indre/2747f8d7-1ac8-4fc2-8937-3cc2170d2c4f"}
{"nom":"Vigoulant","nomNormalise":"vigoulant","typeCollectivite":"Commune","region":"Centre-Val de Loire","departement":"Indre","departementCode":"36","adresse":{"street":"204 route de Sazeray","postalCode":"36160","city":"Vigoulant","country":"France"},"contacts":{"email":"mairie.vigoulant@wanadoo.fr","telephone":"0254305140"},"horaires":"Le Lundi : de 14h00 à 17h00\nLe Mardi : de 14h00 à 17h00\nLe Jeudi : de 14h00 à 17h00","latitude":46.438194,"longitude":2.07108,"website":"https://www.mairie-vigoulant.fr/","hasWebsite":true,"hasHoraires":true,"url":"https://lannuaire.service-public.gouv.fr/centre-val-de-loire/indre/e45ca8be-7798-4159-9970-9fe113227a6f"}
{"nom":"Vigoux","nomNormalise":"vigoux","typeCollectivite":"Commune","region":"Centre-Val de Loire","departement":"Indre","departementCode":"36","adresse":{"street":"12 rue de la République","postalCode":"36170","city":"Vigoux","country":"France"},"contacts":{"email":"vigoux-mairie@wanadoo.fr","telephone":"0254253154"},"horaires":"Le Lundi : de 09h00 à 12h00 de 14h00 à 17h00\nLe Mercredi : de 09h00 à 12h00\n\nAccueil ouvert l'après-midi sur rendez-vous uniquement.\nLe Vendredi : de 09h00 à 12h00","latitude":46.511066,"longitude":1.4829863,"website":"","hasWebsite":false,"hasHoraires":true,"url":"https://lannuaire.service-public.gouv.fr/centre-val-de-loire/indre/6d0fa304-45d5-41f4-b8e2-ec9bd6e63f35"}
{"nom":"Vijon","nomNormalise":"vijon","typeCollectivite":"Commune","region":"Centre-Val de Loire","departement":"Indre","departementCode":"36","adresse":{"street":"10 rue du Berry","postalCode":"36160","city":"Vijon","country":"France"},"contacts":{"email":"vijon.mairie@orange.fr","telephone":"0254305305"},"horaires":"Le Lundi : de 09h30 à 12h30 de 14h00 à 16h30\nLe Mardi : de 09h30 à 12h30\nLe Jeudi : de 09h30 à 12h30 de 14h00 à 16h30\nLe Vendredi : de 14h00 à 16h30\nLe Samedi : de 09h00 à 12h00","latitude":46.42942,"longitude":2.11811,"website":"","hasWebsite":false,"hasHoraires":true,"url":"https://lannuaire.service-public.gouv.fr/centre-val-de-loire/indre/d8c8fb35-b236-4c1f-a307-fda1932c7a90"}
{"nom":"Villedieu-sur-Indre","nomNormalise":"villedieusurindre","typeCollectivite":"Commune","region":"Centre-Val de Loire","departement":"Indre","departementCode":"36","adresse":{"street":"2 place Jean-Paul-Thibault","postalCode":"36320","city":"Villedieu-sur-Indre","country":"France"},"contacts":{"email":"accueil@villedieu-sur-indre.fr","telephone":"0254265027"},"horaires":"Le Lundi : de 13h30 à 18h00\nLe Mardi : de 08h30 à 12h00 de 13h30 à 18h00\nLe Mercredi : de 08h30 à 12h00\nDu Jeudi au Vendredi : de 08h30 à 12h00 de 13h30 à 18h00\nLe Samedi : de 09h00 à 12h00","latitude":46.84732,"longitude":1.537374,"website":"https://www.villedieu-sur-indre.fr/","hasWebsite":true,"hasHoraires":true,"url":"https://lannuaire.service-public.gouv.fr/centre-val-de-loire/indre/d54cac74-fb78-435c-9e08-1cde7a04c757"}
{"nom":"Villegongis","nomNormalise":"villegongis","typeCollectivite":"Commune","region":"Centre-Val de Loire","departement":"Indre","departementCode":"36","adresse":{"street":"4 place de la Mairie","postalCode":"36110","city":"Villegongis","country":"France"},"contacts":{"email":"mairie.villegongis@orange.fr","telephone":"0254366350"},"horaires":"Le Lundi : de 09h00 à 12h30 de 14h00 à 17h30\nLe Mercredi : de 09h00 à 12h30 de 14h00 à 17h30\nLe Vendredi : de 14h00 à 17h00","latitude":46.914726,"longitude":1.593632,"website":"","hasWebsite":false,"hasHoraires":true,"url":"https://lannuaire.service-public.gouv.fr/centre-val-de-loire/indre/b98d848c-d127-449b-9d57-e62bd3b69379"}
{"nom":"Villegouin","nomNormalise":"villegouin","typeCollectivite":"Commune","region":"Centre-Val de Loire","departement":"Indre","departementCode":"36","adresse":{"street":"1 place de la Mairie","postalCode":"36500","city":"Villegouin","country":"France"},"contacts":{"email":"mairie.villegouin@wanadoo.fr","telephone":"0254384750"},"horaires":"Du Lundi au Mardi : de 08h30 à 12h00 de 13h30 à 17h00\nLe Mercredi : de 08h30 à 12h00\nDu Jeudi au Vendredi : de 08h30 à 12h00 de 13h30 à 17h00","latitude":46.96296,"longitude":1.372801,"website":"https://villegouin.fr/","hasWebsite":true,"hasHoraires":true,"url":"https://lannuaire.service-public.gouv.fr/centre-val-de-loire/indre/97000d04-04bf-4eaf-a4fd-90825754e3f8"}
{"nom":"Villentrois-Faverolles-en-Berry","nomNormalise":"villentroisfaverollesenberry","typeCollectivite":"Commune","region":"Centre-Val de Loire","departement":"Indre","departementCode":"36","adresse":{"street":"Villentrois","postalCode":"36600","city":"Villentrois-Faverolles-en-Berry","country":"France"},"contacts":{"email":"accueil@villentroisfaverolles.fr","telephone":"0254410370"},"horaires":"Du Lundi au Vendredi : de 08h30 à 12h30","latitude":47.19439,"longitude":1.462846,"website":"https://www.villentrois-faverollesenberry.fr/","hasWebsite":true,"hasHoraires":true,"url":"https://lannuaire.service-public.gouv.fr/centre-val-de-loire/indre/2667e4ef-4002-4922-987f-ad385393f974"}
{"nom":"Villiers","nomNormalise":"villiers","typeCollectivite":"Commune","region":"Centre-Val de Loire","departement":"Indre","departementCode":"36","adresse":{"street":"6 rue de la Mairie","postalCode":"36290","city":"Villiers","country":"France"},"contacts":{"email":"mairie.villiers@orange.fr","telephone":"0254380395"},"horaires":"Le Lundi : de 14h00 à 16h30\nLe Mardi : de 08h00 à 12h00 de 14h00 à 16h30\nDu Mercredi au Vendredi : de 14h00 à 16h30","latitude":46.886524,"longitude":1.185803,"website":"","hasWebsite":false,"hasHoraires":true,"url":"https://lannuaire.service-public.gouv.fr/centre-val-de-loire/indre/68745870-c7d2-4990-a7ec-da60798545da"}
{"nom":"Vineuil","nomNormalise":"vineuil","typeCollectivite":"Commune","region":"Centre-Val de Loire","departement":"Indre","departementCode":"36","adresse":{"street":"11 rue de la Poste","postalCode":"36110","city":"Vineuil","country":"France"},"contacts":{"email":"vineuil.36110@wanadoo.fr","telephone":"0254366017"},"horaires":"Le Lundi : de 09h00 à 12h00 de 14h00 à 19h00\nLe Mardi : de 09h00 à 12h00\nLe Mercredi : de 09h00 à 12h00 de 14h00 à 17h00\nLe Jeudi : de 09h00 à 12h00\nLe Vendredi : de 09h00 à 12h00 de 14h00 à 17h00\nLe Samedi : de 10h00 à 12h00\n\nUniquement permanence des élus.","latitude":46.9018,"longitude":1.6363099,"website":"https://www.vineuil.fr/","hasWebsite":true,"hasHoraires":true,"url":"https://lannuaire.service-public.gouv.fr/centre-val-de-loire/indre/e2085cc7-6d3e-4c52-bbfa-7f7f059809d7"}
{"nom":"Vouillon","nomNormalise":"vouillon","typeCollectivite":"Commune","region":"Centre-Val de Loire","departement":"Indre","departementCode":"36","adresse":{"street":"11 Grand'rue","postalCode":"36100","city":"Vouillon","country":"France"},"contacts":{"email":"mairie.vouillon@wanadoo.fr","telephone":"0254490309"},"horaires":"Le Mardi : de 09h00 à 11h45\nLe Jeudi : de 09h00 à 11h45\nLe Samedi : de 09h00 à 12h00","latitude":46.82192,"longitude":1.925176,"website":"","hasWebsite":false,"hasHoraires":true,"url":"https://lannuaire.service-public.gouv.fr/centre-val-de-loire/indre/42bc0769-7eef-4e1a-840b-9787c720cdba"}
