{"nom":"Abilly","nomNormalise":"abilly","typeCollectivite":"Commune","region":"Centre-Val de Loire","departement":"Indre-et-Loire","departementCode":"37","adresse":{"street":"Place de la Mairie","postalCode":"37160","city":"Abilly","country":"France"},"contacts":{"email":"accueil@mairie-abilly.fr","telephone":"0247597801"},"horaires":"Du Lundi au Mardi : de 08h30 à 12h00 de 13h30 à 18h00\nDu Mercredi au Jeudi : de 08h30 à 12h00\nLe Vendredi : de 08h30 à 12h00 de 13h30 à 18h00\nLe Samedi : de 09h00 à 12h00","latitude":46.8864,"longitude":0.730995,"website":"https://www.abilly37.fr/","hasWebsite":true,"hasHoraires":true,"url":"https://lannuaire.service-public.gouv.fr/centre-val-de-loire/indre-et-loire/093b2a8e-eedd-43cd-9ce7-e3e8ca269cbb"}
{"nom":"Ambillou","nomNormalise":"ambillou","typeCollectivite":"Commune","region":"Centre-Val de Loire","departement":"Indre-et-Loire","departementCode":"37","adresse":{"street":"20 rue Principale","postalCode":"37340","city":"Ambillou","country":"France"},"contacts":{"email":"mairie@ambillou.fr","telephone":"0247524431"},"horaires":"Du Lundi au Mardi : de 09h00 à 12h30\nLe Mercredi : de 09h00 à 12h30 de 13h30 à 16h30\nDu Jeudi au Vendredi : de 09h00 à 12h30\nLundi, mardi et jeudi après-midi uniquement sur rendez-vous.","latitude":47.451614,"longitude":0.447425,"website":"https://www.ambillou.fr/","hasWebsite":true,"hasHoraires":true,"url":"https://lannuaire.service-public.gouv.fr/centre-val-de-loire/indre-et-loire/cc453891-5966-42dd-8c5f-7efad863dae9"}
{"nom":"Amboise","nomNormalise":"amboise","typeCollectivite":"Commune","region":"Centre-Val de Loire","departement":"Indre-et-Loire","departementCode":"37","adresse":{"street":"60 rue de la Concorde","postalCode":"37400","city":"Amboise","country":"France"},"contacts":{"email":"courrier@ville-amboise.fr","telephone":"0247234723"},"horaires":"Du Lundi au Vendredi : de 08h45 à 12h00 de 13h30 à 17h30\nLe Samedi : de 09h00 à 12h00\n\nPermanence ouverte uniquement pour l'état civil.","latitude":47.4131,"longitude":0.984237,"website":"https://www.ville-amboise.fr/","hasWebsite":true,"hasHoraires":true,"url":"https://lannuaire.service-public.gouv.fr/centre-val-de-loire/indre-et-loire/2d9195d4-a4c2-4a5a-9ea9-f5722496beaa"}
{"nom":"Anché","nomNormalise":"anche","typeCollectivite":"Commune","region":"Centre-Val de Loire","departement":"Indre-et-Loire","departementCode":"37","adresse":{"street":"1 rue de la Mairie","postalCode":"37500","city":"Anché","country":"France"},"contacts":{"email":"mairie@anche37.fr","telephone":"0247934421"},"horaires":"Le Mardi : de 10h00 à 12h30\nLe Mercredi : de 15h00 à 18h00\nLe Jeudi : de 10h00 à 12h30\nLe Vendredi : de 10h00 à 12h30 de 15h00 à 17h00","latitude":47.135242,"longitude":0.3065194,"website":"","hasWebsite":false,"hasHoraires":true,"url":"https://lannuaire.service-public.gouv.fr/centre-val-de-loire/indre-et-loire/8a4eca23-caba-4b58-be94-ec2bbda1c2ef"}
{"nom":"Antogny-le-Tillac","nomNormalise":"antognyletillac","typeCollectivite":"Commune","region":"Centre-Val de Loire","departement":"Indre-et-Loire","departementCode":"37","adresse":{"street":"24 route de Richelieu","postalCode":"37800","city":"Antogny-le-Tillac","country":"France"},"contacts":{"email":"mairie@antognyletillac.fr","telephone":"0247650112"},"horaires":"Le Lundi : de 09h00 à 12h00\nLe Mercredi : de 09h00 à 12h00 de 14h00 à 18h00\nLe Vendredi : de 09h00 à 12h00 de 14h00 à 18h00","latitude":46.9639,"longitude":0.577826,"website":"http://www.antognyletillac.com/","hasWebsite":true,"hasHoraires":true,"url":"https://lannuaire.service-public.gouv.fr/centre-val-de-loire/indre-et-loire/f92aefe6-0cb3-431a-8ed5-c70f5fbcba3f"}
{"nom":"Artannes-sur-Indre","nomNormalise":"artannessurindre","typeCollectivite":"Commune","region":"Centre-Val de Loire","departement":"Indre-et-Loire","departementCode":"37","adresse":{"street":"3 avenue de la Vallée-du-Lys","postalCode":"37260","city":"Artannes-sur-Indre","country":"France"},"contacts":{"email":"accueil@mairie.artannes.fr","telephone":"0247268019"},"horaires":"Le Lundi : de 08h30 à 12h30 de 13h30 à 17h30\nLe Mardi : de 13h30 à 17h30\nDu Mercredi au Jeudi : de 08h30 à 12h30 de 13h30 à 17h30\nLe Vendredi : de 08h30 à 12h30 de 13h30 à 18h00","latitude":47.2697,"longitude":0.590319,"website":"https://www.artannes.fr/","hasWebsite":true,"hasHoraires":true,"url":"https://lannuaire.service-public.gouv.fr/centre-val-de-loire/indre-et-loire/29e637fd-ca85-4194-9bba-e154b59f3c6b"}
{"nom":"Assay","nomNormalise":"assay","typeCollectivite":"Commune","region":"Centre-Val de Loire","departement":"Indre-et-Loire","departementCode":"37","adresse":{"street":"2 place de la Mairie","postalCode":"37120","city":"Assay","country":"France"},"contacts":{"email":"mairie.d.assay@wanadoo.fr","telephone":"0247957322"},"horaires":"Le Lundi : de 13h30 à 16h30\nLe Vendredi : de 13h30 à 16h30","latitude":47.083767,"longitude":0.3345651,"website":"","hasWebsite":false,"hasHoraires":true,"url":"https://lannuaire.service-public.gouv.fr/centre-val-de-loire/indre-et-loire/daffc886-e749-4714-9672-a3a1cadc37ae"}
{"nom":"Athée-sur-Cher","nomNormalise":"atheesurcher","typeCollectivite":"Commune","region":"Centre-Val de Loire","departement":"Indre-et-Loire","departementCode":"37","adresse":{"street":"9 chemin des Dames","postalCode":"37270","city":"Athée-sur-Cher","country":"France"},"contacts":{"email":"accueil@mairieathee.fr","telephone":"0247506809"},"horaires":"Du Lundi au Mardi : de 09h00 à 12h30\nLe Mercredi : de 09h00 à 12h30 de 15h00 à 17h30\nLe Jeudi : de 09h00 à 12h30\nLe Vendredi : de 09h00 à 12h30 de 15h00 à 17h30","latitude":47.322666,"longitude":0.915991,"website":"https://athee-sur-cher.fr/","hasWebsite":true,"hasHoraires":true,"url":"https://lannuaire.service-public.gouv.fr/centre-val-de-loire/indre-et-loire/f2878368-c44a-48aa-88ea-84ba079009a1"}
{"nom":"Autrèche","nomNormalise":"autreche","typeCollectivite":"Commune","region":"Centre-Val de Loire","departement":"Indre-et-Loire","departementCode":"37","adresse":{"street":"4 place du Général-Koenig","postalCode":"37110","city":"Autrèche","country":"France"},"contacts":{"email":"mairie-autreche@orange.fr","telephone":"0247562203"},"horaires":"Le Lundi : de 14h00 à 17h00\nLe Jeudi : de 14h00 à 17h00\nLe Vendredi : de 09h00 à 12h00","latitude":47.524986,"longitude":0.9974288,"website":"","hasWebsite":false,"hasHoraires":true,"url":"https://lannuaire.service-public.gouv.fr/centre-val-de-loire/indre-et-loire/07587771-9694-4df4-9416-236853cab05a"}
{"nom":"Auzouer-en-Touraine","nomNormalise":"auzouerentouraine","typeCollectivite":"Commune","region":"Centre-Val de Loire","departement":"Indre-et-Loire","departementCode":"37","adresse":{"street":"1 place du Général-Leclerc","postalCode":"37110","city":"Auzouer-en-Touraine","country":"France"},"contacts":{"email":"secretariat@auzouer-en-touraine.fr","telephone":"0247550603"},"horaires":"Le Lundi : de 09h00 à 15h00\nLe Mardi : de 09h00 à 17h00\nLe Mercredi : de 08h30 à 12h00\nLe Jeudi : de 12h00 à 17h00\nLe Vendredi : de 13h30 à 17h00\nLe Samedi : de 10h00 à 12h00\n\nAccueil ouvert les trois 1er samedis du mois uniquement et fermé pendant les vacances scolaires.\nAccueil ouvert sur rendez-vous uniquement.","latitude":47.54266,"longitude":0.9193215,"website":"https://www.auzouer-en-touraine.fr/","hasWebsite":true,"hasHoraires":true,"url":"https://lannuaire.service-public.gouv.fr/centre-val-de-loire/indre-et-loire/79fcf408-fd4d-4cdb-bab7-98949e01902d"}
{"nom":"Avoine","nomNormalise":"avoine","typeCollectivite":"Commune","region":"Centre-Val de Loire","departement":"Indre-et-Loire","departementCode":"37","adresse":{"street":"34 rue Marcel-Vignaud","postalCode":"37420","city":"Avoine","country":"France"},"contacts":{"email":"mairie@ville-avoine.fr","telephone":"0247981111"},"horaires":"Du Lundi au Vendredi : de 09h00 à 12h30 de 14h00 à 17h30\nLe Samedi : de 09h00 à 12h00\n\nAccueil ouvert uniquement le 1er samedi du mois.","latitude":47.20539,"longitude":0.1827197,"website":"http://www.ville-avoine.fr/","hasWebsite":true,"hasHoraires":true,"url":"https://lannuaire.service-public.gouv.fr/centre-val-de-loire/indre-et-loire/b77411cd-0e43-431c-b870-f068d4f9ccdc"}
{"nom":"Avon-les-Roches","nomNormalise":"avonlesroches","typeCollectivite":"Commune","region":"Centre-Val de Loire","departement":"Indre-et-Loire","departementCode":"37","adresse":{"street":"1 place de la Mairie","postalCode":"37220","city":"Avon-les-Roches","country":"France"},"contacts":{"email":"avon.mairie@wanadoo.fr","telephone":"0247585407"},"horaires":"Du Lundi au Jeudi : de 09h00 à 12h00","latitude":47.1555,"longitude":0.448312,"website":"http://www.avon-les-roches.com/","hasWebsite":true,"hasHoraires":true,"url":"https://lannuaire.service-public.gouv.fr/centre-val-de-loire/indre-et-loire/d4d0c1a7-1fff-4ffc-9e62-f15f27887608"}
{"nom":"Avrillé-les-Ponceaux","nomNormalise":"avrillelesponceaux","typeCollectivite":"Commune","region":"Centre-Val de Loire","departement":"Indre-et-Loire","departementCode":"37","adresse":{"street":"1 place de la Mairie","postalCode":"37340","city":"Avrillé-les-Ponceaux","country":"France"},"contacts":{"email":"mairie@avrillelesponceaux.fr","telephone":"0247246403"},"horaires":"Du Lundi au Mardi : de 08h30 à 12h30\nDu Jeudi au Vendredi : de 08h30 à 12h30\nLe Samedi : de 09h00 à 12h00\n\nAccueil ouvert uniquement le 1er samedi du mois.","latitude":47.39443,"longitude":0.286664,"website":"https://avrillelesponceaux.fr/","hasWebsite":true,"hasHoraires":true,"url":"https://lannuaire.service-public.gouv.fr/centre-val-de-loire/indre-et-loire/89474a6a-0b8d-4600-8997-e3d45db25930"}
{"nom":"Azay-le-Rideau","nomNormalise":"azaylerideau","typeCollectivite":"Commune","region":"Centre-Val de Loire","departement":"Indre-et-Loire","departementCode":"37","adresse":{"street":"2 place de l'Europe","postalCode":"37190","city":"Azay-le-Rideau","country":"France"},"contacts":{"email":"accueil.mairie@azaylerideau.fr","telephone":"0247454211"},"horaires":"Du Lundi au Mardi : de 08h30 à 12h00 de 13h30 à 17h00\nLe Mercredi : de 08h30 à 12h00\nDu Jeudi au Vendredi : de 08h30 à 12h00 de 13h30 à 17h00\nDu Jeudi au Samedi : de 09h00 à 11h00\n\nAccueil ouvert uniquement les 1er et 3e samedis du mois et fermé en juillet-août.","latitude":47.26177,"longitude":0.46574,"website":"https://www.azaylerideau.fr/","hasWebsite":true,"hasHoraires":true,"url":"https://lannuaire.service-public.gouv.fr/centre-val-de-loire/indre-et-loire/5dd368bf-53a4-4767-aa8c-07195dbaba75"}
{"nom":"Azay-sur-Cher","nomNormalise":"azaysurcher","typeCollectivite":"Commune","region":"Centre-Val de Loire","departement":"Indre-et-Loire","departementCode":"37","adresse":{"street":"17 Grande-Rue","postalCode":"37270","city":"Azay-sur-Cher","country":"France"},"contacts":{"email":"accueil@mairie-azaysurcher.fr","telephone":"0247456240"},"horaires":"Du Lundi au Vendredi : de 09h00 à 12h00\n\nSur rendez-vous du lundi au vendredi de 14h à 17h30 (sauf le vendredi 17h).\nEt un samedi sur deux (semaine impaire) de 9h à 12h.","latitude":47.348827,"longitude":0.845729,"website":"https://www.azaysurcher.fr/","hasWebsite":true,"hasHoraires":true,"url":"https://lannuaire.service-public.gouv.fr/centre-val-de-loire/indre-et-loire/f1074f3b-bb56-4355-87a5-68243f589509"}
{"nom":"Azay-sur-Indre","nomNormalise":"azaysurindre","typeCollectivite":"Commune","region":"Centre-Val de Loire","departement":"Indre-et-Loire","departementCode":"37","adresse":{"street":"1 rue des Sources","postalCode":"37310","city":"Azay-sur-Indre","country":"France"},"contacts":{"email":"mairie-dazay-sur-indre@wanadoo.fr","telephone":"0247925812"},"horaires":"Du Lundi au Vendredi : de 10h00 à 12h00 de 13h00 à 18h00","latitude":47.214073,"longitude":0.8355759,"website":"https://www.azaysurindre.fr/","hasWebsite":true,"hasHoraires":true,"url":"https://lannuaire.service-public.gouv.fr/centre-val-de-loire/indre-et-loire/9a921448-616c-4ca6-af92-084abc44694d"}
{"nom":"Ballan-Miré","nomNormalise":"ballanmire","typeCollectivite":"Commune","region":"Centre-Val de Loire","departement":"Indre-et-Loire","departementCode":"37","adresse":{"street":"12 place du 11-Novembre","postalCode":"37510","city":"Ballan-Miré","country":"France"},"contacts":{"email":"contact@mairie-ballan-mire.fr","telephone":"0247801000"},"horaires":"Du Lundi au Vendredi : de 08h30 à 12h15 de 13h30 à 17h00","latitude":47.3341,"longitude":0.604906,"website":"https://www.mairie-ballan-mire.fr/","hasWebsite":true,"hasHoraires":true,"url":"https://lannuaire.service-public.gouv.fr/centre-val-de-loire/indre-et-loire/30e150e3-5f78-403f-b1d2-d81fbaecc026"}
{"nom":"Barrou","nomNormalise":"barrou","typeCollectivite":"Commune","region":"Centre-Val de Loire","departement":"Indre-et-Loire","departementCode":"37","adresse":{"street":"10 rue de la Mairie","postalCode":"37350","city":"Barrou","country":"France"},"contacts":{"email":"mairie@barrou.fr","telephone":"0247949212"},"horaires":"Le Lundi : de 08h30 à 15h00\nLe Mardi : de 08h30 à 15h00\nLe Jeudi : de 08h30 à 12h00\nLe Vendredi : de 08h30 à 16h00","latitude":46.866,"longitude":0.771808,"website":"http://www.mairiedebarrou.fr/","hasWebsite":true,"hasHoraires":true,"url":"https://lannuaire.service-public.gouv.fr/centre-val-de-loire/indre-et-loire/8ba060e1-a0f0-44f4-a389-09a570d0cc1d"}
{"nom":"Beaulieu-lès-Loches","nomNormalise":"beaulieulesloches","typeCollectivite":"Commune","region":"Centre-Val de Loire","departement":"Indre-et-Loire","departementCode":"37","adresse":{"street":"6 place du Maréchal-Leclerc","postalCode":"37600","city":"Beaulieu-lès-Loches","country":"France"},"contacts":{"email":"mairie.beaulieu37@wanadoo.fr","telephone":"0247919494"},"horaires":"Le Lundi : de 09h00 à 12h30 de 13h30 à 17h00\nLe Mardi : de 09h00 à 12h30\nLe Mercredi : de 09h00 à 12h30 de 13h30 à 17h00\nLe Jeudi : de 09h00 à 12h30\nLe Vendredi : de 09h00 à 12h30 de 13h30 à 17h30","latitude":47.128063,"longitude":1.012309,"website":"https://www.beaulieulesloches.eu/","hasWebsite":true,"hasHoraires":true,"url":"https://lannuaire.service-public.gouv.fr/centre-val-de-loire/indre-et-loire/85c0fd5c-503a-470c-9f8f-0408d3622159"}
{"nom":"Beaumont-en-Véron","nomNormalise":"beaumontenveron","typeCollectivite":"Commune","region":"Centre-Val de Loire","departement":"Indre-et-Loire","departementCode":"37","adresse":{"street":"Rue du 8-Mai-1945","postalCode":"37420","city":"Beaumont-en-Véron","country":"France"},"contacts":{"email":"mairie@beaumontenveron.fr","telephone":"0247584045"},"horaires":"Le Lundi : de 14h00 à 17h30\nDu Mardi au Vendredi : de 09h00 à 13h00 de 14h00 à 17h30\nLe Samedi : de 09h00 à 12h00\n\nAccueil fermé le samedi en juillet-août.","latitude":47.1941,"longitude":0.185636,"website":"http://www.beaumontenveron.fr/","hasWebsite":true,"hasHoraires":true,"url":"https://lannuaire.service-public.gouv.fr/centre-val-de-loire/indre-et-loire/c8c10b32-b175-4f56-8abb-343d5e2982ad"}
{"nom":"Beaumont-Louestault","nomNormalise":"beaumontlouestault","typeCollectivite":"Commune","region":"Centre-Val de Loire","departement":"Indre-et-Loire","departementCode":"37","adresse":{"street":"2 rue des Prés","postalCode":"37360","city":"Beaumont-Louestault","country":"France"},"contacts":{"email":"accueil@beaumont-louestault.fr","telephone":"0247244215"},"horaires":"Le Lundi : de 08h00 à 12h30 de 13h00 à 17h30\nDu Mardi au Mercredi : de 08h00 à 12h30\nLe Jeudi : de 08h00 à 12h30 de 13h00 à 17h30\nLe Vendredi : de 08h00 à 12h00","latitude":47.569954,"longitude":0.6707719,"website":"","hasWebsite":false,"hasHoraires":true,"url":"https://lannuaire.service-public.gouv.fr/centre-val-de-loire/indre-et-loire/4f86e20e-83b6-4013-9337-a343b71c4804"}
{"nom":"Beaumont-Village","nomNormalise":"beaumontvillage","typeCollectivite":"Commune","region":"Centre-Val de Loire","departement":"Indre-et-Loire","departementCode":"37","adresse":{"street":"8 rue de la Mairie","postalCode":"37460","city":"Beaumont-Village","country":"France"},"contacts":{"email":"commune.beaumontvillage@wanadoo.fr","telephone":"0247926047"},"horaires":"Du Lundi au Mardi : de 13h45 à 16h45\nLe Jeudi : de 13h45 à 16h45\nLe Vendredi : de 09h00 à 12h00","latitude":47.18,"longitude":1.20956,"website":"","hasWebsite":false,"hasHoraires":true,"url":"https://lannuaire.service-public.gouv.fr/centre-val-de-loire/indre-et-loire/4789de4e-0b9e-4a26-b82c-124c0f4325d4"}
{"nom":"Benais","nomNormalise":"benais","typeCollectivite":"Commune","region":"Centre-Val de Loire","departement":"Indre-et-Loire","departementCode":"37","adresse":{"street":"1 place de l'Église","postalCode":"37140","city":"Benais","country":"France"},"contacts":{"email":"contact@benais.fr","telephone":"0247973011"},"horaires":"Du Lundi au Mardi : de 09h00 à 12h00\nDu Jeudi au Vendredi : de 09h00 à 12h00","latitude":47.296417,"longitude":0.214453,"website":"https://www.benais.fr/","hasWebsite":true,"hasHoraires":true,"url":"https://lannuaire.service-public.gouv.fr/centre-val-de-loire/indre-et-loire/176bbc17-54fb-4dcf-80ee-659bbd79092d"}
{"nom":"Berthenay","nomNormalise":"berthenay","typeCollectivite":"Commune","region":"Centre-Val de Loire","departement":"Indre-et-Loire","departementCode":"37","adresse":{"street":"1 grande-Rue","postalCode":"37510","city":"Berthenay","country":"France"},"contacts":{"email":"mairie@berthenay.fr","telephone":"0247456630"},"horaires":"Du Lundi au Mardi : de 14h00 à 17h00\nDu Mercredi au Jeudi : de 09h00 à 12h00\nLe Vendredi : de 14h00 à 17h00","latitude":47.363438,"longitude":0.5259,"website":"","hasWebsite":false,"hasHoraires":true,"url":"https://lannuaire.service-public.gouv.fr/centre-val-de-loire/indre-et-loire/c6f73e88-3f57-48e8-9c9c-ab4b94c6d6e0"}
{"nom":"Betz-le-Château","nomNormalise":"betzlechateau","typeCollectivite":"Commune","region":"Centre-Val de Loire","departement":"Indre-et-Loire","departementCode":"37","adresse":{"street":"2 rue Gilles-de-Betz","postalCode":"37600","city":"Betz-le-Château","country":"France"},"contacts":{"email":"mairie.betz37@wanadoo.fr","telephone":"0247596506"},"horaires":"Le Lundi : de 09h00 à 12h00\nLe Mardi : de 09h00 à 12h00 de 13h30 à 17h00\nLe Jeudi : de 09h00 à 12h00 de 13h30 à 17h00\nDu Vendredi au Samedi : de 09h00 à 12h00","latitude":46.99116,"longitude":0.918973,"website":"http://www.mairiedebetzlechateau.fr/","hasWebsite":true,"hasHoraires":true,"url":"https://lannuaire.service-public.gouv.fr/centre-val-de-loire/indre-et-loire/0358b978-55cf-476d-9bcf-e9614003c4fd"}
{"nom":"Bléré","nomNormalise":"blere","typeCollectivite":"Commune","region":"Centre-Val de Loire","departement":"Indre-et-Loire","departementCode":"37","adresse":{"street":"35 rue de Loches","postalCode":"37150","city":"Bléré","country":"France"},"contacts":{"email":"accueil@ville-blere.fr","telephone":"0247308181"},"horaires":"Le Lundi : de 09h00 à 17h00\nLe Mardi : de 09h00 à 13h00\nDu Mercredi au Vendredi : de 09h00 à 17h00","latitude":47.325478,"longitude":0.992291,"website":"http://www.ville-blere.fr/","hasWebsite":true,"hasHoraires":true,"url":"https://lannuaire.service-public.gouv.fr/centre-val-de-loire/indre-et-loire/1e93d648-4497-4241-812b-db0445af6592"}
{"nom":"Bossay-sur-Claise","nomNormalise":"bossaysurclaise","typeCollectivite":"Commune","region":"Centre-Val de Loire","departement":"Indre-et-Loire","departementCode":"37","adresse":{"street":"11 place de l'Église","postalCode":"37290","city":"Bossay-sur-Claise","country":"France"},"contacts":{"email":"mairiedebossaysurclaise@gmail.com","telephone":"0247945206"},"horaires":"Le Lundi : de 09h00 à 12h00 de 14h00 à 18h00\nLe Mardi : de 09h00 à 12h00\nLe Mercredi : de 09h00 à 12h00 de 14h00 à 18h00\nLe Jeudi : de 09h00 à 12h00\nLe Vendredi : de 09h00 à 12h00 de 14h00 à 18h00","latitude":46.832237,"longitude":0.9617412,"website":"http://www.bossay-sur-claise.net/","hasWebsite":true,"hasHoraires":true,"url":"https://lannuaire.service-public.gouv.fr/centre-val-de-loire/indre-et-loire/08a07f2f-a4ba-4922-a196-44ce1aac3c39"}
{"nom":"Bossée","nomNormalise":"bossee","typeCollectivite":"Commune","region":"Centre-Val de Loire","departement":"Indre-et-Loire","departementCode":"37","adresse":{"street":"6 place de la Paix","postalCode":"37240","city":"Bossée","country":"France"},"contacts":{"email":"mairie@bossee.fr","telephone":"0247928122"},"horaires":"Du Lundi au Mardi : de 08h30 à 12h00\nLe Jeudi : de 08h30 à 12h00\nLe Vendredi : de 08h30 à 12h00 de 14h00 à 17h00","latitude":47.112,"longitude":0.729733,"website":"https://www.bossee.fr/fr/","hasWebsite":true,"hasHoraires":true,"url":"https://lannuaire.service-public.gouv.fr/centre-val-de-loire/indre-et-loire/a436da54-28c8-4082-ac96-b7a99d1e82e4"}
{"nom":"Bourgueil","nomNormalise":"bourgueil","typeCollectivite":"Commune","region":"Centre-Val de Loire","departement":"Indre-et-Loire","departementCode":"37","adresse":{"street":"8 rue du Picard","postalCode":"37140","city":"Bourgueil","country":"France"},"contacts":{"email":"contact@bourgueil.fr","telephone":"0247972500"},"horaires":"Du Lundi au Mercredi : de 09h00 à 12h00 de 13h30 à 17h15\nLe Jeudi : de 09h00 à 12h00\nLe Vendredi : de 09h00 à 12h00 de 13h30 à 17h15\nLe Samedi : de 10h00 à 12h00","latitude":47.2843,"longitude":0.171373,"website":"https://www.bourgueil.fr/","hasWebsite":true,"hasHoraires":true,"url":"https://lannuaire.service-public.gouv.fr/centre-val-de-loire/indre-et-loire/f6b033de-2192-4a43-a8a3-cc4632427d6a"}
{"nom":"Bournan","nomNormalise":"bournan","typeCollectivite":"Commune","region":"Centre-Val de Loire","departement":"Indre-et-Loire","departementCode":"37","adresse":{"street":"3 bis rue Principale","postalCode":"37240","city":"Bournan","country":"France"},"contacts":{"email":"mairiedebournan@orange.fr","telephone":"0247596342"},"horaires":"Le Lundi : de 13h15 à 15h15\nLe Mardi : de 15h00 à 17h00\nLe Jeudi : de 14h00 à 16h00","latitude":47.06219,"longitude":0.7291184,"website":"https://bournan.fr/","hasWebsite":true,"hasHoraires":true,"url":"https://lannuaire.service-public.gouv.fr/centre-val-de-loire/indre-et-loire/0caee601-e0e5-4ec1-a224-10dfe8798859"}
{"nom":"Boussay","nomNormalise":"boussay","typeCollectivite":"Commune","region":"Centre-Val de Loire","departement":"Indre-et-Loire","departementCode":"37","adresse":{"street":"Place de la Mairie","postalCode":"37290","city":"Boussay","country":"France"},"contacts":{"email":"mairie@boussay37.fr","telephone":"0247199262"},"horaires":"Le Lundi : de 09h30 à 12h30\nLe Mercredi : de 09h30 à 12h30 de 14h00 à 18h00\nDu Vendredi au Samedi : de 09h30 à 12h30\n\nAccueil fermé le dernier samedi du mois.","latitude":46.841663,"longitude":0.888552,"website":"https://www.boussay37.fr/","hasWebsite":true,"hasHoraires":true,"url":"https://lannuaire.service-public.gouv.fr/centre-val-de-loire/indre-et-loire/6daa64b0-4ec0-4c86-b90c-373f19055421"}
{"nom":"Braslou","nomNormalise":"braslou","typeCollectivite":"Commune","region":"Centre-Val de Loire","departement":"Indre-et-Loire","departementCode":"37","adresse":{"street":"18 rue Principale","postalCode":"37120","city":"Braslou","country":"France"},"contacts":{"email":"mairie.braslou@wanadoo.fr","telephone":"0247956508"},"horaires":"Le Lundi : de 08h30 à 12h30\nLe Mardi : de 13h30 à 16h30\nLe Jeudi : de 13h30 à 16h30\nLe Vendredi : de 08h30 à 12h30","latitude":47.000156,"longitude":0.393953,"website":"https://braslou.fr/","hasWebsite":true,"hasHoraires":true,"url":"https://lannuaire.service-public.gouv.fr/centre-val-de-loire/indre-et-loire/da2d2aad-88a6-4a83-a803-590bba900d5d"}
{"nom":"Braye-sous-Faye","nomNormalise":"brayesousfaye","typeCollectivite":"Commune","region":"Centre-Val de Loire","departement":"Indre-et-Loire","departementCode":"37","adresse":{"street":"3 le Bourg","postalCode":"37120","city":"Braye-sous-Faye","country":"France"},"contacts":{"email":"mairie@brayesousfaye.fr","telephone":"0247581180"},"horaires":"Le Mardi : de 08h30 à 12h00 de 14h00 à 17h30\nLe Jeudi : de 08h30 à 12h00 de 14h00 à 17h30","latitude":47.0008,"longitude":0.390159,"website":"","hasWebsite":false,"hasHoraires":true,"url":"https://lannuaire.service-public.gouv.fr/centre-val-de-loire/indre-et-loire/61e7644d-2064-4b61-9a8a-ae01a682ddae"}
{"nom":"Braye-sur-Maulne","nomNormalise":"brayesurmaulne","typeCollectivite":"Commune","region":"Centre-Val de Loire","departement":"Indre-et-Loire","departementCode":"37","adresse":{"street":"4 rue du Moulin","postalCode":"37330","city":"Braye-sur-Maulne","country":"France"},"contacts":{"email":"mairie.braye-sur-maulne@wanadoo.fr","telephone":"0246651270"},"horaires":"Le Lundi : de 08h00 à 17h30\nLe Mercredi : de 08h00 à 13h00\nLe Vendredi : de 13h00 à 17h30","latitude":47.554913,"longitude":0.248683,"website":"","hasWebsite":false,"hasHoraires":true,"url":"https://lannuaire.service-public.gouv.fr/centre-val-de-loire/indre-et-loire/b77272d7-3938-44ab-be12-a25e7e17967f"}
{"nom":"Brèches","nomNormalise":"breches","typeCollectivite":"Commune","region":"Centre-Val de Loire","departement":"Indre-et-Loire","departementCode":"37","adresse":{"street":"42 rue Principale","postalCode":"37330","city":"Brèches","country":"France"},"contacts":{"email":"mairie@breches37.fr","telephone":"0247241630"},"horaires":"Le Lundi : de 13h30 à 17h00\nLe Mercredi : de 08h30 à 12h00\nLe Vendredi : de 13h30 à 17h00","latitude":47.56931,"longitude":0.3902212,"website":"http://www.breches.fr/","hasWebsite":true,"hasHoraires":true,"url":"https://lannuaire.service-public.gouv.fr/centre-val-de-loire/indre-et-loire/56a43920-90d3-4cbe-8207-95a07da92d13"}
{"nom":"Bréhémont","nomNormalise":"brehemont","typeCollectivite":"Commune","region":"Centre-Val de Loire","departement":"Indre-et-Loire","departementCode":"37","adresse":{"street":"1 place du 8-Mai-1945","postalCode":"37130","city":"Bréhémont","country":"France"},"contacts":{"email":"mairie@brehemont.fr","telephone":"0247968471"},"horaires":"Du Lundi au Mardi : de 09h00 à 12h00 de 14h00 à 17h00\nDu Mercredi au Jeudi : de 09h00 à 12h00\nLe Vendredi : de 09h00 à 12h00 de 14h00 à 17h00","latitude":47.29578,"longitude":0.355538,"website":"https://www.brehemont.fr/","hasWebsite":true,"hasHoraires":true,"url":"https://lannuaire.service-public.gouv.fr/centre-val-de-loire/indre-et-loire/be856e6f-785a-4dd2-87ed-e6cb1d9fca05"}
{"nom":"Bridoré","nomNormalise":"bridore","typeCollectivite":"Commune","region":"Centre-Val de Loire","departement":"Indre-et-Loire","departementCode":"37","adresse":{"street":"Place de l'Église","postalCode":"37600","city":"Bridoré","country":"France"},"contacts":{"email":"mairie@bridore.fr","telephone":"0247947265"},"horaires":"Le Lundi : de 08h30 à 12h30 de 13h30 à 18h00\nDu Mardi au Jeudi : de 13h30 à 18h00","latitude":47.058674,"longitude":1.083444,"website":"https://www.bridore.fr/","hasWebsite":true,"hasHoraires":true,"url":"https://lannuaire.service-public.gouv.fr/centre-val-de-loire/indre-et-loire/b8a4c727-26a2-4dea-ae49-a1aea866d1da"}
{"nom":"Brizay","nomNormalise":"brizay","typeCollectivite":"Commune","region":"Centre-Val de Loire","departement":"Indre-et-Loire","departementCode":"37","adresse":{"street":"2 place du 14-Juillet","postalCode":"37220","city":"Brizay","country":"France"},"contacts":{"email":"mairie.brizay@orange.fr","telephone":"0247585085"},"horaires":"Le Lundi : de 08h00 à 12h00\nLe Mardi : de 13h30 à 17h30\nLe Jeudi : de 08h00 à 12h30 de 14h00 à 17h30\nLe Vendredi : de 13h30 à 17h30","latitude":47.10123,"longitude":0.403661,"website":"","hasWebsite":false,"hasHoraires":true,"url":"https://lannuaire.service-public.gouv.fr/centre-val-de-loire/indre-et-loire/aee31622-06a6-4d97-a6ef-48aad2406590"}
{"nom":"Bueil-en-Touraine","nomNormalise":"bueilentouraine","typeCollectivite":"Commune","region":"Centre-Val de Loire","departement":"Indre-et-Loire","departementCode":"37","adresse":{"street":"7 rue de la Mairie","postalCode":"37370","city":"Bueil-en-Touraine","country":"France"},"contacts":{"email":"mairie@bueilentouraine.com","telephone":"0247244406"},"horaires":"Le Lundi : de 13h30 à 17h00\nLe Mercredi : de 10h45 à 12h00\nLe Jeudi : de 09h00 à 12h00","latitude":47.645103,"longitude":0.5496299,"website":"","hasWebsite":false,"hasHoraires":true,"url":"https://lannuaire.service-public.gouv.fr/centre-val-de-loire/indre-et-loire/628e6359-0611-4d77-904e-ab582d6046a4"}
{"nom":"Candes-Saint-Martin","nomNormalise":"candessaintmartin","typeCollectivite":"Commune","region":"Centre-Val de Loire","departement":"Indre-et-Loire","departementCode":"37","adresse":{"street":"4 rue de la Mairie","postalCode":"37500","city":"Candes-Saint-Martin","country":"France"},"contacts":{"email":"mairie.candes.st.martin@orange.fr","telephone":"0247959061"},"horaires":"Le Lundi : de 10h00 à 12h00\nLe Jeudi : de 16h00 à 18h00\nLe Vendredi : de 10h00 à 12h00","latitude":47.21081,"longitude":0.074701,"website":"https://candes-saint-martin.fr/","hasWebsite":true,"hasHoraires":true,"url":"https://lannuaire.service-public.gouv.fr/centre-val-de-loire/indre-et-loire/287f177e-1bc6-47f0-aed8-5d4565274d4a"}
{"nom":"Cangey","nomNormalise":"cangey","typeCollectivite":"Commune","region":"Centre-Val de Loire","departement":"Indre-et-Loire","departementCode":"37","adresse":{"street":"5 rue de Château-Renault","postalCode":"37530","city":"Cangey","country":"France"},"contacts":{"email":"mairie.cangey@wanadoo.fr","telephone":"0247300843"},"horaires":"Le Lundi : de 08h30 à 12h30 de 13h30 à 17h00\nDu Mardi au Vendredi : de 08h30 à 12h30","latitude":47.4687,"longitude":1.05934,"website":"https://www.cangey.fr/","hasWebsite":true,"hasHoraires":true,"url":"https://lannuaire.service-public.gouv.fr/centre-val-de-loire/indre-et-loire/a785151b-3fac-4842-9292-59580ef21f1b"}
{"nom":"Céré-la-Ronde","nomNormalise":"cerelaronde","typeCollectivite":"Commune","region":"Centre-Val de Loire","departement":"Indre-et-Loire","departementCode":"37","adresse":{"street":"5 rue Rabelais","postalCode":"37460","city":"Céré-la-Ronde","country":"France"},"contacts":{"email":"accueil@cere-la-ronde.fr","telephone":"0247942361"},"horaires":"Du Lundi au Vendredi : de 09h00 à 12h00","latitude":47.2603,"longitude":1.1905,"website":"https://cere-la-ronde.fr/","hasWebsite":true,"hasHoraires":true,"url":"https://lannuaire.service-public.gouv.fr/centre-val-de-loire/indre-et-loire/29a29cbd-55d3-43a5-8762-30fde48e5e0e"}
{"nom":"Cerelles","nomNormalise":"cerelles","typeCollectivite":"Commune","region":"Centre-Val de Loire","departement":"Indre-et-Loire","departementCode":"37","adresse":{"street":"37 rue du Maréchal-Reille","postalCode":"37390","city":"Cerelles","country":"France"},"contacts":{"email":"secretariat@mairie-cerelles.fr","telephone":"0247551089"},"horaires":"Le Lundi : de 09h00 à 12h00 de 14h00 à 18h00\nLe Mercredi : de 09h00 à 12h00 de 14h00 à 17h00\nLe Vendredi : de 09h00 à 12h00 de 14h00 à 18h00\nLe Samedi : de 09h00 à 12h00\n\nPermanence des élus également.","latitude":47.4986,"longitude":0.6819824,"website":"https://www.mairie-cerelles.fr/","hasWebsite":true,"hasHoraires":true,"url":"https://lannuaire.service-public.gouv.fr/centre-val-de-loire/indre-et-loire/3f85f62e-ef6b-4bc1-a3b0-efa271355bae"}
{"nom":"Chambon","nomNormalise":"chambon","typeCollectivite":"Commune","region":"Centre-Val de Loire","departement":"Indre-et-Loire","departementCode":"37","adresse":{"street":"3 place du 11-Novembre","postalCode":"37290","city":"Chambon","country":"France"},"contacts":{"email":"secretariat@mairiechambon37.fr","telephone":"0247945369"},"horaires":"Du Lundi au Vendredi : de 13h45 à 16h30","latitude":46.841537,"longitude":0.811417,"website":"","hasWebsite":false,"hasHoraires":true,"url":"https://lannuaire.service-public.gouv.fr/centre-val-de-loire/indre-et-loire/26aee314-db20-4535-93c2-f419a3e69112"}
{"nom":"Chambourg-sur-Indre","nomNormalise":"chambourgsurindre","typeCollectivite":"Commune","region":"Centre-Val de Loire","departement":"Indre-et-Loire","departementCode":"37","adresse":{"street":"Rue Marcel-Viraud","postalCode":"37310","city":"Chambourg-sur-Indre","country":"France"},"contacts":{"email":"mairie@chambourgsurindre.fr","telephone":"0247925010"},"horaires":"Le Lundi : de 09h00 à 12h30\nLe Mardi : de 09h00 à 12h30 de 13h30 à 17h00\nLe Mercredi : de 09h00 à 12h30\nLe Jeudi : de 09h00 à 12h30 de 13h30 à 17h00\nLe Vendredi : de 09h00 à 12h30","latitude":47.183243,"longitude":0.9666717,"website":"https://www.chambourg-sur-indre.fr/fr/","hasWebsite":true,"hasHoraires":true,"url":"https://lannuaire.service-public.gouv.fr/centre-val-de-loire/indre-et-loire/ca8d012a-b907-48e0-9bd5-9a12eab01f3e"}
{"nom":"Chambray-lès-Tours","nomNormalise":"chambraylestours","typeCollectivite":"Commune","region":"Centre-Val de Loire","departement":"Indre-et-Loire","departementCode":"37","adresse":{"street":"7 rue de la Mairie","postalCode":"37170","city":"Chambray-lès-Tours","country":"France"},"contacts":{"email":"dg@ville-chambray-les-tours.fr","telephone":"0247484567"},"horaires":"Le Lundi : de 08h30 à 17h00\nLe Mardi : de 08h30 à 19h00\nDu Mercredi au Vendredi : de 08h30 à 17h00","latitude":47.338722,"longitude":0.71333,"website":"https://www.ville-chambray-les-tours.fr/","hasWebsite":true,"hasHoraires":true,"url":"https://lannuaire.service-public.gouv.fr/centre-val-de-loire/indre-et-loire/16e81eb8-0b7e-4871-8271-eb8820f3a84d"}
{"nom":"Champigny-sur-Veude","nomNormalise":"champignysurveude","typeCollectivite":"Commune","region":"Centre-Val de Loire","departement":"Indre-et-Loire","departementCode":"37","adresse":{"street":"2 place de la Mairie","postalCode":"37120","city":"Champigny-sur-Veude","country":"France"},"contacts":{"email":"mairie@champignysurveude.fr","telephone":"0247957348"},"horaires":"Du Lundi au Vendredi : de 09h00 à 12h00","latitude":47.066044,"longitude":0.32162905,"website":"","hasWebsite":false,"hasHoraires":true,"url":"https://lannuaire.service-public.gouv.fr/centre-val-de-loire/indre-et-loire/1aa0660f-5d3f-4a39-830b-684955c00f84"}
{"nom":"Chançay","nomNormalise":"chancay","typeCollectivite":"Commune","region":"Centre-Val de Loire","departement":"Indre-et-Loire","departementCode":"37","adresse":{"street":"16 rue de la Mairie","postalCode":"37210","city":"Chançay","country":"France"},"contacts":{"email":"mairie@chancay.fr","telephone":"0247529317"},"horaires":"Le Lundi : de 13h30 à 16h00\nDu Mardi au Vendredi : de 09h00 à 12h30\nLe Samedi : de 10h00 à 12h00\n\nAccueil ouvert uniquement le 1er samedi du mois et fermé en juillet-août.","latitude":47.45094,"longitude":0.8725302,"website":"http://www.chancay.fr/","hasWebsite":true,"hasHoraires":true,"url":"https://lannuaire.service-public.gouv.fr/centre-val-de-loire/indre-et-loire/9ceb069e-92db-43f9-ad7d-29984fbb36d6"}
{"nom":"Chanceaux-près-Loches","nomNormalise":"chanceauxpresloches","typeCollectivite":"Commune","region":"Centre-Val de Loire","departement":"Indre-et-Loire","departementCode":"37","adresse":{"street":"5 allée Valérie-Schneider","postalCode":"37600","city":"Chanceaux-près-Loches","country":"France"},"contacts":{"email":"mairiechanceaux37@orange.fr","telephone":"0247590825"},"horaires":"Du Mardi au Mercredi : de 09h00 à 12h00 de 13h00 à 16h30\nLe Vendredi : de 09h00 à 12h00 de 13h00 à 16h30","latitude":47.147892,"longitude":0.9331307,"website":"","hasWebsite":false,"hasHoraires":true,"url":"https://lannuaire.service-public.gouv.fr/centre-val-de-loire/indre-et-loire/e8453a0d-7d12-4d67-8ac6-fc89166a535c"}
{"nom":"Chanceaux-sur-Choisille","nomNormalise":"chanceauxsurchoisille","typeCollectivite":"Commune","region":"Centre-Val de Loire","departement":"Indre-et-Loire","departementCode":"37","adresse":{"street":"19 rue de la Mairie","postalCode":"37390","city":"Chanceaux-sur-Choisille","country":"France"},"contacts":{"email":"contact@chanceauxsurchoisille.fr","telephone":"0247551955"},"horaires":"Le Lundi : de 09h00 à 12h00 de 14h00 à 17h30\nLe Mardi : de 09h00 à 12h00\nDu Mercredi au Vendredi : de 09h00 à 12h00 de 14h00 à 17h30\nLe Samedi : de 10h00 à 12h00\n\nTous les premiers samedi du mois.","latitude":47.472233,"longitude":0.702268,"website":"https://www.chanceauxsurchoisille.fr/","hasWebsite":true,"hasHoraires":true,"url":"https://lannuaire.service-public.gouv.fr/centre-val-de-loire/indre-et-loire/9b184f37-6f82-42f1-9d15-582b04ae3379"}
{"nom":"Channay-sur-Lathan","nomNormalise":"channaysurlathan","typeCollectivite":"Commune","region":"Centre-Val de Loire","departement":"Indre-et-Loire","departementCode":"37","adresse":{"street":"1 rue du Maine","postalCode":"37330","city":"Channay-sur-Lathan","country":"France"},"contacts":{"email":"secretariat.mairie@channaysurlathan.net","telephone":"0247246307"},"horaires":"Du Lundi au Mardi : de 14h00 à 17h00\nDu Jeudi au Vendredi : de 14h00 à 17h00\nLe Samedi : de 09h00 à 12h00","latitude":47.480316,"longitude":0.263874,"website":"","hasWebsite":false,"hasHoraires":true,"url":"https://lannuaire.service-public.gouv.fr/centre-val-de-loire/indre-et-loire/92455535-f995-410b-906d-7f270defae17"}
{"nom":"Charentilly","nomNormalise":"charentilly","typeCollectivite":"Commune","region":"Centre-Val de Loire","departement":"Indre-et-Loire","departementCode":"37","adresse":{"street":"1 place Andrée-Cousin","postalCode":"37390","city":"Charentilly","country":"France"},"contacts":{"email":"mairie@charentilly.com","telephone":"0247566546"},"horaires":"Du Lundi au Mardi : de 08h00 à 12h00\nLe Mercredi : de 08h00 à 12h00 de 14h00 à 18h00\nLe Vendredi : de 08h00 à 12h00","latitude":47.469666,"longitude":0.6089739,"website":"http://www.charentilly.fr/","hasWebsite":true,"hasHoraires":true,"url":"https://lannuaire.service-public.gouv.fr/centre-val-de-loire/indre-et-loire/1f99adc0-7abb-487d-b4f1-29a8ecec5796"}
{"nom":"Chargé","nomNormalise":"charge","typeCollectivite":"Commune","region":"Centre-Val de Loire","departement":"Indre-et-Loire","departementCode":"37","adresse":{"street":"2 bis rue du Général-de-Gaulle","postalCode":"37530","city":"Chargé","country":"France"},"contacts":{"email":"mairie@village-charge.fr","telephone":"0247570401"},"horaires":"Du Lundi au Mardi : de 08h30 à 12h00\nDu Jeudi au Samedi : de 08h30 à 12h00","latitude":47.432682,"longitude":1.030897,"website":"http://www.charge37.fr/","hasWebsite":true,"hasHoraires":true,"url":"https://lannuaire.service-public.gouv.fr/centre-val-de-loire/indre-et-loire/7238009b-8da6-4e0f-9cef-fccbdce8ee39"}
{"nom":"Charnizay","nomNormalise":"charnizay","typeCollectivite":"Commune","region":"Centre-Val de Loire","departement":"Indre-et-Loire","departementCode":"37","adresse":{"street":"2 place du 8-Mai-1945","postalCode":"37290","city":"Charnizay","country":"France"},"contacts":{"email":"charnizaymairie@wanadoo.fr","telephone":"0247945302"},"horaires":"Du Jeudi au Samedi : de 09h00 à 12h00","latitude":46.8454,"longitude":0.930043,"website":"http://www.charnizay37.fr/","hasWebsite":true,"hasHoraires":true,"url":"https://lannuaire.service-public.gouv.fr/centre-val-de-loire/indre-et-loire/bb578305-c9a4-4db7-8f77-8d488f751b2e"}
{"nom":"Château-la-Vallière","nomNormalise":"chateaulavalliere","typeCollectivite":"Commune","region":"Centre-Val de Loire","departement":"Indre-et-Loire","departementCode":"37","adresse":{"street":"6 rue Lezay-Marnésia","postalCode":"37330","city":"Château-la-Vallière","country":"France"},"contacts":{"email":"mairie@chateaulavalliere.fr","telephone":"0247240021"},"horaires":"Du Lundi au Vendredi : de 09h00 à 12h30 de 13h30 à 17h30\nLe Samedi : de 09h00 à 12h00","latitude":47.547462,"longitude":0.321339,"website":"https://chateaulavalliere.fr/","hasWebsite":true,"hasHoraires":true,"url":"https://lannuaire.service-public.gouv.fr/centre-val-de-loire/indre-et-loire/4ea4bc3c-7c2c-4b7c-833b-fd282c242ff1"}
{"nom":"Château-Renault","nomNormalise":"chateaurenault","typeCollectivite":"Commune","region":"Centre-Val de Loire","departement":"Indre-et-Loire","departementCode":"37","adresse":{"street":"Le Château","postalCode":"37110","city":"Château-Renault","country":"France"},"contacts":{"email":"secretariat@ville-chateau-renault.fr","telephone":"0247298550"},"horaires":"Du Lundi au Jeudi : de 09h00 à 12h00 de 14h00 à 17h00\nLe Vendredi : de 09h00 à 12h00 de 14h00 à 16h00","latitude":47.593155,"longitude":0.914154,"website":"https://www.ville-chateau-renault.fr/","hasWebsite":true,"hasHoraires":true,"url":"https://lannuaire.service-public.gouv.fr/centre-val-de-loire/indre-et-loire/a25878fd-cff6-41b3-89c1-dd7217f091fb"}
{"nom":"Chaumussay","nomNormalise":"chaumussay","typeCollectivite":"Commune","region":"Centre-Val de Loire","departement":"Indre-et-Loire","departementCode":"37","adresse":{"street":"1 place de la Mairie","postalCode":"37350","city":"Chaumussay","country":"France"},"contacts":{"email":"contact@mairiechaumussay.fr","telephone":"0247945402"},"horaires":"Du Lundi au Mardi : de 08h30 à 12h30\nDu Jeudi au Vendredi : de 08h30 à 12h30","latitude":46.8706,"longitude":0.862155,"website":"","hasWebsite":false,"hasHoraires":true,"url":"https://lannuaire.service-public.gouv.fr/centre-val-de-loire/indre-et-loire/8852b5be-bf23-4985-ae6d-de0edc6de616"}
{"nom":"Chaveignes","nomNormalise":"chaveignes","typeCollectivite":"Commune","region":"Centre-Val de Loire","departement":"Indre-et-Loire","departementCode":"37","adresse":{"street":"2 C route du Bourg","postalCode":"37120","city":"Chaveignes","country":"France"},"contacts":{"email":"mairie@chaveignes.fr","telephone":"0247581674"},"horaires":"Du Lundi au Mardi : de 09h00 à 12h00 de 14h00 à 17h00\nLe Mercredi : de 10h00 à 12h00\nLe Jeudi : de 09h00 à 12h00 de 14h00 à 17h00\nLe Vendredi : de 10h00 à 12h00","latitude":47.0008,"longitude":0.390159,"website":"","hasWebsite":false,"hasHoraires":true,"url":"https://lannuaire.service-public.gouv.fr/centre-val-de-loire/indre-et-loire/99fa709f-0eff-4ff5-bec4-dc6d2211a2cf"}
{"nom":"Chédigny","nomNormalise":"chedigny","typeCollectivite":"Commune","region":"Centre-Val de Loire","departement":"Indre-et-Loire","departementCode":"37","adresse":{"street":"5 place de la Mairie","postalCode":"37310","city":"Chédigny","country":"France"},"contacts":{"email":"mairie-chedigny@wanadoo.fr","telephone":"0247925143"},"horaires":"Le Lundi : de 14h00 à 18h30\nLe Mardi : de 09h00 à 12h30 de 14h00 à 17h30\nLe Jeudi : de 14h00 à 18h30\nLe Vendredi : de 14h00 à 17h00","latitude":47.209045,"longitude":0.9995872,"website":"https://www.chedigny.fr/","hasWebsite":true,"hasHoraires":true,"url":"https://lannuaire.service-public.gouv.fr/centre-val-de-loire/indre-et-loire/83049343-abdd-4f53-aac6-1453eb39e4b3"}
{"nom":"Cheillé","nomNormalise":"cheille","typeCollectivite":"Commune","region":"Centre-Val de Loire","departement":"Indre-et-Loire","departementCode":"37","adresse":{"street":"67 rue de Chinon","postalCode":"37190","city":"Cheillé","country":"France"},"contacts":{"email":"mairie@cheille.fr","telephone":"0247454225"},"horaires":"Le Lundi : de 09h00 à 12h30 de 15h00 à 17h00\nLe Mardi : de 09h00 à 12h30\nLe Mercredi : de 09h00 à 12h30 de 15h00 à 17h00\nLe Jeudi : de 09h00 à 12h30\nLe Vendredi : de 09h00 à 12h30 de 15h00 à 17h00\nLe Samedi : de 09h00 à 12h00","latitude":47.25494,"longitude":0.462709,"website":"http://www.cheille.fr/","hasWebsite":true,"hasHoraires":true,"url":"https://lannuaire.service-public.gouv.fr/centre-val-de-loire/indre-et-loire/1d4a15c0-de56-41ce-8ed5-c2077262260a"}
{"nom":"Chemillé-sur-Dême","nomNormalise":"chemillesurdeme","typeCollectivite":"Commune","region":"Centre-Val de Loire","departement":"Indre-et-Loire","departementCode":"37","adresse":{"street":"1 place de l'Église","postalCode":"37370","city":"Chemillé-sur-Dême","country":"France"},"contacts":{"email":"mairie.chemillesurdeme@wanadoo.fr","telephone":"0247523330"},"horaires":"Du Lundi au Vendredi : de 08h45 à 12h15\nLe Samedi : de 08h45 à 11h30","latitude":47.658813,"longitude":0.6488353,"website":"","hasWebsite":false,"hasHoraires":true,"url":"https://lannuaire.service-public.gouv.fr/centre-val-de-loire/indre-et-loire/769318fa-9762-4479-9264-75dfe74a62c7"}
{"nom":"Chemillé-sur-Indrois","nomNormalise":"chemillesurindrois","typeCollectivite":"Commune","region":"Centre-Val de Loire","departement":"Indre-et-Loire","departementCode":"37","adresse":{"street":"7 rue Henry-de-Marsay","postalCode":"37460","city":"Chemillé-sur-Indrois","country":"France"},"contacts":{"email":"mairie-chemille-sur-indrois@wanadoo.fr","telephone":"0247926075"},"horaires":"Le Mardi : de 08h30 à 12h00\nLe Jeudi : de 08h30 à 12h00\nLe Samedi : de 08h30 à 12h00","latitude":47.1618,"longitude":1.1682,"website":"http://www.chemillesurindrois.fr/","hasWebsite":true,"hasHoraires":true,"url":"https://lannuaire.service-public.gouv.fr/centre-val-de-loire/indre-et-loire/5271048a-2da3-4fd0-8250-3be3dc41e97b"}
{"nom":"Chenonceaux","nomNormalise":"chenonceaux","typeCollectivite":"Commune","region":"Centre-Val de Loire","departement":"Indre-et-Loire","departementCode":"37","adresse":{"street":"1 place de la Mairie","postalCode":"37150","city":"Chenonceaux","country":"France"},"contacts":{"email":"mairie@chenonceaux.fr","telephone":"0247239013"},"horaires":"Le Lundi : de 09h00 à 12h30 de 13h00 à 17h00\nLe Mardi : de 09h00 à 12h30\nLe Mercredi : de 09h00 à 12h30 de 13h00 à 17h00\nDu Jeudi au Vendredi : de 09h00 à 12h30","latitude":47.33112,"longitude":1.066879,"website":"https://www.chenonceaux.fr/","hasWebsite":true,"hasHoraires":true,"url":"https://lannuaire.service-public.gouv.fr/centre-val-de-loire/indre-et-loire/de5d0e66-4c23-4f19-8140-6a428567d593"}
{"nom":"Chezelles","nomNormalise":"chezelles","typeCollectivite":"Commune","region":"Centre-Val de Loire","departement":"Indre-et-Loire","departementCode":"37","adresse":{"street":"2 place de la Mairie","postalCode":"37220","city":"Chezelles","country":"France"},"contacts":{"email":"mairie.chezelles@gmail.com","telephone":"0247585202"},"horaires":"Le Mardi : de 15h00 à 18h00\nLe Vendredi : de 09h00 à 12h00","latitude":47.05811,"longitude":0.440984,"website":"","hasWebsite":false,"hasHoraires":true,"url":"https://lannuaire.service-public.gouv.fr/centre-val-de-loire/indre-et-loire/c251d9e2-6f0a-4fac-9fe8-488919b90649"}
{"nom":"Chinon","nomNormalise":"chinon","typeCollectivite":"Commune","region":"Centre-Val de Loire","departement":"Indre-et-Loire","departementCode":"37","adresse":{"street":"Place du Général-de-Gaulle","postalCode":"37500","city":"Chinon","country":"France"},"contacts":{"email":"accueilmairie@ville-chinon.com","telephone":"0247935300"},"horaires":"Du Lundi au Vendredi : de 08h30 à 12h30 de 13h30 à 17h00\nLe Samedi : de 09h00 à 12h00\n\nAccueil ouvert uniquement pour le service de l'état civil.","latitude":47.1665,"longitude":0.240038,"website":"https://www.ville-chinon.com/","hasWebsite":true,"hasHoraires":true,"url":"https://lannuaire.service-public.gouv.fr/centre-val-de-loire/indre-et-loire/426db16f-04b8-4a80-b010-98f3add939ea"}
{"nom":"Chisseaux","nomNormalise":"chisseaux","typeCollectivite":"Commune","region":"Centre-Val de Loire","departement":"Indre-et-Loire","departementCode":"37","adresse":{"street":"2 rue Nationale","postalCode":"37150","city":"Chisseaux","country":"France"},"contacts":{"email":"mairie@chisseaux.fr","telephone":"0247239075"},"horaires":"Le Lundi : de 09h00 à 12h30\nLe Mardi : de 15h00 à 18h30\nDu Mercredi au Vendredi : de 09h00 à 12h30","latitude":47.33047,"longitude":1.088379,"website":"http://www.mairie-chisseaux.fr/","hasWebsite":true,"hasHoraires":true,"url":"https://lannuaire.service-public.gouv.fr/centre-val-de-loire/indre-et-loire/08ca70da-0965-457c-b2fb-3a8bd7cdfafb"}
{"nom":"Chouzé-sur-Loire","nomNormalise":"chouzesurloire","typeCollectivite":"Commune","region":"Centre-Val de Loire","departement":"Indre-et-Loire","departementCode":"37","adresse":{"street":"11 place des Déportés","postalCode":"37140","city":"Chouzé-sur-Loire","country":"France"},"contacts":{"email":"mairie@chouzesurloire.fr","telephone":"0247951010"},"horaires":"Le Lundi : de 09h00 à 12h00 de 14h00 à 17h30\nLe Mardi : de 09h00 à 12h00\nLe Mercredi : de 09h30 à 12h00 de 14h00 à 17h30\nLe Jeudi : de 09h00 à 12h00\nLe Vendredi : de 09h00 à 12h00 de 14h00 à 17h00","latitude":47.237,"longitude":0.126922,"website":"https://chouze-sur-loire.fr/","hasWebsite":true,"hasHoraires":true,"url":"https://lannuaire.service-public.gouv.fr/centre-val-de-loire/indre-et-loire/7043a2f9-8ca6-4a01-b209-3b67752d401e"}
{"nom":"Cigogné","nomNormalise":"cigogne","typeCollectivite":"Commune","region":"Centre-Val de Loire","departement":"Indre-et-Loire","departementCode":"37","adresse":{"street":"1 place de la Mairie","postalCode":"37310","city":"Cigogné","country":"France"},"contacts":{"email":"mairie@communedecigogne.fr","telephone":"0247578316"},"horaires":"Le Lundi : de 13h30 à 17h00\nDu Mardi au Jeudi : de 08h30 à 12h30 de 13h30 à 17h00\nLe Vendredi : de 08h30 à 12h30 de 13h30 à 15h30","latitude":47.26016,"longitude":0.930555,"website":"https://www.communedecigogne.fr/","hasWebsite":true,"hasHoraires":true,"url":"https://lannuaire.service-public.gouv.fr/centre-val-de-loire/indre-et-loire/5e9ef480-a3c5-49b2-a4c9-ec87dfc82663"}
{"nom":"Cinais","nomNormalise":"cinais","typeCollectivite":"Commune","region":"Centre-Val de Loire","departement":"Indre-et-Loire","departementCode":"37","adresse":{"street":"2 rue des Palmiers","postalCode":"37500","city":"Cinais","country":"France"},"contacts":{"email":"mairiecinais@wanadoo.fr","telephone":"0247959116"},"horaires":"Le Mardi : de 13h30 à 17h00\nLe Mercredi : de 13h30 à 18h00\nLe Jeudi : de 13h30 à 17h00\nLe Vendredi : de 08h00 à 12h00","latitude":47.1484,"longitude":0.190186,"website":"https://www.chinon-vienne-loire.fr/","hasWebsite":true,"hasHoraires":true,"url":"https://lannuaire.service-public.gouv.fr/centre-val-de-loire/indre-et-loire/8d1f4c99-421f-403c-a5b0-9055ab8a0bfa"}
{"nom":"Cinq-Mars-la-Pile","nomNormalise":"cinqmarslapile","typeCollectivite":"Commune","region":"Centre-Val de Loire","departement":"Indre-et-Loire","departementCode":"37","adresse":{"street":"12 place de la Mairie","postalCode":"37130","city":"Cinq-Mars-la-Pile","country":"France"},"contacts":{"email":"mairie@cinqmarslapile.fr","telephone":"0247962030"},"horaires":"Du Lundi au Vendredi : de 09h00 à 12h00 de 13h30 à 17h30\nLe Samedi : de 10h00 à 12h00\n\nAccueil ouvert uniquement les semaines impaires et exclusivement pour l'état civil.","latitude":47.34731,"longitude":0.460656,"website":"https://www.cinqmarslapile.fr/","hasWebsite":true,"hasHoraires":true,"url":"https://lannuaire.service-public.gouv.fr/centre-val-de-loire/indre-et-loire/8560b47c-5d13-4f76-b23f-c2c64e7dbab2"}
{"nom":"Ciran","nomNormalise":"ciran","typeCollectivite":"Commune","region":"Centre-Val de Loire","departement":"Indre-et-Loire","departementCode":"37","adresse":{"street":"18 rue René-Descartes","postalCode":"37240","city":"Ciran","country":"France"},"contacts":{"email":"contact@mairieciran.fr","telephone":"0247596294"},"horaires":"Le Lundi : de 09h00 à 12h15 de 13h45 à 17h45\nLe Mardi : de 09h00 à 12h15\nLe Jeudi : de 09h00 à 12h15\nLe Vendredi : de 09h00 à 12h15 de 13h45 à 17h45","latitude":47.059525,"longitude":0.87097,"website":"","hasWebsite":false,"hasHoraires":true,"url":"https://lannuaire.service-public.gouv.fr/centre-val-de-loire/indre-et-loire/03602af5-4094-427b-ae18-21ea427b5c0b"}
{"nom":"Civray-de-Touraine","nomNormalise":"civraydetouraine","typeCollectivite":"Commune","region":"Centre-Val de Loire","departement":"Indre-et-Loire","departementCode":"37","adresse":{"street":"1 rue des Écoles","postalCode":"37150","city":"Civray-de-Touraine","country":"France"},"contacts":{"email":"civraydetouraine@wanadoo.fr","telephone":"0247236280"},"horaires":"Le Lundi : de 08h30 à 12h00 de 14h00 à 19h00\nDu Mardi au Mercredi : de 08h30 à 12h00\nLe Jeudi : de 08h30 à 12h00 de 14h00 à 17h00\nLe Vendredi : de 08h30 à 12h00","latitude":47.3324,"longitude":1.04638,"website":"https://www.civraydetouraine.fr/","hasWebsite":true,"hasHoraires":true,"url":"https://lannuaire.service-public.gouv.fr/centre-val-de-loire/indre-et-loire/f489f741-4326-46a3-8b46-fcec6d19b6e0"}
{"nom":"Civray-sur-Esves","nomNormalise":"civraysuresves","typeCollectivite":"Commune","region":"Centre-Val de Loire","departement":"Indre-et-Loire","departementCode":"37","adresse":{"street":"4 rue Charles-Fonteneau","postalCode":"37160","city":"Civray-sur-Esves","country":"France"},"contacts":{"email":"mairie@civraysuresves.fr","telephone":"0247596340"},"horaires":"Du Mardi au Jeudi : de 08h30 à 12h30 de 13h30 à 17h30\nLe Vendredi : de 08h30 à 12h30","latitude":47.0481,"longitude":0.710897,"website":"http://www.civraysuresves.fr/","hasWebsite":true,"hasHoraires":true,"url":"https://lannuaire.service-public.gouv.fr/centre-val-de-loire/indre-et-loire/fb7fbe69-aa1a-4dff-8a01-8d88a335f50c"}
{"nom":"Cléré-les-Pins","nomNormalise":"clerelespins","typeCollectivite":"Commune","region":"Centre-Val de Loire","departement":"Indre-et-Loire","departementCode":"37","adresse":{"street":"2 place de la Mairie","postalCode":"37340","city":"Cléré-les-Pins","country":"France"},"contacts":{"email":"mairie-clere-37@orange.fr","telephone":"0247246206"},"horaires":"Du Lundi au Vendredi : de 08h00 à 12h00","latitude":47.425594,"longitude":0.3899329,"website":"https://www.clerelespins.fr/","hasWebsite":true,"hasHoraires":true,"url":"https://lannuaire.service-public.gouv.fr/centre-val-de-loire/indre-et-loire/be406889-9cb4-4df3-bede-01fc5fb57952"}
{"nom":"Continvoir","nomNormalise":"continvoir","typeCollectivite":"Commune","region":"Centre-Val de Loire","departement":"Indre-et-Loire","departementCode":"37","adresse":{"street":"13 rue du Manoir","postalCode":"37340","city":"Continvoir","country":"France"},"contacts":{"email":"mairie@continvoir.fr","telephone":"0247967602"},"horaires":"Du Lundi au Mardi : de 08h30 à 12h30 de 13h15 à 18h00\nLe Jeudi : de 08h30 à 12h30 de 13h15 à 18h00\nLe Vendredi : de 08h30 à 12h30","latitude":47.3881,"longitude":0.219627,"website":"https://www.continvoir.fr/","hasWebsite":true,"hasHoraires":true,"url":"https://lannuaire.service-public.gouv.fr/centre-val-de-loire/indre-et-loire/decbd699-e54c-4e27-8ea7-727ebf2a75d5"}
{"nom":"Cormery","nomNormalise":"cormery","typeCollectivite":"Commune","region":"Centre-Val de Loire","departement":"Indre-et-Loire","departementCode":"37","adresse":{"street":"18 place du Mail","postalCode":"37320","city":"Cormery","country":"France"},"contacts":{"email":"mairie@cormery.fr","telephone":"0247434066"},"horaires":"Le Lundi : de 14h00 à 17h00\nDu Mardi au Samedi : de 09h00 à 12h15","latitude":47.2679,"longitude":0.838829,"website":"http://www.cormery.fr/","hasWebsite":true,"hasHoraires":true,"url":"https://lannuaire.service-public.gouv.fr/centre-val-de-loire/indre-et-loire/c7a102dd-0964-41fe-b09f-add8a6e348f5"}
{"nom":"Coteaux-sur-Loire","nomNormalise":"coteauxsurloire","typeCollectivite":"Commune","region":"Centre-Val de Loire","departement":"Indre-et-Loire","departementCode":"37","adresse":{"street":"62 rue Dorothée-de-Dino","postalCode":"37130","city":"Coteaux-sur-Loire","country":"France"},"contacts":{"email":"mairie@coteaux-sur-loire.fr","telephone":"0247969815"},"horaires":"Le Lundi : de 10h00 à 12h00 de 15h00 à 17h00\nLe Mercredi : de 10h00 à 12h00\nLe Jeudi : de 10h00 à 12h00 de 15h00 à 17h00\nLe Vendredi : de 10h00 à 12h00 de 15h00 à 19h00","latitude":47.286217,"longitude":0.306656,"website":"https://coteaux-sur-loire.fr/","hasWebsite":true,"hasHoraires":true,"url":"https://lannuaire.service-public.gouv.fr/centre-val-de-loire/indre-et-loire/ed22efaf-63f1-4e4b-a3ef-ee57be48fd2a"}
{"nom":"Couesmes","nomNormalise":"couesmes","typeCollectivite":"Commune","region":"Centre-Val de Loire","departement":"Indre-et-Loire","departementCode":"37","adresse":{"street":"32 rue Jean-et-François-Tertrain","postalCode":"37330","city":"Couesmes","country":"France"},"contacts":{"email":"mairiedecouesmes@orange.fr","telephone":"0247240587"},"horaires":"Du Lundi au Mardi : de 08h00 à 12h00 de 14h00 à 17h00\nLe Mercredi : de 08h00 à 12h00 de 14h00 à 16h30\nLe Jeudi : de 08h00 à 12h00 de 14h00 à 17h00\nLe Vendredi : de 08h00 à 12h00","latitude":47.5645,"longitude":0.342882,"website":"http://www.couesmes.fr/","hasWebsite":true,"hasHoraires":true,"url":"https://lannuaire.service-public.gouv.fr/centre-val-de-loire/indre-et-loire/4d24d7e6-e6b3-4eaf-a533-a5a945ae9e86"}
{"nom":"Courçay","nomNormalise":"courcay","typeCollectivite":"Commune","region":"Centre-Val de Loire","departement":"Indre-et-Loire","departementCode":"37","adresse":{"street":"6 rue du Commerce","postalCode":"37310","city":"Courçay","country":"France"},"contacts":{"email":"mairiedecourcay@wanadoo.fr","telephone":"0247941606"},"horaires":"Le Mardi : de 13h30 à 18h30\nLe Mercredi : de 09h00 à 12h00\nLe Jeudi : de 13h30 à 18h30\nLe Vendredi : de 09h00 à 12h00","latitude":47.2511,"longitude":0.875688,"website":"https://www.courcay.fr/","hasWebsite":true,"hasHoraires":true,"url":"https://lannuaire.service-public.gouv.fr/centre-val-de-loire/indre-et-loire/f92010ea-23aa-488d-a446-ac62fcea6bab"}
{"nom":"Courcelles-de-Touraine","nomNormalise":"courcellesdetouraine","typeCollectivite":"Commune","region":"Centre-Val de Loire","departement":"Indre-et-Loire","departementCode":"37","adresse":{"street":"2 rue Michel-Pétrieux","postalCode":"37330","city":"Courcelles-de-Touraine","country":"France"},"contacts":{"email":"secretariat@courcellesdetouraine.fr","telephone":"0247246356"},"horaires":"Le Lundi : de 10h00 à 12h00 de 14h00 à 16h00\nLe Mardi : de 10h00 à 12h00\nLe Jeudi : de 10h00 à 12h00\nLe Vendredi : de 10h00 à 12h00 de 14h00 à 16h00","latitude":47.4822,"longitude":0.304931,"website":"https://www.courcellesdetouraine.fr/","hasWebsite":true,"hasHoraires":true,"url":"https://lannuaire.service-public.gouv.fr/centre-val-de-loire/indre-et-loire/6cfd27d7-2274-4632-b715-5edf7d58405b"}
{"nom":"Courcoué","nomNormalise":"courcoue","typeCollectivite":"Commune","region":"Centre-Val de Loire","departement":"Indre-et-Loire","departementCode":"37","adresse":{"street":"8 rue de Richelieu","postalCode":"37120","city":"Courcoué","country":"France"},"contacts":{"email":"mairiedecourcoue@wanadoo.fr","telephone":"0247583003"},"horaires":"Le Mardi : de 14h00 à 17h00\nLe Jeudi : de 14h00 à 17h00","latitude":47.03395,"longitude":0.396621,"website":"","hasWebsite":false,"hasHoraires":true,"url":"https://lannuaire.service-public.gouv.fr/centre-val-de-loire/indre-et-loire/80ec7e68-ee20-4ca4-bf83-0b25bd239c56"}
{"nom":"Couziers","nomNormalise":"couziers","typeCollectivite":"Commune","region":"Centre-Val de Loire","departement":"Indre-et-Loire","departementCode":"37","adresse":{"street":"1 rue de la Mairie","postalCode":"37500","city":"Couziers","country":"France"},"contacts":{"email":"mairiecouziers@wanadoo.fr","telephone":"0247959545"},"horaires":"Le Lundi : de 13h00 à 17h00\nLe Jeudi : de 09h00 à 17h00","latitude":47.158775,"longitude":0.082941,"website":"","hasWebsite":false,"hasHoraires":true,"url":"https://lannuaire.service-public.gouv.fr/centre-val-de-loire/indre-et-loire/bedca53d-03b1-46f5-bb46-9468e5e5b4fa"}
{"nom":"Cravant-les-Côteaux","nomNormalise":"cravantlescoteaux","typeCollectivite":"Commune","region":"Centre-Val de Loire","departement":"Indre-et-Loire","departementCode":"37","adresse":{"street":"1 place de l'Église","postalCode":"37500","city":"Cravant-les-Côteaux","country":"France"},"contacts":{"email":"cravant-mairie@orange.fr","telephone":"0247931359"},"horaires":"Du Lundi au Vendredi : de 14h00 à 17h30","latitude":47.1581,"longitude":0.345697,"website":"http://www.cravant-les-coteaux.com/","hasWebsite":true,"hasHoraires":true,"url":"https://lannuaire.service-public.gouv.fr/centre-val-de-loire/indre-et-loire/1f0d0502-0b0c-4b16-baa6-496bcb2cf918"}
{"nom":"Crissay-sur-Manse","nomNormalise":"crissaysurmanse","typeCollectivite":"Commune","region":"Centre-Val de Loire","departement":"Indre-et-Loire","departementCode":"37","adresse":{"street":"5 a place de l'Église","postalCode":"37220","city":"Crissay-sur-Manse","country":"France"},"contacts":{"email":"mairie@crissaysurmanse.fr","telephone":"0247585405"},"horaires":"Le Lundi : de 09h00 à 12h00 de 14h00 à 16h00\nLe Mercredi : de 09h00 à 12h00 de 14h00 à 16h00\nLe Vendredi : de 14h00 à 16h00","latitude":47.148033,"longitude":0.4863,"website":"http://www.crissaysurmanse.fr/","hasWebsite":true,"hasHoraires":true,"url":"https://lannuaire.service-public.gouv.fr/centre-val-de-loire/indre-et-loire/7805fc57-cd14-4081-b3bc-8699858ac511"}
{"nom":"Crotelles","nomNormalise":"crotelles","typeCollectivite":"Commune","region":"Centre-Val de Loire","departement":"Indre-et-Loire","departementCode":"37","adresse":{"street":"Place Charles-de-Gaulle","postalCode":"37380","city":"Crotelles","country":"France"},"contacts":{"email":"mairie.crotelles@wanadoo.fr","telephone":"0247550413"},"horaires":"Le Lundi : de 13h30 à 19h00\n\nPermanence des adjoints le lundi à partir de 17h30.\nLe Mardi : de 13h30 à 17h00\nLe Jeudi : de 13h30 à 18h00\nLe Vendredi : de 13h30 à 17h00","latitude":47.5424,"longitude":0.836844,"website":"https://crotelles.fr/","hasWebsite":true,"hasHoraires":true,"url":"https://lannuaire.service-public.gouv.fr/centre-val-de-loire/indre-et-loire/f147a620-d840-4ba6-851f-d1e42d6857d6"}
{"nom":"Crouzilles","nomNormalise":"crouzilles","typeCollectivite":"Commune","region":"Centre-Val de Loire","departement":"Indre-et-Loire","departementCode":"37","adresse":{"street":"1 rue Balzac","postalCode":"37220","city":"Crouzilles","country":"France"},"contacts":{"email":"mairie.crouzilles@wanadoo.fr","telephone":"0247585515"},"horaires":"Du Lundi au Mardi : de 13h30 à 17h30\nLe Mercredi : de 13h30 à 16h00\nLe Jeudi : de 13h30 à 17h30\nLe Vendredi : de 13h30 à 16h00","latitude":47.1243,"longitude":0.460453,"website":"","hasWebsite":false,"hasHoraires":true,"url":"https://lannuaire.service-public.gouv.fr/centre-val-de-loire/indre-et-loire/6b75808d-b117-4570-8779-ccf1f8613b3a"}
{"nom":"Cussay","nomNormalise":"cussay","typeCollectivite":"Commune","region":"Centre-Val de Loire","departement":"Indre-et-Loire","departementCode":"37","adresse":{"street":"16 rue Jean-Michaud","postalCode":"37240","city":"Cussay","country":"France"},"contacts":{"email":"contact@mairiecussay.fr","telephone":"0247596184"},"horaires":"Du Lundi au Samedi : de 09h00 à 12h00","latitude":47.023785,"longitude":0.789111,"website":"http://www.cussay.fr/","hasWebsite":true,"hasHoraires":true,"url":"https://lannuaire.service-public.gouv.fr/centre-val-de-loire/indre-et-loire/7baa4169-e6b9-4a25-8671-891cb88e9f4c"}
{"nom":"Dame-Marie-les-Bois","nomNormalise":"damemarielesbois","typeCollectivite":"Commune","region":"Centre-Val de Loire","departement":"Indre-et-Loire","departementCode":"37","adresse":{"street":"6 rue de Blémars","postalCode":"37110","city":"Dame-Marie-les-Bois","country":"France"},"contacts":{"email":"contact@mairiedamemarielesbois.fr","telephone":"0247295512"},"horaires":"Le Lundi : de 10h00 à 12h00 de 17h00 à 18h00\nLe Mercredi : de 15h00 à 18h00\nLe Vendredi : de 09h00 à 12h00","latitude":47.5406,"longitude":1.03193,"website":"","hasWebsite":false,"hasHoraires":true,"url":"https://lannuaire.service-public.gouv.fr/centre-val-de-loire/indre-et-loire/f9d54e83-1c56-4870-b8af-e9fa8693acd8"}
{"nom":"Descartes","nomNormalise":"descartes","typeCollectivite":"Commune","region":"Centre-Val de Loire","departement":"Indre-et-Loire","departementCode":"37","adresse":{"street":"3 place de l'Hôtel-de-Ville","postalCode":"37160","city":"Descartes","country":"France"},"contacts":{"email":"mairie@ville-descartes.fr","telephone":"0247914200"},"horaires":"Du Lundi au Jeudi : de 08h30 à 12h00 de 13h30 à 17h00\nLe Vendredi : de 08h30 à 12h00 de 13h00 à 16h30\nLe Samedi : de 10h00 à 12h00\n\nPermanence.","latitude":46.97349,"longitude":0.6985028,"website":"http://www.ville-descartes.fr/","hasWebsite":true,"hasHoraires":true,"url":"https://lannuaire.service-public.gouv.fr/centre-val-de-loire/indre-et-loire/af334fcb-ac74-46d0-9b8c-7023bcae865e"}
{"nom":"Dierre","nomNormalise":"dierre","typeCollectivite":"Commune","region":"Centre-Val de Loire","departement":"Indre-et-Loire","departementCode":"37","adresse":{"street":"1400 rue de Chenonceaux","postalCode":"37150","city":"Dierre","country":"France"},"contacts":{"email":"mairie@dierre37.fr","telephone":"0247579386"},"horaires":"Du Mardi au Vendredi : de 13h30 à 17h45","latitude":47.347057,"longitude":0.9475898,"website":"http://www.dierre37.fr/","hasWebsite":true,"hasHoraires":true,"url":"https://lannuaire.service-public.gouv.fr/centre-val-de-loire/indre-et-loire/39d991a6-4d86-4963-a8bf-f52869fa462c"}
{"nom":"Dolus-le-Sec","nomNormalise":"doluslesec","typeCollectivite":"Commune","region":"Centre-Val de Loire","departement":"Indre-et-Loire","departementCode":"37","adresse":{"street":"11 rue Agnès-Sorel","postalCode":"37310","city":"Dolus-le-Sec","country":"France"},"contacts":{"email":"contact@mairiededoluslesec.fr","telephone":"0247591152"},"horaires":"Du Lundi au Mardi : de 14h00 à 17h00\nLe Jeudi : de 14h00 à 17h00\nLe Vendredi : de 14h00 à 18h00","latitude":47.165,"longitude":0.897279,"website":"http://www.doluslesec.fr/","hasWebsite":true,"hasHoraires":true,"url":"https://lannuaire.service-public.gouv.fr/centre-val-de-loire/indre-et-loire/bce1790b-2785-415c-b015-749e312eaa47"}
{"nom":"Draché","nomNormalise":"drache","typeCollectivite":"Commune","region":"Centre-Val de Loire","departement":"Indre-et-Loire","departementCode":"37","adresse":{"street":"17 rue de la Mairie","postalCode":"37800","city":"Draché","country":"France"},"contacts":{"email":"mairie@drache.fr","telephone":"0247650213"},"horaires":"Du Lundi au Mardi : de 10h00 à 12h00\nDu Jeudi au Samedi : de 10h00 à 12h00","latitude":47.054356,"longitude":0.623443,"website":"http://www.mairie-de-drache.fr/","hasWebsite":true,"hasHoraires":true,"url":"https://lannuaire.service-public.gouv.fr/centre-val-de-loire/indre-et-loire/64bfe30f-9dab-4cc3-be47-95e6da0fe967"}
{"nom":"Druye","nomNormalise":"druye","typeCollectivite":"Commune","region":"Centre-Val de Loire","departement":"Indre-et-Loire","departementCode":"37","adresse":{"street":"7 rue des Fonchers","postalCode":"37190","city":"Druye","country":"France"},"contacts":{"email":"lemaire@druye.fr","telephone":"0247501066"},"horaires":"Du Mardi au Vendredi : de 08h45 à 12h00 de 14h00 à 17h00\nLe Samedi : de 09h00 à 12h00","latitude":47.3078,"longitude":0.537414,"website":"https://www.druye.fr/","hasWebsite":true,"hasHoraires":true,"url":"https://lannuaire.service-public.gouv.fr/centre-val-de-loire/indre-et-loire/3ad7d71b-a6c3-4b27-89bd-088b60747a66"}
{"nom":"Épeigné-les-Bois","nomNormalise":"epeignelesbois","typeCollectivite":"Commune","region":"Centre-Val de Loire","departement":"Indre-et-Loire","departementCode":"37","adresse":{"street":"2 rue Saint-Vincent","postalCode":"37150","city":"Épeigné-les-Bois","country":"France"},"contacts":{"email":"mairie@epeignelesbois.fr","telephone":"0247239288"},"horaires":"Le Lundi : de 09h00 à 12h00 de 14h00 à 16h00\nLe Mardi : de 09h00 à 12h00\nLe Mercredi : de 09h00 à 12h00\nDu Jeudi au Vendredi : de 09h00 à 12h00 de 14h00 à 16h00","latitude":47.28122,"longitude":1.111317,"website":"http://www.epeigne-les-bois.fr/","hasWebsite":true,"hasHoraires":true,"url":"https://lannuaire.service-public.gouv.fr/centre-val-de-loire/indre-et-loire/61190e0c-8fbb-4a18-98e5-2eebea417f8d"}
{"nom":"Épeigné-sur-Dême","nomNormalise":"epeignesurdeme","typeCollectivite":"Commune","region":"Centre-Val de Loire","departement":"Indre-et-Loire","departementCode":"37","adresse":{"street":"1 rue Jean-de-Bueil","postalCode":"37370","city":"Épeigné-sur-Dême","country":"France"},"contacts":{"email":"mairiedepeignesurdeme@orange.fr","telephone":"0247523292"},"horaires":"Le Mercredi : de 09h00 à 16h30\nLe Vendredi : de 09h00 à 16h30","latitude":47.667873,"longitude":0.6119226,"website":"","hasWebsite":false,"hasHoraires":true,"url":"https://lannuaire.service-public.gouv.fr/centre-val-de-loire/indre-et-loire/97568b1b-6339-4300-84ac-993153dadbc4"}
{"nom":"Esves-le-Moutier","nomNormalise":"esveslemoutier","typeCollectivite":"Commune","region":"Centre-Val de Loire","departement":"Indre-et-Loire","departementCode":"37","adresse":{"street":"1 rue Alfred-de-Vigny","postalCode":"37240","city":"Esves-le-Moutier","country":"France"},"contacts":{"email":"mairie@esveslemoutier.fr","telephone":"0247596245"},"horaires":"Le Lundi : de 08h30 à 12h30 de 13h30 à 17h30\nLe Mercredi : de 08h30 à 12h30\nLe Vendredi : de 08h30 à 12h30 de 13h30 à 17h30","latitude":47.041187,"longitude":0.907205,"website":"","hasWebsite":false,"hasHoraires":true,"url":"https://lannuaire.service-public.gouv.fr/centre-val-de-loire/indre-et-loire/7e1e39c9-0406-4f99-8edb-8e0188d983b9"}
{"nom":"Esvres","nomNormalise":"esvres","typeCollectivite":"Commune","region":"Centre-Val de Loire","departement":"Indre-et-Loire","departementCode":"37","adresse":{"street":"Rue Nationale","postalCode":"37320","city":"Esvres","country":"France"},"contacts":{"email":"info@esvres.fr","telephone":"0247343536"},"horaires":"Le Lundi : de 08h15 à 12h30 de 15h30 à 17h00\nLe Mardi : de 08h15 à 12h30 de 15h30 à 18h00\nDu Mercredi au Jeudi : de 08h15 à 12h30 de 15h30 à 17h00\nLe Vendredi : de 08h15 à 12h30 de 13h30 à 16h30","latitude":47.2848,"longitude":0.780597,"website":"http://www.ville-esvres.fr/","hasWebsite":true,"hasHoraires":true,"url":"https://lannuaire.service-public.gouv.fr/centre-val-de-loire/indre-et-loire/34866390-f47d-40ff-8e04-ee461ba93687"}
{"nom":"Faye-la-Vineuse","nomNormalise":"fayelavineuse","typeCollectivite":"Commune","region":"Centre-Val de Loire","departement":"Indre-et-Loire","departementCode":"37","adresse":{"street":"1 place de la Mairie","postalCode":"37120","city":"Faye-la-Vineuse","country":"France"},"contacts":{"email":"mairie.fayelavineuse@wanadoo.fr","telephone":"0247956611"},"horaires":"Le Mardi : de 09h00 à 12h30\nLe Vendredi : de 14h00 à 17h30","latitude":46.9559,"longitude":0.340848,"website":"","hasWebsite":false,"hasHoraires":true,"url":"https://lannuaire.service-public.gouv.fr/centre-val-de-loire/indre-et-loire/ef88c3e1-5b23-46d4-82d6-a89554354836"}
{"nom":"Ferrière-Larçon","nomNormalise":"ferrierelarcon","typeCollectivite":"Commune","region":"Centre-Val de Loire","departement":"Indre-et-Loire","departementCode":"37","adresse":{"street":"8 rue des Perrets","postalCode":"37350","city":"Ferrière-Larçon","country":"France"},"contacts":{"email":"mairie.ferriere-larcon@wanadoo.fr","telephone":"0247596572"},"horaires":"Du Lundi au Mardi : de 14h00 à 16h00\nDu Jeudi au Vendredi : de 14h00 à 16h00","latitude":46.993168,"longitude":0.8825348,"website":"","hasWebsite":false,"hasHoraires":true,"url":"https://lannuaire.service-public.gouv.fr/centre-val-de-loire/indre-et-loire/e1c9c38b-5c26-42e2-98a2-01fd39ab4a95"}
{"nom":"Ferrière-sur-Beaulieu","nomNormalise":"ferrieresurbeaulieu","typeCollectivite":"Commune","region":"Centre-Val de Loire","departement":"Indre-et-Loire","departementCode":"37","adresse":{"street":"1 mail de la Mairie","postalCode":"37600","city":"Ferrière-sur-Beaulieu","country":"France"},"contacts":{"email":"mairie@ferrieresurbeaulieu.fr","telephone":"0247590016"},"horaires":"Du Lundi au Vendredi : de 08h30 à 12h15","latitude":47.1382,"longitude":1.03744,"website":"http://www.ferriere-sur-beaulieu.fr/","hasWebsite":true,"hasHoraires":true,"url":"https://lannuaire.service-public.gouv.fr/centre-val-de-loire/indre-et-loire/733e8f6c-45a2-4e68-8514-d20a5a0f9d7b"}
{"nom":"Fondettes","nomNormalise":"fondettes","typeCollectivite":"Commune","region":"Centre-Val de Loire","departement":"Indre-et-Loire","departementCode":"37","adresse":{"street":"35 rue Eugène-Goüin","postalCode":"37230","city":"Fondettes","country":"France"},"contacts":{"email":"mairie@fondettes.fr","telephone":"0247881111"},"horaires":"Du Lundi au Mercredi : de 08h45 à 12h00 de 13h30 à 17h00\nLe Jeudi : de 08h45 à 12h00 de 13h30 à 18h30\nLe Vendredi : de 08h45 à 12h00 de 13h30 à 17h00\nLe Samedi : de 08h45 à 12h00\n\nAccueil ouvert uniquement pour l'état civil.","latitude":47.40462,"longitude":0.599686,"website":"http://www.fondettes.fr/","hasWebsite":true,"hasHoraires":true,"url":"https://lannuaire.service-public.gouv.fr/centre-val-de-loire/indre-et-loire/04447d25-bb65-4547-a03d-06e3b9e2f5b1"}
{"nom":"Francueil","nomNormalise":"francueil","typeCollectivite":"Commune","region":"Centre-Val de Loire","departement":"Indre-et-Loire","departementCode":"37","adresse":{"street":"Rue des Écoles","postalCode":"37150","city":"Francueil","country":"France"},"contacts":{"email":"mairie-francueil@francueil.fr","telephone":"0247239143"},"horaires":"Du Lundi au Vendredi : de 14h00 à 17h30","latitude":47.3135,"longitude":1.08378,"website":"http://www.francueil.fr/","hasWebsite":true,"hasHoraires":true,"url":"https://lannuaire.service-public.gouv.fr/centre-val-de-loire/indre-et-loire/65451fc1-5fd0-47cd-affa-80ed7d4de4ca"}
{"nom":"Genillé","nomNormalise":"genille","typeCollectivite":"Commune","region":"Centre-Val de Loire","departement":"Indre-et-Loire","departementCode":"37","adresse":{"street":"1 place Agnès-Sorel","postalCode":"37460","city":"Genillé","country":"France"},"contacts":{"email":"mairie@genille.fr","telephone":"0247595021"},"horaires":"Du Mardi au Samedi : de 09h00 à 12h00","latitude":47.184845,"longitude":1.093425,"website":"https://genille.fr/","hasWebsite":true,"hasHoraires":true,"url":"https://lannuaire.service-public.gouv.fr/centre-val-de-loire/indre-et-loire/724b3eca-4843-457b-970a-51c0f92fd156"}
{"nom":"Gizeux","nomNormalise":"gizeux","typeCollectivite":"Commune","region":"Centre-Val de Loire","departement":"Indre-et-Loire","departementCode":"37","adresse":{"street":"1 rue du Lavoir","postalCode":"37340","city":"Gizeux","country":"France"},"contacts":{"email":"mairie@gizeux.fr","telephone":"0247967663"},"horaires":"Le Lundi : de 16h00 à 18h30\nDu Mardi au Mercredi : de 10h30 à 12h30\nLe Jeudi : de 16h00 à 18h00\nLe Vendredi : de 10h30 à 12h30","latitude":47.39249,"longitude":0.195835,"website":"https://www.gizeux.fr/","hasWebsite":true,"hasHoraires":true,"url":"https://lannuaire.service-public.gouv.fr/centre-val-de-loire/indre-et-loire/217fa9e1-736c-4bea-b798-6f45a712b3a2"}
{"nom":"Hommes","nomNormalise":"hommes","typeCollectivite":"Commune","region":"Centre-Val de Loire","departement":"Indre-et-Loire","departementCode":"37","adresse":{"street":"14 rue de Langeais","postalCode":"37340","city":"Hommes","country":"France"},"contacts":{"email":"accueil@mairiedehommes.fr","telephone":"0247246114"},"horaires":"Le Lundi : de 09h00 à 12h30 de 13h30 à 17h30\nLe Mardi : de 13h30 à 17h00\nLe Mercredi : de 09h00 à 12h00\nLe Jeudi : de 13h30 à 17h00\nLe Vendredi : de 13h30 à 16h00","latitude":47.4243,"longitude":0.296658,"website":"https://www.mairiedehommes.fr/","hasWebsite":true,"hasHoraires":true,"url":"https://lannuaire.service-public.gouv.fr/centre-val-de-loire/indre-et-loire/a61a3a9e-54b7-4189-aa05-e4eaf0b09e61"}
{"nom":"Huismes","nomNormalise":"huismes","typeCollectivite":"Commune","region":"Centre-Val de Loire","departement":"Indre-et-Loire","departementCode":"37","adresse":{"street":"Place de l'Église","postalCode":"37420","city":"Huismes","country":"France"},"contacts":{"email":"huismes.mairie@wanadoo.fr","telephone":"0247955278"},"horaires":"Du Lundi au Mardi : de 08h45 à 12h00 de 13h30 à 17h00\nLe Mercredi : de 08h45 à 12h00\nDu Jeudi au Vendredi : de 08h45 à 12h00 de 13h30 à 17h00\nLe Samedi : de 09h00 à 12h00","latitude":47.2825,"longitude":0.266632,"website":"http://www.huismes.com/","hasWebsite":true,"hasHoraires":true,"url":"https://lannuaire.service-public.gouv.fr/centre-val-de-loire/indre-et-loire/457d3a1b-bfb8-4f1c-b1cb-49de98e82a6b"}
{"nom":"Jaulnay","nomNormalise":"jaulnay","typeCollectivite":"Commune","region":"Centre-Val de Loire","departement":"Indre-et-Loire","departementCode":"37","adresse":{"street":"5 place de l'Église","postalCode":"37120","city":"Jaulnay","country":"France"},"contacts":{"email":"mairie@jaulnay.fr","telephone":"0247956458"},"horaires":"Le Mardi : de 08h00 à 12h00 de 13h30 à 16h30\nLe Jeudi : de 08h30 à 12h00","latitude":46.948513,"longitude":0.4140541,"website":"","hasWebsite":false,"hasHoraires":true,"url":"https://lannuaire.service-public.gouv.fr/centre-val-de-loire/indre-et-loire/97e053a9-f361-487f-ad61-f45cad842f17"}
{"nom":"Joué-lès-Tours","nomNormalise":"jouelestours","typeCollectivite":"Commune","region":"Centre-Val de Loire","departement":"Indre-et-Loire","departementCode":"37","adresse":{"street":"Parvis Raymond-Lory","postalCode":"37301","city":"Joué-lès-Tours Cedex","country":"France"},"contacts":{"email":"joue.contact@jouelestours.fr","telephone":"0247397000"},"horaires":"Du Lundi au Vendredi : de 08h30 à 12h30 de 13h30 à 17h00\nLe Samedi : de 09h00 à 12h00\n\nAccueil fermé pour l'urbanisme,le service scolaire et le CCAS.","latitude":47.34412,"longitude":0.660914,"website":"http://www.jouelestours.fr/","hasWebsite":true,"hasHoraires":true,"url":"https://lannuaire.service-public.gouv.fr/centre-val-de-loire/indre-et-loire/36628e39-048a-4760-8c14-e30284fa8534"}
{"nom":"L'Île-Bouchard","nomNormalise":"lilebouchard","typeCollectivite":"Commune","region":"Centre-Val de Loire","departement":"Indre-et-Loire","departementCode":"37","adresse":{"street":"16 place Bouchard","postalCode":"37220","city":"L'Île-Bouchard","country":"France"},"contacts":{"email":"accueil@mairie-ilebouchard.fr","telephone":"0247585015"},"horaires":"Du Lundi au Mercredi : de 08h30 à 12h00 de 13h30 à 17h00\nLe Jeudi : de 08h30 à 12h00\nLe Vendredi : de 08h30 à 12h00 de 13h30 à 17h00","latitude":47.120113,"longitude":0.4247862,"website":"https://www.mairie-ilebouchard.fr/","hasWebsite":true,"hasHoraires":true,"url":"https://lannuaire.service-public.gouv.fr/centre-val-de-loire/indre-et-loire/50c386e6-07e4-4256-8465-33ee45bb5758"}
{"nom":"La Celle-Guenand","nomNormalise":"lacelleguenand","typeCollectivite":"Commune","region":"Centre-Val de Loire","departement":"Indre-et-Loire","departementCode":"37","adresse":{"street":"1 place de l'Église","postalCode":"37350","city":"La Celle-Guenand","country":"France"},"contacts":{"email":"contact@lacelleguenand.fr","telephone":"0247949307"},"horaires":"Du Lundi au Jeudi : de 09h00 à 12h00 de 14h00 à 17h00","latitude":46.944893,"longitude":0.894486,"website":"https://www.lacelleguenand.fr/","hasWebsite":true,"hasHoraires":true,"url":"https://lannuaire.service-public.gouv.fr/centre-val-de-loire/indre-et-loire/feeff7b9-f59d-458f-897c-6b0af3d0cdc5"}
{"nom":"La Celle-Saint-Avant","nomNormalise":"lacellesaintavant","typeCollectivite":"Commune","region":"Centre-Val de Loire","departement":"Indre-et-Loire","departementCode":"37","adresse":{"street":"3 place du 8-Mai-1945","postalCode":"37160","city":"La Celle-Saint-Avant","country":"France"},"contacts":{"email":"mairie@lacellesaintavant.fr","telephone":"0247650023"},"horaires":"Le Lundi : de 09h00 à 12h30 de 13h30 à 17h30\nDu Mercredi au Jeudi : de 09h00 à 12h30 de 13h30 à 17h30\nLe Vendredi : de 09h00 à 12h30 de 13h30 à 16h30","latitude":47.02162,"longitude":0.605153,"website":"http://www.lacellesaintavant37.fr/","hasWebsite":true,"hasHoraires":true,"url":"https://lannuaire.service-public.gouv.fr/centre-val-de-loire/indre-et-loire/3dfea044-cfe9-432a-b271-a61c6b4c3dfd"}
{"nom":"La Chapelle-aux-Naux","nomNormalise":"lachapelleauxnaux","typeCollectivite":"Commune","region":"Centre-Val de Loire","departement":"Indre-et-Loire","departementCode":"37","adresse":{"street":"8 rue Principale","postalCode":"37130","city":"La Chapelle-aux-Naux","country":"France"},"contacts":{"email":"contact@mairie-lachapelleauxnaux.fr","telephone":"0247968036"},"horaires":"Du Lundi au Mardi : de 09h00 à 12h30 de 14h00 à 17h30\nLe Mercredi : de 09h00 à 12h30\nLe Jeudi : de 09h00 à 12h30 de 14h00 à 17h30\nLe Vendredi : de 09h00 à 12h30\n\nAccueil ouvert uniquement sur rendez-vous le samedi.","latitude":47.317123,"longitude":0.4274476,"website":"http://www.chapelleauxnaux.fr/","hasWebsite":true,"hasHoraires":true,"url":"https://lannuaire.service-public.gouv.fr/centre-val-de-loire/indre-et-loire/4841815f-49d6-41f1-a9c8-c3e11a46bd75"}
{"nom":"La Chapelle-Blanche-Saint-Martin","nomNormalise":"lachapelleblanchesaintmartin","typeCollectivite":"Commune","region":"Centre-Val de Loire","departement":"Indre-et-Loire","departementCode":"37","adresse":{"street":"2 place Jasnin","postalCode":"37240","city":"La Chapelle-Blanche-Saint-Martin","country":"France"},"contacts":{"email":"accueil@lachapelleblanchesaintmartin.fr","telephone":"0247596213"},"horaires":"Le Lundi : de 09h00 à 12h30 de 13h30 à 17h00\nDu Mardi au Jeudi : de 09h00 à 12h30\nLe Vendredi : de 09h00 à 12h30 de 13h30 à 16h00","latitude":47.08567,"longitude":0.792083,"website":"https://www.la-chapelleblanche-saintmartin.fr/","hasWebsite":true,"hasHoraires":true,"url":"https://lannuaire.service-public.gouv.fr/centre-val-de-loire/indre-et-loire/cbc27493-084b-4aee-94f2-e2a076d0c747"}
{"nom":"La Chapelle-sur-Loire","nomNormalise":"lachapellesurloire","typeCollectivite":"Commune","region":"Centre-Val de Loire","departement":"Indre-et-Loire","departementCode":"37","adresse":{"street":"1 place Albert-Ruelle","postalCode":"37140","city":"La Chapelle-sur-Loire","country":"France"},"contacts":{"email":"contact@lachapellesurloire.fr","telephone":"0247973391"},"horaires":"Le Lundi : de 08h30 à 12h30 de 14h00 à 17h00\nLe Mardi : de 08h30 à 12h30\nLe Mercredi : de 08h30 à 12h30 de 14h00 à 17h00\nLe Jeudi : de 08h30 à 12h30\nLe Vendredi : de 08h30 à 12h30 de 14h00 à 17h00","latitude":47.24835,"longitude":0.222395,"website":"https://www.lachapellesurloire.fr/","hasWebsite":true,"hasHoraires":true,"url":"https://lannuaire.service-public.gouv.fr/centre-val-de-loire/indre-et-loire/b7ddbbc5-c5f7-49de-97b7-a16113c6519c"}
{"nom":"La Croix-en-Touraine","nomNormalise":"lacroixentouraine","typeCollectivite":"Commune","region":"Centre-Val de Loire","departement":"Indre-et-Loire","departementCode":"37","adresse":{"street":"30 rue Nationale","postalCode":"37150","city":"La Croix-en-Touraine","country":"France"},"contacts":{"email":"contact@lacroixentouraine.fr","telephone":"0247236464"},"horaires":"Le Lundi : de 09h00 à 12h00 de 16h00 à 19h00\n\nSur rendez-vous de 16h à 19h.\nDu Mardi au Mercredi : de 08h30 à 12h30\n\n(Fermé le Mercredi durant les vacances scolaires)\nLe Vendredi : de 08h30 à 12h30 de 14h00 à 17h00\nService Urbanisme sur rendez-vous: Le Mardi de 09h00 à 12h00 Le Vendredi: de 14h00 à 17h00","latitude":47.338573,"longitude":0.9900503,"website":"http://www.lacroixentouraine.fr/","hasWebsite":true,"hasHoraires":true,"url":"https://lannuaire.service-public.gouv.fr/centre-val-de-loire/indre-et-loire/7cad7835-921a-4fa8-90a8-b83cefe35d55"}
{"nom":"La Ferrière","nomNormalise":"laferriere","typeCollectivite":"Commune","region":"Centre-Val de Loire","departement":"Indre-et-Loire","departementCode":"37","adresse":{"street":"2 place du Général-de-Gaulle","postalCode":"37110","city":"La Ferrière","country":"France"},"contacts":{"email":"mairielaferriere37110@orange.fr","telephone":"0247563197"},"horaires":"Le Lundi : de 09h00 à 12h30 de 13h30 à 17h00\nDu Mercredi au Jeudi : de 13h30 à 17h00\nLe Vendredi : de 09h00 à 12h30 de 13h30 à 17h00","latitude":47.629368,"longitude":0.7476628,"website":"https://www.mairielaferriere37110.fr/","hasWebsite":true,"hasHoraires":true,"url":"https://lannuaire.service-public.gouv.fr/centre-val-de-loire/indre-et-loire/7f6805ae-f08a-4663-a7e2-05564e3a1e9f"}
{"nom":"La Guerche","nomNormalise":"laguerche","typeCollectivite":"Commune","region":"Centre-Val de Loire","departement":"Indre-et-Loire","departementCode":"37","adresse":{"street":"Place de la Mairie","postalCode":"37350","city":"La Guerche","country":"France"},"contacts":{"email":"mairielaguerche37@orange.fr","telephone":"0247949276"},"horaires":"Du Lundi au Mardi : de 09h00 à 12h30 de 14h00 à 17h30\nDu Jeudi au Vendredi : de 09h00 à 12h30 de 14h00 à 17h30","latitude":46.886337,"longitude":0.7301194,"website":"http://www.laguerche37.fr/","hasWebsite":true,"hasHoraires":true,"url":"https://lannuaire.service-public.gouv.fr/centre-val-de-loire/indre-et-loire/0cf77545-0bd7-40ab-bf84-eb3da054ba42"}
{"nom":"La Membrolle-sur-Choisille","nomNormalise":"lamembrollesurchoisille","typeCollectivite":"Commune","region":"Centre-Val de Loire","departement":"Indre-et-Loire","departementCode":"37","adresse":{"street":"Place de l'Europe","postalCode":"37390","city":"La Membrolle-sur-Choisille","country":"France"},"contacts":{"email":"mairie@ville-la-membrolle37.fr","telephone":"0247412128"},"horaires":"Du Lundi au Vendredi : de 09h00 à 12h30 de 14h00 à 17h00\nLe Samedi : de 09h00 à 12h00","latitude":47.43801,"longitude":0.638788,"website":"https://www.la-membrolle-sur-choisille.fr/","hasWebsite":true,"hasHoraires":true,"url":"https://lannuaire.service-public.gouv.fr/centre-val-de-loire/indre-et-loire/31931033-8bd1-448d-83be-e77a2b533b09"}
{"nom":"Langeais","nomNormalise":"langeais","typeCollectivite":"Commune","region":"Centre-Val de Loire","departement":"Indre-et-Loire","departementCode":"37","adresse":{"street":"2 place du 14-Juillet","postalCode":"37130","city":"Langeais","country":"France"},"contacts":{"email":"contact@langeais.fr","telephone":"0247961250"},"horaires":"Du Lundi au Mercredi : de 09h00 à 12h30 de 14h00 à 17h00\nLe Jeudi : de 09h00 à 12h30\nLe Vendredi : de 09h00 à 12h30 de 14h00 à 17h00\nLe Samedi : de 10h00 à 12h00\n\nAccueil ouvert uniquement pour le service de l'état civil. Pour connaitre les dates d'ouverture du samedi en juillet-août, consulter le site internet.","latitude":47.324696,"longitude":0.408365,"website":"https://langeais.fr/","hasWebsite":true,"hasHoraires":true,"url":"https://lannuaire.service-public.gouv.fr/centre-val-de-loire/indre-et-loire/d0090d17-491d-418f-a0b2-17160cb457f8"}
{"nom":"Larçay","nomNormalise":"larcay","typeCollectivite":"Commune","region":"Centre-Val de Loire","departement":"Indre-et-Loire","departementCode":"37","adresse":{"street":"3 rue du 8-Mai-1945","postalCode":"37270","city":"Larçay","country":"France"},"contacts":{"email":"contact@ville-larcay.fr","telephone":"0247458600"},"horaires":"Le Lundi : de 14h00 à 17h30\nLe Mardi : de 09h15 à 12h00 de 14h00 à 17h00\nLe Mercredi : de 09h15 à 12h00 de 14h00 à 17h00\nLe Jeudi : de 09h15 à 12h00\nLe Vendredi : de 09h15 à 12h00 de 14h00 à 17h00\nLe Samedi : de 10h00 à 12h00\n\n1er samedi du mois.","latitude":47.36837,"longitude":0.7782427,"website":"http://www.ville-larcay.fr/","hasWebsite":true,"hasHoraires":true,"url":"https://lannuaire.service-public.gouv.fr/centre-val-de-loire/indre-et-loire/1a7c08e7-ce82-4ddb-8b50-827d059da26a"}
{"nom":"La Riche","nomNormalise":"lariche","typeCollectivite":"Commune","region":"Centre-Val de Loire","departement":"Indre-et-Loire","departementCode":"37","adresse":{"street":"Place du Maréchal-Leclerc","postalCode":"37521","city":"La Riche Cedex","country":"France"},"contacts":{"email":"la.mairie@ville-lariche.fr","telephone":"0247362424"},"horaires":"Du Lundi au Vendredi : de 08h15 à 12h30 de 13h30 à 17h00","latitude":47.38831,"longitude":0.658258,"website":"http://www.ville-lariche.fr/","hasWebsite":true,"hasHoraires":true,"url":"https://lannuaire.service-public.gouv.fr/centre-val-de-loire/indre-et-loire/fd873249-0a8b-433a-87b3-d28f1703358e"}
{"nom":"La Roche-Clermault","nomNormalise":"larocheclermault","typeCollectivite":"Commune","region":"Centre-Val de Loire","departement":"Indre-et-Loire","departementCode":"37","adresse":{"street":"13 route du Coteau","postalCode":"37500","city":"La Roche-Clermault","country":"France"},"contacts":{"email":"mairie.larocheclermault@larocheclt.fr","telephone":"0247959010"},"horaires":"Le Mardi : de 08h30 à 12h30\nLe Mercredi : de 09h00 à 12h30 de 14h30 à 18h30\nLe Vendredi : de 08h30 à 12h30","latitude":47.1365,"longitude":0.212084,"website":"","hasWebsite":false,"hasHoraires":true,"url":"https://lannuaire.service-public.gouv.fr/centre-val-de-loire/indre-et-loire/19a29835-b209-497a-9abd-4f251c4c46ac"}
{"nom":"La Tour-Saint-Gelin","nomNormalise":"latoursaintgelin","typeCollectivite":"Commune","region":"Centre-Val de Loire","departement":"Indre-et-Loire","departementCode":"37","adresse":{"street":"5 rue de la Mairie","postalCode":"37120","city":"La Tour-Saint-Gelin","country":"France"},"contacts":{"email":"mairiedelatoursaintgelin@orange.fr","telephone":"0247583035"},"horaires":"Du Lundi au Mardi : de 09h00 à 12h00 de 14h00 à 17h00\nDu Jeudi au Vendredi : de 09h00 à 12h00 de 14h00 à 17h00","latitude":47.04854,"longitude":0.4028399,"website":"http://www.latoursaintgelin.com/","hasWebsite":true,"hasHoraires":true,"url":"https://lannuaire.service-public.gouv.fr/centre-val-de-loire/indre-et-loire/feca47c2-5570-4946-94bc-fae8bda2504b"}
{"nom":"La Ville-aux-Dames","nomNormalise":"lavilleauxdames","typeCollectivite":"Commune","region":"Centre-Val de Loire","departement":"Indre-et-Loire","departementCode":"37","adresse":{"street":"Avenue Jeanne-d'Arc","postalCode":"37700","city":"La Ville-aux-Dames","country":"France"},"contacts":{"email":"secretariat@ville-aux-dames.com","telephone":"0247443646"},"horaires":"Du Lundi au Jeudi : de 08h30 à 12h30 de 13h30 à 17h00\nLe Vendredi : de 08h30 à 12h30 de 13h30 à 16h30\nFermeture de l'accueil à 16h50.","latitude":47.3953,"longitude":0.7719176,"website":"https://www.lavilleauxdames.fr/","hasWebsite":true,"hasHoraires":true,"url":"https://lannuaire.service-public.gouv.fr/centre-val-de-loire/indre-et-loire/02134be5-7669-4356-ac58-b3d31aec1834"}
{"nom":"Le Boulay","nomNormalise":"leboulay","typeCollectivite":"Commune","region":"Centre-Val de Loire","departement":"Indre-et-Loire","departementCode":"37","adresse":{"street":"2 allée des Tilleuls","postalCode":"37110","city":"Le Boulay","country":"France"},"contacts":{"email":"contact@leboulay.fr","telephone":"0247568235"},"horaires":"Le Lundi : de 13h30 à 16h00\nLe Mardi : de 08h30 à 12h00 de 14h00 à 18h00\nDu Mercredi au Jeudi : de 08h30 à 12h00\nLe Vendredi : de 08h30 à 12h00 de 14h00 à 17h00","latitude":47.606274,"longitude":0.8579392,"website":"https://www.leboulay.fr/","hasWebsite":true,"hasHoraires":true,"url":"https://lannuaire.service-public.gouv.fr/centre-val-de-loire/indre-et-loire/066bb5d4-0ddf-4c50-8e4b-1d577682560f"}
{"nom":"Le Grand-Pressigny","nomNormalise":"legrandpressigny","typeCollectivite":"Commune","region":"Centre-Val de Loire","departement":"Indre-et-Loire","departementCode":"37","adresse":{"street":"Place des Halles","postalCode":"37350","city":"Le Grand-Pressigny","country":"France"},"contacts":{"email":"le-grand-pressigny@wanadoo.fr","telephone":"0247949037"},"horaires":"Du Lundi au Mardi : de 09h00 à 12h00 de 14h00 à 17h30\nDu Mercredi au Jeudi : de 09h00 à 12h00\nLe Vendredi : de 09h00 à 12h00 de 14h00 à 17h00","latitude":46.9206,"longitude":0.803597,"website":"https://www.le-grand-pressigny.net/","hasWebsite":true,"hasHoraires":true,"url":"https://lannuaire.service-public.gouv.fr/centre-val-de-loire/indre-et-loire/4c21f414-f6b9-47a7-8b6f-abddd9479335"}
{"nom":"Le Liège","nomNormalise":"leliege","typeCollectivite":"Commune","region":"Centre-Val de Loire","departement":"Indre-et-Loire","departementCode":"37","adresse":{"street":"4 rue de la Mairie","postalCode":"37460","city":"Le Liège","country":"France"},"contacts":{"email":"mairie@le-liege.com","telephone":"0247597438"},"horaires":"Le Mardi : de 10h00 à 12h00\nDu Jeudi au Samedi : de 10h00 à 12h00\nAccueil possible sur rendez-vous en dehors de ces horaires.","latitude":47.2293,"longitude":1.10486,"website":"https://www.le-liege.com/","hasWebsite":true,"hasHoraires":true,"url":"https://lannuaire.service-public.gouv.fr/centre-val-de-loire/indre-et-loire/3c6e5e21-74fa-4182-8c0b-1e5fa6002d54"}
{"nom":"Le Louroux","nomNormalise":"lelouroux","typeCollectivite":"Commune","region":"Centre-Val de Loire","departement":"Indre-et-Loire","departementCode":"37","adresse":{"street":"14 rue Nationale","postalCode":"37240","city":"Le Louroux","country":"France"},"contacts":{"email":"mairie@lelouroux.com","telephone":"0247928207"},"horaires":"Le Lundi : de 09h00 à 12h30\nLe Mardi : de 09h00 à 12h30 de 13h30 à 17h00\nLe Mercredi : de 09h00 à 12h30\nDu Jeudi au Vendredi : de 09h00 à 12h30 de 13h30 à 17h00\nLe Samedi : de 09h00 à 12h30","latitude":47.161346,"longitude":0.786413,"website":"http://www.lelouroux.com/","hasWebsite":true,"hasHoraires":true,"url":"https://lannuaire.service-public.gouv.fr/centre-val-de-loire/indre-et-loire/4249f3d9-9636-4d04-b0b2-b9cc1ecf8a7a"}
{"nom":"Lémeré","nomNormalise":"lemere","typeCollectivite":"Commune","region":"Centre-Val de Loire","departement":"Indre-et-Loire","departementCode":"37","adresse":{"street":"1 route de Sazilly","postalCode":"37120","city":"Lémeré","country":"France"},"contacts":{"email":"commune-lemere@orange.fr","telephone":"0247957036"},"horaires":"Le Lundi : de 14h00 à 17h00\nLe Mardi : de 09h00 à 13h00\nLe Mercredi : de 09h00 à 12h00\nLe Jeudi : de 09h00 à 13h00\nLe Vendredi : de 14h00 à 17h00","latitude":47.0841,"longitude":0.335867,"website":"https://lemere.fr/","hasWebsite":true,"hasHoraires":true,"url":"https://lannuaire.service-public.gouv.fr/centre-val-de-loire/indre-et-loire/7733ca2b-7bde-4f16-83f1-28a648b9773b"}
{"nom":"Le Petit-Pressigny","nomNormalise":"lepetitpressigny","typeCollectivite":"Commune","region":"Centre-Val de Loire","departement":"Indre-et-Loire","departementCode":"37","adresse":{"street":"1 place du 19-Mars-1962","postalCode":"37350","city":"Le Petit-Pressigny","country":"France"},"contacts":{"email":"mairie@lepetitpressigny.fr","telephone":"0247949359"},"horaires":"Le Lundi : de 09h00 à 12h00\nLe Jeudi : de 09h00 à 12h00","latitude":46.922558,"longitude":0.919136,"website":"http://lepetitpressigny.fr/","hasWebsite":true,"hasHoraires":true,"url":"https://lannuaire.service-public.gouv.fr/centre-val-de-loire/indre-et-loire/8d780a1a-63ab-4be7-a904-9d5260b7e269"}
{"nom":"Lerné","nomNormalise":"lerne","typeCollectivite":"Commune","region":"Centre-Val de Loire","departement":"Indre-et-Loire","departementCode":"37","adresse":{"street":"6 place du 8-Mai","postalCode":"37500","city":"Lerné","country":"France"},"contacts":{"email":"mairie.lerne@wanadoo.fr","telephone":"0247959435"},"horaires":"Le Lundi : de 09h00 à 12h00\nDu Mardi au Mercredi : de 09h00 à 17h00\nLe Vendredi : de 09h00 à 13h00","latitude":47.13565,"longitude":0.120526,"website":"","hasWebsite":false,"hasHoraires":true,"url":"https://lannuaire.service-public.gouv.fr/centre-val-de-loire/indre-et-loire/be4b6f69-d397-4e99-9495-da290abafee6"}
{"nom":"Mairie déléguée - Les Essards","nomNormalise":"mairiedelegueelesessards","typeCollectivite":"Commune","region":"Centre-Val de Loire","departement":"Indre-et-Loire","departementCode":"37","adresse":{"street":"Les Essards","postalCode":"37130","city":"Langeais","country":"France"},"contacts":{"email":"mairie.lesessards@wanadoo.fr","telephone":"0247967130"},"horaires":"Le Lundi : de 09h00 à 12h30 de 13h30 à 17h00\nLe Mercredi : de 09h00 à 12h00 de 13h30 à 18h00\nLe Vendredi : de 09h00 à 12h30 de 13h30 à 17h00","latitude":47.346054,"longitude":0.301409,"website":"https://langeais.fr/","hasWebsite":true,"hasHoraires":true,"url":"https://lannuaire.service-public.gouv.fr/centre-val-de-loire/indre-et-loire/c841e5d2-dd52-4df2-9986-b687cd68c302"}
{"nom":"Les Hermites","nomNormalise":"leshermites","typeCollectivite":"Commune","region":"Centre-Val de Loire","departement":"Indre-et-Loire","departementCode":"37","adresse":{"street":"Place de la Mairie","postalCode":"37110","city":"Les Hermites","country":"France"},"contacts":{"email":"mairie@leshermites.fr","telephone":"0247563118"},"horaires":"Du Mardi au Vendredi : de 09h00 à 12h00\nAccueil ouvert uniquement sur rendez-vous l'après-midi.","latitude":47.664856,"longitude":0.7515785,"website":"https://www.leshermites.fr/","hasWebsite":true,"hasHoraires":true,"url":"https://lannuaire.service-public.gouv.fr/centre-val-de-loire/indre-et-loire/b542e2b0-c826-4c24-9729-81381157d00e"}
{"nom":"Lignières-de-Touraine","nomNormalise":"lignieresdetouraine","typeCollectivite":"Commune","region":"Centre-Val de Loire","departement":"Indre-et-Loire","departementCode":"37","adresse":{"street":"1 place Adolphe-Langlois","postalCode":"37130","city":"Lignières-de-Touraine","country":"France"},"contacts":{"email":"mairie@lignieresdetouraine.fr","telephone":"0247967213"},"horaires":"Le Mardi : de 09h00 à 12h30 de 14h30 à 17h00\nLe Mercredi : de 09h00 à 12h30\nDu Jeudi au Vendredi : de 09h00 à 12h30 de 14h30 à 17h00","latitude":47.297752,"longitude":0.4168013,"website":"https://www.lignieresdetouraine.fr/","hasWebsite":true,"hasHoraires":true,"url":"https://lannuaire.service-public.gouv.fr/centre-val-de-loire/indre-et-loire/9a1328d2-5a50-47cb-9786-09be8721212b"}
{"nom":"Ligré","nomNormalise":"ligre","typeCollectivite":"Commune","region":"Centre-Val de Loire","departement":"Indre-et-Loire","departementCode":"37","adresse":{"street":"9 rue Saint-Martin","postalCode":"37500","city":"Ligré","country":"France"},"contacts":{"email":"mairie@ligre37.fr","telephone":"0247931569"},"horaires":"Du Lundi au Mardi : de 09h00 à 12h00 de 13h00 à 17h00\nDu Jeudi au Vendredi : de 09h00 à 12h00 de 13h00 à 17h00","latitude":47.112564,"longitude":0.2765597,"website":"https://www.ligre37.fr/","hasWebsite":true,"hasHoraires":true,"url":"https://lannuaire.service-public.gouv.fr/centre-val-de-loire/indre-et-loire/a62a6a71-97fb-4ce9-9647-58c664f8197d"}
{"nom":"Ligueil","nomNormalise":"ligueil","typeCollectivite":"Commune","region":"Centre-Val de Loire","departement":"Indre-et-Loire","departementCode":"37","adresse":{"street":"5 place de la République","postalCode":"37240","city":"Ligueil","country":"France"},"contacts":{"email":"accueil@ville-ligueil.fr","telephone":"0247596044"},"horaires":"Du Lundi au Mercredi : de 09h00 à 12h30 de 13h30 à 17h00\nLe Jeudi : de 09h00 à 12h30\nLe Vendredi : de 09h00 à 12h30 de 13h30 à 16h00","latitude":47.043,"longitude":0.817029,"website":"https://www.ville-ligueil.fr/","hasWebsite":true,"hasHoraires":true,"url":"https://lannuaire.service-public.gouv.fr/centre-val-de-loire/indre-et-loire/e916784e-b889-4cc7-9aac-2af90b2bc821"}
{"nom":"Limeray","nomNormalise":"limeray","typeCollectivite":"Commune","region":"Centre-Val de Loire","departement":"Indre-et-Loire","departementCode":"37","adresse":{"street":"1 place du Général-de-Gaulle","postalCode":"37530","city":"Limeray","country":"France"},"contacts":{"email":"contact@ville-limeray.fr","telephone":"0247301114"},"horaires":"Le Mardi : de 08h30 à 12h00\nLe Mercredi : de 09h00 à 12h00 de 13h30 à 16h30\nDu Jeudi au Vendredi : de 08h30 à 12h00\nLe Samedi : de 09h00 à 12h00","latitude":47.4102,"longitude":0.973604,"website":"http://ville-limeray.fr/","hasWebsite":true,"hasHoraires":true,"url":"https://lannuaire.service-public.gouv.fr/centre-val-de-loire/indre-et-loire/5ac0d924-4793-4d97-b2fa-55c79fc206eb"}
{"nom":"Loches","nomNormalise":"loches","typeCollectivite":"Commune","region":"Centre-Val de Loire","departement":"Indre-et-Loire","departementCode":"37","adresse":{"street":"Place de l'Hôtel-de-Ville","postalCode":"37600","city":"Loches","country":"France"},"contacts":{"email":"accueil@mairieloches.com","telephone":"0247911950"},"horaires":"Du Lundi au Jeudi : de 09h00 à 16h45\nLe Vendredi : de 09h00 à 16h00\nLe Samedi : de 09h00 à 11h45","latitude":47.12816,"longitude":0.997664,"website":"https://www.ville-loches.fr/","hasWebsite":true,"hasHoraires":true,"url":"https://lannuaire.service-public.gouv.fr/centre-val-de-loire/indre-et-loire/01da19a9-85a6-4719-a8e0-12daa90f6e0a"}
{"nom":"Loché-sur-Indrois","nomNormalise":"lochesurindrois","typeCollectivite":"Commune","region":"Centre-Val de Loire","departement":"Indre-et-Loire","departementCode":"37","adresse":{"street":"41 rue de la Mairie","postalCode":"37460","city":"Loché-sur-Indrois","country":"France"},"contacts":{"email":"mairie@lochesurindrois.fr","telephone":"0247926155"},"horaires":"Le Lundi : de 09h00 à 12h00\nLe Mardi : de 09h00 à 12h00 de 14h00 à 17h30\nDu Mercredi au Jeudi : de 09h00 à 12h00\nLe Vendredi : de 09h00 à 12h00 de 14h00 à 17h30\nLe Samedi : de 09h00 à 12h00","latitude":47.092,"longitude":1.21767,"website":"https://www.loche-sur-indrois.fr/","hasWebsite":true,"hasHoraires":true,"url":"https://lannuaire.service-public.gouv.fr/centre-val-de-loire/indre-et-loire/f2a4fb2f-75ae-4aea-b3c0-9aa8e02fea33"}
{"nom":"Louans","nomNormalise":"louans","typeCollectivite":"Commune","region":"Centre-Val de Loire","departement":"Indre-et-Loire","departementCode":"37","adresse":{"street":"2 place du 11-Novembre","postalCode":"37320","city":"Louans","country":"France"},"contacts":{"email":"secretariat@mairielouans.fr","telephone":"0247928313"},"horaires":"Du Mardi au Vendredi : de 08h45 à 12h30 de 13h45 à 16h15\nLe Samedi : de 09h00 à 11h45","latitude":47.18415,"longitude":0.7466502,"website":"https://louans.eu/fr/","hasWebsite":true,"hasHoraires":true,"url":"https://lannuaire.service-public.gouv.fr/centre-val-de-loire/indre-et-loire/128bd0e1-98bf-4e23-a207-bac3794c2fb9"}
{"nom":"Mairie déléguée - Louestault","nomNormalise":"mairiedelegueelouestault","typeCollectivite":"Commune","region":"Centre-Val de Loire","departement":"Indre-et-Loire","departementCode":"37","adresse":{"street":"Louestault","postalCode":"37370","city":"Beaumont-Louestault","country":"France"},"contacts":{"email":"accueil@beaumont-louestault.fr","telephone":"0247244101"},"horaires":"Le Mercredi : de 09h00 à 12h30 de 13h00 à 17h30\nLe Vendredi : de 09h00 à 12h00","latitude":47.61646,"longitude":0.649788,"website":"https://beaumont-louestault.fr/","hasWebsite":true,"hasHoraires":true,"url":"https://lannuaire.service-public.gouv.fr/centre-val-de-loire/indre-et-loire/096f11c6-9f69-41da-a19a-3002a693fa71"}
{"nom":"Lublé","nomNormalise":"luble","typeCollectivite":"Commune","region":"Centre-Val de Loire","departement":"Indre-et-Loire","departementCode":"37","adresse":{"street":"8 rue de la Mairie","postalCode":"37330","city":"Lublé","country":"France"},"contacts":{"email":"mairieluble@wanadoo.fr","telephone":"0247241494"},"horaires":"Le Mardi : de 09h00 à 12h00 de 13h30 à 17h00\nDu Jeudi au Vendredi : de 13h30 à 17h00","latitude":47.514786,"longitude":0.244923,"website":"","hasWebsite":false,"hasHoraires":true,"url":"https://lannuaire.service-public.gouv.fr/centre-val-de-loire/indre-et-loire/685f1201-cd15-471f-b0c2-11e2a3edb58a"}
{"nom":"Lussault-sur-Loire","nomNormalise":"lussaultsurloire","typeCollectivite":"Commune","region":"Centre-Val de Loire","departement":"Indre-et-Loire","departementCode":"37","adresse":{"street":"2 route de Tours","postalCode":"37400","city":"Lussault-sur-Loire","country":"France"},"contacts":{"email":"mairie.lussault@wanadoo.fr","telephone":"0247571629"},"horaires":"Le Lundi : de 09h00 à 12h15\nDu Mercredi au Jeudi : de 09h00 à 12h15\nLe Samedi : de 09h00 à 12h00","latitude":47.3983,"longitude":0.923229,"website":"","hasWebsite":false,"hasHoraires":true,"url":"https://lannuaire.service-public.gouv.fr/centre-val-de-loire/indre-et-loire/2cc2e96a-547c-40bb-8b4c-dd42f965c5c3"}
{"nom":"Luynes","nomNormalise":"luynes","typeCollectivite":"Commune","region":"Centre-Val de Loire","departement":"Indre-et-Loire","departementCode":"37","adresse":{"street":"Place des Victoires","postalCode":"37230","city":"Luynes","country":"France"},"contacts":{"email":"mairie@luynes.fr","telephone":"0247553555"},"horaires":"Le Lundi : de 08h30 à 12h00 de 13h30 à 17h00\nLe Mercredi : de 08h30 à 12h00 de 13h30 à 19h00\nDu Jeudi au Vendredi : de 08h30 à 12h00 de 13h30 à 17h00\nAccueil ouvert en juillet-août du lundi au vendredi de 8h30 à 12h et de 13h30 à 17h.","latitude":47.385235,"longitude":0.555007,"website":"https://luynes.fr/","hasWebsite":true,"hasHoraires":true,"url":"https://lannuaire.service-public.gouv.fr/centre-val-de-loire/indre-et-loire/6a88d457-eb84-415b-b865-c90087e266f4"}
{"nom":"Luzé","nomNormalise":"luze","typeCollectivite":"Commune","region":"Centre-Val de Loire","departement":"Indre-et-Loire","departementCode":"37","adresse":{"street":"1 place de la Mairie","postalCode":"37120","city":"Luzé","country":"France"},"contacts":{"email":"mairie@luze.fr","telephone":"0247583252"},"horaires":"Le Mardi : de 09h00 à 12h00\nLe Vendredi : de 09h00 à 12h00","latitude":47.023144,"longitude":0.45351,"website":"","hasWebsite":false,"hasHoraires":true,"url":"https://lannuaire.service-public.gouv.fr/centre-val-de-loire/indre-et-loire/15d73813-d21d-466d-85a4-f8a76ab183be"}
{"nom":"Luzillé","nomNormalise":"luzille","typeCollectivite":"Commune","region":"Centre-Val de Loire","departement":"Indre-et-Loire","departementCode":"37","adresse":{"street":"4-6 rue de la Mairie","postalCode":"37150","city":"Luzillé","country":"France"},"contacts":{"email":"mairie@luzille.fr","telephone":"0247578419"},"horaires":"Du Lundi au Mardi : de 14h00 à 17h00\nDu Jeudi au Vendredi : de 14h00 à 17h00","latitude":47.2616,"longitude":1.05894,"website":"https://www.luzille.fr/","hasWebsite":true,"hasHoraires":true,"url":"https://lannuaire.service-public.gouv.fr/centre-val-de-loire/indre-et-loire/188b1620-b1cc-4d13-bbd1-0999efbbca7c"}
{"nom":"Maillé","nomNormalise":"maille","typeCollectivite":"Commune","region":"Centre-Val de Loire","departement":"Indre-et-Loire","departementCode":"37","adresse":{"street":"2 rue de la Poste","postalCode":"37800","city":"Maillé","country":"France"},"contacts":{"email":"secretariat@maille.fr","telephone":"0247652471"},"horaires":"Le Lundi : de 10h00 à 12h00\nLe Mardi : de 14h00 à 17h30\nLe Jeudi : de 10h00 à 12h00\nLe Vendredi : de 14h00 à 17h30\nLe Samedi : de 10h00 à 12h00\n\nAccueil ouvert un samedi sur deux.","latitude":47.052525,"longitude":0.580184,"website":"https://www.maille.fr/","hasWebsite":true,"hasHoraires":true,"url":"https://lannuaire.service-public.gouv.fr/centre-val-de-loire/indre-et-loire/134e65b2-a78d-4590-8634-95bc4e91ac2d"}
{"nom":"Manthelan","nomNormalise":"manthelan","typeCollectivite":"Commune","region":"Centre-Val de Loire","departement":"Indre-et-Loire","departementCode":"37","adresse":{"street":"1 mail de la Mairie","postalCode":"37240","city":"Manthelan","country":"France"},"contacts":{"email":"mairie@manthelan.fr","telephone":"0247912300"},"horaires":"Le Lundi : de 13h30 à 16h00\nDu Mardi au Jeudi : de 09h00 à 12h30 de 13h30 à 16h00\nLe Vendredi : de 10h00 à 12h30 de 13h30 à 16h00\nLe Samedi : de 09h00 à 12h00","latitude":47.1378,"longitude":0.793028,"website":"https://www.manthelan.fr/","hasWebsite":true,"hasHoraires":true,"url":"https://lannuaire.service-public.gouv.fr/centre-val-de-loire/indre-et-loire/02c2277e-d085-4822-b76d-3813870abfb1"}
{"nom":"Marçay","nomNormalise":"marcay","typeCollectivite":"Commune","region":"Centre-Val de Loire","departement":"Indre-et-Loire","departementCode":"37","adresse":{"street":"8 rue de la Fontaine","postalCode":"37500","city":"Marçay","country":"France"},"contacts":{"email":"mairie@marcay37.fr","telephone":"0247930690"},"horaires":"Le Lundi : de 09h00 à 12h00\nLe Mercredi : de 09h00 à 12h00\nLe Vendredi : de 09h00 à 12h00","latitude":47.1001,"longitude":0.218563,"website":"","hasWebsite":false,"hasHoraires":true,"url":"https://lannuaire.service-public.gouv.fr/centre-val-de-loire/indre-et-loire/6ba7ddc1-d9bd-496e-8be7-49f78dc6caa5"}
{"nom":"Marcé-sur-Esves","nomNormalise":"marcesuresves","typeCollectivite":"Commune","region":"Centre-Val de Loire","departement":"Indre-et-Loire","departementCode":"37","adresse":{"street":"11 rue de la Mairie","postalCode":"37160","city":"Marcé-sur-Esves","country":"France"},"contacts":{"email":"mairiemarcesuresves@wanadoo.fr","telephone":"0247598627"},"horaires":"Le Lundi : de 08h30 à 12h30 de 13h30 à 18h00\nLe Mercredi : de 08h30 à 12h30 de 13h30 à 18h30","latitude":47.031124,"longitude":0.653395,"website":"http://www.marcesuresves.fr/","hasWebsite":true,"hasHoraires":true,"url":"https://lannuaire.service-public.gouv.fr/centre-val-de-loire/indre-et-loire/6e4e3295-92ab-4197-a7bc-77354351f92d"}
{"nom":"Marcilly-sur-Maulne","nomNormalise":"marcillysurmaulne","typeCollectivite":"Commune","region":"Centre-Val de Loire","departement":"Indre-et-Loire","departementCode":"37","adresse":{"street":"Place de la Mairie","postalCode":"37330","city":"Marcilly-sur-Maulne","country":"France"},"contacts":{"email":"contact@mairiedemarcillysurmaulne.fr","telephone":"0247409038"},"horaires":"Le Mardi : de 10h00 à 12h30 de 14h00 à 16h00\nLe Jeudi : de 10h00 à 12h30\nLe Vendredi : de 09h30 à 11h00","latitude":47.5505,"longitude":0.241106,"website":"","hasWebsite":false,"hasHoraires":true,"url":"https://lannuaire.service-public.gouv.fr/centre-val-de-loire/indre-et-loire/3ff0c7f9-6ec3-4ec8-9f1b-8f9ed6839220"}
{"nom":"Marcilly-sur-Vienne","nomNormalise":"marcillysurvienne","typeCollectivite":"Commune","region":"Centre-Val de Loire","departement":"Indre-et-Loire","departementCode":"37","adresse":{"street":"16 rue Principale","postalCode":"37800","city":"Marcilly-sur-Vienne","country":"France"},"contacts":{"email":"mairiedemarcilly@wanadoo.fr","telephone":"0247652043"},"horaires":"Du Lundi au Mardi : de 09h00 à 12h00 de 14h00 à 18h00\nDu Jeudi au Vendredi : de 09h00 à 12h00 de 14h00 à 18h00\nLe Samedi : de 10h00 à 12h00","latitude":47.0445,"longitude":0.540347,"website":"https://www.marcillysurvienne.fr/","hasWebsite":true,"hasHoraires":true,"url":"https://lannuaire.service-public.gouv.fr/centre-val-de-loire/indre-et-loire/efd67389-b696-4df2-92a3-28ea657bae29"}
{"nom":"Marigny-Marmande","nomNormalise":"marignymarmande","typeCollectivite":"Commune","region":"Centre-Val de Loire","departement":"Indre-et-Loire","departementCode":"37","adresse":{"street":"20 Grande rue","postalCode":"37120","city":"Marigny-Marmande","country":"France"},"contacts":{"email":"mairie@marignymarmande.fr","telephone":"0247583111"},"horaires":"Du Mardi au Vendredi : de 08h30 à 12h00","latitude":46.98159,"longitude":0.488707,"website":"https://www.marigny-marmande.fr/","hasWebsite":true,"hasHoraires":true,"url":"https://lannuaire.service-public.gouv.fr/centre-val-de-loire/indre-et-loire/1d5d7752-3d1b-4162-b794-24a2d807c4d9"}
{"nom":"Marray","nomNormalise":"marray","typeCollectivite":"Commune","region":"Centre-Val de Loire","departement":"Indre-et-Loire","departementCode":"37","adresse":{"street":"1 route de la Ferrière","postalCode":"37370","city":"Marray","country":"France"},"contacts":{"email":"mairie@marray37.fr","telephone":"0247563051"},"horaires":"Du Lundi au Vendredi : de 09h00 à 13h00\nLe Samedi : de 09h00 à 12h00\n\nAccueil ouvert uniquement les semaines impaires.","latitude":47.621574,"longitude":0.7013132,"website":"http://www.marray37.fr/","hasWebsite":true,"hasHoraires":true,"url":"https://lannuaire.service-public.gouv.fr/centre-val-de-loire/indre-et-loire/2e19cf03-6ea3-4f91-8076-9a929c1b428d"}
{"nom":"Mazières-de-Touraine","nomNormalise":"mazieresdetouraine","typeCollectivite":"Commune","region":"Centre-Val de Loire","departement":"Indre-et-Loire","departementCode":"37","adresse":{"street":"1 rue du Général-Chanzy","postalCode":"37130","city":"Mazières-de-Touraine","country":"France"},"contacts":{"email":"mazieresdetouraine@wanadoo.fr","telephone":"0247964154"},"horaires":"Le Mardi : de 09h00 à 12h00\nLe Mercredi : de 09h00 à 12h00 de 13h30 à 17h30\nLe Jeudi : de 09h00 à 12h00\nLe Vendredi : de 09h00 à 12h00 de 13h30 à 17h30\nLe Samedi : de 09h00 à 12h00\n\nAccueil ouvert uniquement le dernier samedi du mois pour l'état civil, fermé en juillet, août et décembre.","latitude":47.3531,"longitude":0.446457,"website":"https://www.mazieresdetouraine.fr/","hasWebsite":true,"hasHoraires":true,"url":"https://lannuaire.service-public.gouv.fr/centre-val-de-loire/indre-et-loire/d41e5411-b403-4dbc-9576-e07c35f6c0ac"}
{"nom":"Mettray","nomNormalise":"mettray","typeCollectivite":"Commune","region":"Centre-Val de Loire","departement":"Indre-et-Loire","departementCode":"37","adresse":{"street":"3 rue du Dolmen","postalCode":"37390","city":"Mettray","country":"France"},"contacts":{"email":"administration@ville-mettray.fr","telephone":"0247412229"},"horaires":"Du Lundi au Vendredi : de 09h00 à 12h30","latitude":47.454334,"longitude":0.647616,"website":"https://www.mettray.fr/","hasWebsite":true,"hasHoraires":true,"url":"https://lannuaire.service-public.gouv.fr/centre-val-de-loire/indre-et-loire/a07ac72a-4a57-49ca-8073-435fbaa4699b"}
{"nom":"Monnaie","nomNormalise":"monnaie","typeCollectivite":"Commune","region":"Centre-Val de Loire","departement":"Indre-et-Loire","departementCode":"37","adresse":{"street":"Place Charles-de-Gaulle","postalCode":"37380","city":"Monnaie","country":"France"},"contacts":{"email":"contact@ville-monnaie.fr","telephone":"0247561020"},"horaires":"Le Lundi : de 14h00 à 18h30\nDu Mardi au Jeudi : de 09h00 à 12h00 de 14h00 à 17h00\nLe Vendredi : de 14h00 à 17h00","latitude":47.501217,"longitude":0.7852226,"website":"http://www.ville-monnaie.fr/","hasWebsite":true,"hasHoraires":true,"url":"https://lannuaire.service-public.gouv.fr/centre-val-de-loire/indre-et-loire/c1353d43-7aa7-4864-9501-c47dbf1fbf4e"}
{"nom":"Montbazon","nomNormalise":"montbazon","typeCollectivite":"Commune","region":"Centre-Val de Loire","departement":"Indre-et-Loire","departementCode":"37","adresse":{"street":"Place André-Delaunay","postalCode":"37250","city":"Montbazon","country":"France"},"contacts":{"email":"mairie@ville-montbazon.fr","telephone":"0247260130"},"horaires":"Le Lundi : de 13h30 à 17h00\nDu Mardi au Jeudi : de 08h30 à 12h30 de 13h30 à 17h00\nLe Vendredi : de 08h30 à 12h30 de 13h30 à 16h00\nLe Samedi : de 09h00 à 12h00","latitude":47.286987,"longitude":0.7144488,"website":"https://ville-montbazon.fr/","hasWebsite":true,"hasHoraires":true,"url":"https://lannuaire.service-public.gouv.fr/centre-val-de-loire/indre-et-loire/2c4d3a19-c6e5-4775-846f-958aa0a339d1"}
{"nom":"Monthodon","nomNormalise":"monthodon","typeCollectivite":"Commune","region":"Centre-Val de Loire","departement":"Indre-et-Loire","departementCode":"37","adresse":{"street":"1 rue du 8-Mai-1945","postalCode":"37110","city":"Monthodon","country":"France"},"contacts":{"email":"contact@monthodon.fr","telephone":"0247295605"},"horaires":"Du Lundi au Mardi : de 09h00 à 12h00\nDu Jeudi au Samedi : de 09h00 à 12h00","latitude":47.64971,"longitude":0.837418,"website":"http://www.monthodon.fr/","hasWebsite":true,"hasHoraires":true,"url":"https://lannuaire.service-public.gouv.fr/centre-val-de-loire/indre-et-loire/23342312-4749-4469-a9b1-a5824267267e"}
{"nom":"Montlouis-sur-Loire","nomNormalise":"montlouissurloire","typeCollectivite":"Commune","region":"Centre-Val de Loire","departement":"Indre-et-Loire","departementCode":"37","adresse":{"street":"6 place François-Mitterrand","postalCode":"37270","city":"Montlouis-sur-Loire","country":"France"},"contacts":{"email":"mairie@ville-montlouis-loire.fr","telephone":"0247458585"},"horaires":"Le Lundi : de 09h00 à 12h00 de 14h00 à 17h30\nDu Mardi au Vendredi : de 08h30 à 12h00 de 14h00 à 17h30\nLe Samedi : de 10h00 à 12h00\n\nAccueil ouvert uniquement pour l'état civil.","latitude":47.3884,"longitude":0.827122,"website":"http://www.ville-montlouis-loire.fr/","hasWebsite":true,"hasHoraires":true,"url":"https://lannuaire.service-public.gouv.fr/centre-val-de-loire/indre-et-loire/cc343b10-1edb-4f36-be35-39c341f8459a"}
{"nom":"Montrésor","nomNormalise":"montresor","typeCollectivite":"Commune","region":"Centre-Val de Loire","departement":"Indre-et-Loire","departementCode":"37","adresse":{"street":"23 Grande rue","postalCode":"37460","city":"Montrésor","country":"France"},"contacts":{"email":"mairie-montresor@wanadoo.fr","telephone":"0247914300"},"horaires":"Du Lundi au Jeudi : de 09h00 à 12h00\nLe Vendredi : de 09h00 à 12h00 de 14h00 à 16h30\nLe Samedi : de 09h00 à 12h00","latitude":47.155643,"longitude":1.203309,"website":"http://ww.montresor.fr/","hasWebsite":true,"hasHoraires":true,"url":"https://lannuaire.service-public.gouv.fr/centre-val-de-loire/indre-et-loire/b31fa8fe-fd2c-43f5-8d17-9b39794652b6"}
{"nom":"Montreuil-en-Touraine","nomNormalise":"montreuilentouraine","typeCollectivite":"Commune","region":"Centre-Val de Loire","departement":"Indre-et-Loire","departementCode":"37","adresse":{"street":"33 rue du Bourg","postalCode":"37530","city":"Montreuil-en-Touraine","country":"France"},"contacts":{"email":"mairie@montreuil-touraine.fr","telephone":"0247301514"},"horaires":"Le Mardi : de 13h30 à 17h30\nLe Mercredi : de 09h00 à 12h00\nLe Jeudi : de 13h30 à 17h30\nLe Samedi : de 09h00 à 12h00","latitude":47.4376,"longitude":0.962295,"website":"http://www.montreuil-touraine.fr/","hasWebsite":true,"hasHoraires":true,"url":"https://lannuaire.service-public.gouv.fr/centre-val-de-loire/indre-et-loire/d8a6a4f8-d2d1-4f93-b5b7-291d26a0ede7"}
{"nom":"Monts","nomNormalise":"monts","typeCollectivite":"Commune","region":"Centre-Val de Loire","departement":"Indre-et-Loire","departementCode":"37","adresse":{"street":"2 rue Maurice-Ravel","postalCode":"37260","city":"Monts","country":"France"},"contacts":{"email":"contact@monts.fr","telephone":"0247341180"},"horaires":"Du Lundi au Vendredi : de 08h30 à 12h00 de 13h30 à 18h00","latitude":47.274677,"longitude":0.642673,"website":"https://www.monts.fr/fr/","hasWebsite":true,"hasHoraires":true,"url":"https://lannuaire.service-public.gouv.fr/centre-val-de-loire/indre-et-loire/c6588253-d8e0-4c1a-84a1-f2ede9a93957"}
{"nom":"Morand","nomNormalise":"morand","typeCollectivite":"Commune","region":"Centre-Val de Loire","departement":"Indre-et-Loire","departementCode":"37","adresse":{"street":"2 rue de la Mairie","postalCode":"37110","city":"Morand","country":"France"},"contacts":{"email":"secretariat@mairiedemorand.fr","telephone":"0247296912"},"horaires":"Le Mercredi : de 14h00 à 17h30","latitude":47.5639,"longitude":1.01171,"website":"https://www.mairiedemorand.fr/","hasWebsite":true,"hasHoraires":true,"url":"https://lannuaire.service-public.gouv.fr/centre-val-de-loire/indre-et-loire/3626936f-55f8-454c-9fc4-050bbedb26a9"}
{"nom":"Mosnes","nomNormalise":"mosnes","typeCollectivite":"Commune","region":"Centre-Val de Loire","departement":"Indre-et-Loire","departementCode":"37","adresse":{"street":"9 rue du Général-de-Gaulle","postalCode":"37530","city":"Mosnes","country":"France"},"contacts":{"email":"mairie@mosnes.fr","telephone":"0247572213"},"horaires":"Le Lundi : de 08h30 à 12h00\nLe Mardi : de 08h30 à 12h00\nLe Mercredi : de 08h30 à 12h00\nLe Jeudi : de 08h30 à 12h00 de 16h00 à 18h00\nLe Vendredi : de 08h30 à 12h00\n\nuniquement sur rendez-vous le vendredi après midi de 14h00 à 16h00","latitude":47.4552,"longitude":1.098865,"website":"","hasWebsite":false,"hasHoraires":true,"url":"https://lannuaire.service-public.gouv.fr/centre-val-de-loire/indre-et-loire/a6432e83-de33-4445-814e-0024cf1c76e1"}
{"nom":"Mouzay","nomNormalise":"mouzay","typeCollectivite":"Commune","region":"Centre-Val de Loire","departement":"Indre-et-Loire","departementCode":"37","adresse":{"street":"1 place de la Mairie","postalCode":"37600","city":"Mouzay","country":"France"},"contacts":{"email":"mairie.mouzay@wanadoo.fr","telephone":"0247591543"},"horaires":"Le Lundi : de 09h00 à 11h30 de 13h30 à 15h30\nDu Mardi au Jeudi : de 09h00 à 11h30\nLe Vendredi : de 09h00 à 11h30 de 13h30 à 15h30\nLe Samedi : de 09h00 à 11h30\n\nAccueil ouvert uniquement le 1er samedi du mois.","latitude":47.060497,"longitude":0.8705048,"website":"http://www.mouzay.fr/","hasWebsite":true,"hasHoraires":true,"url":"https://lannuaire.service-public.gouv.fr/centre-val-de-loire/indre-et-loire/1f3fe944-784f-4f71-bbab-bd6cd59a90e5"}
{"nom":"Nazelles-Négron","nomNormalise":"nazellesnegron","typeCollectivite":"Commune","region":"Centre-Val de Loire","departement":"Indre-et-Loire","departementCode":"37","adresse":{"street":"Rue Louis-Viset","postalCode":"37530","city":"Nazelles-Négron","country":"France"},"contacts":{"email":"lemaire@nzn.fr","telephone":"0247237171"},"horaires":"Du Lundi au Mardi : de 08h30 à 11h45 de 13h00 à 17h00\nLe Mercredi : de 08h30 à 11h45\nDu Jeudi au Vendredi : de 08h30 à 11h45 de 13h00 à 17h00\nLe Samedi : de 09h00 à 11h45\n\nAccueil ouvert uniquement pour l'état civil.","latitude":47.430374,"longitude":0.9467798,"website":"http://www.nazellesnegron.fr/","hasWebsite":true,"hasHoraires":true,"url":"https://lannuaire.service-public.gouv.fr/centre-val-de-loire/indre-et-loire/e5402117-3fb1-49ff-b07f-9de972c7849a"}
{"nom":"Neuil","nomNormalise":"neuil","typeCollectivite":"Commune","region":"Centre-Val de Loire","departement":"Indre-et-Loire","departementCode":"37","adresse":{"street":"20 rue de l'Église","postalCode":"37190","city":"Neuil","country":"France"},"contacts":{"email":"mairie-de-neuil@orange.fr","telephone":"0247658266"},"horaires":"Le Mardi : de 09h00 à 12h00 de 14h00 à 17h00\nLe Jeudi : de 09h00 à 12h00\nLe Samedi : de 09h00 à 12h00","latitude":47.171577,"longitude":0.513977,"website":"http://www.mairie-neuil.fr/","hasWebsite":true,"hasHoraires":true,"url":"https://lannuaire.service-public.gouv.fr/centre-val-de-loire/indre-et-loire/ab1dd0e0-7027-4c13-b9cf-fb781a019faa"}
{"nom":"Neuillé-le-Lierre","nomNormalise":"neuillelelierre","typeCollectivite":"Commune","region":"Centre-Val de Loire","departement":"Indre-et-Loire","departementCode":"37","adresse":{"street":"2 rue de la République","postalCode":"37380","city":"Neuillé-le-Lierre","country":"France"},"contacts":{"email":"accueil@mairieneuillelelierre.fr","telephone":"0247529517"},"horaires":"Le Lundi : de 08h30 à 12h00\nDu Jeudi au Vendredi : de 08h30 à 12h00\nLe Samedi : de 09h00 à 12h00","latitude":47.5113,"longitude":0.909751,"website":"","hasWebsite":false,"hasHoraires":true,"url":"https://lannuaire.service-public.gouv.fr/centre-val-de-loire/indre-et-loire/606ec70c-06cf-477a-8cf3-f6ba9074fa00"}
{"nom":"Neuillé-Pont-Pierre","nomNormalise":"neuillepontpierre","typeCollectivite":"Commune","region":"Centre-Val de Loire","departement":"Indre-et-Loire","departementCode":"37","adresse":{"street":"2 place du 11-Novembre","postalCode":"37360","city":"Neuillé-Pont-Pierre","country":"France"},"contacts":{"email":"accueil@neuillepontpierre.fr","telephone":"0247245484"},"horaires":"Le Lundi : de 08h45 à 12h00 de 15h00 à 17h00\nLe Mardi : de 08h45 à 12h00\nLe Mercredi : de 08h45 à 12h00 de 15h00 à 17h00\nLe Jeudi : de 08h45 à 12h00\nLe Vendredi : de 08h45 à 12h00 de 15h00 à 17h00","latitude":47.54763,"longitude":0.546942,"website":"https://www.neuillepontpierre.fr/","hasWebsite":true,"hasHoraires":true,"url":"https://lannuaire.service-public.gouv.fr/centre-val-de-loire/indre-et-loire/149a7643-46bd-4f8b-8182-4aef5737a2fc"}
{"nom":"Neuilly-le-Brignon","nomNormalise":"neuillylebrignon","typeCollectivite":"Commune","region":"Centre-Val de Loire","departement":"Indre-et-Loire","departementCode":"37","adresse":{"street":"12 rue de l'Épeautre","postalCode":"37160","city":"Neuilly-le-Brignon","country":"France"},"contacts":{"email":"mairie.neuilly.le.brignon@wanadoo.fr","telephone":"0247596602"},"horaires":"Du Lundi au Mardi : de 08h30 à 12h00 de 13h30 à 17h00\nDu Jeudi au Vendredi : de 08h30 à 12h00 de 13h30 à 17h00\nLe Samedi : de 10h00 à 12h00","latitude":46.974205,"longitude":0.789221,"website":"http://www.neuillylebrignon.fr/","hasWebsite":true,"hasHoraires":true,"url":"https://lannuaire.service-public.gouv.fr/centre-val-de-loire/indre-et-loire/99fe54f3-3061-4ca0-933d-751f4d35ac2d"}
{"nom":"Neuville-sur-Brenne","nomNormalise":"neuvillesurbrenne","typeCollectivite":"Commune","region":"Centre-Val de Loire","departement":"Indre-et-Loire","departementCode":"37","adresse":{"street":"8 rue du 8-Mai-1945","postalCode":"37110","city":"Neuville-sur-Brenne","country":"France"},"contacts":{"email":"communedeneuvillesurbrenne@outlook.fr","telephone":"0247295213"},"horaires":"Du Lundi au Mardi : de 13h30 à 18h00\nDu Jeudi au Vendredi : de 13h30 à 18h00\n\nPermanence téléphonique les lundis, mardis, jeudis et vendredis de 10h à 12h.","latitude":47.5995,"longitude":0.915411,"website":"https://www.neuville-sur-brenne.com/","hasWebsite":true,"hasHoraires":true,"url":"https://lannuaire.service-public.gouv.fr/centre-val-de-loire/indre-et-loire/a086ea0d-e312-4fb8-ba02-e57d5b58de93"}
{"nom":"Neuvy-le-Roi","nomNormalise":"neuvyleroi","typeCollectivite":"Commune","region":"Centre-Val de Loire","departement":"Indre-et-Loire","departementCode":"37","adresse":{"street":"4 rue de l'Hôtel-de-Ville","postalCode":"37370","city":"Neuvy-le-Roi","country":"France"},"contacts":{"email":"accueil@neuvy-le-roi.fr","telephone":"0247297171"},"horaires":"Le Lundi : de 10h00 à 12h30 de 14h00 à 16h30\nLe Mardi : de 10h00 à 12h30\nLe Mercredi : de 10h00 à 12h30 de 14h00 à 16h30\nDu Jeudi au Vendredi : de 10h00 à 12h30\nLe Samedi : de 10h00 à 12h00","latitude":47.603218,"longitude":0.594192,"website":"https://neuvy-le-roi.fr/","hasWebsite":true,"hasHoraires":true,"url":"https://lannuaire.service-public.gouv.fr/centre-val-de-loire/indre-et-loire/4594cfa4-6a0b-4b82-822b-a92fb2bc4f69"}
{"nom":"Noizay","nomNormalise":"noizay","typeCollectivite":"Commune","region":"Centre-Val de Loire","departement":"Indre-et-Loire","departementCode":"37","adresse":{"street":"2 place Léon-Gambetta","postalCode":"37210","city":"Noizay","country":"France"},"contacts":{"email":"contact@mairiedenoizay.fr","telephone":"0247521106"},"horaires":"Du Lundi au Vendredi : de 08h30 à 12h30\nLe Jeudi : de 08h30 à 12h30 de 14h00 à 16h00","latitude":47.42144,"longitude":0.891333,"website":"http://www.noizay.net/","hasWebsite":true,"hasHoraires":true,"url":"https://lannuaire.service-public.gouv.fr/centre-val-de-loire/indre-et-loire/02350b1a-5dc1-47b6-9f67-956fb5b0557c"}
{"nom":"Notre-Dame-d'Oé","nomNormalise":"notredamedoe","typeCollectivite":"Commune","region":"Centre-Val de Loire","departement":"Indre-et-Loire","departementCode":"37","adresse":{"street":"1 place Louis-de-Marolles","postalCode":"37390","city":"Notre-Dame-d'Oé","country":"France"},"contacts":{"email":"mairie@ndoe.fr","telephone":"0247413008"},"horaires":"Du Lundi au Mercredi : de 08h30 à 12h30 de 13h30 à 17h30\nLe Jeudi : de 08h30 à 12h30\nLe Vendredi : de 08h30 à 12h30 de 13h30 à 17h30\nLe Samedi : de 09h00 à 12h00\n\nSemaine impaire uniquement.","latitude":47.45714,"longitude":0.707757,"website":"","hasWebsite":false,"hasHoraires":true,"url":"https://lannuaire.service-public.gouv.fr/centre-val-de-loire/indre-et-loire/421d9065-ab01-4661-94ac-f4d25b0ef31e"}
{"nom":"Nouans-les-Fontaines","nomNormalise":"nouanslesfontaines","typeCollectivite":"Commune","region":"Centre-Val de Loire","departement":"Indre-et-Loire","departementCode":"37","adresse":{"street":"Place du 8-Mai-1945","postalCode":"37460","city":"Nouans-les-Fontaines","country":"France"},"contacts":{"email":"mairie@nouanslesfontaines.fr","telephone":"0247926209"},"horaires":"Du Lundi au Jeudi : de 08h45 à 12h30\nLe Vendredi : de 08h45 à 12h30 de 14h00 à 17h00","latitude":47.135746,"longitude":1.3001407,"website":"","hasWebsite":false,"hasHoraires":true,"url":"https://lannuaire.service-public.gouv.fr/centre-val-de-loire/indre-et-loire/f53447cf-f17b-457b-ba83-78726a6135a6"}
{"nom":"Nouâtre","nomNormalise":"nouatre","typeCollectivite":"Commune","region":"Centre-Val de Loire","departement":"Indre-et-Loire","departementCode":"37","adresse":{"street":"Place du 8-Mai-1945","postalCode":"37800","city":"Nouâtre","country":"France"},"contacts":{"email":"mairie.nouatre@wanadoo.fr","telephone":"0247652015"},"horaires":"Le Lundi : de 08h30 à 12h00\nLe Mardi : de 14h00 à 17h00\nLe Jeudi : de 08h30 à 12h00\nLe Vendredi : de 14h00 à 17h00\nLe Samedi : de 09h00 à 12h00\n\nAccueil fermé en juillet-août.","latitude":47.0818,"longitude":0.535978,"website":"https://www.mairie-nouatre.fr/","hasWebsite":true,"hasHoraires":true,"url":"https://lannuaire.service-public.gouv.fr/centre-val-de-loire/indre-et-loire/0dd38bda-1925-4087-a353-e43ea122f003"}
{"nom":"Nouzilly","nomNormalise":"nouzilly","typeCollectivite":"Commune","region":"Centre-Val de Loire","departement":"Indre-et-Loire","departementCode":"37","adresse":{"street":"3 place Émile-Cholet","postalCode":"37380","city":"Nouzilly","country":"France"},"contacts":{"email":"contact@mairienouzilly.fr","telephone":"0247561221"},"horaires":"Le Lundi : de 10h00 à 12h00\nDu Mardi au Mercredi : de 15h00 à 18h00\nLe Vendredi : de 09h00 à 12h00","latitude":47.54368,"longitude":0.74324,"website":"https://www.nouzilly.fr/","hasWebsite":true,"hasHoraires":true,"url":"https://lannuaire.service-public.gouv.fr/centre-val-de-loire/indre-et-loire/ed09eedd-5f87-4b50-a805-119782ebd845"}
{"nom":"Noyant-de-Touraine","nomNormalise":"noyantdetouraine","typeCollectivite":"Commune","region":"Centre-Val de Loire","departement":"Indre-et-Loire","departementCode":"37","adresse":{"street":"1 place de la Mairie","postalCode":"37800","city":"Noyant-de-Touraine","country":"France"},"contacts":{"email":"mairie@noyant-de-touraine.fr","telephone":"0247658203"},"horaires":"Du Lundi au Mardi : de 08h30 à 12h00\nLe Mercredi : de 13h30 à 17h00\nDu Jeudi au Vendredi : de 08h30 à 12h00\nLe Samedi : de 08h30 à 11h30","latitude":47.10912,"longitude":0.558868,"website":"https://www.noyant-de-touraine.fr/","hasWebsite":true,"hasHoraires":true,"url":"https://lannuaire.service-public.gouv.fr/centre-val-de-loire/indre-et-loire/80de2699-bcfd-4b65-8a40-d1c7e9f7e3b5"}
{"nom":"Orbigny","nomNormalise":"orbigny","typeCollectivite":"Commune","region":"Centre-Val de Loire","departement":"Indre-et-Loire","departementCode":"37","adresse":{"street":"8 rue Jeanne-d'Arc","postalCode":"37460","city":"Orbigny","country":"France"},"contacts":{"email":"mairie.orbigny@wanadoo.fr","telephone":"0247942318"},"horaires":"Du Lundi au Jeudi : de 09h00 à 12h00\nLe Vendredi : de 09h00 à 12h00 de 14h00 à 16h30","latitude":47.2096,"longitude":1.23597,"website":"http://www.orbigny.fr/","hasWebsite":true,"hasHoraires":true,"url":"https://lannuaire.service-public.gouv.fr/centre-val-de-loire/indre-et-loire/c888ef14-4b75-4688-9323-30bfe7983807"}
{"nom":"Panzoult","nomNormalise":"panzoult","typeCollectivite":"Commune","region":"Centre-Val de Loire","departement":"Indre-et-Loire","departementCode":"37","adresse":{"street":"1 place de la Mairie","postalCode":"37220","city":"Panzoult","country":"France"},"contacts":{"email":"mairie.panzoult@wanadoo.fr","telephone":"0965302544"},"horaires":"Le Mardi : de 09h00 à 12h00 de 14h00 à 18h00\nLe Jeudi : de 14h00 à 18h00\nLe Vendredi : de 09h00 à 12h00","latitude":47.14667,"longitude":0.400338,"website":"https://www.panzoult.fr/","hasWebsite":true,"hasHoraires":true,"url":"https://lannuaire.service-public.gouv.fr/centre-val-de-loire/indre-et-loire/3c7266da-f058-48b8-8778-1efd1a7ccc9d"}
{"nom":"Parçay-Meslay","nomNormalise":"parcaymeslay","typeCollectivite":"Commune","region":"Centre-Val de Loire","departement":"Indre-et-Loire","departementCode":"37","adresse":{"street":"58 rue de la Mairie","postalCode":"37210","city":"Parçay-Meslay","country":"France"},"contacts":{"email":"mairie@parcay-meslay.com","telephone":"0247291515"},"horaires":"Du Lundi au Mercredi : de 08h30 à 12h00 de 13h30 à 17h00\nLe Jeudi : de 13h30 à 17h00\nLe Vendredi : de 08h30 à 12h00 de 13h30 à 17h00","latitude":47.4411,"longitude":0.745243,"website":"http://www.parcay-meslay.fr/","hasWebsite":true,"hasHoraires":true,"url":"https://lannuaire.service-public.gouv.fr/centre-val-de-loire/indre-et-loire/b3b272c7-2777-4e19-8b0f-f6410becf9c6"}
{"nom":"Parçay-sur-Vienne","nomNormalise":"parcaysurvienne","typeCollectivite":"Commune","region":"Centre-Val de Loire","departement":"Indre-et-Loire","departementCode":"37","adresse":{"street":"20 rue du 8-Mai-1945","postalCode":"37220","city":"Parçay-sur-Vienne","country":"France"},"contacts":{"email":"mairiedeparcaysurvienne@orange.fr","telephone":"0247585457"},"horaires":"Le Lundi : de 08h30 à 12h00\nLe Mardi : de 08h30 à 12h00 de 13h30 à 17h00\n\nM. le Maire reçoit sur rendez-vous le mardi de 15h30 à 17h30.\nLe Jeudi : de 08h30 à 12h00\n\nM. le Maire reçoit sur rendez-vous le jeudi de 15h30 à 17h30.\nLe Vendredi : de 13h30 à 17h00\n\nM. le Maire reçoit sur rendez-vous le vendredi de 14h00 à 17h30 et le samedi de 10h à 12h.","latitude":47.104282,"longitude":0.47735,"website":"https://mairie-parcaysurvienne.fr/","hasWebsite":true,"hasHoraires":true,"url":"https://lannuaire.service-public.gouv.fr/centre-val-de-loire/indre-et-loire/d50ea460-d30b-4d31-9269-4c8289063c82"}
{"nom":"Paulmy","nomNormalise":"paulmy","typeCollectivite":"Commune","region":"Centre-Val de Loire","departement":"Indre-et-Loire","departementCode":"37","adresse":{"street":"1 place de la Mairie","postalCode":"37350","city":"Paulmy","country":"France"},"contacts":{"email":"accueil@paulmy.fr","telephone":"0247596664"},"horaires":"Du Lundi au Mardi : de 10h00 à 12h30 de 14h30 à 17h30\nLe Jeudi : de 10h00 à 12h00\nLe Vendredi : de 10h00 à 14h00","latitude":46.981804,"longitude":0.839132,"website":"https://www.paulmy.fr/fr/","hasWebsite":true,"hasHoraires":true,"url":"https://lannuaire.service-public.gouv.fr/centre-val-de-loire/indre-et-loire/eedf66ab-6bb4-47d2-9ae2-0b189f490c50"}
{"nom":"Pernay","nomNormalise":"pernay","typeCollectivite":"Commune","region":"Centre-Val de Loire","departement":"Indre-et-Loire","departementCode":"37","adresse":{"street":"Rue de la Mairie","postalCode":"37230","city":"Pernay","country":"France"},"contacts":{"email":"mairie.pernay@neuf.fr","telephone":"0247524383"},"horaires":"Le Lundi : de 08h15 à 12h15 de 13h15 à 17h30\nDu Mardi au Jeudi : de 08h15 à 12h15\nLe Vendredi : de 08h15 à 12h15 de 13h15 à 17h30\nLe Samedi : de 09h00 à 12h00\n\nAccueil ouvert uniquement les 1er et 3e samedi de chaque mois.","latitude":47.444263,"longitude":0.4990734,"website":"http://www.pernay.fr/","hasWebsite":true,"hasHoraires":true,"url":"https://lannuaire.service-public.gouv.fr/centre-val-de-loire/indre-et-loire/853927d7-7084-416d-80d4-9dd26503402b"}
{"nom":"Perrusson","nomNormalise":"perrusson","typeCollectivite":"Commune","region":"Centre-Val de Loire","departement":"Indre-et-Loire","departementCode":"37","adresse":{"street":"1 place de la Mairie","postalCode":"37600","city":"Perrusson","country":"France"},"contacts":{"email":"accueil@perrusson.fr","telephone":"0247590392"},"horaires":"Le Lundi : de 09h00 à 12h00 de 13h30 à 17h00\nLe Mardi : de 09h00 à 12h00\nDu Mercredi au Vendredi : de 09h00 à 12h00 de 13h30 à 17h00","latitude":47.100063,"longitude":1.013702,"website":"","hasWebsite":false,"hasHoraires":true,"url":"https://lannuaire.service-public.gouv.fr/centre-val-de-loire/indre-et-loire/285774c5-6702-4570-8fd5-b1ed64397a18"}
{"nom":"Pocé-sur-Cisse","nomNormalise":"pocesurcisse","typeCollectivite":"Commune","region":"Centre-Val de Loire","departement":"Indre-et-Loire","departementCode":"37","adresse":{"street":"Place de la Mairie","postalCode":"37530","city":"Pocé-sur-Cisse","country":"France"},"contacts":{"email":"mairiedepoce@wanadoo.fr","telephone":"0247571815"},"horaires":"Le Lundi : de 09h00 à 12h15\nLe Mardi : de 09h00 à 12h15 de 13h30 à 17h00\nLe Mercredi : de 09h00 à 12h15\nLe Jeudi : de 09h00 à 12h15 de 13h30 à 17h00\nLe Vendredi : de 09h00 à 12h15 de 13h30 à 16h00\n\nContacter la mairie ou consulter le site internet pour vérifier l'ouverture du service.","latitude":47.4378,"longitude":0.972656,"website":"https://poce-sur-cisse.fr/","hasWebsite":true,"hasHoraires":true,"url":"https://lannuaire.service-public.gouv.fr/centre-val-de-loire/indre-et-loire/8e27cd44-e2c5-402d-b239-644cde46eb0f"}
{"nom":"Pont-de-Ruan","nomNormalise":"pontderuan","typeCollectivite":"Commune","region":"Centre-Val de Loire","departement":"Indre-et-Loire","departementCode":"37","adresse":{"street":"5 rue Saint-Brice","postalCode":"37260","city":"Pont-de-Ruan","country":"France"},"contacts":{"email":"secretariat@villepontderuan.fr","telephone":"0247268130"},"horaires":"Du Lundi au Mardi : de 09h00 à 12h30 de 13h30 à 17h30\nDu Jeudi au Vendredi : de 09h00 à 12h30 de 13h30 à 17h30\nLe Samedi : de 09h00 à 12h00\n\nAccueil ouvert uniquement le 1e samedi de chaque mois.","latitude":47.2616,"longitude":0.575474,"website":"https://www.villepontderuan.fr/","hasWebsite":true,"hasHoraires":true,"url":"https://lannuaire.service-public.gouv.fr/centre-val-de-loire/indre-et-loire/db39786c-858b-4d54-b1ab-71fd8faed26b"}
{"nom":"Ports-Sur-Vienne","nomNormalise":"portssurvienne","typeCollectivite":"Commune","region":"Centre-Val de Loire","departement":"Indre-et-Loire","departementCode":"37","adresse":{"street":"2 place de la Mairie","postalCode":"37800","city":"Ports-sur-Vienne","country":"France"},"contacts":{"email":"mairie-ports-37@ports-37.com","telephone":"0247650262"},"horaires":"Le Mardi : de 09h00 à 12h00\nLe Jeudi : de 09h00 à 12h00","latitude":47.015026,"longitude":0.553835,"website":"http://www.ports-37.com/","hasWebsite":true,"hasHoraires":true,"url":"https://lannuaire.service-public.gouv.fr/centre-val-de-loire/indre-et-loire/1efeceb3-da96-4ba2-9425-69503f2b8fa5"}
{"nom":"Pouzay","nomNormalise":"pouzay","typeCollectivite":"Commune","region":"Centre-Val de Loire","departement":"Indre-et-Loire","departementCode":"37","adresse":{"street":"23 rue des Écoles","postalCode":"37800","city":"Pouzay","country":"France"},"contacts":{"email":"mairie@pouzay.fr","telephone":"0247652193"},"horaires":"Du Mardi au Vendredi : de 14h00 à 16h30\nLe Samedi : de 09h00 à 12h00","latitude":47.08169,"longitude":0.5345691,"website":"","hasWebsite":false,"hasHoraires":true,"url":"https://lannuaire.service-public.gouv.fr/centre-val-de-loire/indre-et-loire/75e20769-6903-474f-be34-908a6c061fa5"}
{"nom":"Preuilly-sur-Claise","nomNormalise":"preuillysurclaise","typeCollectivite":"Commune","region":"Centre-Val de Loire","departement":"Indre-et-Loire","departementCode":"37","adresse":{"street":"Rue de la République","postalCode":"37290","city":"Preuilly-sur-Claise","country":"France"},"contacts":{"email":"mairie-preuilly@preuillysurclaise.fr","telephone":"0247945004"},"horaires":"Du Lundi au Jeudi : de 09h00 à 12h00 de 13h30 à 17h30\nLe Vendredi : de 09h00 à 12h00 de 13h30 à 16h30\nLe Samedi : de 09h00 à 12h00\n\nAccueil ouvert le 1er samedi du mois uniquement","latitude":46.853157,"longitude":0.9274988,"website":"https://www.preuillysurclaise.fr/","hasWebsite":true,"hasHoraires":true,"url":"https://lannuaire.service-public.gouv.fr/centre-val-de-loire/indre-et-loire/5d27385b-61c5-414e-bc6d-54263828e6ca"}
{"nom":"Pussigny","nomNormalise":"pussigny","typeCollectivite":"Commune","region":"Centre-Val de Loire","departement":"Indre-et-Loire","departementCode":"37","adresse":{"street":"5 rue de la Mairie","postalCode":"37800","city":"Pussigny","country":"France"},"contacts":{"email":"mairie.pussigny@wanadoo.fr","telephone":"0247650102"},"horaires":"Le Lundi : de 15h30 à 18h00\nLe Mercredi : de 14h00 à 17h00\nLe Vendredi : de 09h00 à 12h00","latitude":46.99331,"longitude":0.5700805,"website":"http://mairie-de-pussigny.fr/","hasWebsite":true,"hasHoraires":true,"url":"https://lannuaire.service-public.gouv.fr/centre-val-de-loire/indre-et-loire/fa9de9f6-b3d0-4b9c-b344-a115321c61f5"}
{"nom":"Razines","nomNormalise":"razines","typeCollectivite":"Commune","region":"Centre-Val de Loire","departement":"Indre-et-Loire","departementCode":"37","adresse":{"street":"10 place de la Mairie","postalCode":"37120","city":"Razines","country":"France"},"contacts":{"email":"mairie@razines.fr","telephone":"0247956060"},"horaires":"Le Lundi : de 13h30 à 17h00\nLe Mercredi : de 13h30 à 17h00","latitude":46.976196,"longitude":0.377227,"website":"","hasWebsite":false,"hasHoraires":true,"url":"https://lannuaire.service-public.gouv.fr/centre-val-de-loire/indre-et-loire/19cb6054-8bf7-486f-892a-e16c18867026"}
{"nom":"Reignac-sur-Indre","nomNormalise":"reignacsurindre","typeCollectivite":"Commune","region":"Centre-Val de Loire","departement":"Indre-et-Loire","departementCode":"37","adresse":{"street":"15 bis rue Louis-de-Barberin","postalCode":"37310","city":"Reignac-sur-Indre","country":"France"},"contacts":{"email":"contact@reignac-sur-indre.fr","telephone":"0247941020"},"horaires":"Le Lundi : de 08h30 à 12h00 de 14h00 à 17h00\nLe Mardi : de 08h30 à 12h00\nDu Mercredi au Vendredi : de 08h30 à 12h00 de 14h00 à 17h00","latitude":47.23228,"longitude":0.91636,"website":"https://www.reignac-sur-indre.fr/","hasWebsite":true,"hasHoraires":true,"url":"https://lannuaire.service-public.gouv.fr/centre-val-de-loire/indre-et-loire/2c6bd2b8-dfc5-4b0c-961e-c2df0174f2ec"}
{"nom":"Restigné","nomNormalise":"restigne","typeCollectivite":"Commune","region":"Centre-Val de Loire","departement":"Indre-et-Loire","departementCode":"37","adresse":{"street":"Place de la Mairie","postalCode":"37140","city":"Restigné","country":"France"},"contacts":{"email":"contact@restigne.fr","telephone":"0247973208"},"horaires":"Du Lundi au Vendredi : de 08h30 à 12h00","latitude":47.2808,"longitude":0.228561,"website":"http://www.restigne.fr/","hasWebsite":true,"hasHoraires":true,"url":"https://lannuaire.service-public.gouv.fr/centre-val-de-loire/indre-et-loire/7772fd08-74b6-49a9-a43e-ef119075c85b"}
{"nom":"Reugny","nomNormalise":"reugny","typeCollectivite":"Commune","region":"Centre-Val de Loire","departement":"Indre-et-Loire","departementCode":"37","adresse":{"street":"10 rue Nationale","postalCode":"37380","city":"Reugny","country":"France"},"contacts":{"email":"mairie-reugny@wanadoo.fr","telephone":"0247529432"},"horaires":"Le Lundi : de 10h30 à 12h30\nDu Mardi au Mercredi : de 10h30 à 12h30 de 13h30 à 17h00\nLe Jeudi : de 13h30 à 17h00\nLe Vendredi : de 10h30 à 12h30 de 13h30 à 17h00\nLe Samedi : de 09h00 à 12h00","latitude":47.48129,"longitude":0.8833507,"website":"http://www.reugny-37.fr/","hasWebsite":true,"hasHoraires":true,"url":"https://lannuaire.service-public.gouv.fr/centre-val-de-loire/indre-et-loire/a089c58f-101e-4301-a476-be4d92f842ab"}
{"nom":"Richelieu","nomNormalise":"richelieu","typeCollectivite":"Commune","region":"Centre-Val de Loire","departement":"Indre-et-Loire","departementCode":"37","adresse":{"street":"1 place du Marché","postalCode":"37120","city":"Richelieu","country":"France"},"contacts":{"email":"mairie@ville-richelieu.fr","telephone":"0247581013"},"horaires":"Le Lundi : de 08h30 à 12h45 de 14h00 à 17h00\nLe Mardi : de 08h30 à 12h45\nDu Mercredi au Vendredi : de 08h30 à 12h45 de 14h00 à 17h00\nLe Samedi : de 09h00 à 12h00","latitude":47.01285,"longitude":0.324192,"website":"https://www.ville-richelieu.fr/","hasWebsite":true,"hasHoraires":true,"url":"https://lannuaire.service-public.gouv.fr/centre-val-de-loire/indre-et-loire/c09b8ce9-cd80-42c3-9333-e5fead41c07b"}
{"nom":"Rigny-Ussé","nomNormalise":"rignyusse","typeCollectivite":"Commune","region":"Centre-Val de Loire","departement":"Indre-et-Loire","departementCode":"37","adresse":{"street":"51 rue Principale","postalCode":"37420","city":"Rigny-Ussé","country":"France"},"contacts":{"email":"accueilmairie@rigny-usse.fr","telephone":"0247955585"},"horaires":"Du Lundi au Mercredi : de 09h00 à 12h00\nLe Vendredi : de 09h00 à 12h00","latitude":47.2426,"longitude":0.25698,"website":"http://www.rigny-usse.fr/","hasWebsite":true,"hasHoraires":true,"url":"https://lannuaire.service-public.gouv.fr/centre-val-de-loire/indre-et-loire/2cb13fd3-510c-4a71-87de-fef2ec8d0ff1"}
{"nom":"Rillé","nomNormalise":"rille","typeCollectivite":"Commune","region":"Centre-Val de Loire","departement":"Indre-et-Loire","departementCode":"37","adresse":{"street":"6 Grande-Rue","postalCode":"37340","city":"Rillé","country":"France"},"contacts":{"email":"mairie@rille.fr","telephone":"0247246468"},"horaires":"Du Lundi au Mardi : de 09h00 à 12h00\nDu Jeudi au Vendredi : de 09h00 à 12h00","latitude":47.4497,"longitude":0.247994,"website":"https://www.rille.fr/","hasWebsite":true,"hasHoraires":true,"url":"https://lannuaire.service-public.gouv.fr/centre-val-de-loire/indre-et-loire/02e9276f-fe85-45fc-93d9-45cec8f24a25"}
{"nom":"Rilly-sur-Vienne","nomNormalise":"rillysurvienne","typeCollectivite":"Commune","region":"Centre-Val de Loire","departement":"Indre-et-Loire","departementCode":"37","adresse":{"street":"3 place de la Mairie","postalCode":"37220","city":"Rilly-sur-Vienne","country":"France"},"contacts":{"email":"mairierillyvienne@wanadoo.fr","telephone":"0247583209"},"horaires":"Le Lundi : de 14h30 à 18h00\nLe Mardi : de 09h30 à 12h00\nLe Jeudi : de 14h30 à 18h00\nLe Vendredi : de 09h30 à 13h00","latitude":47.05649,"longitude":0.490765,"website":"","hasWebsite":false,"hasHoraires":true,"url":"https://lannuaire.service-public.gouv.fr/centre-val-de-loire/indre-et-loire/f3b6ad04-865b-4579-889e-5b73ec4c43fa"}
{"nom":"Rivarennes","nomNormalise":"rivarennes","typeCollectivite":"Commune","region":"Centre-Val de Loire","departement":"Indre-et-Loire","departementCode":"37","adresse":{"street":"8 rue de la Mairie","postalCode":"37190","city":"Rivarennes","country":"France"},"contacts":{"email":"accueil@mairie-rivarennes-37.fr","telephone":"0247955143"},"horaires":"Du Lundi au Mardi : de 09h00 à 12h30 de 14h00 à 17h00\nLe Mercredi : de 09h00 à 12h30\nLe Jeudi : de 09h00 à 12h30 de 14h00 à 17h00\nLe Vendredi : de 14h00 à 17h00","latitude":47.266964,"longitude":0.3531626,"website":"https://mairie-rivarennes-37.fr/","hasWebsite":true,"hasHoraires":true,"url":"https://lannuaire.service-public.gouv.fr/centre-val-de-loire/indre-et-loire/822a2424-b175-41e9-8609-f2dc843ffc84"}
{"nom":"Rivière","nomNormalise":"riviere","typeCollectivite":"Commune","region":"Centre-Val de Loire","departement":"Indre-et-Loire","departementCode":"37","adresse":{"street":"14 place Ouéguédo","postalCode":"37500","city":"Rivière","country":"France"},"contacts":{"email":"accueil@riviere37.fr","telephone":"0247930753"},"horaires":"Du Lundi au Mercredi : de 09h00 à 12h30\nDu Jeudi au Vendredi : de 14h00 à 18h00","latitude":47.14588,"longitude":0.2775897,"website":"","hasWebsite":false,"hasHoraires":true,"url":"https://lannuaire.service-public.gouv.fr/centre-val-de-loire/indre-et-loire/46e9fdba-c8f2-4fd2-a42b-c119d9e5b052"}
{"nom":"Rochecorbon","nomNormalise":"rochecorbon","typeCollectivite":"Commune","region":"Centre-Val de Loire","departement":"Indre-et-Loire","departementCode":"37","adresse":{"street":"Place du 8-Mai-1945","postalCode":"37210","city":"Rochecorbon","country":"France"},"contacts":{"email":"contact@mairie-rochecorbon.fr","telephone":"0247525020"},"horaires":"Du Lundi au Jeudi : de 09h00 à 12h00 de 13h30 à 16h30\nLe Vendredi : de 09h00 à 12h00","latitude":47.41423,"longitude":0.754936,"website":"https://www.mairie-rochecorbon.fr/","hasWebsite":true,"hasHoraires":true,"url":"https://lannuaire.service-public.gouv.fr/centre-val-de-loire/indre-et-loire/d8eaf51c-5d57-4412-87ee-b4673b3853a9"}
{"nom":"Rouziers-de-Touraine","nomNormalise":"rouziersdetouraine","typeCollectivite":"Commune","region":"Centre-Val de Loire","departement":"Indre-et-Loire","departementCode":"37","adresse":{"street":"5 rue du 11-Novembre","postalCode":"37360","city":"Rouziers-de-Touraine","country":"France"},"contacts":{"email":"mairie@rouziers-de-touraine.com","telephone":"0247566013"},"horaires":"Le Lundi : de 09h00 à 12h00 de 14h00 à 18h00\nLe Mardi : de 09h00 à 12h00 de 14h00 à 17h00\nLe Mercredi : de 09h00 à 12h00\nLe Jeudi : de 09h00 à 12h00 de 14h00 à 16h30\nLe Vendredi : de 09h00 à 12h00 de 14h00 à 17h00","latitude":47.5126,"longitude":0.649485,"website":"http://www.rouziers-de-touraine.com/","hasWebsite":true,"hasHoraires":true,"url":"https://lannuaire.service-public.gouv.fr/centre-val-de-loire/indre-et-loire/6f9a17ff-ff94-4ae0-a8b1-9b987ff95469"}
{"nom":"Saché","nomNormalise":"sache","typeCollectivite":"Commune","region":"Centre-Val de Loire","departement":"Indre-et-Loire","departementCode":"37","adresse":{"street":"11 place Alexandre-Calder","postalCode":"37190","city":"Saché","country":"France"},"contacts":{"email":"mairie@sache.fr","telephone":"0247268665"},"horaires":"Le Lundi : de 09h00 à 12h00 de 14h00 à 17h30\nLe Mardi : de 09h00 à 12h00\nLe Mercredi : de 09h00 à 12h00 de 14h00 à 17h30\nLe Vendredi : de 09h00 à 12h00\nLe Samedi : de 10h00 à 12h00","latitude":47.24682,"longitude":0.542899,"website":"https://www.sache.fr/","hasWebsite":true,"hasHoraires":true,"url":"https://lannuaire.service-public.gouv.fr/centre-val-de-loire/indre-et-loire/b0e9b452-4938-41b8-80a8-da0930549371"}
{"nom":"Saint-Antoine-du-Rocher","nomNormalise":"saintantoinedurocher","typeCollectivite":"Commune","region":"Centre-Val de Loire","departement":"Indre-et-Loire","departementCode":"37","adresse":{"street":"6 rue des Écoles","postalCode":"37360","city":"Saint-Antoine-du-Rocher","country":"France"},"contacts":{"email":"secretariat@saint-antoine-du-rocher.fr","telephone":"0247566504"},"horaires":"Le Lundi : de 08h30 à 12h00 de 14h00 à 17h00\nDu Mardi au Mercredi : de 08h30 à 12h00\nLe Jeudi : de 08h30 à 12h00 de 14h00 à 17h00\nLe Vendredi : de 08h30 à 12h00","latitude":47.4981,"longitude":0.626312,"website":"https://www.saint-antoine-du-rocher.fr/","hasWebsite":true,"hasHoraires":true,"url":"https://lannuaire.service-public.gouv.fr/centre-val-de-loire/indre-et-loire/d77431f6-d6d3-4c69-a932-9c9386068ab6"}
{"nom":"Saint-Aubin-le-Dépeint","nomNormalise":"saintaubinledepeint","typeCollectivite":"Commune","region":"Centre-Val de Loire","departement":"Indre-et-Loire","departementCode":"37","adresse":{"street":"21 rue Principale","postalCode":"37370","city":"Saint-Aubin-le-Dépeint","country":"France"},"contacts":{"email":"mairie@staubinledepeint.fr","telephone":"0247292507"},"horaires":"Du Lundi au Mardi : de 08h30 à 12h30 de 14h00 à 17h00\nLe Mercredi : de 09h00 à 12h30 de 14h00 à 18h00\nLe Jeudi : de 08h30 à 12h30 de 14h00 à 17h00\nLe Vendredi : de 08h30 à 12h00","latitude":47.635826,"longitude":0.390295,"website":"","hasWebsite":false,"hasHoraires":true,"url":"https://lannuaire.service-public.gouv.fr/centre-val-de-loire/indre-et-loire/dcc285b5-2ed4-4a33-a832-893215be0a95"}
{"nom":"Saint-Avertin","nomNormalise":"saintavertin","typeCollectivite":"Commune","region":"Centre-Val de Loire","departement":"Indre-et-Loire","departementCode":"37","adresse":{"street":"Hôtel de Ville","postalCode":"37550","city":"Saint-Avertin","country":"France"},"contacts":{"email":"mairie@ville-saint-avertin.fr","telephone":"0247484848"},"horaires":"Du Lundi au Vendredi : de 08h30 à 12h30 de 13h30 à 17h00\nLe Samedi : de 09h00 à 12h00","latitude":47.367867,"longitude":0.726809,"website":"https://www.ville-saint-avertin.fr/","hasWebsite":true,"hasHoraires":true,"url":"https://lannuaire.service-public.gouv.fr/centre-val-de-loire/indre-et-loire/4b6bd69e-654f-470c-bccd-0ffd79bb1e84"}
{"nom":"Mairie déléguée - Saint-Bauld","nomNormalise":"mairiedelegueesaintbauld","typeCollectivite":"Commune","region":"Centre-Val de Loire","departement":"Indre-et-Loire","departementCode":"37","adresse":{"street":"Saint-Bauld","postalCode":"37310","city":"Tauxigny-Saint-Bauld","country":"France"},"contacts":{"email":"mairiestbauld@wanadoo.fr","telephone":"0247928700"},"horaires":"Du Lundi au Mardi : de 16h30 à 19h00\nDu Jeudi au Vendredi : de 16h30 à 19h00","latitude":47.1791,"longitude":0.836102,"website":"https://www.tauxignysaintbauld.fr/","hasWebsite":true,"hasHoraires":true,"url":"https://lannuaire.service-public.gouv.fr/centre-val-de-loire/indre-et-loire/e6ac3d3c-04d1-445a-808c-5d842b027319"}
{"nom":"Saint-Benoît-la-Forêt","nomNormalise":"saintbenoitlaforet","typeCollectivite":"Commune","region":"Centre-Val de Loire","departement":"Indre-et-Loire","departementCode":"37","adresse":{"street":"1 le Bourg","postalCode":"37500","city":"Saint-Benoît-la-Forêt","country":"France"},"contacts":{"email":"commune.stbenoitlaforet@orange.fr","telephone":"0247580011"},"horaires":"Le Lundi : de 08h00 à 12h00\nLe Mardi : de 09h00 à 12h00 de 13h30 à 18h00\nLe Jeudi : de 14h00 à 18h30\nLe Vendredi : de 08h00 à 12h00","latitude":47.22083,"longitude":0.322509,"website":"http://www.saintbenoitlaforet.fr/","hasWebsite":true,"hasHoraires":true,"url":"https://lannuaire.service-public.gouv.fr/centre-val-de-loire/indre-et-loire/11bba1bf-ea6c-4a45-ad27-96b6a87319a2"}
{"nom":"Saint-Branchs","nomNormalise":"saintbranchs","typeCollectivite":"Commune","region":"Centre-Val de Loire","departement":"Indre-et-Loire","departementCode":"37","adresse":{"street":"40 rue du Commerce","postalCode":"37320","city":"Saint-Branchs","country":"France"},"contacts":{"email":"mairie@saint-branchs.fr","telephone":"0247263015"},"horaires":"Du Lundi au Jeudi : de 09h00 à 12h00 de 16h00 à 17h30\nLe Vendredi : de 09h00 à 16h30\nLe Samedi : de 09h00 à 12h00\n\nContacter l'accueil pour s'assurer qu'il n'y ait pas de fermeture exceptionnelle le samedi.","latitude":47.227333,"longitude":0.7721471,"website":"https://www.saint-branchs.fr/","hasWebsite":true,"hasHoraires":true,"url":"https://lannuaire.service-public.gouv.fr/centre-val-de-loire/indre-et-loire/3ce20abd-de90-4074-88e8-31043e2bb197"}
{"nom":"Saint-Christophe-sur-le-Nais","nomNormalise":"saintchristophesurlenais","typeCollectivite":"Commune","region":"Centre-Val de Loire","departement":"Indre-et-Loire","departementCode":"37","adresse":{"street":"32 rue du Val-Joyeux","postalCode":"37370","city":"Saint-Christophe-sur-le-Nais","country":"France"},"contacts":{"email":"contact@mairie-saintchristophesurlenais.fr","telephone":"0247292419"},"horaires":"Du Lundi au Mercredi : de 09h00 à 12h00\nLe Jeudi : de 09h00 à 12h00 de 13h30 à 17h00\nLe Vendredi : de 09h00 à 12h00\nLe Samedi : de 10h00 à 12h00\n\nUniquement le 1er samedi du mois.\nLe Samedi : de 10h00 à 12h00\n\nAccueil ouvert uniquement le 1er samedi du mois.","latitude":47.6144,"longitude":0.473717,"website":"http://www.mairie-saintchristophesurlenais.fr/","hasWebsite":true,"hasHoraires":true,"url":"https://lannuaire.service-public.gouv.fr/centre-val-de-loire/indre-et-loire/ee397986-3a4f-425e-854b-7d083489fa8a"}
{"nom":"Saint-Cyr-sur-Loire","nomNormalise":"saintcyrsurloire","typeCollectivite":"Commune","region":"Centre-Val de Loire","departement":"Indre-et-Loire","departementCode":"37","adresse":{"street":"Parc de la Perraudière","postalCode":"37540","city":"Saint-Cyr-sur-Loire Cedex","country":"France"},"contacts":{"email":"info@saint-cyr-sur-loire.com","telephone":"0247428000"},"horaires":"Du Lundi au Vendredi : de 08h30 à 17h00\nLe Samedi : de 09h00 à 12h00\n\nAccueil ouvert uniquement pour l'état civil.","latitude":47.400063,"longitude":0.666008,"website":"https://www.saint-cyr-sur-loire.com/","hasWebsite":true,"hasHoraires":true,"url":"https://lannuaire.service-public.gouv.fr/centre-val-de-loire/indre-et-loire/6a617cb9-fcb9-434d-b20f-a110f77821f7"}
{"nom":"Sainte-Catherine-de-Fierbois","nomNormalise":"saintecatherinedefierbois","typeCollectivite":"Commune","region":"Centre-Val de Loire","departement":"Indre-et-Loire","departementCode":"37","adresse":{"street":"54 rue Boucicault","postalCode":"37800","city":"Sainte-Catherine-de-Fierbois","country":"France"},"contacts":{"email":"mairie@saintecatherinedefierbois.fr","telephone":"0247654346"},"horaires":"Le Lundi : de 13h30 à 18h00\nLe Mercredi : de 13h00 à 17h00\nLe Jeudi : de 08h00 à 12h00","latitude":47.1588,"longitude":0.650494,"website":"https://www.saintecatherinedefierbois.fr/","hasWebsite":true,"hasHoraires":true,"url":"https://lannuaire.service-public.gouv.fr/centre-val-de-loire/indre-et-loire/ef7eda69-ce95-4549-8a4a-42c0e8922c65"}
{"nom":"Sainte-Maure-de-Touraine","nomNormalise":"saintemauredetouraine","typeCollectivite":"Commune","region":"Centre-Val de Loire","departement":"Indre-et-Loire","departementCode":"37","adresse":{"street":"16 bis place du Maréchal-Leclerc","postalCode":"37800","city":"Sainte-Maure-de-Touraine","country":"France"},"contacts":{"email":"mairie@sainte-maure-de-touraine.fr","telephone":"0247654012"},"horaires":"Du Lundi au Jeudi : de 08h30 à 12h30 de 13h30 à 17h30\nLe Vendredi : de 08h30 à 12h30 de 13h30 à 17h00","latitude":47.113323,"longitude":0.6217605,"website":"http://www.sainte-maure-de-touraine.fr/","hasWebsite":true,"hasHoraires":true,"url":"https://lannuaire.service-public.gouv.fr/centre-val-de-loire/indre-et-loire/3ab05b5a-b985-4f5a-984f-2b48d94b09e4"}
{"nom":"Saint-Épain","nomNormalise":"saintepain","typeCollectivite":"Commune","region":"Centre-Val de Loire","departement":"Indre-et-Loire","departementCode":"37","adresse":{"street":"27 Grande rue","postalCode":"37800","city":"Saint-Épain","country":"France"},"contacts":{"email":"contact@saint-epain.fr","telephone":"0247658021"},"horaires":"Du Lundi au Mardi : de 08h30 à 12h00 de 14h00 à 18h00\nLe Mercredi : de 08h30 à 12h00 de 14h00 à 17h00\nLe Vendredi : de 08h30 à 12h00 de 14h00 à 18h00\nLe Samedi : de 09h00 à 12h00","latitude":47.16809,"longitude":0.511461,"website":"https://saint-epain.fr/","hasWebsite":true,"hasHoraires":true,"url":"https://lannuaire.service-public.gouv.fr/centre-val-de-loire/indre-et-loire/2641e0ea-1f7b-4d52-b3d1-d3a1371a504b"}
{"nom":"Saint-Étienne-de-Chigny","nomNormalise":"saintetiennedechigny","typeCollectivite":"Commune","region":"Centre-Val de Loire","departement":"Indre-et-Loire","departementCode":"37","adresse":{"street":"2 route de la Chappe","postalCode":"37230","city":"Saint-Étienne-de-Chigny","country":"France"},"contacts":{"email":"mairiesedc@orange.fr","telephone":"0247555215"},"horaires":"Le Lundi : de 08h30 à 12h00\nLe Mardi : de 14h00 à 17h00\nLe Mercredi : de 08h30 à 12h00\nLe Jeudi : de 14h00 à 17h00\nLe Vendredi : de 08h30 à 12h00","latitude":47.369843,"longitude":0.5154479,"website":"","hasWebsite":false,"hasHoraires":true,"url":"https://lannuaire.service-public.gouv.fr/centre-val-de-loire/indre-et-loire/b4c51138-86d2-47b9-baaf-881fcad5eed1"}
{"nom":"Saint-Flovier","nomNormalise":"saintflovier","typeCollectivite":"Commune","region":"Centre-Val de Loire","departement":"Indre-et-Loire","departementCode":"37","adresse":{"street":"2 place du 8-Mai-1945","postalCode":"37600","city":"Saint-Flovier","country":"France"},"contacts":{"email":"mairie.st.flovier@wanadoo.fr","telephone":"0247947224"},"horaires":"Le Lundi : de 14h00 à 16h00\nLe Mardi : de 10h00 à 12h00 de 14h00 à 16h00\nLe Mercredi : de 08h30 à 11h00 de 14h00 à 16h00\nDu Jeudi au Vendredi : de 10h00 à 12h00 de 14h00 à 16h00","latitude":46.968086,"longitude":1.026439,"website":"http://www.saint-flovier.fr/","hasWebsite":true,"hasHoraires":true,"url":"https://lannuaire.service-public.gouv.fr/centre-val-de-loire/indre-et-loire/485280a5-050f-412e-b5dc-89e770ab6ca8"}
{"nom":"Saint-Genouph","nomNormalise":"saintgenouph","typeCollectivite":"Commune","region":"Centre-Val de Loire","departement":"Indre-et-Loire","departementCode":"37","adresse":{"street":"23 rue du Bourg","postalCode":"37510","city":"Saint-Genouph","country":"France"},"contacts":{"email":"mairie-st-genouph2@wanadoo.fr","telephone":"0247455114"},"horaires":"Le Mardi : de 14h00 à 17h00\nLe Mercredi : de 08h00 à 12h00\nDu Jeudi au Vendredi : de 14h00 à 17h00\nLe Samedi : de 09h00 à 12h00\n\nAccueil ouvert uniquement le 1e samedi du mois.","latitude":47.37816,"longitude":0.599671,"website":"http://www.commune-saint-genouph.fr/","hasWebsite":true,"hasHoraires":true,"url":"https://lannuaire.service-public.gouv.fr/centre-val-de-loire/indre-et-loire/6dbc7123-0c4e-46d6-94cc-6f7ac42746c0"}
{"nom":"Saint-Germain-sur-Vienne","nomNormalise":"saintgermainsurvienne","typeCollectivite":"Commune","region":"Centre-Val de Loire","departement":"Indre-et-Loire","departementCode":"37","adresse":{"street":"33 route de la Chaussée","postalCode":"37500","city":"Saint-Germain-sur-Vienne","country":"France"},"contacts":{"email":"stgermain.mairie@wanadoo.fr","telephone":"0247959646"},"horaires":"Du Lundi au Mardi : de 14h00 à 16h30\nDu Jeudi au Vendredi : de 14h00 à 16h30","latitude":47.1801,"longitude":0.122367,"website":"https://www.saint-germain-sur-vienne.com/","hasWebsite":true,"hasHoraires":true,"url":"https://lannuaire.service-public.gouv.fr/centre-val-de-loire/indre-et-loire/2d112b8b-aa3d-4f07-ae29-4cb15731aa1c"}
{"nom":"Saint-Hippolyte","nomNormalise":"sainthippolyte","typeCollectivite":"Commune","region":"Centre-Val de Loire","departement":"Indre-et-Loire","departementCode":"37","adresse":{"street":"1 place du 27-Août-1944","postalCode":"37600","city":"Saint-Hippolyte","country":"France"},"contacts":{"email":"mairie@sthippolyte.fr","telephone":"0247947140"},"horaires":"Le Lundi : de 09h00 à 12h00\n\nEt de 14h00 à 18h30 (au téléphone seulement)\nLe Mardi : de 09h00 à 12h00 de 14h00 à 18h30\nLe Jeudi : de 09h00 à 12h00 de 14h00 à 18h30\nDu Vendredi au Samedi : de 09h00 à 12h00\n\nEt de 14h00 à 17h00 (au tél seulement). Et le dernier samedi de chaque mois (sauf durant les congés) de 09h00 à 12h00 au public","latitude":47.058247,"longitude":1.100398,"website":"https://sthippolyte37.com/","hasWebsite":true,"hasHoraires":true,"url":"https://lannuaire.service-public.gouv.fr/centre-val-de-loire/indre-et-loire/02b9e2e6-bf81-4cf9-a721-a6deb9373ac6"}
{"nom":"Saint-Jean-Saint-Germain","nomNormalise":"saintjeansaintgermain","typeCollectivite":"Commune","region":"Centre-Val de Loire","departement":"Indre-et-Loire","departementCode":"37","adresse":{"street":"1 route de Châtillon","postalCode":"37600","city":"Saint-Jean-Saint-Germain","country":"France"},"contacts":{"email":"mairie@mairiestjeanstgermain.fr","telephone":"0247947005"},"horaires":"Le Lundi : de 13h30 à 17h30\nLe Mardi : de 08h30 à 12h00 de 13h30 à 17h30\nLe Mercredi : de 08h30 à 13h00\nLe Vendredi : de 08h30 à 13h00 de 14h00 à 17h30","latitude":47.08288,"longitude":1.035124,"website":"http://www.saintjeansaintgermain.fr/","hasWebsite":true,"hasHoraires":true,"url":"https://lannuaire.service-public.gouv.fr/centre-val-de-loire/indre-et-loire/021d36e5-ffb1-4c4c-b20c-b6e98824b436"}
{"nom":"Saint-Laurent-de-Lin","nomNormalise":"saintlaurentdelin","typeCollectivite":"Commune","region":"Centre-Val de Loire","departement":"Indre-et-Loire","departementCode":"37","adresse":{"street":"1 rue de la Perrée","postalCode":"37330","city":"Saint-Laurent-de-Lin","country":"France"},"contacts":{"email":"mairie@saintlaurentdelin.fr","telephone":"0247240507"},"horaires":"Le Lundi : de 10h30 à 12h00\nLe Mardi : de 15h00 à 17h00\nDu Jeudi au Vendredi : de 10h30 à 12h00","latitude":47.506237,"longitude":0.257821,"website":"http://www.saint-laurent-de-lin.com/","hasWebsite":true,"hasHoraires":true,"url":"https://lannuaire.service-public.gouv.fr/centre-val-de-loire/indre-et-loire/680d4e3f-ba32-4c3e-9e92-2dcc89ff729e"}
{"nom":"Saint-Laurent-en-Gâtines","nomNormalise":"saintlaurentengatines","typeCollectivite":"Commune","region":"Centre-Val de Loire","departement":"Indre-et-Loire","departementCode":"37","adresse":{"street":"2 avenue du 11-Novembre","postalCode":"37380","city":"Saint-Laurent-en-Gâtines","country":"France"},"contacts":{"email":"mairie.st.laurent.en.gatines@wanadoo.fr","telephone":"0247296812"},"horaires":"Du Lundi au Mardi : de 14h00 à 17h00\nDu Jeudi au Vendredi : de 14h00 à 17h00\nLe Samedi : de 09h00 à 12h00","latitude":47.58708,"longitude":0.777085,"website":"http://saintlaurentengatines.fr/","hasWebsite":true,"hasHoraires":true,"url":"https://lannuaire.service-public.gouv.fr/centre-val-de-loire/indre-et-loire/f3d8d452-b9fe-407a-9d0a-4ab5f63778ad"}
{"nom":"Saint-Martin-le-Beau","nomNormalise":"saintmartinlebeau","typeCollectivite":"Commune","region":"Centre-Val de Loire","departement":"Indre-et-Loire","departementCode":"37","adresse":{"street":"1 place Marcel-Habert","postalCode":"37270","city":"Saint-Martin-le-Beau","country":"France"},"contacts":{"email":"accueil@stmartinlebeau.fr","telephone":"0247506726"},"horaires":"Du Lundi au Samedi : de 09h00 à 12h00","latitude":47.36024,"longitude":0.898811,"website":"https://www.saintmartinlebeau.fr/","hasWebsite":true,"hasHoraires":true,"url":"https://lannuaire.service-public.gouv.fr/centre-val-de-loire/indre-et-loire/896c2a52-3e78-4e48-a363-ee1ca99c2e26"}
{"nom":"Saint-Nicolas-de-Bourgueil","nomNormalise":"saintnicolasdebourgueil","typeCollectivite":"Commune","region":"Centre-Val de Loire","departement":"Indre-et-Loire","departementCode":"37","adresse":{"street":"2 rue de la Treille","postalCode":"37140","city":"Saint-Nicolas-de-Bourgueil","country":"France"},"contacts":{"email":"contact@saint-nicolas-de-bourgueil.fr","telephone":"0247977516"},"horaires":"Le Lundi : de 08h45 à 12h15 de 13h30 à 17h00\nDu Mardi au Jeudi : de 08h45 à 12h15\nLe Vendredi : de 08h45 à 12h15 de 13h30 à 17h00","latitude":47.285526,"longitude":0.1250873,"website":"http://www.saint-nicolas-de-bourgueil.fr/","hasWebsite":true,"hasHoraires":true,"url":"https://lannuaire.service-public.gouv.fr/centre-val-de-loire/indre-et-loire/7399ed36-979b-41af-a3fe-38d7e1a66e65"}
{"nom":"Saint-Nicolas-des-Motets","nomNormalise":"saintnicolasdesmotets","typeCollectivite":"Commune","region":"Centre-Val de Loire","departement":"Indre-et-Loire","departementCode":"37","adresse":{"street":"8 rue de Touraine","postalCode":"37110","city":"Saint-Nicolas-des-Motets","country":"France"},"contacts":{"email":"mairie@saintnicolasdesmotets.fr","telephone":"0247296520"},"horaires":"Le Lundi : de 13h30 à 17h00\nLe Jeudi : de 13h30 à 17h00","latitude":47.5855,"longitude":1.03714,"website":"http://www.saint-nicolas-des-motets.fr/","hasWebsite":true,"hasHoraires":true,"url":"https://lannuaire.service-public.gouv.fr/centre-val-de-loire/indre-et-loire/8c9966d9-1844-4d45-a21c-4d7247c3bf44"}
{"nom":"Saint-Ouen-les-Vignes","nomNormalise":"saintouenlesvignes","typeCollectivite":"Commune","region":"Centre-Val de Loire","departement":"Indre-et-Loire","departementCode":"37","adresse":{"street":"4 place de l'Église","postalCode":"37530","city":"Saint-Ouen-les-Vignes","country":"France"},"contacts":{"email":"mairie@saint-ouen-les-vignes.fr","telephone":"0247301887"},"horaires":"Le Lundi : de 14h00 à 17h30\nLe Mardi : de 08h00 à 12h00\nDu Jeudi au Samedi : de 08h00 à 12h00","latitude":47.468548,"longitude":0.994221,"website":"https://www.saint-ouen-les-vignes.fr/","hasWebsite":true,"hasHoraires":true,"url":"https://lannuaire.service-public.gouv.fr/centre-val-de-loire/indre-et-loire/04d81957-30c0-42d5-8339-229fefb0b167"}
{"nom":"Saint-Paterne-Racan","nomNormalise":"saintpaterneracan","typeCollectivite":"Commune","region":"Centre-Val de Loire","departement":"Indre-et-Loire","departementCode":"37","adresse":{"street":"30 rue de la Gare","postalCode":"37370","city":"Saint-Paterne-Racan","country":"France"},"contacts":{"email":"mairie.accueil@stpaterneracan.fr","telephone":"0247293087"},"horaires":"Du Lundi au Samedi : de 10h00 à 12h00","latitude":47.603024,"longitude":0.481293,"website":"https://www.stpaterneracan.fr/","hasWebsite":true,"hasHoraires":true,"url":"https://lannuaire.service-public.gouv.fr/centre-val-de-loire/indre-et-loire/f1e6b120-b895-44dc-a974-b3eb88521b84"}
{"nom":"Saint-Pierre-des-Corps","nomNormalise":"saintpierredescorps","typeCollectivite":"Commune","region":"Centre-Val de Loire","departement":"Indre-et-Loire","departementCode":"37","adresse":{"street":"34 avenue de la République","postalCode":"37700","city":"Saint-Pierre-des-Corps","country":"France"},"contacts":{"email":"secretariatdumaire@mairiespdc.fr","telephone":"0247634343"},"horaires":"Du Lundi au Vendredi : de 08h30 à 12h30 de 13h30 à 17h00","latitude":47.38966,"longitude":0.7194985,"website":"https://www.saintpierredescorps.fr/","hasWebsite":true,"hasHoraires":true,"url":"https://lannuaire.service-public.gouv.fr/centre-val-de-loire/indre-et-loire/4f7daa2d-0129-48ba-ab83-527b9dd13d20"}
{"nom":"Saint-Quentin-sur-Indrois","nomNormalise":"saintquentinsurindrois","typeCollectivite":"Commune","region":"Centre-Val de Loire","departement":"Indre-et-Loire","departementCode":"37","adresse":{"street":"30 rue de l'Église","postalCode":"37310","city":"Saint-Quentin-sur-Indrois","country":"France"},"contacts":{"email":"mairie.stquentinsurindrois@wanadoo.fr","telephone":"0247925186"},"horaires":"Du Lundi au Mardi : de 14h00 à 17h30\nDu Jeudi au Vendredi : de 14h00 à 17h30","latitude":47.20385,"longitude":1.0235479,"website":"","hasWebsite":false,"hasHoraires":true,"url":"https://lannuaire.service-public.gouv.fr/centre-val-de-loire/indre-et-loire/72d1268d-99af-4b41-8de0-a72fda86aaaf"}
{"nom":"Saint-Règle","nomNormalise":"saintregle","typeCollectivite":"Commune","region":"Centre-Val de Loire","departement":"Indre-et-Loire","departementCode":"37","adresse":{"street":"2 place Saint-Louis","postalCode":"37530","city":"Saint-Règle","country":"France"},"contacts":{"email":"mairie@saint-regle.fr","telephone":"0247574121"},"horaires":"Le Lundi : de 15h00 à 17h00\nLe Mercredi : de 10h00 à 12h00\nLe Jeudi : de 17h00 à 19h00","latitude":47.408577,"longitude":1.052751,"website":"https://www.mairiesaintregle.fr/","hasWebsite":true,"hasHoraires":true,"url":"https://lannuaire.service-public.gouv.fr/centre-val-de-loire/indre-et-loire/ae719f60-bfb8-4f4b-824a-bca70556962e"}
{"nom":"Saint-Roch","nomNormalise":"saintroch","typeCollectivite":"Commune","region":"Centre-Val de Loire","departement":"Indre-et-Loire","departementCode":"37","adresse":{"street":"1 rue Principale","postalCode":"37390","city":"Saint-Roch","country":"France"},"contacts":{"email":"accueil.secretariat@mairiesaintroch.fr","telephone":"0247567467"},"horaires":"Le Lundi : de 09h00 à 12h00\nLe Mardi : de 09h00 à 12h00\nLe Mercredi : de 10h00 à 12h00 de 14h00 à 17h00\nLe Jeudi : de 09h00 à 12h00\nLe Vendredi : de 10h00 à 12h00 de 14h00 à 17h00","latitude":47.4462,"longitude":0.576683,"website":"https://www.saint-roch.fr/","hasWebsite":true,"hasHoraires":true,"url":"https://lannuaire.service-public.gouv.fr/centre-val-de-loire/indre-et-loire/49eca86b-3288-4982-a33f-c4e2de01ef81"}
{"nom":"Saint-Senoch","nomNormalise":"saintsenoch","typeCollectivite":"Commune","region":"Centre-Val de Loire","departement":"Indre-et-Loire","departementCode":"37","adresse":{"street":"4 place de la Mairie","postalCode":"37600","city":"Saint-Senoch","country":"France"},"contacts":{"email":"mairie@stsenoch.fr","telephone":"0247591117"},"horaires":"Le Lundi : de 14h00 à 17h00\nLe Mardi : de 09h00 à 12h00\nDu Mercredi au Vendredi : de 09h00 à 12h00 de 14h00 à 17h00","latitude":47.046375,"longitude":0.968406,"website":"https://www.mairiedesaintsenoch.fr/fr/","hasWebsite":true,"hasHoraires":true,"url":"https://lannuaire.service-public.gouv.fr/centre-val-de-loire/indre-et-loire/d09bcc9e-170c-450b-9c65-93b0038fd91b"}
{"nom":"Saunay","nomNormalise":"saunay","typeCollectivite":"Commune","region":"Centre-Val de Loire","departement":"Indre-et-Loire","departementCode":"37","adresse":{"street":"3 rue des Tilleuls","postalCode":"37110","city":"Saunay","country":"France"},"contacts":{"email":"mairie@saunay.fr","telephone":"0247295321"},"horaires":"Du Lundi au Mardi : de 13h30 à 17h00\nLe Mercredi : de 13h30 à 18h00\nLe Jeudi : de 09h00 à 12h00 de 13h30 à 17h00\nLe Vendredi : de 09h00 à 12h00","latitude":47.590996,"longitude":0.9177467,"website":"https://www.saunay.fr/","hasWebsite":true,"hasHoraires":true,"url":"https://lannuaire.service-public.gouv.fr/centre-val-de-loire/indre-et-loire/57e6c65f-0a01-430a-83b8-5f595af1a574"}
{"nom":"Savigné-sur-Lathan","nomNormalise":"savignesurlathan","typeCollectivite":"Commune","region":"Centre-Val de Loire","departement":"Indre-et-Loire","departementCode":"37","adresse":{"street":"1 A place Jacques-du-Bellay","postalCode":"37340","city":"Savigné-sur-Lathan","country":"France"},"contacts":{"email":"contact@savignesurlathan.fr","telephone":"0247242233"},"horaires":"Du Lundi au Vendredi : de 08h00 à 12h00","latitude":47.44468,"longitude":0.322607,"website":"https://www.savignesurlathan.fr/","hasWebsite":true,"hasHoraires":true,"url":"https://lannuaire.service-public.gouv.fr/centre-val-de-loire/indre-et-loire/e3d974e8-ad20-4735-bcda-21bf3f85f03e"}
{"nom":"Savigny-en-Véron","nomNormalise":"savignyenveron","typeCollectivite":"Commune","region":"Centre-Val de Loire","departement":"Indre-et-Loire","departementCode":"37","adresse":{"street":"Le Bourg","postalCode":"37420","city":"Savigny-en-Véron","country":"France"},"contacts":{"email":"secretariat@mairie-savignyenveron.fr","telephone":"0247588112"},"horaires":"Le Lundi : de 13h00 à 17h00\nLe Mardi : de 08h45 à 12h30 de 13h00 à 17h00\nLe Mercredi : de 13h00 à 17h00\nDu Jeudi au Vendredi : de 08h45 à 12h30 de 13h00 à 17h00","latitude":47.2007,"longitude":0.14413,"website":"http://www.mairie-savignyenveron.fr/","hasWebsite":true,"hasHoraires":true,"url":"https://lannuaire.service-public.gouv.fr/centre-val-de-loire/indre-et-loire/d6139ad8-5a6a-4cb8-9063-f86ebca33545"}
{"nom":"Savonnières","nomNormalise":"savonnieres","typeCollectivite":"Commune","region":"Centre-Val de Loire","departement":"Indre-et-Loire","departementCode":"37","adresse":{"street":"Rue Principale","postalCode":"37510","city":"Savonnières","country":"France"},"contacts":{"email":"mairie@savonnieres.fr","telephone":"0247435363"},"horaires":"Du Lundi au Jeudi : de 09h00 à 12h30 de 13h30 à 17h30\nLe Vendredi : de 09h00 à 12h30 de 13h30 à 17h00","latitude":47.34769,"longitude":0.5430421,"website":"http://www.savonnieres.fr/","hasWebsite":true,"hasHoraires":true,"url":"https://lannuaire.service-public.gouv.fr/centre-val-de-loire/indre-et-loire/783a408a-0bfb-4748-b9df-f1bcafe4ee2f"}
{"nom":"Sazilly","nomNormalise":"sazilly","typeCollectivite":"Commune","region":"Centre-Val de Loire","departement":"Indre-et-Loire","departementCode":"37","adresse":{"street":"16 route de Chinon","postalCode":"37220","city":"Sazilly","country":"France"},"contacts":{"email":"mairie@sazilly.fr","telephone":"0247585552"},"horaires":"Le Mardi : de 08h00 à 12h30\nLe Jeudi : de 14h00 à 18h30\nLe Vendredi : de 08h00 à 12h00","latitude":47.1315,"longitude":0.353227,"website":"","hasWebsite":false,"hasHoraires":true,"url":"https://lannuaire.service-public.gouv.fr/centre-val-de-loire/indre-et-loire/c145965f-acb3-4079-8db0-667f65d870b6"}
{"nom":"Semblançay","nomNormalise":"semblancay","typeCollectivite":"Commune","region":"Centre-Val de Loire","departement":"Indre-et-Loire","departementCode":"37","adresse":{"street":"7 place Jacques-de-Beaune","postalCode":"37360","city":"Semblançay","country":"France"},"contacts":{"email":"mairie@semblancay.fr","telephone":"0247298686"},"horaires":"Du Lundi au Mercredi : de 08h30 à 12h00 de 13h30 à 17h00\nLe Jeudi : de 08h30 à 12h00\nLe Vendredi : de 08h30 à 12h00 de 13h30 à 17h00","latitude":47.498615,"longitude":0.57948,"website":"https://www.semblancay.com/","hasWebsite":true,"hasHoraires":true,"url":"https://lannuaire.service-public.gouv.fr/centre-val-de-loire/indre-et-loire/7f625503-5408-4fdd-9e41-00d4aa9edab2"}
{"nom":"Sennevières","nomNormalise":"sennevieres","typeCollectivite":"Commune","region":"Centre-Val de Loire","departement":"Indre-et-Loire","departementCode":"37","adresse":{"street":"Place de la Mairie","postalCode":"37600","city":"Sennevières","country":"France"},"contacts":{"email":"sennevieres@orange.fr","telephone":"0247947088"},"horaires":"Du Lundi au Mardi : de 14h00 à 17h30\nLe Mercredi : de 08h30 à 12h00\n\nFermé au public le jeudi.\nLe Vendredi : de 14h00 à 17h00","latitude":47.10649,"longitude":1.1030092,"website":"","hasWebsite":false,"hasHoraires":true,"url":"https://lannuaire.service-public.gouv.fr/centre-val-de-loire/indre-et-loire/8c54574c-c781-4d66-b7b6-b75da9428535"}
{"nom":"Sepmes","nomNormalise":"sepmes","typeCollectivite":"Commune","region":"Centre-Val de Loire","departement":"Indre-et-Loire","departementCode":"37","adresse":{"street":"Place de l'Église","postalCode":"37800","city":"Sepmes","country":"France"},"contacts":{"email":"secretariat@mairie-sepmes.fr","telephone":"0247654466"},"horaires":"Du Mardi au Vendredi : de 08h30 à 12h30\nLe Samedi : de 09h00 à 12h00\n\nUniquement semaine impaire.","latitude":47.067684,"longitude":0.6751,"website":"http://www.mairiedesepmes.fr/","hasWebsite":true,"hasHoraires":true,"url":"https://lannuaire.service-public.gouv.fr/centre-val-de-loire/indre-et-loire/ee1681b0-aaf5-4540-ba17-a0b466909b06"}
{"nom":"Seuilly","nomNormalise":"seuilly","typeCollectivite":"Commune","region":"Centre-Val de Loire","departement":"Indre-et-Loire","departementCode":"37","adresse":{"street":"2 place François-Rabelais","postalCode":"37500","city":"Seuilly","country":"France"},"contacts":{"email":"mairie.seuilly@orange.fr","telephone":"0247959035"},"horaires":"Le Lundi : de 09h00 à 12h00 de 14h00 à 18h30\nLe Mardi : de 09h00 à 12h00\nDu Mercredi au Jeudi : de 09h00 à 12h00 de 14h00 à 16h00\nLe Jeudi : de 09h30 à 11h30\nLe Vendredi : de 09h00 à 12h00","latitude":47.134174,"longitude":0.171405,"website":"http://www.seuilly.fr/","hasWebsite":true,"hasHoraires":true,"url":"https://lannuaire.service-public.gouv.fr/centre-val-de-loire/indre-et-loire/a6a6a7a8-21a1-41fb-a762-9ecb5590c34e"}
{"nom":"Sonzay","nomNormalise":"sonzay","typeCollectivite":"Commune","region":"Centre-Val de Loire","departement":"Indre-et-Loire","departementCode":"37","adresse":{"street":"2 rue de la Baratière","postalCode":"37360","city":"Sonzay","country":"France"},"contacts":{"email":"accueil@sonzay.fr","telephone":"0247247019"},"horaires":"Du Lundi au Mardi : de 08h30 à 12h00\nLe Mercredi : de 08h30 à 12h00 de 14h00 à 17h30\nDu Jeudi au Vendredi : de 08h30 à 12h00","latitude":47.526,"longitude":0.440518,"website":"https://sonzay.fr/","hasWebsite":true,"hasHoraires":true,"url":"https://lannuaire.service-public.gouv.fr/centre-val-de-loire/indre-et-loire/8840d29f-6d61-4ddb-9ff0-d8c206c4d004"}
{"nom":"Sorigny","nomNormalise":"sorigny","typeCollectivite":"Commune","region":"Centre-Val de Loire","departement":"Indre-et-Loire","departementCode":"37","adresse":{"street":"28 rue Nationale","postalCode":"37250","city":"Sorigny","country":"France"},"contacts":{"email":"mairie@sorigny.fr","telephone":"0247342770"},"horaires":"Du Lundi au Vendredi : de 08h30 à 12h00 de 13h30 à 17h00","latitude":47.2418,"longitude":0.694007,"website":"https://www.sorigny.fr/","hasWebsite":true,"hasHoraires":true,"url":"https://lannuaire.service-public.gouv.fr/centre-val-de-loire/indre-et-loire/27310017-102f-43cb-bd9c-14e5c8447756"}
{"nom":"Souvigné","nomNormalise":"souvigne","typeCollectivite":"Commune","region":"Centre-Val de Loire","departement":"Indre-et-Loire","departementCode":"37","adresse":{"street":"1 rue de la Mairie","postalCode":"37330","city":"Souvigné","country":"France"},"contacts":{"email":"accueil@mairie-souvigne.fr","telephone":"0247247302"},"horaires":"Le Lundi : de 09h00 à 12h00\nLe Mercredi : de 09h00 à 12h00\nDu Jeudi au Vendredi : de 09h00 à 12h00","latitude":47.52007,"longitude":0.3986953,"website":"https://www.souvigne37.fr/","hasWebsite":true,"hasHoraires":true,"url":"https://lannuaire.service-public.gouv.fr/centre-val-de-loire/indre-et-loire/c5fe1361-b54b-4d2b-9a1e-a48ef3ff966a"}
{"nom":"Souvigny-de-Touraine","nomNormalise":"souvignydetouraine","typeCollectivite":"Commune","region":"Centre-Val de Loire","departement":"Indre-et-Loire","departementCode":"37","adresse":{"street":"3 rue Nationale","postalCode":"37530","city":"Souvigny-de-Touraine","country":"France"},"contacts":{"email":"mairie@souvignydetouraine.fr","telephone":"0247572706"},"horaires":"Du Mercredi au Vendredi : de 16h00 à 18h00","latitude":47.412006,"longitude":1.090104,"website":"https://www.souvignydetouraine.fr/","hasWebsite":true,"hasHoraires":true,"url":"https://lannuaire.service-public.gouv.fr/centre-val-de-loire/indre-et-loire/5f4be462-b1c0-4215-8ca9-a134aae8734e"}
{"nom":"Sublaines","nomNormalise":"sublaines","typeCollectivite":"Commune","region":"Centre-Val de Loire","departement":"Indre-et-Loire","departementCode":"37","adresse":{"street":"2 rue du 8-Mai-1945","postalCode":"37310","city":"Sublaines","country":"France"},"contacts":{"email":"mairie@sublaines.fr","telephone":"0247578511"},"horaires":"Le Mardi : de 14h00 à 17h00\nLe Vendredi : de 14h00 à 17h00","latitude":47.2646,"longitude":0.990635,"website":"","hasWebsite":false,"hasHoraires":true,"url":"https://lannuaire.service-public.gouv.fr/centre-val-de-loire/indre-et-loire/ec3dcdbc-2bac-4de5-b4ec-f623af90ae35"}
{"nom":"Tauxigny-Saint-Bauld","nomNormalise":"tauxignysaintbauld","typeCollectivite":"Commune","region":"Centre-Val de Loire","departement":"Indre-et-Loire","departementCode":"37","adresse":{"street":"Place de la Mairie","postalCode":"37310","city":"Tauxigny-Saint-Bauld","country":"France"},"contacts":{"email":"mairie@tauxignysaintbauld.fr","telephone":"0247921802"},"horaires":"Du Lundi au Mardi : de 14h00 à 18h00\nLe Mercredi : de 16h00 à 18h00\nLe Jeudi : de 14h00 à 18h00\nLe Vendredi : de 09h30 à 12h00 de 14h00 à 18h00\nLe Samedi : de 09h30 à 12h00","latitude":47.215168,"longitude":0.834368,"website":"https://www.tauxignysaintbauld.fr/","hasWebsite":true,"hasHoraires":true,"url":"https://lannuaire.service-public.gouv.fr/centre-val-de-loire/indre-et-loire/b26709fa-4221-441c-9876-dbe9bbc5a7c6"}
{"nom":"Tavant","nomNormalise":"tavant","typeCollectivite":"Commune","region":"Centre-Val de Loire","departement":"Indre-et-Loire","departementCode":"37","adresse":{"street":"25 rue Grande","postalCode":"37220","city":"Tavant","country":"France"},"contacts":{"email":"mairie@tavant.fr","telephone":"0247585801"},"horaires":"Le Lundi : de 14h00 à 18h30\nLe Mercredi : de 10h30 à 12h30\nLe Vendredi : de 14h00 à 18h30\nAccueil fermé le 1er lundi du mois.","latitude":47.12687,"longitude":0.386479,"website":"","hasWebsite":false,"hasHoraires":true,"url":"https://lannuaire.service-public.gouv.fr/centre-val-de-loire/indre-et-loire/4f4574ab-c696-4079-a006-eb9183356a01"}
{"nom":"Theneuil","nomNormalise":"theneuil","typeCollectivite":"Commune","region":"Centre-Val de Loire","departement":"Indre-et-Loire","departementCode":"37","adresse":{"street":"2-4 rue de l'Église","postalCode":"37220","city":"Theneuil","country":"France"},"contacts":{"email":"mairiedetheneuil@wanadoo.fr","telephone":"0247585081"},"horaires":"Le Lundi : de 13h30 à 18h00\nLe Jeudi : de 08h30 à 12h00 de 13h30 à 18h00","latitude":47.097595,"longitude":0.438322,"website":"","hasWebsite":false,"hasHoraires":true,"url":"https://lannuaire.service-public.gouv.fr/centre-val-de-loire/indre-et-loire/72464f02-cf11-4264-b614-b641f9a45a16"}
{"nom":"Thilouze","nomNormalise":"thilouze","typeCollectivite":"Commune","region":"Centre-Val de Loire","departement":"Indre-et-Loire","departementCode":"37","adresse":{"street":"8 place de la Mairie","postalCode":"37260","city":"Thilouze","country":"France"},"contacts":{"email":"accueil.mairie@thilouze.fr","telephone":"0247268741"},"horaires":"Le Lundi : de 15h30 à 17h30\nLe Mardi : de 09h00 à 12h30 de 15h30 à 17h30\nLe Mercredi : de 09h30 à 12h30\nLe Jeudi : de 09h00 à 12h30 de 14h00 à 17h30\nLe Vendredi : de 09h00 à 12h30 de 15h30 à 17h30\nLe Samedi : de 09h00 à 12h00\n\nAccueil ouvert uniquement le 1e et 3e samedi de chaque mois.","latitude":47.22384,"longitude":0.579362,"website":"https://www.thilouze.fr/","hasWebsite":true,"hasHoraires":true,"url":"https://lannuaire.service-public.gouv.fr/centre-val-de-loire/indre-et-loire/b44eb65d-af8b-4dbd-aa3c-da926823f751"}
{"nom":"Thizay","nomNormalise":"thizay","typeCollectivite":"Commune","region":"Centre-Val de Loire","departement":"Indre-et-Loire","departementCode":"37","adresse":{"street":"4 rue de la Fontaine","postalCode":"37500","city":"Thizay","country":"France"},"contacts":{"email":"accueilmairie@thizay37.fr","telephone":"0247959027"},"horaires":"Le Lundi : de 14h00 à 18h00\nLe Jeudi : de 14h00 à 18h00","latitude":47.166378,"longitude":0.143065,"website":"","hasWebsite":false,"hasHoraires":true,"url":"https://lannuaire.service-public.gouv.fr/centre-val-de-loire/indre-et-loire/afb93c32-8f31-4b56-865f-8319c1394ec5"}
{"nom":"Tournon-Saint-Pierre","nomNormalise":"tournonsaintpierre","typeCollectivite":"Commune","region":"Centre-Val de Loire","departement":"Indre-et-Loire","departementCode":"37","adresse":{"street":"2 place du 11-Novembre","postalCode":"37290","city":"Tournon-Saint-Pierre","country":"France"},"contacts":{"email":"mairie@tournonstpierre.fr","telephone":"0254375002"},"horaires":"Le Lundi : de 09h00 à 12h30 de 14h00 à 17h00\nLe Mardi : de 09h00 à 12h30\nLe Jeudi : de 09h00 à 12h30\nLe Vendredi : de 09h00 à 12h30 de 14h00 à 17h00\nLe Samedi : de 10h00 à 12h00","latitude":46.738457,"longitude":0.954238,"website":"http://www.tournonsaintpierre.fr/","hasWebsite":true,"hasHoraires":true,"url":"https://lannuaire.service-public.gouv.fr/centre-val-de-loire/indre-et-loire/a9d47d8b-ebdd-4450-822c-8ed02bf8a48e"}
{"nom":"Tours","nomNormalise":"tours","typeCollectivite":"Commune","region":"Centre-Val de Loire","departement":"Indre-et-Loire","departementCode":"37","adresse":{"street":"Hôtel de Ville","postalCode":"37000","city":"Tours","country":"France"},"contacts":{"email":"webmestre@ville-tours.fr","telephone":"0247216000"},"horaires":"Du Lundi au Jeudi : de 08h30 à 17h00\nLe Vendredi : de 08h30 à 16h30","latitude":47.391216,"longitude":0.6892237,"website":"https://www.tours.fr/","hasWebsite":true,"hasHoraires":true,"url":"https://lannuaire.service-public.gouv.fr/centre-val-de-loire/indre-et-loire/355c3f79-63bf-4545-838b-b3843e472e16"}
{"nom":"Trogues","nomNormalise":"trogues","typeCollectivite":"Commune","region":"Centre-Val de Loire","departement":"Indre-et-Loire","departementCode":"37","adresse":{"street":"1 route du Bourg","postalCode":"37220","city":"Trogues","country":"France"},"contacts":{"email":"mairie-trogues@wanadoo.fr","telephone":"0247585368"},"horaires":"Le Mardi : de 09h00 à 12h00 de 13h30 à 17h00\nLe Vendredi : de 09h00 à 12h00 de 13h30 à 17h00\nLe Samedi : de 09h00 à 12h00\n\nAccueil ouvert uniquement un samedi sur deux.","latitude":47.1144,"longitude":0.495785,"website":"http://www.trogues.fr/","hasWebsite":true,"hasHoraires":true,"url":"https://lannuaire.service-public.gouv.fr/centre-val-de-loire/indre-et-loire/fbfe2f0d-8e1d-48e7-8c87-875bd37d7677"}
{"nom":"Truyes","nomNormalise":"truyes","typeCollectivite":"Commune","region":"Centre-Val de Loire","departement":"Indre-et-Loire","departementCode":"37","adresse":{"street":"28 rue du Clocher","postalCode":"37320","city":"Truyes","country":"France"},"contacts":{"email":"contact@mairie-truyes.fr","telephone":"0247434081"},"horaires":"Le Lundi : de 08h30 à 12h00 de 13h30 à 18h00\nDu Mardi au Vendredi : de 08h30 à 12h00 de 16h30 à 18h00\nLe Samedi : de 08h00 à 12h00\n\nAccueil ouvert uniquement les semaines impaires.","latitude":47.27322,"longitude":0.8476618,"website":"http://www.mairie-truyes.fr/","hasWebsite":true,"hasHoraires":true,"url":"https://lannuaire.service-public.gouv.fr/centre-val-de-loire/indre-et-loire/c9e94c13-f3f2-4f79-8ede-2d6bceb409a3"}
{"nom":"Vallères","nomNormalise":"valleres","typeCollectivite":"Commune","region":"Centre-Val de Loire","departement":"Indre-et-Loire","departementCode":"37","adresse":{"street":"1 place de la Mairie","postalCode":"37190","city":"Vallères","country":"France"},"contacts":{"email":"secretariat@mairiedevalleres.fr","telephone":"0247454544"},"horaires":"Le Mardi : de 14h00 à 17h00\nLe Mercredi : de 09h00 à 12h00 de 14h00 à 17h00\nLe Jeudi : de 14h00 à 17h00\nDu Vendredi au Samedi : de 09h00 à 12h00","latitude":47.34735,"longitude":0.4615771,"website":"https://mairievalleres.wixsite.com/mairiedevalleres","hasWebsite":true,"hasHoraires":true,"url":"https://lannuaire.service-public.gouv.fr/centre-val-de-loire/indre-et-loire/e524bdbd-8afc-4811-b103-05c17492d5d9"}
{"nom":"Varennes","nomNormalise":"varennes","typeCollectivite":"Commune","region":"Centre-Val de Loire","departement":"Indre-et-Loire","departementCode":"37","adresse":{"street":"1 place de la Mairie","postalCode":"37600","city":"Varennes","country":"France"},"contacts":{"email":"mairie@varennes37.fr","telephone":"0247590432"},"horaires":"Le Lundi : de 08h00 à 12h00 de 14h00 à 17h00\nLe Mardi : de 08h00 à 12h00\nLe Jeudi : de 08h00 à 12h00 de 14h00 à 17h00\nDu Vendredi au Samedi : de 08h00 à 12h00\n\nAccueil ouvert uniquement le 1er samedi du mois.","latitude":47.069565,"longitude":0.915749,"website":"https://www.mairie-varennes37.fr/","hasWebsite":true,"hasHoraires":true,"url":"https://lannuaire.service-public.gouv.fr/centre-val-de-loire/indre-et-loire/0d621de4-17c8-4bce-8200-ab8123cb85e0"}
{"nom":"Veigné","nomNormalise":"veigne","typeCollectivite":"Commune","region":"Centre-Val de Loire","departement":"Indre-et-Loire","departementCode":"37","adresse":{"street":"2 place du Maréchal-Leclerc","postalCode":"37250","city":"Veigné","country":"France"},"contacts":{"email":"lemaire@veigne.fr","telephone":"0247343636"},"horaires":"Du Lundi au Mercredi : de 08h30 à 12h00 de 13h00 à 17h00\nLe Jeudi : de 13h00 à 17h00\nLe Vendredi : de 08h30 à 12h00 de 13h00 à 17h00\nLe Samedi : de 10h00 à 12h00\n\nAccueil ouvert uniquement le 1er et 3e samedi du mois.","latitude":47.287212,"longitude":0.7370372,"website":"http://www.mairie-veigne.com/","hasWebsite":true,"hasHoraires":true,"url":"https://lannuaire.service-public.gouv.fr/centre-val-de-loire/indre-et-loire/2643d28e-6460-465b-9aeb-ccf649188d9c"}
{"nom":"Véretz","nomNormalise":"veretz","typeCollectivite":"Commune","region":"Centre-Val de Loire","departement":"Indre-et-Loire","departementCode":"37","adresse":{"street":"Rue Moreau-Vincent","postalCode":"37270","city":"Véretz","country":"France"},"contacts":{"email":"mairie@veretz.com","telephone":"0247357000"},"horaires":"Du Lundi au Mercredi : de 09h00 à 12h30 de 14h00 à 17h30\nLe Jeudi : de 09h00 à 12h30\nLe Vendredi : de 09h00 à 12h30 de 14h00 à 17h30","latitude":47.359,"longitude":0.805542,"website":"https://www.veretz.com/","hasWebsite":true,"hasHoraires":true,"url":"https://lannuaire.service-public.gouv.fr/centre-val-de-loire/indre-et-loire/19d4ef49-08a3-45f7-9967-44c1424c925d"}
{"nom":"Verneuil-le-Château","nomNormalise":"verneuillechateau","typeCollectivite":"Commune","region":"Centre-Val de Loire","departement":"Indre-et-Loire","departementCode":"37","adresse":{"street":"1 rue de Richelieu","postalCode":"37120","city":"Verneuil-le-Château","country":"France"},"contacts":{"email":"verneuil.mairie@wanadoo.fr","telephone":"0965101851"},"horaires":"Du Lundi au Mardi : de 09h00 à 12h00 de 13h30 à 17h30\nLe Vendredi : de 09h00 à 12h00","latitude":47.0396,"longitude":0.459064,"website":"https://www.verneuillechateau.fr/fr/","hasWebsite":true,"hasHoraires":true,"url":"https://lannuaire.service-public.gouv.fr/centre-val-de-loire/indre-et-loire/e5ce6207-aca3-4ac4-8a14-e6c29c448131"}
{"nom":"Verneuil-sur-Indre","nomNormalise":"verneuilsurindre","typeCollectivite":"Commune","region":"Centre-Val de Loire","departement":"Indre-et-Loire","departementCode":"37","adresse":{"street":"1 place de la Mairie","postalCode":"37600","city":"Verneuil-sur-Indre","country":"France"},"contacts":{"email":"verneuil-sur-indre@orange.fr","telephone":"0247947108"},"horaires":"Le Lundi : de 14h00 à 16h30\nDu Mardi au Mercredi : de 09h00 à 12h00\nLe Jeudi : de 14h00 à 16h30\nLe Vendredi : de 09h00 à 12h00 de 14h00 à 16h30","latitude":47.05572,"longitude":1.041311,"website":"https://www.verneuil-sur-indre.fr/fr/","hasWebsite":true,"hasHoraires":true,"url":"https://lannuaire.service-public.gouv.fr/centre-val-de-loire/indre-et-loire/20ea4283-1837-4bc4-a3af-0f36c31de098"}
{"nom":"Vernou-sur-Brenne","nomNormalise":"vernousurbrenne","typeCollectivite":"Commune","region":"Centre-Val de Loire","departement":"Indre-et-Loire","departementCode":"37","adresse":{"street":"1 rue Anatole-France","postalCode":"37210","city":"Vernou-sur-Brenne","country":"France"},"contacts":{"email":"accueil@vernou-sur-brenne.fr","telephone":"0247521035"},"horaires":"Le Lundi : de 09h00 à 12h00\nDu Mardi au Mercredi : de 09h00 à 12h00 de 14h00 à 17h00\nLe Jeudi : de 09h00 à 12h00\nLe Vendredi : de 09h00 à 12h00 de 14h00 à 17h00","latitude":47.4211,"longitude":0.845604,"website":"http://www.vernou-sur-brenne.fr/","hasWebsite":true,"hasHoraires":true,"url":"https://lannuaire.service-public.gouv.fr/centre-val-de-loire/indre-et-loire/49f54d2e-6468-43eb-8c4f-af3310b7ba2c"}
{"nom":"Villaines-les-Rochers","nomNormalise":"villaineslesrochers","typeCollectivite":"Commune","region":"Centre-Val de Loire","departement":"Indre-et-Loire","departementCode":"37","adresse":{"street":"6 place de la Mairie","postalCode":"37190","city":"Villaines-les-Rochers","country":"France"},"contacts":{"email":"mairie-villaines-37@orange.fr","telephone":"0247454308"},"horaires":"Du Lundi au Mercredi : de 09h00 à 12h30\nLe Vendredi : de 09h00 à 12h00","latitude":47.218975,"longitude":0.497731,"website":"","hasWebsite":false,"hasHoraires":true,"url":"https://lannuaire.service-public.gouv.fr/centre-val-de-loire/indre-et-loire/6be5bf43-991e-42fd-a8af-d89ce91cc5dd"}
{"nom":"Villandry","nomNormalise":"villandry","typeCollectivite":"Commune","region":"Centre-Val de Loire","departement":"Indre-et-Loire","departementCode":"37","adresse":{"street":"2 rue de Munat","postalCode":"37510","city":"Villandry","country":"France"},"contacts":{"email":"accueil@villandry.fr","telephone":"0247500208"},"horaires":"Le Lundi : de 14h30 à 19h00\nDu Mardi au Vendredi : de 14h30 à 18h00","latitude":47.338375,"longitude":0.5108409,"website":"http://www.villandry.fr/","hasWebsite":true,"hasHoraires":true,"url":"https://lannuaire.service-public.gouv.fr/centre-val-de-loire/indre-et-loire/583f34f7-daa0-4f0a-8a0e-fb5c1b18cab7"}
{"nom":"Villebourg","nomNormalise":"villebourg","typeCollectivite":"Commune","region":"Centre-Val de Loire","departement":"Indre-et-Loire","departementCode":"37","adresse":{"street":"3 rue du 14 Juillet","postalCode":"37370","city":"Villebourg","country":"France"},"contacts":{"email":"mairie.villebourg@orange.fr","telephone":"0247244425"},"horaires":"Le Mardi : de 09h00 à 12h00\nLe Mercredi : de 09h00 à 10h30\nLe Vendredi : de 13h15 à 16h00","latitude":47.64906,"longitude":0.52906,"website":"","hasWebsite":false,"hasHoraires":true,"url":"https://lannuaire.service-public.gouv.fr/centre-val-de-loire/indre-et-loire/d17f85d3-b23d-48cd-a13b-a4e9a0689a46"}
{"nom":"Villedômain","nomNormalise":"villedomain","typeCollectivite":"Commune","region":"Centre-Val de Loire","departement":"Indre-et-Loire","departementCode":"37","adresse":{"street":"4 route de Châtillon","postalCode":"37460","city":"Villedômain","country":"France"},"contacts":{"email":"commune.villedomain.com@orange.fr","telephone":"0247926265"},"horaires":"Du Lundi au Mardi : de 08h30 à 12h00\nDu Jeudi au Vendredi : de 08h30 à 12h00\n\nAccueil fermé le 2e jeudi du mois.","latitude":47.054634,"longitude":1.256654,"website":"http://www.villedomain.com/","hasWebsite":true,"hasHoraires":true,"url":"https://lannuaire.service-public.gouv.fr/centre-val-de-loire/indre-et-loire/3c9311fb-99a7-4dbe-b5a0-8f779768add2"}
{"nom":"Villedômer","nomNormalise":"villedomer","typeCollectivite":"Commune","region":"Centre-Val de Loire","departement":"Indre-et-Loire","departementCode":"37","adresse":{"street":"Place des Martyrs-de-la-Résistance","postalCode":"37110","city":"Villedômer","country":"France"},"contacts":{"email":"mairie@villedomer.fr","telephone":"0247550004"},"horaires":"Du Lundi au Mardi : de 08h30 à 12h30 de 14h00 à 17h30\nLe Mercredi : de 08h30 à 12h30\nLe Jeudi : de 08h30 à 12h30 de 14h00 à 17h30\nLe Vendredi : de 08h30 à 12h30 de 14h00 à 17h00","latitude":47.545773,"longitude":0.888592,"website":"http://www.villedomer.fr/","hasWebsite":true,"hasHoraires":true,"url":"https://lannuaire.service-public.gouv.fr/centre-val-de-loire/indre-et-loire/00a2972c-72be-4864-87bc-90bf0d674de9"}
{"nom":"Villeloin-Coulangé","nomNormalise":"villeloincoulange","typeCollectivite":"Commune","region":"Centre-Val de Loire","departement":"Indre-et-Loire","departementCode":"37","adresse":{"street":"16 rue Bernard-de-Lattre","postalCode":"37460","city":"Villeloin-Coulangé","country":"France"},"contacts":{"email":"mairie.villeloin@wanadoo.fr","telephone":"0247926119"},"horaires":"Du Lundi au Mardi : de 09h00 à 12h30\nLe Jeudi : de 09h00 à 12h30\nLe Vendredi : de 09h00 à 12h30 de 14h00 à 17h30","latitude":47.0929,"longitude":1.22066,"website":"https://www.villeloin-coulange.fr/","hasWebsite":true,"hasHoraires":true,"url":"https://lannuaire.service-public.gouv.fr/centre-val-de-loire/indre-et-loire/7731f5ed-a9fc-4fde-9b08-ba9f1fbe142b"}
{"nom":"Villeperdue","nomNormalise":"villeperdue","typeCollectivite":"Commune","region":"Centre-Val de Loire","departement":"Indre-et-Loire","departementCode":"37","adresse":{"street":"10 rue de la Mairie","postalCode":"37260","city":"Villeperdue","country":"France"},"contacts":{"email":"mairie@villeperdue.fr","telephone":"0247260807"},"horaires":"Le Mardi : de 09h00 à 12h00 de 13h30 à 17h00\nLe Mercredi : de 09h00 à 12h00\nDu Jeudi au Vendredi : de 09h00 à 12h00 de 13h30 à 17h00\nLe Samedi : de 09h00 à 12h00","latitude":47.200947,"longitude":0.6327305,"website":"http://www.villeperdue.fr/","hasWebsite":true,"hasHoraires":true,"url":"https://lannuaire.service-public.gouv.fr/centre-val-de-loire/indre-et-loire/0fe0458f-323f-4aa0-95b3-5b4062dfe1a0"}
{"nom":"Villiers-au-Bouin","nomNormalise":"villiersaubouin","typeCollectivite":"Commune","region":"Centre-Val de Loire","departement":"Indre-et-Loire","departementCode":"37","adresse":{"street":"2 Rue des Écoles","postalCode":"37330","city":"Villiers-au-Bouin","country":"France"},"contacts":{"email":"contact@mairievilliersaubouin.fr","telephone":"0247240371"},"horaires":"Du Lundi au Jeudi : de 14h00 à 18h00\nLe Vendredi : de 09h00 à 12h00","latitude":47.5744,"longitude":0.313258,"website":"","hasWebsite":false,"hasHoraires":true,"url":"https://lannuaire.service-public.gouv.fr/centre-val-de-loire/indre-et-loire/6d1da9d6-6c8e-42d1-904d-811129cd57ae"}
{"nom":"Vou","nomNormalise":"vou","typeCollectivite":"Commune","region":"Centre-Val de Loire","departement":"Indre-et-Loire","departementCode":"37","adresse":{"street":"1 place Saint-Pierre-es-Liens","postalCode":"37240","city":"Vou","country":"France"},"contacts":{"email":"accueil@vou37.fr","telephone":"0247596331"},"horaires":"Du Lundi au Mardi : de 09h00 à 12h30 de 13h30 à 16h30\nLe Jeudi : de 09h00 à 12h30 de 13h30 à 16h30","latitude":47.08524,"longitude":0.8589828,"website":"","hasWebsite":false,"hasHoraires":true,"url":"https://lannuaire.service-public.gouv.fr/centre-val-de-loire/indre-et-loire/9921b00c-b5bc-4125-bf6e-4122938b8bea"}
{"nom":"Vouvray","nomNormalise":"vouvray","typeCollectivite":"Commune","region":"Centre-Val de Loire","departement":"Indre-et-Loire","departementCode":"37","adresse":{"street":"1 rue Léon-Gambetta","postalCode":"37210","city":"Vouvray","country":"France"},"contacts":{"email":"mairie@vouvray.fr","telephone":"0247527048"},"horaires":"Du Lundi au Mardi : de 13h30 à 17h00\nLe Mercredi : de 08h30 à 12h30 de 13h30 à 17h00\nLe Jeudi : de 08h30 à 12h30\nLe Vendredi : de 08h30 à 12h30 de 13h30 à 17h00","latitude":47.4125,"longitude":0.799286,"website":"http://www.vouvray.fr/","hasWebsite":true,"hasHoraires":true,"url":"https://lannuaire.service-public.gouv.fr/centre-val-de-loire/indre-et-loire/f86a0abe-4d16-43d3-939b-0b32935e2b5b"}
{"nom":"Yzeures-sur-Creuse","nomNormalise":"yzeuressurcreuse","typeCollectivite":"Commune","region":"Centre-Val de Loire","departement":"Indre-et-Loire","departementCode":"37","adresse":{"street":"8 place Mado-Robin","postalCode":"37290","city":"Yzeures-sur-Creuse","country":"France"},"contacts":{"email":"mairie@yzeuressurcreuse.fr","telephone":"0247945501"},"horaires":"Le Lundi : de 09h00 à 12h00 de 14h00 à 17h00\nLe Mardi : de 09h00 à 12h00\nDu Mercredi au Jeudi : de 09h00 à 12h00 de 14h00 à 17h00\nLe Vendredi : de 09h00 à 12h00 de 14h00 à 16h00\nLe Samedi : de 09h30 à 12h00\n\nOuvert uniquement le 1er et le 3e samedi du mois.","latitude":46.78509,"longitude":0.8696367,"website":"","hasWebsite":false,"hasHoraires":true,"url":"https://lannuaire.service-public.gouv.fr/centre-val-de-loire/indre-et-loire/9129ed3b-4510-49d9-a9e6-db2d6b8f9b6f"}
