{"nom":"Ambloy","nomNormalise":"ambloy","typeCollectivite":"Commune","region":"Centre-Val de Loire","departement":"Loir-et-Cher","departementCode":"41","adresse":{"street":"1045 route de la Liberté","postalCode":"41310","city":"Ambloy","country":"France"},"contacts":{"email":"mairie.ambloy@wanadoo.fr","telephone":"0254828111"},"horaires":"Le Lundi : de 10h00 à 12h00\nLe Jeudi : de 10h00 à 12h00","latitude":47.712723,"longitude":0.965193,"website":"","hasWebsite":false,"hasHoraires":true,"url":"https://lannuaire.service-public.gouv.fr/centre-val-de-loire/loir-et-cher/c163cd5a-cc70-438f-a182-3bf89d5e6a67"}
{"nom":"Angé","nomNormalise":"ange","typeCollectivite":"Commune","region":"Centre-Val de Loire","departement":"Loir-et-Cher","departementCode":"41","adresse":{"street":"10 place de la Mairie","postalCode":"41400","city":"Angé","country":"France"},"contacts":{"email":"secretariat@mairieange.fr","telephone":"0254320537"},"horaires":"Du Lundi au Vendredi : de 09h00 à 12h00","latitude":47.3321,"longitude":1.2432,"website":"https://www.mairie-ange.com/","hasWebsite":true,"hasHoraires":true,"url":"https://lannuaire.service-public.gouv.fr/centre-val-de-loire/loir-et-cher/217c5d7d-e2ff-4dc3-80d0-7588a2f9d8f5"}
{"nom":"Areines","nomNormalise":"areines","typeCollectivite":"Commune","region":"Centre-Val de Loire","departement":"Loir-et-Cher","departementCode":"41","adresse":{"street":"32 rue de la Vallée-du-Loir","postalCode":"41100","city":"Areines","country":"France"},"contacts":{"email":"mairie.areines@wanadoo.fr","telephone":"0254772216"},"horaires":"Le Lundi : de 09h00 à 12h00\nDu Jeudi au Vendredi : de 09h00 à 12h00","latitude":47.802315,"longitude":1.0938786,"website":"https://mairieareines.wixsite.com/commune-areines","hasWebsite":true,"hasHoraires":true,"url":"https://lannuaire.service-public.gouv.fr/centre-val-de-loire/loir-et-cher/70df335d-e817-408e-b977-d64364f92219"}
{"nom":"Artins","nomNormalise":"artins","typeCollectivite":"Commune","region":"Centre-Val de Loire","departement":"Loir-et-Cher","departementCode":"41","adresse":{"street":"13 rue du Plat-d'Étain","postalCode":"41800","city":"Artins","country":"France"},"contacts":{"email":"mairie.artins@wanadoo.fr","telephone":"0254724675"},"horaires":"Le Mardi : de 14h30 à 17h30\nLe Vendredi : de 14h30 à 17h30","latitude":47.744816,"longitude":0.739315,"website":"","hasWebsite":false,"hasHoraires":true,"url":"https://lannuaire.service-public.gouv.fr/centre-val-de-loire/loir-et-cher/09a4b090-3b1d-4b38-8f08-62fd4f745b09"}
{"nom":"Mairie déléguée - Arville","nomNormalise":"mairiedelegueearville","typeCollectivite":"Commune","region":"Centre-Val de Loire","departement":"Loir-et-Cher","departementCode":"41","adresse":{"street":"Arville","postalCode":"41170","city":"Couëtron-au-Perche","country":"France"},"contacts":{"email":"mairie@couetronauperche.fr","telephone":"0254808638"},"horaires":"Le Lundi : de 14h00 à 17h00","latitude":48.06351,"longitude":0.947062,"website":"https://www.couetronauperche.fr/","hasWebsite":true,"hasHoraires":true,"url":"https://lannuaire.service-public.gouv.fr/centre-val-de-loire/loir-et-cher/82bd6114-542b-4f52-9df9-5e94131e57d3"}
{"nom":"Autainville","nomNormalise":"autainville","typeCollectivite":"Commune","region":"Centre-Val de Loire","departement":"Loir-et-Cher","departementCode":"41","adresse":{"street":"8 rue de la Mairie","postalCode":"41240","city":"Autainville","country":"France"},"contacts":{"email":"mairie.autainville@orange.fr","telephone":"0963546712"},"horaires":"Le Lundi : de 08h30 à 12h00 de 13h30 à 16h30\nLe Mardi : de 08h30 à 12h00 de 13h30 à 17h30\nLe Mercredi : de 09h00 à 12h00\nLe Jeudi : de 08h30 à 12h00 de 13h30 à 17h30\nLe Vendredi : de 08h30 à 12h00 de 13h30 à 16h30","latitude":47.8813,"longitude":1.41618,"website":"https://www.autainville.com/","hasWebsite":true,"hasHoraires":true,"url":"https://lannuaire.service-public.gouv.fr/centre-val-de-loire/loir-et-cher/1033b4c6-683f-4df4-bf02-bec3f4813db5"}
{"nom":"Authon","nomNormalise":"authon","typeCollectivite":"Commune","region":"Centre-Val de Loire","departement":"Loir-et-Cher","departementCode":"41","adresse":{"street":"1 place de la Mairie","postalCode":"41310","city":"Authon","country":"France"},"contacts":{"email":"mairie.authon@wanadoo.fr","telephone":"0254803343"},"horaires":"Le Lundi : de 14h00 à 17h00\nLe Mardi : de 10h00 à 11h45\nLe Mercredi : de 10h00 à 11h45 de 15h00 à 17h00\nLe Jeudi : de 10h00 à 11h45 de 14h00 à 17h00\nLe Vendredi : de 15h00 à 17h00","latitude":47.645008,"longitude":0.8946191,"website":"https://authon.fr/","hasWebsite":true,"hasHoraires":true,"url":"https://lannuaire.service-public.gouv.fr/centre-val-de-loire/loir-et-cher/84edf57b-cdc6-4298-98f6-89358cb85fbd"}
{"nom":"Avaray","nomNormalise":"avaray","typeCollectivite":"Commune","region":"Centre-Val de Loire","departement":"Loir-et-Cher","departementCode":"41","adresse":{"street":"35 Grande rue","postalCode":"41500","city":"Avaray","country":"France"},"contacts":{"email":"contact@avaray41.fr","telephone":"0254810415"},"horaires":"Le Lundi : de 14h00 à 17h00\nLe Jeudi : de 09h00 à 12h00 de 14h00 à 17h00\nLe Vendredi : de 14h00 à 17h30","latitude":47.7232,"longitude":1.55987,"website":"https://www.avaray41.fr/","hasWebsite":true,"hasHoraires":true,"url":"https://lannuaire.service-public.gouv.fr/centre-val-de-loire/loir-et-cher/cfda34be-45b0-4298-a4c7-af2c7a992933"}
{"nom":"Averdon","nomNormalise":"averdon","typeCollectivite":"Commune","region":"Centre-Val de Loire","departement":"Loir-et-Cher","departementCode":"41","adresse":{"street":"2 place de la Mairie","postalCode":"41330","city":"Averdon","country":"France"},"contacts":{"email":"mairie.averdon@wanadoo.fr","telephone":"0254201659"},"horaires":"Le Lundi : de 14h00 à 18h30\nLe Jeudi : de 14h00 à 18h30","latitude":47.684437,"longitude":1.294593,"website":"https://www.averdon.fr/","hasWebsite":true,"hasHoraires":true,"url":"https://lannuaire.service-public.gouv.fr/centre-val-de-loire/loir-et-cher/0200ce10-5f98-4540-bb1c-4abb3104a65c"}
{"nom":"Azé","nomNormalise":"aze","typeCollectivite":"Commune","region":"Centre-Val de Loire","departement":"Loir-et-Cher","departementCode":"41","adresse":{"street":"9 rue Galette","postalCode":"41100","city":"Azé","country":"France"},"contacts":{"email":"mairie.aze@wanadoo.fr","telephone":"0254720108"},"horaires":"Le Lundi : de 14h00 à 17h30\nLe Mardi : de 16h00 à 19h00\nLe Mercredi : de 09h00 à 12h00\nDu Vendredi au Samedi : de 09h00 à 12h00","latitude":47.850586,"longitude":0.996344,"website":"https://www.aze-41.fr/","hasWebsite":true,"hasHoraires":true,"url":"https://lannuaire.service-public.gouv.fr/centre-val-de-loire/loir-et-cher/4648e9c4-e510-4c5b-94a4-568a272599f4"}
{"nom":"Mairie déléguée - Baigneaux","nomNormalise":"mairiedelegueebaigneaux","typeCollectivite":"Commune","region":"Centre-Val de Loire","departement":"Loir-et-Cher","departementCode":"41","adresse":{"street":"Baigneaux","postalCode":"41290","city":"Oucques La Nouvelle","country":"France"},"contacts":{"email":"baigneaux@oucqueslanouvelle.fr","telephone":"0254230387"},"horaires":"Le Mercredi : de 09h00 à 12h00","latitude":47.782623,"longitude":1.254047,"website":"https://www.oucqueslanouvelle.fr/","hasWebsite":true,"hasHoraires":true,"url":"https://lannuaire.service-public.gouv.fr/centre-val-de-loire/loir-et-cher/93b98318-3f63-4ae4-94c0-975f1e720191"}
{"nom":"Baillou","nomNormalise":"baillou","typeCollectivite":"Commune","region":"Centre-Val de Loire","departement":"Loir-et-Cher","departementCode":"41","adresse":{"street":"1 place de la Mairie","postalCode":"41170","city":"Baillou","country":"France"},"contacts":{"email":"mairiebaillou@wanadoo.fr","telephone":"0254808123"},"horaires":"Le Mardi : de 15h00 à 18h30\nLe Vendredi : de 15h00 à 18h00","latitude":47.9672,"longitude":0.841936,"website":"","hasWebsite":false,"hasHoraires":true,"url":"https://lannuaire.service-public.gouv.fr/centre-val-de-loire/loir-et-cher/96e7300d-ebff-4590-b670-44fd86efb76e"}
{"nom":"Bauzy","nomNormalise":"bauzy","typeCollectivite":"Commune","region":"Centre-Val de Loire","departement":"Loir-et-Cher","departementCode":"41","adresse":{"street":"1 route de Neuvy","postalCode":"41250","city":"Bauzy","country":"France"},"contacts":{"email":"mairie@bauzy.fr","telephone":"0254464193"},"horaires":"Le Lundi : de 10h00 à 12h00\nLe Vendredi : de 17h00 à 19h00","latitude":47.5547,"longitude":1.55253,"website":"https://www.bauzy.fr/","hasWebsite":true,"hasHoraires":true,"url":"https://lannuaire.service-public.gouv.fr/centre-val-de-loire/loir-et-cher/6308a74c-d781-4af1-b132-b688d476b8e7"}
{"nom":"Beauce-la-Romaine","nomNormalise":"beaucelaromaine","typeCollectivite":"Commune","region":"Centre-Val de Loire","departement":"Loir-et-Cher","departementCode":"41","adresse":{"street":"Ouzouer-le-Marché","postalCode":"41240","city":"Beauce-la-Romaine","country":"France"},"contacts":{"email":"mairie@beaucelaromaine.fr","telephone":"0254824004"},"horaires":"Le Lundi : de 09h00 à 12h30 de 14h00 à 17h00\nLe Mardi : de 09h00 à 12h30\nLe Mercredi : de 09h00 à 12h30 de 14h00 à 17h00\nLe Jeudi : de 09h00 à 12h30\nLe Vendredi : de 09h00 à 12h30 de 14h00 à 17h00","latitude":47.9091,"longitude":1.52766,"website":"http://www.beaucelaromaine.fr/","hasWebsite":true,"hasHoraires":true,"url":"https://lannuaire.service-public.gouv.fr/centre-val-de-loire/loir-et-cher/780e740d-d937-470a-93c5-d3a4f53bcd82"}
{"nom":"Beauchêne","nomNormalise":"beauchene","typeCollectivite":"Commune","region":"Centre-Val de Loire","departement":"Loir-et-Cher","departementCode":"41","adresse":{"street":"5 route de Danzé","postalCode":"41170","city":"Beauchêne","country":"France"},"contacts":{"email":"mairie.beauchene41170@orange.fr","telephone":"0254809454"},"horaires":"Le Mercredi : de 09h30 à 12h30\nLe Vendredi : de 14h00 à 17h00","latitude":47.94059,"longitude":0.9673918,"website":"","hasWebsite":false,"hasHoraires":true,"url":"https://lannuaire.service-public.gouv.fr/centre-val-de-loire/loir-et-cher/9f248fae-9ac0-4e71-97f4-19487c136562"}
{"nom":"Mairie déléguée - Beauvilliers","nomNormalise":"mairiedelegueebeauvilliers","typeCollectivite":"Commune","region":"Centre-Val de Loire","departement":"Loir-et-Cher","departementCode":"41","adresse":{"street":"Beauvilliers","postalCode":"41290","city":"Oucques la Nouvelle","country":"France"},"contacts":{"email":"mairie.beauvilliers@wanadoo.fr","telephone":"0254230167"},"horaires":"Le Jeudi : de 09h00 à 10h00\n\nSemaine impaire.","latitude":47.838177,"longitude":1.254587,"website":"https://www.oucqueslanouvelle.fr/","hasWebsite":true,"hasHoraires":true,"url":"https://lannuaire.service-public.gouv.fr/centre-val-de-loire/loir-et-cher/8021ed57-ba70-44f0-a8cd-de69f4075917"}
{"nom":"Billy","nomNormalise":"billy","typeCollectivite":"Commune","region":"Centre-Val de Loire","departement":"Loir-et-Cher","departementCode":"41","adresse":{"street":"2 place de l'Église","postalCode":"41130","city":"Billy","country":"France"},"contacts":{"email":"mairie@billy41.fr","telephone":"0254974411"},"horaires":"Le Mardi : de 09h00 à 12h30\nLe Mercredi : de 09h00 à 12h30 de 14h00 à 17h00\nLe Jeudi : de 09h00 à 12h30\nLe Vendredi : de 09h00 à 12h30 de 14h00 à 17h00","latitude":47.31137,"longitude":1.538535,"website":"","hasWebsite":false,"hasHoraires":true,"url":"https://lannuaire.service-public.gouv.fr/centre-val-de-loire/loir-et-cher/0af14eb0-5ddf-4346-a921-20e6fc422aa6"}
{"nom":"Binas","nomNormalise":"binas","typeCollectivite":"Commune","region":"Centre-Val de Loire","departement":"Loir-et-Cher","departementCode":"41","adresse":{"street":"1 place Saint-Maurice","postalCode":"41240","city":"Binas","country":"France"},"contacts":{"email":"mairie.binas@wanadoo.fr","telephone":"0254824458"},"horaires":"Du Lundi au Mardi : de 14h00 à 17h00\nLe Vendredi : de 14h00 à 18h30","latitude":47.904057,"longitude":1.46127,"website":"","hasWebsite":false,"hasHoraires":true,"url":"https://lannuaire.service-public.gouv.fr/centre-val-de-loire/loir-et-cher/10aac9b4-1108-4144-a5ce-824632869ab5"}
{"nom":"Blois","nomNormalise":"blois","typeCollectivite":"Commune","region":"Centre-Val de Loire","departement":"Loir-et-Cher","departementCode":"41","adresse":{"street":"9 place Saint-Louis","postalCode":"41000","city":"Blois","country":"France"},"contacts":{"email":"courrier@blois.fr","telephone":"0254445050"},"horaires":"Du Lundi au Vendredi : de 08h00 à 17h30","latitude":47.5884,"longitude":1.33528,"website":"https://www.blois.fr/","hasWebsite":true,"hasHoraires":true,"url":"https://lannuaire.service-public.gouv.fr/centre-val-de-loire/loir-et-cher/614c187c-f21f-4c35-a157-cb72282f5f37"}
{"nom":"Boisseau","nomNormalise":"boisseau","typeCollectivite":"Commune","region":"Centre-Val de Loire","departement":"Loir-et-Cher","departementCode":"41","adresse":{"street":"8 rue des Fontaines","postalCode":"41290","city":"Boisseau","country":"France"},"contacts":{"email":"mairie.boisseau@wanadoo.fr","telephone":"0254230087"},"horaires":"Le Jeudi : de 10h00 à 13h30","latitude":47.773006,"longitude":1.300035,"website":"","hasWebsite":false,"hasHoraires":true,"url":"https://lannuaire.service-public.gouv.fr/centre-val-de-loire/loir-et-cher/4e206a0d-74e1-437c-96d6-703a3ce1569b"}
{"nom":"Bonneveau","nomNormalise":"bonneveau","typeCollectivite":"Commune","region":"Centre-Val de Loire","departement":"Loir-et-Cher","departementCode":"41","adresse":{"street":"2 le Bourg","postalCode":"41800","city":"Bonneveau","country":"France"},"contacts":{"email":"secretariat@mairie-bonneveau.fr","telephone":"0254237548"},"horaires":"Le Lundi : de 14h30 à 18h00\nLe Mercredi : de 09h00 à 12h00\nLe Vendredi : de 09h00 à 12h00","latitude":47.812454,"longitude":0.748823,"website":"","hasWebsite":false,"hasHoraires":true,"url":"https://lannuaire.service-public.gouv.fr/centre-val-de-loire/loir-et-cher/1baa9e5c-9772-4e30-9eae-6f22c0baa846"}
{"nom":"Bouffry","nomNormalise":"bouffry","typeCollectivite":"Commune","region":"Centre-Val de Loire","departement":"Loir-et-Cher","departementCode":"41","adresse":{"street":"4 place du Côteau-du-Perche","postalCode":"41270","city":"Bouffry","country":"France"},"contacts":{"email":"mairie.bouffry@orange.fr","telephone":"0254805209"},"horaires":"Le Mardi : de 09h15 à 12h15\nLe Vendredi : de 10h15 à 12h15","latitude":48.008255,"longitude":1.096583,"website":"","hasWebsite":false,"hasHoraires":true,"url":"https://lannuaire.service-public.gouv.fr/centre-val-de-loire/loir-et-cher/a76d45f7-46b6-4e3b-affe-cc65efbb9e65"}
{"nom":"Boursay","nomNormalise":"boursay","typeCollectivite":"Commune","region":"Centre-Val de Loire","departement":"Loir-et-Cher","departementCode":"41","adresse":{"street":"8 place de l'Église","postalCode":"41270","city":"Boursay","country":"France"},"contacts":{"email":"secretariat@mairiedeboursay.fr","telephone":"0254808181"},"horaires":"Le Mardi : de 14h00 à 16h30\nLe Samedi : de 10h00 à 12h00","latitude":48.019325,"longitude":0.969138,"website":"","hasWebsite":false,"hasHoraires":true,"url":"https://lannuaire.service-public.gouv.fr/centre-val-de-loire/loir-et-cher/ce64b764-5a4c-41f8-af72-96d07940094a"}
{"nom":"Bracieux","nomNormalise":"bracieux","typeCollectivite":"Commune","region":"Centre-Val de Loire","departement":"Loir-et-Cher","departementCode":"41","adresse":{"street":"Place de l'Hôtel-de-Ville","postalCode":"41250","city":"Bracieux","country":"France"},"contacts":{"email":"mairiedebracieux@orange.fr","telephone":"0254464237"},"horaires":"Le Lundi : de 08h30 à 12h30\nLe Mardi : de 08h30 à 12h30 de 16h30 à 19h00\nLe Mercredi : de 08h30 à 12h30\nLe Jeudi : de 08h30 à 17h00\nLe Vendredi : de 08h30 à 12h30","latitude":47.5491,"longitude":1.54258,"website":"http://www.grandchambord.fr/","hasWebsite":true,"hasHoraires":true,"url":"https://lannuaire.service-public.gouv.fr/centre-val-de-loire/loir-et-cher/1d1f7b68-5010-456f-bb99-b667a92b7f78"}
{"nom":"Brévainville","nomNormalise":"brevainville","typeCollectivite":"Commune","region":"Centre-Val de Loire","departement":"Loir-et-Cher","departementCode":"41","adresse":{"street":"4 le Bourg","postalCode":"41160","city":"Brévainville","country":"France"},"contacts":{"email":"mairie@brevainville.fr","telephone":"0254826598"},"horaires":"Le Mardi : de 14h00 à 18h00\nLe Vendredi : de 14h00 à 18h00","latitude":47.95293,"longitude":1.282333,"website":"","hasWebsite":false,"hasHoraires":true,"url":"https://lannuaire.service-public.gouv.fr/centre-val-de-loire/loir-et-cher/932fca8d-7b4a-4335-a273-b6dd9823c686"}
{"nom":"Briou","nomNormalise":"briou","typeCollectivite":"Commune","region":"Centre-Val de Loire","departement":"Loir-et-Cher","departementCode":"41","adresse":{"street":"7 rue des Tilleuls","postalCode":"41370","city":"Briou","country":"France"},"contacts":{"email":"mairie-briou@wanadoo.fr","telephone":"0254874271"},"horaires":"Le Jeudi : de 13h30 à 17h30","latitude":47.81289,"longitude":1.4783405,"website":"","hasWebsite":false,"hasHoraires":true,"url":"https://lannuaire.service-public.gouv.fr/centre-val-de-loire/loir-et-cher/47501ec4-50e1-4adb-867d-058ad1ea450d"}
{"nom":"Busloup","nomNormalise":"busloup","typeCollectivite":"Commune","region":"Centre-Val de Loire","departement":"Loir-et-Cher","departementCode":"41","adresse":{"street":"1 rue Jacques-Rasquier","postalCode":"41160","city":"Busloup","country":"France"},"contacts":{"email":"mairie.busloup@wanadoo.fr","telephone":"0254234071"},"horaires":"Le Mardi : de 14h00 à 18h30\nLe Samedi : de 09h30 à 11h30","latitude":47.89244,"longitude":1.132089,"website":"","hasWebsite":false,"hasHoraires":true,"url":"https://lannuaire.service-public.gouv.fr/centre-val-de-loire/loir-et-cher/938dc7af-30c9-4112-9f21-607c53a6e64c"}
{"nom":"Candé-sur-Beuvron","nomNormalise":"candesurbeuvron","typeCollectivite":"Commune","region":"Centre-Val de Loire","departement":"Loir-et-Cher","departementCode":"41","adresse":{"street":"20 rue de l'Église","postalCode":"41120","city":"Candé-sur-Beuvron","country":"France"},"contacts":{"email":"mairie.cande-sur-beuvron@wanadoo.fr","telephone":"0254440666"},"horaires":"Le Lundi : de 13h30 à 17h00\nDu Mardi au Jeudi : de 09h00 à 12h30 de 13h30 à 17h00\nLe Samedi : de 09h00 à 12h00","latitude":47.495876,"longitude":1.262058,"website":"http://www.cande-sur-beuvron.com/","hasWebsite":true,"hasHoraires":true,"url":"https://lannuaire.service-public.gouv.fr/centre-val-de-loire/loir-et-cher/38f0358f-4482-4186-abbe-7d4e3405e251"}
{"nom":"Cellé","nomNormalise":"celle","typeCollectivite":"Commune","region":"Centre-Val de Loire","departement":"Loir-et-Cher","departementCode":"41","adresse":{"street":"1 place Jean-Moulin","postalCode":"41360","city":"Cellé","country":"France"},"contacts":{"email":"mairiedecelle@orange.fr","telephone":"0254237209"},"horaires":"Le Lundi : de 14h00 à 16h00\n\nPermanence de la 1ère adjointe.\nLe Mardi : de 09h00 à 16h00\nDu Jeudi au Vendredi : de 09h00 à 12h00\n\nPermanence de Monsieur le Maire le Jeudi","latitude":47.835735,"longitude":0.782508,"website":"","hasWebsite":false,"hasHoraires":true,"url":"https://lannuaire.service-public.gouv.fr/centre-val-de-loire/loir-et-cher/f194763a-3875-408b-92bc-2acf4cdb574f"}
{"nom":"Cellettes","nomNormalise":"cellettes","typeCollectivite":"Commune","region":"Centre-Val de Loire","departement":"Loir-et-Cher","departementCode":"41","adresse":{"street":"26 rue de l'Église","postalCode":"41120","city":"Cellettes","country":"France"},"contacts":{"email":"accueil@cellettes41.fr","telephone":"0254704754"},"horaires":"Du Lundi au Mardi : de 08h15 à 12h15 de 14h00 à 17h00\nLe Mercredi : de 14h00 à 17h00\nDu Jeudi au Vendredi : de 08h15 à 12h15\nLe Samedi : de 10h00 à 12h00\n\nPermanence des élus. Fernture pendant les vacances scolaires","latitude":47.5277,"longitude":1.38447,"website":"http://www.cellettes41.fr/","hasWebsite":true,"hasHoraires":true,"url":"https://lannuaire.service-public.gouv.fr/centre-val-de-loire/loir-et-cher/76bf9988-c307-4d8d-b46a-c4a9a78f5bc9"}
{"nom":"Chailles","nomNormalise":"chailles","typeCollectivite":"Commune","region":"Centre-Val de Loire","departement":"Loir-et-Cher","departementCode":"41","adresse":{"street":"78 rue Nationale","postalCode":"41120","city":"Chailles","country":"France"},"contacts":{"email":"accueil@chailles41.fr","telephone":"0254797200"},"horaires":"Le Lundi : de 08h30 à 12h15 de 13h45 à 18h15\nLe Mardi : de 08h30 à 12h15 de 13h45 à 17h15\nDu Jeudi au Vendredi : de 08h30 à 12h15 de 13h45 à 17h15","latitude":47.5323,"longitude":1.30716,"website":"http://www.chailles41.fr/","hasWebsite":true,"hasHoraires":true,"url":"https://lannuaire.service-public.gouv.fr/centre-val-de-loire/loir-et-cher/c7be7f02-55a2-4946-a6f5-8f368276ad83"}
{"nom":"Mairie déléguée - Chambon-sur-Cisse","nomNormalise":"mairiedelegueechambonsurcisse","typeCollectivite":"Commune","region":"Centre-Val de Loire","departement":"Loir-et-Cher","departementCode":"41","adresse":{"street":"Chambon-sur-Cisse","postalCode":"41190","city":"Valencisse","country":"France"},"contacts":{"email":"mairie@valencisse.fr","telephone":"0254700523"},"horaires":"Le Vendredi : de 08h30 à 12h00","latitude":47.577946,"longitude":1.2149166,"website":"https://www.valencisse.fr/","hasWebsite":true,"hasHoraires":true,"url":"https://lannuaire.service-public.gouv.fr/centre-val-de-loire/loir-et-cher/48ada059-6ca9-4cb3-925d-3867dce88b8f"}
{"nom":"Chambord","nomNormalise":"chambord","typeCollectivite":"Commune","region":"Centre-Val de Loire","departement":"Loir-et-Cher","departementCode":"41","adresse":{"street":"Rue de la Grange-aux-Dîmes","postalCode":"41250","city":"Chambord","country":"France"},"contacts":{"email":"contact@mairiechambord41.fr","telephone":"0254203153"},"horaires":"Du Lundi au Mardi : de 09h00 à 12h15 de 13h30 à 16h30\nDu Jeudi au Vendredi : de 09h00 à 12h15 de 13h30 à 16h30","latitude":47.61443,"longitude":1.516873,"website":"https://mairie-chambord.fr/","hasWebsite":true,"hasHoraires":true,"url":"https://lannuaire.service-public.gouv.fr/centre-val-de-loire/loir-et-cher/7e8f9882-b016-4b6d-b1ae-78bde286c260"}
{"nom":"Champigny-en-Beauce","nomNormalise":"champignyenbeauce","typeCollectivite":"Commune","region":"Centre-Val de Loire","departement":"Loir-et-Cher","departementCode":"41","adresse":{"street":"Grand'rue","postalCode":"41330","city":"Champigny-en-Beauce","country":"France"},"contacts":{"email":"mairie.champigny.en.beauce@orange.fr","telephone":"0254206110"},"horaires":"Le Lundi : de 14h00 à 17h00\nLe Mercredi : de 09h00 à 12h00\nLe Vendredi : de 13h30 à 18h00","latitude":47.711704,"longitude":1.256272,"website":"","hasWebsite":false,"hasHoraires":true,"url":"https://lannuaire.service-public.gouv.fr/centre-val-de-loire/loir-et-cher/24baca84-88c4-4c89-be83-386d60c455b3"}
{"nom":"Chaon","nomNormalise":"chaon","typeCollectivite":"Commune","region":"Centre-Val de Loire","departement":"Loir-et-Cher","departementCode":"41","adresse":{"street":"2 place de la Mairie","postalCode":"41600","city":"Chaon","country":"France"},"contacts":{"email":"mairie@chaon.fr","telephone":"0254884636"},"horaires":"Le Lundi : de 14h00 à 18h00\nLe Jeudi : de 14h00 à 18h00","latitude":47.608994,"longitude":2.1757987,"website":"http://www.chaon.fr/","hasWebsite":true,"hasHoraires":true,"url":"https://lannuaire.service-public.gouv.fr/centre-val-de-loire/loir-et-cher/2d55252c-38e0-4e2e-819b-4466ce78f9d5"}
{"nom":"Châteauvieux","nomNormalise":"chateauvieux","typeCollectivite":"Commune","region":"Centre-Val de Loire","departement":"Loir-et-Cher","departementCode":"41","adresse":{"street":"1 rue des Déportés-du-2-Mai-1944","postalCode":"41110","city":"Châteauvieux","country":"France"},"contacts":{"email":"mairie@chateauvieux41.fr","telephone":"0254752106"},"horaires":"Du Lundi au Vendredi : de 08h00 à 12h15","latitude":47.2294,"longitude":1.38262,"website":"http://www.mairiechateauvieux.blogspot.fr/","hasWebsite":true,"hasHoraires":true,"url":"https://lannuaire.service-public.gouv.fr/centre-val-de-loire/loir-et-cher/0c2aaaea-ff7a-4f39-be4f-522fff215eed"}
{"nom":"Châtillon-sur-Cher","nomNormalise":"chatillonsurcher","typeCollectivite":"Commune","region":"Centre-Val de Loire","departement":"Loir-et-Cher","departementCode":"41","adresse":{"street":"2 rue de la Mairie","postalCode":"41130","city":"Châtillon-sur-Cher","country":"France"},"contacts":{"email":"secretariat@chatillon-sur-cher.fr","telephone":"0254710282"},"horaires":"Du Lundi au Mardi : de 09h00 à 12h00 de 14h00 à 17h00\nLe Mercredi : de 09h00 à 12h00\nDu Jeudi au Vendredi : de 09h00 à 12h00 de 14h00 à 17h00\nLe Samedi : de 09h00 à 12h00","latitude":47.2766,"longitude":1.49608,"website":"https://chatillon-sur-cher.fr/","hasWebsite":true,"hasHoraires":true,"url":"https://lannuaire.service-public.gouv.fr/centre-val-de-loire/loir-et-cher/7a5039a3-38e5-454b-aa94-538f5c3718db"}
{"nom":"Châtres-sur-Cher","nomNormalise":"chatressurcher","typeCollectivite":"Commune","region":"Centre-Val de Loire","departement":"Loir-et-Cher","departementCode":"41","adresse":{"street":"Rue du 11-Novembre-1918","postalCode":"41320","city":"Châtres-sur-Cher","country":"France"},"contacts":{"email":"mairie@chatressurcher.fr","telephone":"0254980324"},"horaires":"Du Lundi au Mardi : de 10h00 à 12h00 de 15h00 à 18h00\nLe Mercredi : de 10h00 à 12h00\nLe Jeudi : de 15h00 à 18h00\nLe Vendredi : de 10h00 à 12h00 de 15h00 à 18h00","latitude":47.2638,"longitude":1.90744,"website":"https://www.chatressurcher.fr/","hasWebsite":true,"hasHoraires":true,"url":"https://lannuaire.service-public.gouv.fr/centre-val-de-loire/loir-et-cher/853fae0c-69ac-4077-8416-94353be7adab"}
{"nom":"Chaumont-sur-Loire","nomNormalise":"chaumontsurloire","typeCollectivite":"Commune","region":"Centre-Val de Loire","departement":"Loir-et-Cher","departementCode":"41","adresse":{"street":"81 rue du Maréchal-de-Lattre-de-Tassigny","postalCode":"41150","city":"Chaumont-sur-Loire","country":"France"},"contacts":{"email":"accueil@chaumontsurloire.fr","telephone":"0254209841"},"horaires":"Le Lundi : de 09h00 à 12h30 de 14h00 à 17h30\nDu Mardi au Vendredi : de 09h00 à 12h30\nLe Samedi : de 09h00 à 12h00\n\nLe 1er samedi de chaque mois.","latitude":47.48001,"longitude":1.182876,"website":"https://chaumontsurloire.fr/","hasWebsite":true,"hasHoraires":true,"url":"https://lannuaire.service-public.gouv.fr/centre-val-de-loire/loir-et-cher/c832c600-a6b9-4297-a320-c902530b0194"}
{"nom":"Chaumont-sur-Tharonne","nomNormalise":"chaumontsurtharonne","typeCollectivite":"Commune","region":"Centre-Val de Loire","departement":"Loir-et-Cher","departementCode":"41","adresse":{"street":"10 rue de Romorantin","postalCode":"41600","city":"Chaumont-sur-Tharonne","country":"France"},"contacts":{"email":"contact@chaumont-sur-tharonne.fr","telephone":"0254888400"},"horaires":"Du Lundi au Samedi : de 09h00 à 12h00","latitude":47.6099,"longitude":1.90448,"website":"https://www.chaumont-sur-tharonne.fr/","hasWebsite":true,"hasHoraires":true,"url":"https://lannuaire.service-public.gouv.fr/centre-val-de-loire/loir-et-cher/b37cb77c-af8a-466b-8667-3874323ab7d9"}
{"nom":"Chauvigny-du-Perche","nomNormalise":"chauvignyduperche","typeCollectivite":"Commune","region":"Centre-Val de Loire","departement":"Loir-et-Cher","departementCode":"41","adresse":{"street":"19 rue du Perche","postalCode":"41270","city":"Chauvigny-du-Perche","country":"France"},"contacts":{"email":"mairiechauvigny-du-perche@wanadoo.fr","telephone":"0254806853"},"horaires":"Le Lundi : de 13h30 à 17h30\nLe Mercredi : de 09h00 à 12h30\nLe Jeudi : de 08h30 à 12h30","latitude":47.956795,"longitude":1.0798621,"website":"","hasWebsite":false,"hasHoraires":true,"url":"https://lannuaire.service-public.gouv.fr/centre-val-de-loire/loir-et-cher/dccf3877-2e6a-4374-a8bf-6c89011fd386"}
{"nom":"Chémery","nomNormalise":"chemery","typeCollectivite":"Commune","region":"Centre-Val de Loire","departement":"Loir-et-Cher","departementCode":"41","adresse":{"street":"59 rue Nationale","postalCode":"41700","city":"Chémery","country":"France"},"contacts":{"email":"accueil@chemery.fr","telephone":"0254718024"},"horaires":"Du Lundi au Vendredi : de 08h30 à 12h30\nLe Samedi : de 09h00 à 12h00","latitude":47.3457,"longitude":1.47876,"website":"http://www.chemery.fr/","hasWebsite":true,"hasHoraires":true,"url":"https://lannuaire.service-public.gouv.fr/centre-val-de-loire/loir-et-cher/0b2584fa-352f-40e2-b176-bc9e7cb7876f"}
{"nom":"Cheverny","nomNormalise":"cheverny","typeCollectivite":"Commune","region":"Centre-Val de Loire","departement":"Loir-et-Cher","departementCode":"41","adresse":{"street":"Place de l'Église","postalCode":"41700","city":"Cheverny","country":"France"},"contacts":{"email":"mairie@cheverny.fr","telephone":"0254799778"},"horaires":"Le Mardi : de 09h00 à 12h00 de 14h00 à 17h00\nDu Mercredi au Jeudi : de 09h00 à 12h00\nLe Vendredi : de 09h00 à 12h00 de 14h00 à 17h00\nLe Samedi : de 09h00 à 12h00","latitude":47.4993,"longitude":1.460405,"website":"https://mairie-cheverny.com/","hasWebsite":true,"hasHoraires":true,"url":"https://lannuaire.service-public.gouv.fr/centre-val-de-loire/loir-et-cher/6378544e-fd8c-45cf-9532-02197f4968e1"}
{"nom":"Chissay-en-Touraine","nomNormalise":"chissayentouraine","typeCollectivite":"Commune","region":"Centre-Val de Loire","departement":"Loir-et-Cher","departementCode":"41","adresse":{"street":"20 rue Étienne-Denis","postalCode":"41400","city":"Chissay-en-Touraine","country":"France"},"contacts":{"email":"mairie.chissay@wanadoo.fr","telephone":"0254323220"},"horaires":"Du Lundi au Mardi : de 09h00 à 12h30 de 13h30 à 17h00\nLe Mardi : de 09h00 à 12h30 de 13h30 à 17h30\nDu Mercredi au Jeudi : de 09h00 à 12h00 de 13h30 à 17h30\nLe Vendredi : de 09h00 à 12h30 de 13h30 à 17h00","latitude":47.33766,"longitude":1.132843,"website":"http://www.chissay-en-touraine.fr/","hasWebsite":true,"hasHoraires":true,"url":"https://lannuaire.service-public.gouv.fr/centre-val-de-loire/loir-et-cher/bb0f3ea4-bc8a-4444-ae91-2a871a6aa724"}
{"nom":"Chitenay","nomNormalise":"chitenay","typeCollectivite":"Commune","region":"Centre-Val de Loire","departement":"Loir-et-Cher","departementCode":"41","adresse":{"street":"17 rue du Mail","postalCode":"41120","city":"Chitenay","country":"France"},"contacts":{"email":"commune-chitenay@orange.fr","telephone":"0254704212"},"horaires":"Du Lundi au Mardi : de 14h00 à 17h00\nLe Vendredi : de 14h00 à 17h00\nLe Samedi : de 09h00 à 11h30","latitude":47.497547,"longitude":1.37106,"website":"https://mairiechitenay.fr/","hasWebsite":true,"hasHoraires":true,"url":"https://lannuaire.service-public.gouv.fr/centre-val-de-loire/loir-et-cher/156de9d0-86e1-4205-ba03-014ee59a0cfd"}
{"nom":"Choue","nomNormalise":"choue","typeCollectivite":"Commune","region":"Centre-Val de Loire","departement":"Loir-et-Cher","departementCode":"41","adresse":{"street":"Place de la Mairie","postalCode":"41170","city":"Choue","country":"France"},"contacts":{"email":"mairie@choue.com","telephone":"0254809228"},"horaires":"Le Mardi : de 14h00 à 18h00\nLe Jeudi : de 09h00 à 12h00\nLe Vendredi : de 15h00 à 18h30","latitude":47.9987,"longitude":0.928909,"website":"http://www.choue.com/","hasWebsite":true,"hasHoraires":true,"url":"https://lannuaire.service-public.gouv.fr/centre-val-de-loire/loir-et-cher/60b0648f-ff5d-4511-8296-7e188404b82a"}
{"nom":"Choussy","nomNormalise":"choussy","typeCollectivite":"Commune","region":"Centre-Val de Loire","departement":"Loir-et-Cher","departementCode":"41","adresse":{"street":"5 route de Touraine","postalCode":"41700","city":"Choussy","country":"France"},"contacts":{"email":"mairie.choussy@orange.fr","telephone":"0254715842"},"horaires":"Le Lundi : de 13h30 à 17h00\nLe Mardi : de 09h00 à 12h30\nLe Jeudi : de 09h00 à 12h30\nLe Vendredi : de 13h30 à 18h00","latitude":47.3699,"longitude":1.34037,"website":"http://choussy.free.fr/","hasWebsite":true,"hasHoraires":true,"url":"https://lannuaire.service-public.gouv.fr/centre-val-de-loire/loir-et-cher/444318dd-b0a9-4fcd-858f-6e64c29b8d75"}
{"nom":"Conan","nomNormalise":"conan","typeCollectivite":"Commune","region":"Centre-Val de Loire","departement":"Loir-et-Cher","departementCode":"41","adresse":{"street":"3 rue des Hayes","postalCode":"41290","city":"Conan","country":"France"},"contacts":{"email":"contact@mairieconan.fr","telephone":"0254238710"},"horaires":"Le Mardi : de 09h30 à 12h30 de 13h30 à 16h30","latitude":47.748863,"longitude":1.286285,"website":"","hasWebsite":false,"hasHoraires":true,"url":"https://lannuaire.service-public.gouv.fr/centre-val-de-loire/loir-et-cher/3b89a933-7270-4a5f-91a6-f235dd2c7843"}
{"nom":"Concriers","nomNormalise":"concriers","typeCollectivite":"Commune","region":"Centre-Val de Loire","departement":"Loir-et-Cher","departementCode":"41","adresse":{"street":"17 rue de l'École","postalCode":"41370","city":"Concriers","country":"France"},"contacts":{"email":"commune.concriers@wanadoo.fr","telephone":"0254810926"},"horaires":"Le Lundi : de 09h00 à 13h00\nLe Vendredi : de 09h00 à 12h30","latitude":47.7712,"longitude":1.47513,"website":"","hasWebsite":false,"hasHoraires":true,"url":"https://lannuaire.service-public.gouv.fr/centre-val-de-loire/loir-et-cher/dd48d9fe-8c78-43a6-8981-7320d8be37fe"}
{"nom":"Controis-en-Sologne","nomNormalise":"controisensologne","typeCollectivite":"Commune","region":"Centre-Val de Loire","departement":"Loir-et-Cher","departementCode":"41","adresse":{"street":"1 place du 8-Mai-1945","postalCode":"41700","city":"Controis-en-Sologne","country":"France"},"contacts":{"email":"contact@controis-en-sologne.fr","telephone":"0254795322"},"horaires":"Le Lundi : de 10h00 à 12h30 de 14h00 à 17h30\nDu Mardi au Jeudi : de 09h00 à 12h30 de 14h00 à 17h30\nLe Vendredi : de 09h00 à 12h30 de 14h00 à 16h00","latitude":47.418926,"longitude":1.429016,"website":"http://www.ville-contres.fr/","hasWebsite":true,"hasHoraires":true,"url":"https://lannuaire.service-public.gouv.fr/centre-val-de-loire/loir-et-cher/78c08c5e-4491-4bb8-b3a3-0a44737f9d38"}
{"nom":"Cormenon","nomNormalise":"cormenon","typeCollectivite":"Commune","region":"Centre-Val de Loire","departement":"Loir-et-Cher","departementCode":"41","adresse":{"street":"84 rue Poterie","postalCode":"41170","city":"Cormenon","country":"France"},"contacts":{"email":"accueil@mairie-cormenon.fr","telephone":"0254809119"},"horaires":"Le Lundi : de 10h00 à 12h00\nLe Mardi : de 14h00 à 17h00\nLe Jeudi : de 14h00 à 17h00\nLe Vendredi : de 10h00 à 12h00 de 14h00 à 16h00","latitude":47.969902,"longitude":0.892929,"website":"","hasWebsite":false,"hasHoraires":true,"url":"https://lannuaire.service-public.gouv.fr/centre-val-de-loire/loir-et-cher/3f862fe3-2f74-448d-bb5a-f6b2cca10e60"}
{"nom":"Cormeray","nomNormalise":"cormeray","typeCollectivite":"Commune","region":"Centre-Val de Loire","departement":"Loir-et-Cher","departementCode":"41","adresse":{"street":"1 rue de la Buissonnière","postalCode":"41120","city":"Cormeray","country":"France"},"contacts":{"email":"secretariat@mairie-cormeray.fr","telephone":"0254442619"},"horaires":"Du Lundi au Mardi : de 14h00 à 18h00\nLe Jeudi : de 14h00 à 18h00\nLe Vendredi : de 15h00 à 17h00\nLe Samedi : de 10h00 à 12h00","latitude":47.49197,"longitude":1.4065,"website":"https://mairie-cormeray.fr/fr/","hasWebsite":true,"hasHoraires":true,"url":"https://lannuaire.service-public.gouv.fr/centre-val-de-loire/loir-et-cher/ea115d4a-547f-447d-bd1e-93abcbd9476a"}
{"nom":"Couddes","nomNormalise":"couddes","typeCollectivite":"Commune","region":"Centre-Val de Loire","departement":"Loir-et-Cher","departementCode":"41","adresse":{"street":"30 route de Blois","postalCode":"41700","city":"Couddes","country":"France"},"contacts":{"email":"secretariat@mairiedecouddes.fr","telephone":"0254713217"},"horaires":"Du Lundi au Mardi : de 09h00 à 12h00 de 14h00 à 17h00\nLe Mercredi : de 14h00 à 17h00\nDu Jeudi au Vendredi : de 09h00 à 12h00 de 14h00 à 17h00","latitude":47.363045,"longitude":1.404112,"website":"","hasWebsite":false,"hasHoraires":true,"url":"https://lannuaire.service-public.gouv.fr/centre-val-de-loire/loir-et-cher/159992a1-2621-4ecc-8a22-eb68d3167d17"}
{"nom":"Couëtron-au-Perche","nomNormalise":"couetronauperche","typeCollectivite":"Commune","region":"Centre-Val de Loire","departement":"Loir-et-Cher","departementCode":"41","adresse":{"street":"Souday","postalCode":"41170","city":"Couëtron-au-Perche","country":"France"},"contacts":{"email":"mairie@couetronauperche.fr","telephone":"0254809318"},"horaires":"Du Lundi au Mercredi : de 10h00 à 12h00\nLe Vendredi : de 14h00 à 17h30","latitude":48.036175,"longitude":0.8655023,"website":"http://www.couetronauperche.fr/","hasWebsite":true,"hasHoraires":true,"url":"https://lannuaire.service-public.gouv.fr/centre-val-de-loire/loir-et-cher/002595d9-2c78-40b8-afa9-f1d0e1874c76"}
{"nom":"Couffy","nomNormalise":"couffy","typeCollectivite":"Commune","region":"Centre-Val de Loire","departement":"Loir-et-Cher","departementCode":"41","adresse":{"street":"7 route de Saint-Aignan","postalCode":"41110","city":"Couffy","country":"France"},"contacts":{"email":"contact@mairiecouffy.fr","telephone":"0254752302"},"horaires":"Du Lundi au Mardi : de 08h30 à 12h00\nDu Jeudi au Vendredi : de 08h30 à 12h00\nLe Samedi : de 09h00 à 12h00\n\n(Semaine impaire)","latitude":47.2478,"longitude":1.43957,"website":"","hasWebsite":false,"hasHoraires":true,"url":"https://lannuaire.service-public.gouv.fr/centre-val-de-loire/loir-et-cher/f087cae5-72aa-4100-8dc5-14989b39b3ab"}
{"nom":"Mairie déléguée - Coulanges","nomNormalise":"mairiedelegueecoulanges","typeCollectivite":"Commune","region":"Centre-Val de Loire","departement":"Loir-et-Cher","departementCode":"41","adresse":{"street":"Coulanges","postalCode":"41150","city":"Valloire-sur-Cisse","country":"France"},"contacts":{"email":"coulanges@valloire-sur-cisse.fr","telephone":"0254204559"},"horaires":"Le Mercredi : de 08h00 à 12h30\nLe Jeudi : de 13h30 à 16h00","latitude":46.485687,"longitude":3.859148,"website":"","hasWebsite":false,"hasHoraires":true,"url":"https://lannuaire.service-public.gouv.fr/centre-val-de-loire/loir-et-cher/e5096bb1-1f4c-4e9a-acc9-9a2c33fbc15f"}
{"nom":"Coulommiers-la-Tour","nomNormalise":"coulommierslatour","typeCollectivite":"Commune","region":"Centre-Val de Loire","departement":"Loir-et-Cher","departementCode":"41","adresse":{"street":"10 place du 8-Mai-1945","postalCode":"41100","city":"Coulommiers-la-Tour","country":"France"},"contacts":{"email":"mairie-coulommiers-la-tour@wanadoo.fr","telephone":"0254771392"},"horaires":"Le Lundi : de 14h00 à 16h30\nLe Mardi : de 09h00 à 12h00\nLe Mercredi : de 14h00 à 17h00\n\nPermanence du maire de 14h à 18h.\nLe Jeudi : de 10h00 à 12h00\nLe Vendredi : de 16h00 à 18h50","latitude":47.782593,"longitude":1.14211,"website":"","hasWebsite":false,"hasHoraires":true,"url":"https://lannuaire.service-public.gouv.fr/centre-val-de-loire/loir-et-cher/3f0c0e55-8419-4bbb-b2c2-439e30713786"}
{"nom":"Courbouzon","nomNormalise":"courbouzon","typeCollectivite":"Commune","region":"Centre-Val de Loire","departement":"Loir-et-Cher","departementCode":"41","adresse":{"street":"40 Rue Champsort","postalCode":"41500","city":"Courbouzon","country":"France"},"contacts":{"email":"mairie@courbouzon41.fr","telephone":"0254810190"},"horaires":"Le Mardi : de 17h00 à 18h30\nLe Jeudi : de 09h00 à 12h00 de 17h00 à 18h30","latitude":47.713593,"longitude":1.543951,"website":"","hasWebsite":false,"hasHoraires":true,"url":"https://lannuaire.service-public.gouv.fr/centre-val-de-loire/loir-et-cher/9c8b614d-131e-4c75-a35f-7f5b7cf3735b"}
{"nom":"Cour-Cheverny","nomNormalise":"courcheverny","typeCollectivite":"Commune","region":"Centre-Val de Loire","departement":"Loir-et-Cher","departementCode":"41","adresse":{"street":"1 place de la République","postalCode":"41700","city":"Cour-Cheverny","country":"France"},"contacts":{"email":"contact@mairie-cour-cheverny.fr","telephone":"0254799638"},"horaires":"Du Lundi au Mardi : de 09h00 à 12h00 de 13h30 à 17h30\nLe Mercredi : de 09h00 à 12h30\nLe Jeudi : de 14h00 à 18h00\nLe Vendredi : de 09h00 à 12h00 de 13h30 à 17h30","latitude":47.50876,"longitude":1.457584,"website":"https://mairie-cour-cheverny.fr/","hasWebsite":true,"hasHoraires":true,"url":"https://lannuaire.service-public.gouv.fr/centre-val-de-loire/loir-et-cher/81aaabe0-c6b2-450e-886d-6b59186139df"}
{"nom":"Courmemin","nomNormalise":"courmemin","typeCollectivite":"Commune","region":"Centre-Val de Loire","departement":"Loir-et-Cher","departementCode":"41","adresse":{"street":"7 rue François-1er","postalCode":"41230","city":"Courmemin","country":"France"},"contacts":{"email":"accueil-mairie@courmemin.fr","telephone":"0254838407"},"horaires":"Du Lundi au Mardi : de 14h15 à 17h30\nLe Mercredi : de 08h30 à 11h00\nDu Jeudi au Vendredi : de 14h15 à 17h30","latitude":47.471657,"longitude":1.627579,"website":"https://courmemin.fr/","hasWebsite":true,"hasHoraires":true,"url":"https://lannuaire.service-public.gouv.fr/centre-val-de-loire/loir-et-cher/e11be8e7-87c3-4f9b-b4bd-3db9c9c45026"}
{"nom":"Cour-sur-Loire","nomNormalise":"coursurloire","typeCollectivite":"Commune","region":"Centre-Val de Loire","departement":"Loir-et-Cher","departementCode":"41","adresse":{"street":"Rue de la Mairie","postalCode":"41500","city":"Cour-sur-Loire","country":"France"},"contacts":{"email":"mairie-cour@wanadoo.fr","telephone":"0254468360"},"horaires":"Le Lundi : de 10h30 à 12h00\nLe Jeudi : de 11h00 à 12h00\nLe Vendredi : de 10h00 à 12h00","latitude":47.655743,"longitude":1.433561,"website":"https://www.coursurloire.fr/","hasWebsite":true,"hasHoraires":true,"url":"https://lannuaire.service-public.gouv.fr/centre-val-de-loire/loir-et-cher/c0dff9e8-9d7c-4c7f-ac22-91415165c8e8"}
{"nom":"Crouy-sur-Cosson","nomNormalise":"crouysurcosson","typeCollectivite":"Commune","region":"Centre-Val de Loire","departement":"Loir-et-Cher","departementCode":"41","adresse":{"street":"6 place de la Mairie","postalCode":"41220","city":"Crouy-sur-Cosson","country":"France"},"contacts":{"email":"mairie-de-crouy-sur-cosson@orange.fr","telephone":"0254875107"},"horaires":"Le Mardi : de 14h30 à 18h00\nLe Jeudi : de 15h00 à 17h30\nLe Vendredi : de 14h30 à 16h30","latitude":47.65011,"longitude":1.608057,"website":"http://www.crouysurcosson.fr/","hasWebsite":true,"hasHoraires":true,"url":"https://lannuaire.service-public.gouv.fr/centre-val-de-loire/loir-et-cher/ebeba46e-5861-4b4d-a608-e00d2eae3178"}
{"nom":"Crucheray","nomNormalise":"crucheray","typeCollectivite":"Commune","region":"Centre-Val de Loire","departement":"Loir-et-Cher","departementCode":"41","adresse":{"street":"12 rue du Point-du-Jour","postalCode":"41100","city":"Crucheray","country":"France"},"contacts":{"email":"mairie@crucheray.fr","telephone":"0254770445"},"horaires":"Le Mardi : de 08h00 à 17h00\nLe Mercredi : de 13h30 à 17h00","latitude":47.728794,"longitude":1.087562,"website":"https://www.crucheray.fr/","hasWebsite":true,"hasHoraires":true,"url":"https://lannuaire.service-public.gouv.fr/centre-val-de-loire/loir-et-cher/1bc69c94-124a-480f-8425-38dfa7f79dad"}
{"nom":"Danzé","nomNormalise":"danze","typeCollectivite":"Commune","region":"Centre-Val de Loire","departement":"Loir-et-Cher","departementCode":"41","adresse":{"street":"12 place de l'Église","postalCode":"41160","city":"Danzé","country":"France"},"contacts":{"email":"mairie@danze41.fr","telephone":"0254806152"},"horaires":"Le Lundi : de 09h00 à 12h30\nLe Mardi : de 09h00 à 12h30 de 16h00 à 18h00\nDu Jeudi au Vendredi : de 09h00 à 12h30\nLe Samedi : de 09h00 à 11h30\n\nFermé le dernier samedi de chaque mois.","latitude":47.892326,"longitude":1.0276473,"website":"","hasWebsite":false,"hasHoraires":true,"url":"https://lannuaire.service-public.gouv.fr/centre-val-de-loire/loir-et-cher/98ce0899-3e02-4b51-bd34-54d641f5730e"}
{"nom":"Dhuizon","nomNormalise":"dhuizon","typeCollectivite":"Commune","region":"Centre-Val de Loire","departement":"Loir-et-Cher","departementCode":"41","adresse":{"street":"Place Saint-Pierre","postalCode":"41220","city":"Dhuizon","country":"France"},"contacts":{"email":"mairie-dhuizon@wanadoo.fr","telephone":"0254985000"},"horaires":"Du Lundi au Mercredi : de 08h30 à 12h00\nLe Jeudi : de 08h30 à 12h00 de 14h00 à 17h30\nLe Vendredi : de 08h30 à 12h00 de 14h00 à 17h00","latitude":47.5891,"longitude":1.65844,"website":"http://www.dhuizon.fr/","hasWebsite":true,"hasHoraires":true,"url":"https://lannuaire.service-public.gouv.fr/centre-val-de-loire/loir-et-cher/2f323650-7671-4d1f-a91f-845fa10f7568"}
{"nom":"Droué","nomNormalise":"droue","typeCollectivite":"Commune","region":"Centre-Val de Loire","departement":"Loir-et-Cher","departementCode":"41","adresse":{"street":"24 rue Saint-Nicolas","postalCode":"41270","city":"Droué","country":"France"},"contacts":{"email":"mairiededroue@orange.fr","telephone":"0254805039"},"horaires":"Le Lundi : de 09h00 à 12h00\nLe Mardi : de 09h00 à 12h00 de 14h00 à 17h00\nLe Mercredi : de 09h00 à 12h00\nLe Jeudi : de 09h00 à 12h00\nLe Vendredi : de 09h00 à 12h00 de 14h00 à 16h00","latitude":48.0405,"longitude":1.0762,"website":"http://www.droue.fr/","hasWebsite":true,"hasHoraires":true,"url":"https://lannuaire.service-public.gouv.fr/centre-val-de-loire/loir-et-cher/5de18949-18fb-4a60-a160-25eb92839e54"}
{"nom":"Épiais","nomNormalise":"epiais","typeCollectivite":"Commune","region":"Centre-Val de Loire","departement":"Loir-et-Cher","departementCode":"41","adresse":{"street":"Route de Vendôme","postalCode":"41290","city":"Épiais","country":"France"},"contacts":{"email":"contact@mairie-epiais.fr","telephone":"0254230077"},"horaires":"Le Mardi : de 09h00 à 12h00 de 14h00 à 17h00","latitude":47.80752,"longitude":1.251941,"website":"","hasWebsite":false,"hasHoraires":true,"url":"https://lannuaire.service-public.gouv.fr/centre-val-de-loire/loir-et-cher/c864acec-aeae-4cfc-b01c-6f1b6b8a5457"}
{"nom":"Épuisay","nomNormalise":"epuisay","typeCollectivite":"Commune","region":"Centre-Val de Loire","departement":"Loir-et-Cher","departementCode":"41","adresse":{"street":"Place de la Mairie","postalCode":"41360","city":"Épuisay","country":"France"},"contacts":{"email":"mairie.epuisay@wanadoo.fr","telephone":"0254720179"},"horaires":"Le Lundi : de 13h30 à 17h00\nLe Mardi : de 08h00 à 12h00\nDu Mercredi au Jeudi : de 13h30 à 17h00\nLe Vendredi : de 13h30 à 18h00","latitude":47.879574,"longitude":0.8095464,"website":"","hasWebsite":false,"hasHoraires":true,"url":"https://lannuaire.service-public.gouv.fr/centre-val-de-loire/loir-et-cher/18b7871d-5163-470a-8abf-2279cc6d7e09"}
{"nom":"Faverolles-sur-Cher","nomNormalise":"faverollessurcher","typeCollectivite":"Commune","region":"Centre-Val de Loire","departement":"Loir-et-Cher","departementCode":"41","adresse":{"street":"19 rue de la Mairie","postalCode":"41400","city":"Faverolles-sur-Cher","country":"France"},"contacts":{"email":"faverolles41@gmail.com","telephone":"0254320401"},"horaires":"Du Lundi au Mardi : de 09h00 à 17h30\nDu Jeudi au Vendredi : de 09h00 à 17h30\nLe Samedi : de 09h00 à 12h00","latitude":47.3206,"longitude":1.18573,"website":"http://www.faverollessurcher.fr/","hasWebsite":true,"hasHoraires":true,"url":"https://lannuaire.service-public.gouv.fr/centre-val-de-loire/loir-et-cher/3302533a-1f67-4fe3-8652-12544a9fb27f"}
{"nom":"Faye","nomNormalise":"faye","typeCollectivite":"Commune","region":"Centre-Val de Loire","departement":"Loir-et-Cher","departementCode":"41","adresse":{"street":"12 rue du Château","postalCode":"41100","city":"Faye","country":"France"},"contacts":{"email":"mairie.faye@wanadoo.fr","telephone":"0977906502"},"horaires":"Le Lundi : de 15h00 à 18h00","latitude":47.802345,"longitude":1.176582,"website":"https://faye41.fr/","hasWebsite":true,"hasHoraires":true,"url":"https://lannuaire.service-public.gouv.fr/centre-val-de-loire/loir-et-cher/f18c1069-57d8-4854-8f39-18bcd1e5a41a"}
{"nom":"Mairie déléguée - Feings","nomNormalise":"mairiedelegueefeings","typeCollectivite":"Commune","region":"Centre-Val de Loire","departement":"Loir-et-Cher","departementCode":"41","adresse":{"street":"Feings","postalCode":"41120","city":"Controis-en-Sologne","country":"France"},"contacts":{"email":"mairie.feings@controis-en-sologne.fr","telephone":"0254202733"},"horaires":"Le Mardi : de 09h00 à 12h30\nLe Jeudi : de 09h00 à 12h30","latitude":47.4388,"longitude":1.35495,"website":"https://www.controis-en-sologne.fr/","hasWebsite":true,"hasHoraires":true,"url":"https://lannuaire.service-public.gouv.fr/centre-val-de-loire/loir-et-cher/369304ed-240f-4332-86ae-d01dcd1919dc"}
{"nom":"Fontaine-les-Coteaux","nomNormalise":"fontainelescoteaux","typeCollectivite":"Commune","region":"Centre-Val de Loire","departement":"Loir-et-Cher","departementCode":"41","adresse":{"street":"4 place de l'Église","postalCode":"41800","city":"Fontaine-les-Coteaux","country":"France"},"contacts":{"email":"fontaine-les-coteaux@wanadoo.fr","telephone":"0254853358"},"horaires":"Le Lundi : de 12h00 à 14h00\nLe Mardi : de 10h15 à 12h15\nLe Vendredi : de 16h00 à 18h00","latitude":47.7766,"longitude":0.891281,"website":"https://www.fontaine-les-coteaux.fr/","hasWebsite":true,"hasHoraires":true,"url":"https://lannuaire.service-public.gouv.fr/centre-val-de-loire/loir-et-cher/011a6314-32d5-467c-903e-e9502d167473"}
{"nom":"Fontaine-Raoul","nomNormalise":"fontaineraoul","typeCollectivite":"Commune","region":"Centre-Val de Loire","departement":"Loir-et-Cher","departementCode":"41","adresse":{"street":"Rue Principale","postalCode":"41270","city":"Fontaine-Raoul","country":"France"},"contacts":{"email":"mairiedefontaineraoul@gmail.com","telephone":"0254801652"},"horaires":"Le Mardi : de 14h00 à 16h00\nLe Jeudi : de 14h00 à 16h00","latitude":47.989685,"longitude":1.139465,"website":"","hasWebsite":false,"hasHoraires":true,"url":"https://lannuaire.service-public.gouv.fr/centre-val-de-loire/loir-et-cher/a01012fb-f216-4a85-844a-b30096b18fb5"}
{"nom":"Fontaines-en-Sologne","nomNormalise":"fontainesensologne","typeCollectivite":"Commune","region":"Centre-Val de Loire","departement":"Loir-et-Cher","departementCode":"41","adresse":{"street":"91 route de Bracieux","postalCode":"41250","city":"Fontaines-en-Sologne","country":"France"},"contacts":{"email":"mairie-fontaines-en-sologne@wanadoo.fr","telephone":"0254464224"},"horaires":"Le Mardi : de 09h00 à 12h00 de 13h00 à 18h00\nLe Jeudi : de 09h00 à 12h00 de 13h00 à 18h00\nLe Vendredi : de 15h30 à 18h00","latitude":47.51059,"longitude":1.5500928,"website":"https://www.fontaines-en-sologne.fr/","hasWebsite":true,"hasHoraires":true,"url":"https://lannuaire.service-public.gouv.fr/centre-val-de-loire/loir-et-cher/7be72315-530c-4e08-b0d0-327a20dc3ecd"}
{"nom":"Fortan","nomNormalise":"fortan","typeCollectivite":"Commune","region":"Centre-Val de Loire","departement":"Loir-et-Cher","departementCode":"41","adresse":{"street":"2 place de l'Église","postalCode":"41360","city":"Fortan","country":"France"},"contacts":{"email":"mairie@fortan.fr","telephone":"0254720097"},"horaires":"Le Mercredi : de 09h00 à 15h00\nLe Jeudi : de 14h00 à 18h00","latitude":47.8445,"longitude":0.9146118,"website":"http://www.fortan.fr/","hasWebsite":true,"hasHoraires":true,"url":"https://lannuaire.service-public.gouv.fr/centre-val-de-loire/loir-et-cher/60afba2e-41ba-465f-ad2e-50c2c6019854"}
{"nom":"Fossé","nomNormalise":"fosse","typeCollectivite":"Commune","region":"Centre-Val de Loire","departement":"Loir-et-Cher","departementCode":"41","adresse":{"street":"20 rue de Saint-Sulpice","postalCode":"41330","city":"Fossé","country":"France"},"contacts":{"email":"mairiedefosse-41@fosse41.fr","telephone":"0254200403"},"horaires":"Le Lundi : de 08h45 à 12h00\nLe Mardi : de 08h45 à 12h00 de 16h30 à 18h30\nLe Mercredi : de 08h45 à 12h00\nLe Jeudi : de 08h45 à 12h00 de 16h30 à 18h30\nLe Vendredi : de 08h45 à 12h00","latitude":47.6313,"longitude":1.28309,"website":"http://www.fosse41.fr/","hasWebsite":true,"hasHoraires":true,"url":"https://lannuaire.service-public.gouv.fr/centre-val-de-loire/loir-et-cher/9dfc192b-da87-4b9c-b5d5-2f82e579ebdf"}
{"nom":"Mairie déléguée - Fougères-sur-Bièvre","nomNormalise":"mairiedelegueefougeressurbievre","typeCollectivite":"Commune","region":"Centre-Val de Loire","departement":"Loir-et-Cher","departementCode":"41","adresse":{"street":"Fougères-sur-Bièvre","postalCode":"41120","city":"Controis-en-Sologne","country":"France"},"contacts":{"email":"mairie.fougeres@controis-en-sologne.fr","telephone":"0254202650"},"horaires":"Le Lundi : de 14h00 à 17h30\nLe Jeudi : de 14h00 à 17h30\nLe Vendredi : de 09h00 à 12h30","latitude":47.446835,"longitude":1.3440764,"website":"https://www.controis-en-sologne.fr/","hasWebsite":true,"hasHoraires":true,"url":"https://lannuaire.service-public.gouv.fr/centre-val-de-loire/loir-et-cher/7b800a56-c481-424b-b842-6a8a3bb93842"}
{"nom":"Françay","nomNormalise":"francay","typeCollectivite":"Commune","region":"Centre-Val de Loire","departement":"Loir-et-Cher","departementCode":"41","adresse":{"street":"3 rue du Perche","postalCode":"41190","city":"Françay","country":"France"},"contacts":{"email":"mairie.francay@wanadoo.fr","telephone":"0254461759"},"horaires":"Le Mardi : de 14h00 à 17h00\nLe Jeudi : de 09h00 à 11h00","latitude":47.619686,"longitude":1.123432,"website":"","hasWebsite":false,"hasHoraires":true,"url":"https://lannuaire.service-public.gouv.fr/centre-val-de-loire/loir-et-cher/1a830e02-fe48-481d-a522-d28a398f3005"}
{"nom":"Fresnes","nomNormalise":"fresnes","typeCollectivite":"Commune","region":"Centre-Val de Loire","departement":"Loir-et-Cher","departementCode":"41","adresse":{"street":"Place de la Mairie","postalCode":"41700","city":"Fresnes","country":"France"},"contacts":{"email":"mairie.fresnes41@orange.fr","telephone":"0254795319"},"horaires":"Le Lundi : de 09h00 à 12h00\nLe Mardi : de 13h30 à 17h00\nDu Jeudi au Vendredi : de 13h30 à 17h00\nLe Samedi : de 09h00 à 12h00\n\nAccueil possible sur rendez-vous en dehors de ces horaires.","latitude":47.43395,"longitude":1.4124,"website":"http://www.fresnes41.fr/","hasWebsite":true,"hasHoraires":true,"url":"https://lannuaire.service-public.gouv.fr/centre-val-de-loire/loir-et-cher/516a5660-e3c7-4dbc-ab0f-0288a8ce7985"}
{"nom":"Fréteval","nomNormalise":"freteval","typeCollectivite":"Commune","region":"Centre-Val de Loire","departement":"Loir-et-Cher","departementCode":"41","adresse":{"street":"31 rue Louis-et-Marie-Louise-Tessier","postalCode":"41160","city":"Fréteval","country":"France"},"contacts":{"email":"freteval.mairie@freteval.fr","telephone":"0254826352"},"horaires":"Le Lundi : de 14h00 à 18h00\nLe Mercredi : de 14h00 à 18h00\nLe Vendredi : de 14h00 à 18h00\nLe Samedi : de 09h00 à 12h00\n\nLes 2ème et 3ème Samedis de chaque mois","latitude":47.8877,"longitude":1.2079,"website":"","hasWebsite":false,"hasHoraires":true,"url":"https://lannuaire.service-public.gouv.fr/centre-val-de-loire/loir-et-cher/cde4f708-16ac-45ce-adaa-9ba1a8047ecf"}
{"nom":"Gièvres","nomNormalise":"gievres","typeCollectivite":"Commune","region":"Centre-Val de Loire","departement":"Loir-et-Cher","departementCode":"41","adresse":{"street":"42 rue André-Bonnet","postalCode":"41130","city":"Gièvres","country":"France"},"contacts":{"email":"contact@gievres.fr","telephone":"0254986061"},"horaires":"Du Lundi au Mardi : de 08h30 à 12h00 de 13h30 à 17h30\nLe Jeudi : de 08h30 à 12h00 de 13h30 à 17h30\nLe Vendredi : de 08h30 à 12h00 de 13h30 à 17h00","latitude":47.275185,"longitude":1.6663055,"website":"https://www.gievres.fr/","hasWebsite":true,"hasHoraires":true,"url":"https://lannuaire.service-public.gouv.fr/centre-val-de-loire/loir-et-cher/1d53f3ee-311d-496e-b35d-891c4eaaa67b"}
{"nom":"Gombergean","nomNormalise":"gombergean","typeCollectivite":"Commune","region":"Centre-Val de Loire","departement":"Loir-et-Cher","departementCode":"41","adresse":{"street":"16 rue de la Liberté","postalCode":"41310","city":"Gombergean","country":"France"},"contacts":{"email":"mairie.gombergean@wanadoo.fr","telephone":"0254829078"},"horaires":"Le Mercredi : de 16h00 à 19h00\nLe Vendredi : de 10h00 à 12h00 de 15h00 à 17h00","latitude":47.650627,"longitude":1.085067,"website":"https://www.mairiegombergean41.jimdofree.com/","hasWebsite":true,"hasHoraires":true,"url":"https://lannuaire.service-public.gouv.fr/centre-val-de-loire/loir-et-cher/bd488334-9ed0-4357-8b97-81b8899e0741"}
{"nom":"Gy-en-Sologne","nomNormalise":"gyensologne","typeCollectivite":"Commune","region":"Centre-Val de Loire","departement":"Loir-et-Cher","departementCode":"41","adresse":{"street":"3 rue de la Croix-Saint-André","postalCode":"41230","city":"Gy-en-Sologne","country":"France"},"contacts":{"email":"secretariat-gy-en-sologne@orange.fr","telephone":"0254838303"},"horaires":"Le Mardi : de 13h30 à 17h00\nLe Jeudi : de 08h00 à 12h30\nLe Vendredi : de 13h30 à 17h00\nLe Samedi : de 09h00 à 12h00\n\nsemaines paires.","latitude":47.344177,"longitude":1.583202,"website":"","hasWebsite":false,"hasHoraires":true,"url":"https://lannuaire.service-public.gouv.fr/centre-val-de-loire/loir-et-cher/025ecd33-c4e7-428a-afb6-8bec416219fc"}
{"nom":"Herbault","nomNormalise":"herbault","typeCollectivite":"Commune","region":"Centre-Val de Loire","departement":"Loir-et-Cher","departementCode":"41","adresse":{"street":"4 Place de l'Hôtel-de-Ville","postalCode":"41190","city":"Herbault","country":"France"},"contacts":{"email":"mairieherbault@wanadoo.fr","telephone":"0254461333"},"horaires":"Le Lundi : de 08h30 à 12h00 de 14h00 à 17h00\nDu Mardi au Jeudi : de 08h30 à 12h00\nLe Vendredi : de 08h30 à 12h00 de 14h00 à 17h00","latitude":47.60414,"longitude":1.1407945,"website":"https://www.ville-herbault.fr/","hasWebsite":true,"hasHoraires":true,"url":"https://lannuaire.service-public.gouv.fr/centre-val-de-loire/loir-et-cher/6f868581-644f-4ac7-80ec-e4bb58f02201"}
{"nom":"Houssay","nomNormalise":"houssay","typeCollectivite":"Commune","region":"Centre-Val de Loire","departement":"Loir-et-Cher","departementCode":"41","adresse":{"street":"7 rue Principale","postalCode":"41800","city":"Houssay","country":"France"},"contacts":{"email":"commune.houssay@orange.fr","telephone":"0254850653"},"horaires":"Le Lundi : de 17h30 à 19h30\nLe Jeudi : de 17h30 à 19h30\nLe Samedi : de 10h30 à 12h00","latitude":47.7527,"longitude":0.939072,"website":"","hasWebsite":false,"hasHoraires":true,"url":"https://lannuaire.service-public.gouv.fr/centre-val-de-loire/loir-et-cher/2906319f-2940-4b92-aad4-b3e45f461a28"}
{"nom":"Huisseau-en-Beauce","nomNormalise":"huisseauenbeauce","typeCollectivite":"Commune","region":"Centre-Val de Loire","departement":"Loir-et-Cher","departementCode":"41","adresse":{"street":"4 avenue de la Haute-Voie","postalCode":"41310","city":"Huisseau-en-Beauce","country":"France"},"contacts":{"email":"mairie.huisseau.en.beauce@orange.fr","telephone":"0254828138"},"horaires":"Le Lundi : de 14h00 à 17h00\nLe Mardi : de 09h30 à 12h00 de 14h00 à 17h00\nLe Jeudi : de 09h30 à 12h00 de 14h00 à 17h00\nLe Vendredi : de 09h30 à 12h00","latitude":47.723244,"longitude":1.0091583,"website":"","hasWebsite":false,"hasHoraires":true,"url":"https://lannuaire.service-public.gouv.fr/centre-val-de-loire/loir-et-cher/25a0893e-eb8e-4511-ad1c-cae2d03844b7"}
{"nom":"Huisseau-sur-Cosson","nomNormalise":"huisseausurcosson","typeCollectivite":"Commune","region":"Centre-Val de Loire","departement":"Loir-et-Cher","departementCode":"41","adresse":{"street":"253 route de Chambord","postalCode":"41350","city":"Huisseau-sur-Cosson","country":"France"},"contacts":{"email":"mairie@huisseausurcosson.fr","telephone":"0254203107"},"horaires":"Le Lundi : de 09h00 à 12h00 de 14h00 à 17h00\nDu Mardi au Mercredi : de 09h00 à 12h00\nLe Jeudi : de 09h00 à 12h00 de 16h00 à 19h00\n\nOuvert de 14h à 17h en juillet-août.\nLe Vendredi : de 09h00 à 12h00","latitude":47.5926,"longitude":1.45415,"website":"https://www.huisseausurcosson.fr/","hasWebsite":true,"hasHoraires":true,"url":"https://lannuaire.service-public.gouv.fr/centre-val-de-loire/loir-et-cher/26bb6d91-d85c-4252-9b85-ec57d48f09e8"}
{"nom":"Josnes","nomNormalise":"josnes","typeCollectivite":"Commune","region":"Centre-Val de Loire","departement":"Loir-et-Cher","departementCode":"41","adresse":{"street":"Place de la Mairie","postalCode":"41370","city":"Josnes","country":"France"},"contacts":{"email":"mairie-de-josnes@orange.fr","telephone":"0254874018"},"horaires":"Du Lundi au Jeudi : de 08h30 à 12h00\nLe Vendredi : de 08h30 à 12h00 de 13h30 à 16h30\nLe Samedi : de 09h00 à 12h00\n\nOuvert uniquement les samedis des semaines impaires.","latitude":47.79742,"longitude":1.523157,"website":"https://mairie-josnes.com/","hasWebsite":true,"hasHoraires":true,"url":"https://lannuaire.service-public.gouv.fr/centre-val-de-loire/loir-et-cher/236040af-0c88-4c3d-9200-67c4e15fb19c"}
{"nom":"La Chapelle-Enchérie","nomNormalise":"lachapelleencherie","typeCollectivite":"Commune","region":"Centre-Val de Loire","departement":"Loir-et-Cher","departementCode":"41","adresse":{"street":"13 rue Marie-Luce","postalCode":"41290","city":"La Chapelle-Enchérie","country":"France"},"contacts":{"email":"mairie@lachapelle-encherie.fr","telephone":"0254775842"},"horaires":"Le Mercredi : de 09h30 à 12h30 de 14h00 à 17h45","latitude":47.825268,"longitude":1.203137,"website":"","hasWebsite":false,"hasHoraires":true,"url":"https://lannuaire.service-public.gouv.fr/centre-val-de-loire/loir-et-cher/bd7504f0-19ae-469c-a91e-5f50340cfda2"}
{"nom":"La Chapelle-Montmartin","nomNormalise":"lachapellemontmartin","typeCollectivite":"Commune","region":"Centre-Val de Loire","departement":"Loir-et-Cher","departementCode":"41","adresse":{"street":"5 route Saint-Julien","postalCode":"41320","city":"La Chapelle-Montmartin","country":"France"},"contacts":{"email":"lachapellemontmartin@orange.fr","telephone":"0254964133"},"horaires":"Du Mardi au Jeudi : de 09h00 à 12h30 de 13h30 à 17h30\nLe Vendredi : de 09h00 à 12h30 de 13h30 à 17h00\nLe Samedi : de 08h30 à 12h00","latitude":47.2713,"longitude":1.73955,"website":"http://www.la-chapelle-montmartin.fr/","hasWebsite":true,"hasHoraires":true,"url":"https://lannuaire.service-public.gouv.fr/centre-val-de-loire/loir-et-cher/bd8d7114-4fe6-4da1-a271-4d117cc71584"}
{"nom":"La Chapelle-Saint-Martin-en-Plaine","nomNormalise":"lachapellesaintmartinenplaine","typeCollectivite":"Commune","region":"Centre-Val de Loire","departement":"Loir-et-Cher","departementCode":"41","adresse":{"street":"10 rue des Fleurs","postalCode":"41500","city":"La Chapelle-St-Martin-En-Plaine","country":"France"},"contacts":{"email":"mairie@chapellestmartin.fr","telephone":"0254873014"},"horaires":"Du Lundi au Mardi : de 09h00 à 12h00 de 14h00 à 16h30\nDu Jeudi au Vendredi : de 09h00 à 12h00 de 14h00 à 16h30","latitude":47.7175,"longitude":1.41499,"website":"","hasWebsite":false,"hasHoraires":true,"url":"https://lannuaire.service-public.gouv.fr/centre-val-de-loire/loir-et-cher/888645c6-65b9-4a79-a03b-5d0716abb0fc"}
{"nom":"La Chapelle-Vendômoise","nomNormalise":"lachapellevendomoise","typeCollectivite":"Commune","region":"Centre-Val de Loire","departement":"Loir-et-Cher","departementCode":"41","adresse":{"street":"1 rue de Blois","postalCode":"41330","city":"La Chapelle-Vendômoise","country":"France"},"contacts":{"email":"mairie.lachapellevendomoise@wanadoo.fr","telephone":"0254201618"},"horaires":"Du Lundi au Vendredi : de 10h00 à 12h00 de 17h00 à 18h00","latitude":47.6701,"longitude":1.23954,"website":"http://www.lachapellevendomoise.fr/","hasWebsite":true,"hasHoraires":true,"url":"https://lannuaire.service-public.gouv.fr/centre-val-de-loire/loir-et-cher/9e3de91e-6c69-4e72-bdde-da2dac8e0fa9"}
{"nom":"La Chapelle-Vicomtesse","nomNormalise":"lachapellevicomtesse","typeCollectivite":"Commune","region":"Centre-Val de Loire","departement":"Loir-et-Cher","departementCode":"41","adresse":{"street":"17 rue Saint-Michel","postalCode":"41270","city":"La Chapelle-Vicomtesse","country":"France"},"contacts":{"email":"mairiechapellevicomtesse@wanadoo.fr","telephone":"0254805212"},"horaires":"Le Lundi : de 09h00 à 12h00\nLe Jeudi : de 09h00 à 12h00","latitude":47.99071,"longitude":1.035065,"website":"","hasWebsite":false,"hasHoraires":true,"url":"https://lannuaire.service-public.gouv.fr/centre-val-de-loire/loir-et-cher/024a11cc-4153-4b49-a292-09c07e140dab"}
{"nom":"La Chaussée-Saint-Victor","nomNormalise":"lachausseesaintvictor","typeCollectivite":"Commune","region":"Centre-Val de Loire","departement":"Loir-et-Cher","departementCode":"41","adresse":{"street":"Place Étienne-Régnier","postalCode":"41261","city":"La Chaussée-Saint-Victor","country":"France"},"contacts":{"email":"mairie@lcsv.fr","telephone":"0254554040"},"horaires":"Le Lundi : de 08h00 à 12h00 de 13h30 à 17h30\nLe Mardi : de 08h00 à 12h00\nDu Mercredi au Jeudi : de 08h00 à 12h00 de 13h30 à 17h30\nLe Vendredi : de 08h00 à 12h00 de 13h30 à 17h00","latitude":47.615932,"longitude":1.367242,"website":"http://www.lachausseesaintvictor.fr/","hasWebsite":true,"hasHoraires":true,"url":"https://lannuaire.service-public.gouv.fr/centre-val-de-loire/loir-et-cher/deb8bc42-547d-4c2a-8155-a3a32852030f"}
{"nom":"La Ferté-Beauharnais","nomNormalise":"lafertebeauharnais","typeCollectivite":"Commune","region":"Centre-Val de Loire","departement":"Loir-et-Cher","departementCode":"41","adresse":{"street":"350 rue du Général-Alexandre-de-Beauharnais","postalCode":"41210","city":"La-Ferté-Beauharnais","country":"France"},"contacts":{"email":"lafertebeauharnais@orange.fr","telephone":"0254836074"},"horaires":"Le Lundi : de 10h00 à 12h00\nLe Mardi : de 10h00 à 12h00 de 15h00 à 17h30\nDu Mercredi au Jeudi : de 10h00 à 12h00\nLe Vendredi : de 10h00 à 12h00 de 15h00 à 17h30\nLe Samedi : de 10h00 à 12h00\n\nOuvert uniquement le 1er samedi du mois","latitude":47.54029,"longitude":1.845705,"website":"https://www.la-ferte-beauharnais.fr/","hasWebsite":true,"hasHoraires":true,"url":"https://lannuaire.service-public.gouv.fr/centre-val-de-loire/loir-et-cher/533fc902-6644-4a25-9e22-c2fbaf074ef4"}
{"nom":"La Ferté-Imbault","nomNormalise":"laferteimbault","typeCollectivite":"Commune","region":"Centre-Val de Loire","departement":"Loir-et-Cher","departementCode":"41","adresse":{"street":"42 rue Nationale","postalCode":"41300","city":"La Ferté-Imbault","country":"France"},"contacts":{"email":"contact@laferteimbault.fr","telephone":"0254962213"},"horaires":"Du Lundi au Vendredi : de 09h00 à 12h00 de 14h00 à 17h00","latitude":47.3864,"longitude":1.96022,"website":"https://www.laferteimbault.fr/","hasWebsite":true,"hasHoraires":true,"url":"https://lannuaire.service-public.gouv.fr/centre-val-de-loire/loir-et-cher/8a3fb3db-1be8-46cc-a8f4-926d1490e04a"}
{"nom":"La Ferté-Saint-Cyr","nomNormalise":"lafertesaintcyr","typeCollectivite":"Commune","region":"Centre-Val de Loire","departement":"Loir-et-Cher","departementCode":"41","adresse":{"street":"11 rue du Bourg","postalCode":"41220","city":"La Ferté-Saint-Cyr","country":"France"},"contacts":{"email":"secretariat@lafertesaintcyr.fr","telephone":"0254879140"},"horaires":"Le Lundi : de 14h00 à 18h00\nLe Mardi : de 08h30 à 12h00\nDu Jeudi au Vendredi : de 08h30 à 12h00\nLe Samedi : de 09h00 à 12h00\n\nUniquement le 1er samedi du mois.","latitude":47.65639,"longitude":1.673822,"website":"https://www.lafertesaintcyr.fr/","hasWebsite":true,"hasHoraires":true,"url":"https://lannuaire.service-public.gouv.fr/centre-val-de-loire/loir-et-cher/bb7548b9-27ae-479c-8d6a-f6179cb3b51a"}
{"nom":"La Fontenelle","nomNormalise":"lafontenelle","typeCollectivite":"Commune","region":"Centre-Val de Loire","departement":"Loir-et-Cher","departementCode":"41","adresse":{"street":"13 rue de la Mairie","postalCode":"41270","city":"La Fontenelle","country":"France"},"contacts":{"email":"mairie@lafontenelle41.fr","telephone":"0254805132"},"horaires":"Le Mardi : de 09h00 à 12h00\nLe Vendredi : de 09h00 à 12h00","latitude":48.061466,"longitude":1.0256197,"website":"","hasWebsite":false,"hasHoraires":true,"url":"https://lannuaire.service-public.gouv.fr/centre-val-de-loire/loir-et-cher/cffba9fe-9a8d-48e9-a614-373a3225f723"}
{"nom":"La Madeleine-Villefrouin","nomNormalise":"lamadeleinevillefrouin","typeCollectivite":"Commune","region":"Centre-Val de Loire","departement":"Loir-et-Cher","departementCode":"41","adresse":{"street":"Bourrichard","postalCode":"41370","city":"La Madeleine-Villefrouin","country":"France"},"contacts":{"email":"mairie.madeleine@orange.fr","telephone":"0254723081"},"horaires":"Le Vendredi : de 13h30 à 17h30","latitude":47.785873,"longitude":1.412138,"website":"","hasWebsite":false,"hasHoraires":true,"url":"https://lannuaire.service-public.gouv.fr/centre-val-de-loire/loir-et-cher/55220a6d-0f93-43df-92b1-6d3e7be70bb5"}
{"nom":"La Marolle-en-Sologne","nomNormalise":"lamarolleensologne","typeCollectivite":"Commune","region":"Centre-Val de Loire","departement":"Loir-et-Cher","departementCode":"41","adresse":{"street":"14 rue des Écoles","postalCode":"41210","city":"La Marolle-en-Sologne","country":"France"},"contacts":{"email":"mairie.lamarolleensologne@wanadoo.fr","telephone":"0254836416"},"horaires":"Le Lundi : de 14h00 à 19h00\nDu Mardi au Mercredi : de 10h00 à 12h00\nLe Jeudi : de 14h00 à 19h00\nLe Vendredi : de 14h00 à 17h00","latitude":47.58344,"longitude":1.780113,"website":"https://www.lamarolleensologne.fr/","hasWebsite":true,"hasHoraires":true,"url":"https://lannuaire.service-public.gouv.fr/centre-val-de-loire/loir-et-cher/35fc95cf-26a7-4a04-8e7d-956231466f53"}
{"nom":"Lamotte-Beuvron","nomNormalise":"lamottebeuvron","typeCollectivite":"Commune","region":"Centre-Val de Loire","departement":"Loir-et-Cher","departementCode":"41","adresse":{"street":"41 avenue de l'Hôtel-de-Ville","postalCode":"41600","city":"Lamotte-Beuvron","country":"France"},"contacts":{"email":"contact@lamotte-beuvron.fr","telephone":"0254888484"},"horaires":"Du Lundi au Mercredi : de 09h00 à 12h00 de 13h30 à 17h30\nLe Jeudi : de 09h00 à 12h00\nLe Vendredi : de 09h00 à 12h00 de 13h30 à 17h30\nLe Samedi : de 09h30 à 12h00\n\nAccueil ouvert uniquement pour l'état civil.","latitude":47.6003,"longitude":2.02433,"website":"https://www.lamotte-beuvron.fr/","hasWebsite":true,"hasHoraires":true,"url":"https://lannuaire.service-public.gouv.fr/centre-val-de-loire/loir-et-cher/416a305f-5698-446a-abf1-8bb4f5aa731c"}
{"nom":"Lancé","nomNormalise":"lance","typeCollectivite":"Commune","region":"Centre-Val de Loire","departement":"Loir-et-Cher","departementCode":"41","adresse":{"street":"17 rue Saint-Martin","postalCode":"41310","city":"Lancé","country":"France"},"contacts":{"email":"mairie-lance@wanadoo.fr","telephone":"0254828124"},"horaires":"Le Lundi : de 14h00 à 17h30\nLe Mardi : de 09h00 à 12h00 de 14h00 à 18h00\nDu Mercredi au Jeudi : de 09h00 à 12h00\nLe Vendredi : de 09h00 à 12h00 de 13h30 à 17h30","latitude":47.69357,"longitude":1.0669888,"website":"","hasWebsite":false,"hasHoraires":true,"url":"https://lannuaire.service-public.gouv.fr/centre-val-de-loire/loir-et-cher/b2d207b6-c440-4636-8ad2-a80e779d4d4f"}
{"nom":"Lancôme","nomNormalise":"lancome","typeCollectivite":"Commune","region":"Centre-Val de Loire","departement":"Loir-et-Cher","departementCode":"41","adresse":{"street":"7 rue de la Cisse","postalCode":"41190","city":"Lancôme","country":"France"},"contacts":{"email":"mairie-de-lancome@wanadoo.fr","telephone":"0254461640"},"horaires":"Le Jeudi : de 10h30 à 12h30","latitude":47.648296,"longitude":1.122743,"website":"","hasWebsite":false,"hasHoraires":true,"url":"https://lannuaire.service-public.gouv.fr/centre-val-de-loire/loir-et-cher/93841a6a-9ef0-4c42-906d-0983fc3e6d31"}
{"nom":"Landes-le-Gaulois","nomNormalise":"landeslegaulois","typeCollectivite":"Commune","region":"Centre-Val de Loire","departement":"Loir-et-Cher","departementCode":"41","adresse":{"street":"2 rue des Écoles","postalCode":"41190","city":"Landes-le-Gaulois","country":"France"},"contacts":{"email":"landes.le.gaulois@wanadoo.fr","telephone":"0254201840"},"horaires":"Le Lundi : de 09h00 à 11h30\nLe Mardi : de 17h00 à 19h00\nLe Jeudi : de 17h00 à 19h00\n\nEn dehors de ces horaires, l'accueil est uniquement sur rendez-vous.","latitude":47.652,"longitude":1.18275,"website":"https://landes-le-gaulois.com/","hasWebsite":true,"hasHoraires":true,"url":"https://lannuaire.service-public.gouv.fr/centre-val-de-loire/loir-et-cher/1fb5749b-3660-4f69-a06c-f17b085f6312"}
{"nom":"Langon-sur-Cher","nomNormalise":"langonsurcher","typeCollectivite":"Commune","region":"Centre-Val de Loire","departement":"Loir-et-Cher","departementCode":"41","adresse":{"street":"1 place de la Mairie","postalCode":"41320","city":"Langon-sur-Cher","country":"France"},"contacts":{"email":"langonmairie@orange.fr","telephone":"0254964105"},"horaires":"Le Lundi : de 08h30 à 12h00 de 13h30 à 17h30\nDu Mardi au Jeudi : de 08h30 à 12h00\nLe Vendredi : de 08h00 à 12h00 de 13h30 à 17h30","latitude":47.28378,"longitude":1.8273473,"website":"https://www.langonsurcher.com/","hasWebsite":true,"hasHoraires":true,"url":"https://lannuaire.service-public.gouv.fr/centre-val-de-loire/loir-et-cher/0663d275-204e-4a60-b9e6-7e3808834e38"}
{"nom":"Lassay-sur-Croisne","nomNormalise":"lassaysurcroisne","typeCollectivite":"Commune","region":"Centre-Val de Loire","departement":"Loir-et-Cher","departementCode":"41","adresse":{"street":"2 route de Romorantin","postalCode":"41230","city":"Lassay-sur-Croisne","country":"France"},"contacts":{"email":"mairielassaysurcroisne@gmail.com","telephone":"0254838622"},"horaires":"Le Lundi : de 09h00 à 12h30\nLe Mardi : de 09h00 à 12h30 de 14h00 à 17h00\nLe Vendredi : de 09h00 à 12h30","latitude":47.37401,"longitude":1.62219,"website":"","hasWebsite":false,"hasHoraires":true,"url":"https://lannuaire.service-public.gouv.fr/centre-val-de-loire/loir-et-cher/0ecc77fc-10a2-4720-9ed3-c743f802cfda"}
{"nom":"Lavardin","nomNormalise":"lavardin","typeCollectivite":"Commune","region":"Centre-Val de Loire","departement":"Loir-et-Cher","departementCode":"41","adresse":{"street":"2 passage Saint-Genest","postalCode":"41800","city":"Lavardin","country":"France"},"contacts":{"email":"communedelavardin@wanadoo.fr","telephone":"0254850774"},"horaires":"Le Mardi : de 08h30 à 12h00\nLe Mercredi : de 16h00 à 18h00\nLe Vendredi : de 14h00 à 16h00","latitude":47.7415,"longitude":0.886208,"website":"https://www.lavardin.net/","hasWebsite":true,"hasHoraires":true,"url":"https://lannuaire.service-public.gouv.fr/centre-val-de-loire/loir-et-cher/79f4976b-b7ac-45a4-b6ee-cd580ddb4de3"}
{"nom":"La Ville-aux-Clercs","nomNormalise":"lavilleauxclercs","typeCollectivite":"Commune","region":"Centre-Val de Loire","departement":"Loir-et-Cher","departementCode":"41","adresse":{"street":"4 place de la Mairie","postalCode":"41160","city":"La Ville-aux-Clercs","country":"France"},"contacts":{"email":"mairie@la-ville-aux-clercs.fr","telephone":"0254806235"},"horaires":"Le Lundi : de 09h00 à 12h30\nLe Mardi : de 09h00 à 12h30 de 16h00 à 18h30\nDu Mercredi au Vendredi : de 09h00 à 12h30\nLe Samedi : de 09h00 à 12h30\n\nOuvert uniquement le dernier samedi du mois.","latitude":47.9187,"longitude":1.085239,"website":"http://www.la-ville-aux-clercs.fr/index.php/fr/","hasWebsite":true,"hasHoraires":true,"url":"https://lannuaire.service-public.gouv.fr/centre-val-de-loire/loir-et-cher/25f335a1-7fce-4a5e-b308-7f31bd18aac9"}
{"nom":"Le Gault-du-Perche","nomNormalise":"legaultduperche","typeCollectivite":"Commune","region":"Centre-Val de Loire","departement":"Loir-et-Cher","departementCode":"41","adresse":{"street":"18 Grande rue","postalCode":"41270","city":"Le Gault-du-Perche","country":"France"},"contacts":{"email":"mairie.legaultperche@wanadoo.fr","telephone":"0961383046"},"horaires":"Le Lundi : de 16h00 à 18h00\nLe Jeudi : de 16h00 à 18h00","latitude":48.09437,"longitude":0.978065,"website":"","hasWebsite":false,"hasHoraires":true,"url":"https://lannuaire.service-public.gouv.fr/centre-val-de-loire/loir-et-cher/5c6b25c6-1547-4b60-bc67-94b179f1f834"}
{"nom":"Le Plessis-Dorin","nomNormalise":"leplessisdorin","typeCollectivite":"Commune","region":"Centre-Val de Loire","departement":"Loir-et-Cher","departementCode":"41","adresse":{"street":"4 rue de la Mairie","postalCode":"41170","city":"Le Plessis-Dorin","country":"France"},"contacts":{"email":"mairie@plessis-dorin.fr","telephone":"0254809399"},"horaires":"Le Mardi : de 14h30 à 17h30\nLe Jeudi : de 09h30 à 11h30","latitude":48.089806,"longitude":0.8613892,"website":"","hasWebsite":false,"hasHoraires":true,"url":"https://lannuaire.service-public.gouv.fr/centre-val-de-loire/loir-et-cher/8d41072f-0212-4301-9a97-2ade6c271359"}
{"nom":"Le Plessis-l'Échelle","nomNormalise":"leplessislechelle","typeCollectivite":"Commune","region":"Centre-Val de Loire","departement":"Loir-et-Cher","departementCode":"41","adresse":{"street":"15 route de Beaugency","postalCode":"41370","city":"Le Plessis-l'Échelle","country":"France"},"contacts":{"email":"commune.leplessis.lechelle@wanadoo.fr","telephone":"0254822173"},"horaires":"Le Lundi : de 13h30 à 17h30\nLe Vendredi : de 13h30 à 16h30\n\nAccueil ouvert les vendredis des semaines paires.","latitude":47.8203,"longitude":1.39643,"website":"","hasWebsite":false,"hasHoraires":true,"url":"https://lannuaire.service-public.gouv.fr/centre-val-de-loire/loir-et-cher/95945ac3-689c-4625-a8be-c022f95be7e1"}
{"nom":"Le Poislay","nomNormalise":"lepoislay","typeCollectivite":"Commune","region":"Centre-Val de Loire","departement":"Loir-et-Cher","departementCode":"41","adresse":{"street":"3 rue du Chemin-de-César","postalCode":"41270","city":"Le Poislay","country":"France"},"contacts":{"email":"mairie.lepoislay@wanadoo.fr","telephone":"0254805304"},"horaires":"Le Mardi : de 14h00 à 17h00\nLe Vendredi : de 14h00 à 17h00","latitude":48.066574,"longitude":1.066951,"website":"https://cphv41.fr/fr/","hasWebsite":true,"hasHoraires":true,"url":"https://lannuaire.service-public.gouv.fr/centre-val-de-loire/loir-et-cher/79d61c2d-71f9-4791-8052-985f3e78d8ed"}
{"nom":"Les Essarts","nomNormalise":"lesessarts","typeCollectivite":"Commune","region":"Centre-Val de Loire","departement":"Loir-et-Cher","departementCode":"41","adresse":{"street":"1 rue de la Mairie","postalCode":"41800","city":"Les Essarts","country":"France"},"contacts":{"email":"mairie.lesessarts@wanadoo.fr","telephone":"0254724609"},"horaires":"Le Mardi : de 09h30 à 12h30\nLe Vendredi : de 09h30 à 12h30","latitude":47.731922,"longitude":0.7199588,"website":"","hasWebsite":false,"hasHoraires":true,"url":"https://lannuaire.service-public.gouv.fr/centre-val-de-loire/loir-et-cher/3c5976bf-4b5d-411d-b7aa-337bd8007b7a"}
{"nom":"Les Hayes","nomNormalise":"leshayes","typeCollectivite":"Commune","region":"Centre-Val de Loire","departement":"Loir-et-Cher","departementCode":"41","adresse":{"street":"14 le Bourg","postalCode":"41800","city":"Les Hayes","country":"France"},"contacts":{"email":"mairie.les.hayes@orange.fr","telephone":"0254725940"},"horaires":"Le Lundi : de 08h30 à 11h30\nLe Vendredi : de 08h30 à 11h30","latitude":47.7541,"longitude":0.937824,"website":"","hasWebsite":false,"hasHoraires":true,"url":"https://lannuaire.service-public.gouv.fr/centre-val-de-loire/loir-et-cher/d49d7a04-abea-4912-a643-eb82eb320aad"}
{"nom":"Les Montils","nomNormalise":"lesmontils","typeCollectivite":"Commune","region":"Centre-Val de Loire","departement":"Loir-et-Cher","departementCode":"41","adresse":{"street":"8 rue de Bel-Air","postalCode":"41120","city":"Les Montils","country":"France"},"contacts":{"email":"accueil@mairielesmontils.fr","telephone":"0254444141"},"horaires":"Le Lundi : de 10h00 à 12h00\nLe Mardi : de 10h00 à 12h00 de 15h00 à 18h30\nLe Mercredi : de 10h00 à 12h00\nLe Jeudi : de 10h00 à 12h00 de 15h00 à 18h30\nLe Vendredi : de 10h00 à 12h00","latitude":47.496,"longitude":1.29858,"website":"http://www.lesmontils.com/","hasWebsite":true,"hasHoraires":true,"url":"https://lannuaire.service-public.gouv.fr/centre-val-de-loire/loir-et-cher/8abf9e18-5173-4b5f-a434-7e0e7812b4d3"}
{"nom":"Les Roches-l'Évêque","nomNormalise":"lesrochesleveque","typeCollectivite":"Commune","region":"Centre-Val de Loire","departement":"Loir-et-Cher","departementCode":"41","adresse":{"street":"62 Grande-Rue","postalCode":"41800","city":"Les Roches-l'Évêque","country":"France"},"contacts":{"email":"mairie@lesrochesleveque.fr","telephone":"0254850237"},"horaires":"Le Mardi : de 09h00 à 12h00\nLe Jeudi : de 09h00 à 12h00\nLe Vendredi : de 15h00 à 18h00","latitude":47.777218,"longitude":0.891637,"website":"","hasWebsite":false,"hasHoraires":true,"url":"https://lannuaire.service-public.gouv.fr/centre-val-de-loire/loir-et-cher/9fa8bbca-9b2f-40d0-afb5-38a087c9d122"}
{"nom":"Lestiou","nomNormalise":"lestiou","typeCollectivite":"Commune","region":"Centre-Val de Loire","departement":"Loir-et-Cher","departementCode":"41","adresse":{"street":"26 Grande rue","postalCode":"41500","city":"Lestiou","country":"France"},"contacts":{"email":"mairie@lestiou.fr","telephone":"0254810624"},"horaires":"Le Lundi : de 16h00 à 19h00\nLe Mardi : de 09h00 à 12h00\nLe Jeudi : de 09h00 à 12h00","latitude":47.731644,"longitude":1.5843754,"website":"http://www.lestiou.fr/","hasWebsite":true,"hasHoraires":true,"url":"https://lannuaire.service-public.gouv.fr/centre-val-de-loire/loir-et-cher/9972998f-f930-4645-afaf-65dd5a669cf2"}
{"nom":"Le Temple","nomNormalise":"letemple","typeCollectivite":"Commune","region":"Centre-Val de Loire","departement":"Loir-et-Cher","departementCode":"41","adresse":{"street":"8 route de Beauchêne","postalCode":"41170","city":"Le Temple","country":"France"},"contacts":{"email":"mairie@letemple41.fr","telephone":"0254809453"},"horaires":"Le Lundi : de 15h00 à 18h30\nLe Vendredi : de 16h00 à 18h00","latitude":47.932545,"longitude":0.9354943,"website":"https://www.letemple41.com/","hasWebsite":true,"hasHoraires":true,"url":"https://lannuaire.service-public.gouv.fr/centre-val-de-loire/loir-et-cher/9dba0721-b844-4a06-8ef8-ed4e65936ecf"}
{"nom":"Lignières","nomNormalise":"lignieres","typeCollectivite":"Commune","region":"Centre-Val de Loire","departement":"Loir-et-Cher","departementCode":"41","adresse":{"street":"11 rue du Bourg","postalCode":"41160","city":"Lignières","country":"France"},"contacts":{"email":"mairie.lignieres@wanadoo.fr","telephone":"0254234251"},"horaires":"Le Mardi : de 16h30 à 18h30\nLe Mercredi : de 15h30 à 17h30\nLe Jeudi : de 09h00 à 11h00","latitude":47.863876,"longitude":1.183921,"website":"http://www.lignieres41.fr/","hasWebsite":true,"hasHoraires":true,"url":"https://lannuaire.service-public.gouv.fr/centre-val-de-loire/loir-et-cher/a4067fcc-fd33-46d7-81ca-b86a29a90f3c"}
{"nom":"Lisle","nomNormalise":"lisle","typeCollectivite":"Commune","region":"Centre-Val de Loire","departement":"Loir-et-Cher","departementCode":"41","adresse":{"street":"3 route Nationale","postalCode":"41100","city":"Lisle","country":"France"},"contacts":{"email":"mairie.lisle@wanadoo.fr","telephone":"0254234175"},"horaires":"Le Lundi : de 14h00 à 17h00\nLe Jeudi : de 14h00 à 18h30","latitude":47.850674,"longitude":1.113028,"website":"https://lisle41.fr/","hasWebsite":true,"hasHoraires":true,"url":"https://lannuaire.service-public.gouv.fr/centre-val-de-loire/loir-et-cher/9741447b-ca9e-451b-a5c0-b1d9aa52ed09"}
{"nom":"Loreux","nomNormalise":"loreux","typeCollectivite":"Commune","region":"Centre-Val de Loire","departement":"Loir-et-Cher","departementCode":"41","adresse":{"street":"10 route de Romorantin","postalCode":"41200","city":"Loreux","country":"France"},"contacts":{"email":"mairie.loreux@orange.fr","telephone":"0254761456"},"horaires":"Le Lundi : de 09h00 à 12h00 de 13h00 à 18h00\nLe Mardi : de 09h00 à 12h00\nDu Jeudi au Vendredi : de 09h00 à 12h00 de 13h00 à 18h00","latitude":47.3609,"longitude":1.75365,"website":"https://www.loreux.fr/","hasWebsite":true,"hasHoraires":true,"url":"https://lannuaire.service-public.gouv.fr/centre-val-de-loire/loir-et-cher/a2259c52-efe8-403a-8a73-e9d04bc0fa03"}
{"nom":"Lorges","nomNormalise":"lorges","typeCollectivite":"Commune","region":"Centre-Val de Loire","departement":"Loir-et-Cher","departementCode":"41","adresse":{"street":"10 place de la Mairie","postalCode":"41370","city":"Lorges","country":"France"},"contacts":{"email":"mairielorges@orange.fr","telephone":"0254874301"},"horaires":"Le Mardi : de 16h00 à 17h30\nLe Vendredi : de 09h00 à 12h00","latitude":47.82394,"longitude":1.498134,"website":"http://www.lorges.fr/","hasWebsite":true,"hasHoraires":true,"url":"https://lannuaire.service-public.gouv.fr/centre-val-de-loire/loir-et-cher/a57718af-8f99-4909-812c-fa2c9eb6d237"}
{"nom":"Lunay","nomNormalise":"lunay","typeCollectivite":"Commune","region":"Centre-Val de Loire","departement":"Loir-et-Cher","departementCode":"41","adresse":{"street":"7 place de l'Église","postalCode":"41360","city":"Lunay","country":"France"},"contacts":{"email":"mairie@lunay.com","telephone":"0254720479"},"horaires":"Le Lundi : de 14h00 à 19h00\nLe Mardi : de 10h00 à 12h00 de 14h00 à 16h30\nLe Jeudi : de 10h00 à 12h00\nLe Vendredi : de 10h00 à 12h00 de 14h00 à 16h30","latitude":47.808952,"longitude":0.915619,"website":"http://www.lunay.com/","hasWebsite":true,"hasHoraires":true,"url":"https://lannuaire.service-public.gouv.fr/centre-val-de-loire/loir-et-cher/f328e089-5b5b-4f78-afed-d2384645092a"}
{"nom":"Maray","nomNormalise":"maray","typeCollectivite":"Commune","region":"Centre-Val de Loire","departement":"Loir-et-Cher","departementCode":"41","adresse":{"street":"1 place de la Mairie","postalCode":"41320","city":"Maray","country":"France"},"contacts":{"email":"contact@mairie-maray.fr","telephone":"0254980307"},"horaires":"Du Lundi au Mardi : de 09h00 à 12h30 de 13h30 à 17h00\nDu Jeudi au Vendredi : de 09h00 à 12h30 de 13h30 à 17h00\nLe Samedi : de 09h00 à 11h00\n\nUniquement les 1er et dernier samedi du mois.","latitude":47.24646,"longitude":1.883718,"website":"https://www.mairie-maray.fr/","hasWebsite":true,"hasHoraires":true,"url":"https://lannuaire.service-public.gouv.fr/centre-val-de-loire/loir-et-cher/4cf46e18-8ef5-42f3-ad74-b211e8bef0b7"}
{"nom":"Marchenoir","nomNormalise":"marchenoir","typeCollectivite":"Commune","region":"Centre-Val de Loire","departement":"Loir-et-Cher","departementCode":"41","adresse":{"street":"24 place de l'Église","postalCode":"41370","city":"Marchenoir","country":"France"},"contacts":{"email":"mairie-marchenoir@wanadoo.fr","telephone":"0254723535"},"horaires":"Le Lundi : de 09h00 à 12h00\nLe Mardi : de 09h00 à 12h00 de 13h30 à 17h00\nLe Jeudi : de 09h00 à 12h00\nLe Vendredi : de 13h30 à 17h00\nLe Samedi : de 09h00 à 12h00","latitude":47.8228,"longitude":1.39675,"website":"","hasWebsite":false,"hasHoraires":true,"url":"https://lannuaire.service-public.gouv.fr/centre-val-de-loire/loir-et-cher/79c556e0-1079-40bb-bb67-c4736659e3b9"}
{"nom":"Marcilly-en-Beauce","nomNormalise":"marcillyenbeauce","typeCollectivite":"Commune","region":"Centre-Val de Loire","departement":"Loir-et-Cher","departementCode":"41","adresse":{"street":"4 rue Bourg-Neuf","postalCode":"41100","city":"Marcilly-en-Beauce","country":"France"},"contacts":{"email":"contact@marcilly-en-beauce.fr","telephone":"0254771586"},"horaires":"Du Lundi au Mercredi : de 16h00 à 17h00\nLe Vendredi : de 16h00 à 17h45","latitude":47.763275,"longitude":1.001387,"website":"https://marcilly-en-beauce.fr/","hasWebsite":true,"hasHoraires":true,"url":"https://lannuaire.service-public.gouv.fr/centre-val-de-loire/loir-et-cher/e708a57f-ba40-4ca6-ac18-6f8eba73893f"}
{"nom":"Marcilly-en-Gault","nomNormalise":"marcillyengault","typeCollectivite":"Commune","region":"Centre-Val de Loire","departement":"Loir-et-Cher","departementCode":"41","adresse":{"street":"3 route de Millançay","postalCode":"41210","city":"Marcilly-en-Gault","country":"France"},"contacts":{"email":"secretariat-margault@orange.fr","telephone":"0254966706"},"horaires":"Du Lundi au Mardi : de 09h00 à 12h00\nLe Jeudi : de 09h00 à 12h00\nLe Vendredi : de 09h00 à 12h00 de 14h00 à 17h00\nLe Samedi : de 10h00 à 12h00","latitude":47.4659,"longitude":1.87358,"website":"","hasWebsite":false,"hasHoraires":true,"url":"https://lannuaire.service-public.gouv.fr/centre-val-de-loire/loir-et-cher/523a90e3-e7e2-4b0a-877c-8e6c24dc81e5"}
{"nom":"Mareuil-sur-Cher","nomNormalise":"mareuilsurcher","typeCollectivite":"Commune","region":"Centre-Val de Loire","departement":"Loir-et-Cher","departementCode":"41","adresse":{"street":"75 rue de la République","postalCode":"41110","city":"Mareuil-sur-Cher","country":"France"},"contacts":{"email":"mairie@mareuilsurcher.fr","telephone":"0254751513"},"horaires":"Du Lundi au Vendredi : de 08h15 à 12h15","latitude":47.292217,"longitude":1.330679,"website":"https://www.mareuil-sur-cher.com/","hasWebsite":true,"hasHoraires":true,"url":"https://lannuaire.service-public.gouv.fr/centre-val-de-loire/loir-et-cher/b0cd74e7-f36d-471f-ab11-617ec504fd8b"}
{"nom":"Marolles","nomNormalise":"marolles","typeCollectivite":"Commune","region":"Centre-Val de Loire","departement":"Loir-et-Cher","departementCode":"41","adresse":{"street":"secrétariat de mairie","postalCode":"41330","city":"Marolles","country":"France"},"contacts":{"email":"contact@marolles41.fr","telephone":"0254200326"},"horaires":"Le Lundi : de 14h00 à 18h30\nLe Mercredi : de 09h00 à 12h30\nLe Vendredi : de 14h00 à 17h30","latitude":47.64546,"longitude":1.3056953,"website":"https://marolles41.fr/","hasWebsite":true,"hasHoraires":true,"url":"https://lannuaire.service-public.gouv.fr/centre-val-de-loire/loir-et-cher/4f95735a-6b08-4123-83f4-c4d1ee8b63f9"}
{"nom":"Maslives","nomNormalise":"maslives","typeCollectivite":"Commune","region":"Centre-Val de Loire","departement":"Loir-et-Cher","departementCode":"41","adresse":{"street":"35 rue de Chambord","postalCode":"41250","city":"Maslives","country":"France"},"contacts":{"email":"mairie@maslives.fr","telephone":"0254816074"},"horaires":"Le Lundi : de 08h30 à 11h00 de 13h00 à 17h00\nLe Mercredi : de 08h30 à 12h30\nLe Vendredi : de 14h00 à 18h00","latitude":47.631382,"longitude":1.480922,"website":"https://www.maslives.fr/","hasWebsite":true,"hasHoraires":true,"url":"https://lannuaire.service-public.gouv.fr/centre-val-de-loire/loir-et-cher/375fe249-b16b-4b89-b3a2-6c05e3511447"}
{"nom":"Maves","nomNormalise":"maves","typeCollectivite":"Commune","region":"Centre-Val de Loire","departement":"Loir-et-Cher","departementCode":"41","adresse":{"street":"4 rue de la Sixtre","postalCode":"41500","city":"Maves","country":"France"},"contacts":{"email":"mairie-maves@wanadoo.fr","telephone":"0254873118"},"horaires":"Le Mardi : de 10h30 à 12h00\nLe Vendredi : de 10h30 à 12h00 de 17h00 à 19h00","latitude":47.7427,"longitude":1.36474,"website":"","hasWebsite":false,"hasHoraires":true,"url":"https://lannuaire.service-public.gouv.fr/centre-val-de-loire/loir-et-cher/28502c0e-1ba1-49f7-a666-f6ac58eb3a22"}
{"nom":"Mazangé","nomNormalise":"mazange","typeCollectivite":"Commune","region":"Centre-Val de Loire","departement":"Loir-et-Cher","departementCode":"41","adresse":{"street":"5 rue Suzanne-Marsollier","postalCode":"41100","city":"Mazangé","country":"France"},"contacts":{"email":"contact.mairie@mazange.fr","telephone":"0254720027"},"horaires":"Du Lundi au Mardi : de 14h00 à 17h00\nLe Mercredi : de 09h00 à 12h00\nDu Jeudi au Vendredi : de 14h00 à 17h00","latitude":47.8246,"longitude":0.944923,"website":"https://www.mazange.fr/","hasWebsite":true,"hasHoraires":true,"url":"https://lannuaire.service-public.gouv.fr/centre-val-de-loire/loir-et-cher/2f03ae18-102a-4a73-a8a5-a3acb3a66b3d"}
{"nom":"Méhers","nomNormalise":"mehers","typeCollectivite":"Commune","region":"Centre-Val de Loire","departement":"Loir-et-Cher","departementCode":"41","adresse":{"street":"3 rue de la Forêt","postalCode":"41140","city":"Méhers","country":"France"},"contacts":{"email":"mairie.mehers@wanadoo.fr","telephone":"0254718032"},"horaires":"Du Lundi au Mardi : de 13h30 à 17h00\nLe Vendredi : de 13h30 à 17h00","latitude":47.327366,"longitude":1.456317,"website":"https://mehers.fr/","hasWebsite":true,"hasHoraires":true,"url":"https://lannuaire.service-public.gouv.fr/centre-val-de-loire/loir-et-cher/03d51b67-a3a8-4d79-bbe9-5457baaef7f9"}
{"nom":"Menars","nomNormalise":"menars","typeCollectivite":"Commune","region":"Centre-Val de Loire","departement":"Loir-et-Cher","departementCode":"41","adresse":{"street":"24 avenue Marquise-de-Pompadour","postalCode":"41500","city":"Menars","country":"France"},"contacts":{"email":"mairie@menars.fr","telephone":"0254468125"},"horaires":"Le Mardi : de 09h00 à 12h00\nLe Jeudi : de 09h00 à 12h00\nLe Vendredi : de 14h00 à 16h30\nLe Samedi : de 09h00 à 12h00\n\nSamedis impaires.","latitude":47.64148,"longitude":1.4105579,"website":"http://www.menars.fr/","hasWebsite":true,"hasHoraires":true,"url":"https://lannuaire.service-public.gouv.fr/centre-val-de-loire/loir-et-cher/70f1514d-47da-4aa9-affe-de91bd11b1d9"}
{"nom":"Mennetou-sur-Cher","nomNormalise":"mennetousurcher","typeCollectivite":"Commune","region":"Centre-Val de Loire","departement":"Loir-et-Cher","departementCode":"41","adresse":{"street":"16 rue Pierre-Loyau","postalCode":"41320","city":"Mennetou-sur-Cher","country":"France"},"contacts":{"email":"mairie@mennetou.fr","telephone":"0254980119"},"horaires":"Le Lundi : de 09h00 à 12h00 de 14h00 à 18h00\nDu Mardi au Jeudi : de 09h00 à 12h00\nLe Vendredi : de 09h00 à 12h00 de 14h00 à 18h00","latitude":47.2697,"longitude":1.86386,"website":"http://www.mennetou.fr/","hasWebsite":true,"hasHoraires":true,"url":"https://lannuaire.service-public.gouv.fr/centre-val-de-loire/loir-et-cher/584c376e-680a-412e-92ad-67b4d46222b6"}
{"nom":"Mer","nomNormalise":"mer","typeCollectivite":"Commune","region":"Centre-Val de Loire","departement":"Loir-et-Cher","departementCode":"41","adresse":{"street":"9 route Nationale","postalCode":"41500","city":"Mer","country":"France"},"contacts":{"email":"contact@mer41.fr","telephone":"0254814080"},"horaires":"Du Lundi au Mercredi : de 09h00 à 12h30 de 13h30 à 17h30\nLe Jeudi : de 10h30 à 12h30 de 13h30 à 17h30\nLe Vendredi : de 09h00 à 12h30 de 13h30 à 17h30","latitude":47.69972,"longitude":1.508534,"website":"https://www.mer41.fr/","hasWebsite":true,"hasHoraires":true,"url":"https://lannuaire.service-public.gouv.fr/centre-val-de-loire/loir-et-cher/85c7f7a8-0e43-4f82-853e-b61ee1a5ef3d"}
{"nom":"Mesland","nomNormalise":"mesland","typeCollectivite":"Commune","region":"Centre-Val de Loire","departement":"Loir-et-Cher","departementCode":"41","adresse":{"street":"22 Grande rue","postalCode":"41150","city":"Mesland","country":"France"},"contacts":{"email":"mairie-mesland@orange.fr","telephone":"0254702814"},"horaires":"Le Mardi : de 09h00 à 12h00\nLe Jeudi : de 09h00 à 12h00","latitude":47.5094,"longitude":1.12271,"website":"http://www.mesland.fr/","hasWebsite":true,"hasHoraires":true,"url":"https://lannuaire.service-public.gouv.fr/centre-val-de-loire/loir-et-cher/c1c1421d-890b-4241-87fc-74cdf562da9b"}
{"nom":"Meslay","nomNormalise":"meslay","typeCollectivite":"Commune","region":"Centre-Val de Loire","departement":"Loir-et-Cher","departementCode":"41","adresse":{"street":"5 rue de la Manufacture","postalCode":"41100","city":"Meslay","country":"France"},"contacts":{"email":"mairie.meslay@wanadoo.fr","telephone":"0254772130"},"horaires":"Le Mardi : de 14h00 à 17h30\nLe Jeudi : de 10h00 à 12h00\nLe Vendredi : de 14h00 à 18h30\n\nFermeture à 18h pendant la période de couvre-feu.","latitude":47.8116,"longitude":1.09976,"website":"","hasWebsite":false,"hasHoraires":true,"url":"https://lannuaire.service-public.gouv.fr/centre-val-de-loire/loir-et-cher/e63fcef3-ebb7-4941-8e1c-babe48121594"}
{"nom":"Meusnes","nomNormalise":"meusnes","typeCollectivite":"Commune","region":"Centre-Val de Loire","departement":"Loir-et-Cher","departementCode":"41","adresse":{"street":"1 place Marguerite-Jourdain","postalCode":"41130","city":"Meusnes","country":"France"},"contacts":{"email":"accueil-mairie@meusnes.fr","telephone":"0254710023"},"horaires":"Du Mardi au Samedi : de 09h00 à 12h30","latitude":47.249752,"longitude":1.496675,"website":"https://www.meusnes.fr/","hasWebsite":true,"hasHoraires":true,"url":"https://lannuaire.service-public.gouv.fr/centre-val-de-loire/loir-et-cher/4c2134ba-704d-4350-b418-eafb7a1813f2"}
{"nom":"Millançay","nomNormalise":"millancay","typeCollectivite":"Commune","region":"Centre-Val de Loire","departement":"Loir-et-Cher","departementCode":"41","adresse":{"street":"7 rue des Carnutes","postalCode":"41200","city":"Millançay","country":"France"},"contacts":{"email":"contact@mairiemillancay.fr","telephone":"0254966478"},"horaires":"Du Lundi au Mardi : de 09h00 à 13h00\nDu Jeudi au Vendredi : de 09h00 à 13h00\nLe Samedi : de 10h00 à 12h00","latitude":47.447742,"longitude":1.772895,"website":"http://millancay.fr/","hasWebsite":true,"hasHoraires":true,"url":"https://lannuaire.service-public.gouv.fr/centre-val-de-loire/loir-et-cher/78d4c9cb-c80b-4237-ad2e-ca8ffadc73c3"}
{"nom":"Moisy","nomNormalise":"moisy","typeCollectivite":"Commune","region":"Centre-Val de Loire","departement":"Loir-et-Cher","departementCode":"41","adresse":{"street":"8 route de Blois","postalCode":"41160","city":"Moisy","country":"France"},"contacts":{"email":"mairie.moisy@wanadoo.fr","telephone":"0254826218"},"horaires":"Le Mardi : de 09h30 à 12h30\nLe Vendredi : de 09h30 à 12h30\nLe Samedi : de 09h00 à 11h30","latitude":47.91366,"longitude":1.313794,"website":"","hasWebsite":false,"hasHoraires":true,"url":"https://lannuaire.service-public.gouv.fr/centre-val-de-loire/loir-et-cher/5ce24ac7-e703-4b1f-8192-665382fac835"}
{"nom":"Mondoubleau","nomNormalise":"mondoubleau","typeCollectivite":"Commune","region":"Centre-Val de Loire","departement":"Loir-et-Cher","departementCode":"41","adresse":{"street":"Place du Marché","postalCode":"41170","city":"Mondoubleau","country":"France"},"contacts":{"email":"mairie@mairiedemondoubleau.fr","telephone":"0254809073"},"horaires":"Le Lundi : de 08h30 à 12h15 de 14h00 à 17h00\nLe Mardi : de 08h30 à 12h15\nLe Mercredi : de 08h30 à 12h00\nDu Jeudi au Vendredi : de 08h30 à 12h15 de 14h00 à 17h00","latitude":47.9987,"longitude":0.928909,"website":"http://www.mairie-mondoubleau.com/","hasWebsite":true,"hasHoraires":true,"url":"https://lannuaire.service-public.gouv.fr/centre-val-de-loire/loir-et-cher/99f4a057-618d-4132-9b2e-ebe17c32b3af"}
{"nom":"Monteaux","nomNormalise":"monteaux","typeCollectivite":"Commune","region":"Centre-Val de Loire","departement":"Loir-et-Cher","departementCode":"41","adresse":{"street":"24 rue de la Vallée","postalCode":"41150","city":"Monteaux","country":"France"},"contacts":{"email":"mairie@monteaux.fr","telephone":"0254702228"},"horaires":"Le Mardi : de 09h00 à 12h00 de 14h00 à 16h30\nLe Mercredi : de 14h00 à 19h00\nLe Jeudi : de 14h00 à 17h00\nLe Vendredi : de 10h00 à 12h00","latitude":47.485554,"longitude":1.112644,"website":"https://monteaux.fr/","hasWebsite":true,"hasHoraires":true,"url":"https://lannuaire.service-public.gouv.fr/centre-val-de-loire/loir-et-cher/8a666246-acce-4fd5-a04c-571ee30e4c03"}
{"nom":"Monthou-sur-Bièvre","nomNormalise":"monthousurbievre","typeCollectivite":"Commune","region":"Centre-Val de Loire","departement":"Loir-et-Cher","departementCode":"41","adresse":{"street":"Rue de la Charmille","postalCode":"41120","city":"Monthou-sur-Bièvre","country":"France"},"contacts":{"email":"mairie-monthousurbievre@wanadoo.fr","telephone":"0254440351"},"horaires":"Le Lundi : de 09h00 à 12h00\nLe Mercredi : de 09h00 à 12h00\nLe Vendredi : de 09h00 à 12h00","latitude":47.475018,"longitude":1.295863,"website":"http://www.monthou-sur-bievre.fr/","hasWebsite":true,"hasHoraires":true,"url":"https://lannuaire.service-public.gouv.fr/centre-val-de-loire/loir-et-cher/b2ad95a6-3b3d-4b3d-9ad4-0a2b6d7e2e14"}
{"nom":"Monthou-sur-Cher","nomNormalise":"monthousurcher","typeCollectivite":"Commune","region":"Centre-Val de Loire","departement":"Loir-et-Cher","departementCode":"41","adresse":{"street":"2 rue de la Mairie","postalCode":"41400","city":"Monthou-sur-Cher","country":"France"},"contacts":{"email":"mairie@monthousurcher.fr","telephone":"0254714317"},"horaires":"Le Lundi : de 09h00 à 12h00\nLe Mercredi : de 09h00 à 12h00 de 13h30 à 17h00\nLe Vendredi : de 13h30 à 16h00","latitude":47.3465,"longitude":1.2947,"website":"https://monthousurcher.fr/","hasWebsite":true,"hasHoraires":true,"url":"https://lannuaire.service-public.gouv.fr/centre-val-de-loire/loir-et-cher/d5a002c1-790b-4ca2-92c2-6ba014ce0de6"}
{"nom":"Montlivault","nomNormalise":"montlivault","typeCollectivite":"Commune","region":"Centre-Val de Loire","departement":"Loir-et-Cher","departementCode":"41","adresse":{"street":"20 Grande rue","postalCode":"41350","city":"Montlivault","country":"France"},"contacts":{"email":"contact@montlivault.fr","telephone":"0254206218"},"horaires":"Le Lundi : de 13h30 à 17h30\nLe Mercredi : de 09h00 à 12h00\nLe Vendredi : de 13h30 à 18h00","latitude":47.639,"longitude":1.44394,"website":"https://www.montlivault.fr/","hasWebsite":true,"hasHoraires":true,"url":"https://lannuaire.service-public.gouv.fr/centre-val-de-loire/loir-et-cher/fdf3d003-7b94-4a63-8c3a-cce21d35de3c"}
{"nom":"Montoire-sur-le-Loir","nomNormalise":"montoiresurleloir","typeCollectivite":"Commune","region":"Centre-Val de Loire","departement":"Loir-et-Cher","departementCode":"41","adresse":{"street":"18 place Clemenceau","postalCode":"41800","city":"Montoire-sur-le-Loir","country":"France"},"contacts":{"email":"contact@mairie-montoire.fr","telephone":"0254850029"},"horaires":"Du Lundi au Mardi : de 08h45 à 12h15 de 13h45 à 17h00\nLe Mercredi : de 08h45 à 12h15 de 13h45 à 16h30\nLe Jeudi : de 13h45 à 18h30\nLe Vendredi : de 08h45 à 12h15 de 13h45 à 16h30","latitude":47.75277,"longitude":0.8625303,"website":"https://www.mairie-montoire.fr/","hasWebsite":true,"hasHoraires":true,"url":"https://lannuaire.service-public.gouv.fr/centre-val-de-loire/loir-et-cher/fe686ea3-9f0e-4aed-a384-4dc966d21824"}
{"nom":"Mont-près-Chambord","nomNormalise":"montpreschambord","typeCollectivite":"Commune","region":"Centre-Val de Loire","departement":"Loir-et-Cher","departementCode":"41","adresse":{"street":"4 place du 8-Mai-1945","postalCode":"41250","city":"Mont-près-Chambord","country":"France"},"contacts":{"email":"mairie@montpreschambord.fr","telephone":"0254705800"},"horaires":"Du Lundi au Mardi : de 08h30 à 12h00 de 15h30 à 17h00\nLe Mercredi : de 08h30 à 12h00\nDu Jeudi au Vendredi : de 08h30 à 12h00 de 15h30 à 17h00","latitude":47.513195,"longitude":1.4523299,"website":"https://www.montpreschambord.fr/","hasWebsite":true,"hasHoraires":true,"url":"https://lannuaire.service-public.gouv.fr/centre-val-de-loire/loir-et-cher/47567251-6995-4337-b045-62b1286511a8"}
{"nom":"Montrichard Val de Cher","nomNormalise":"montrichardvaldecher","typeCollectivite":"Commune","region":"Centre-Val de Loire","departement":"Loir-et-Cher","departementCode":"41","adresse":{"street":"Montrichard","postalCode":"41406","city":"Montrichard Val de Cher","country":"France"},"contacts":{"email":"info@montrichardvaldecher.fr","telephone":"0254716634"},"horaires":"Du Lundi au Vendredi : de 08h30 à 12h00 de 13h30 à 17h30","latitude":47.3427,"longitude":1.18364,"website":"http://www.montrichardvaldecher.fr/","hasWebsite":true,"hasHoraires":true,"url":"https://lannuaire.service-public.gouv.fr/centre-val-de-loire/loir-et-cher/24c3c211-1994-4d90-807c-82a7a30d5dd1"}
{"nom":"Montrieux-en-Sologne","nomNormalise":"montrieuxensologne","typeCollectivite":"Commune","region":"Centre-Val de Loire","departement":"Loir-et-Cher","departementCode":"41","adresse":{"street":"2 place Émile-Dubonnet","postalCode":"41210","city":"Montrieux-en-Sologne","country":"France"},"contacts":{"email":"mairie@montrieuxensologne.fr","telephone":"0254982107"},"horaires":"Le Lundi : de 09h00 à 12h00\nLe Mardi : de 13h30 à 17h15\nDu Mercredi au Jeudi : de 09h00 à 12h00\n\nAccueil ouvert uniquement le 1e et 3e mercredi du mois.\nLe Vendredi : de 13h30 à 17h15\nLe Samedi : de 09h00 à 12h00\n\nAccueil ouvert uniquement le 2e et 4e samedi du mois.","latitude":47.5541,"longitude":1.72552,"website":"https://montrieuxensologne.fr/","hasWebsite":true,"hasHoraires":true,"url":"https://lannuaire.service-public.gouv.fr/centre-val-de-loire/loir-et-cher/946ed541-66a9-455e-8bc6-128bc9dc07de"}
{"nom":"Montrouveau","nomNormalise":"montrouveau","typeCollectivite":"Commune","region":"Centre-Val de Loire","departement":"Loir-et-Cher","departementCode":"41","adresse":{"street":"14 rue Principale","postalCode":"41800","city":"Montrouveau","country":"France"},"contacts":{"email":"communedemontrouveau@wanadoo.fr","telephone":"0254725712"},"horaires":"Le Mardi : de 14h00 à 16h00\nLe Jeudi : de 14h00 à 16h00","latitude":47.714382,"longitude":0.727575,"website":"","hasWebsite":false,"hasHoraires":true,"url":"https://lannuaire.service-public.gouv.fr/centre-val-de-loire/loir-et-cher/083a46ab-21a5-4aa1-a25c-93f110fe2b26"}
{"nom":"Morée","nomNormalise":"moree","typeCollectivite":"Commune","region":"Centre-Val de Loire","departement":"Loir-et-Cher","departementCode":"41","adresse":{"street":"28 rue des Prés","postalCode":"41160","city":"Morée","country":"France"},"contacts":{"email":"contact@moree41.fr","telephone":"0254891515"},"horaires":"Le Lundi : de 09h00 à 12h00\nLe Mercredi : de 09h00 à 12h00\nLe Vendredi : de 14h00 à 17h00","latitude":47.90322,"longitude":1.2341288,"website":"https://moree41.fr/","hasWebsite":true,"hasHoraires":true,"url":"https://lannuaire.service-public.gouv.fr/centre-val-de-loire/loir-et-cher/08dc71dc-c767-4aa1-8e6e-9aa8939f0735"}
{"nom":"Muides-sur-Loire","nomNormalise":"muidessurloire","typeCollectivite":"Commune","region":"Centre-Val de Loire","departement":"Loir-et-Cher","departementCode":"41","adresse":{"street":"20 bis rue de la Mairie","postalCode":"41500","city":"Muides-sur-Loire","country":"France"},"contacts":{"email":"mairie.muides@wanadoo.fr","telephone":"0254875008"},"horaires":"Du Lundi au Jeudi : de 09h00 à 12h00\nLe Vendredi : de 09h00 à 12h00 de 13h30 à 16h00\n\nAccueil uniquement sur rendez-vous de 13h30 à 16h.\nLe Samedi : de 09h00 à 12h00\n\nUniquement ouvert le 1er samedi du mois.","latitude":47.668594,"longitude":1.523095,"website":"https://www.muides.fr/","hasWebsite":true,"hasHoraires":true,"url":"https://lannuaire.service-public.gouv.fr/centre-val-de-loire/loir-et-cher/9ff23d47-383d-4fbe-912f-c126fdac869c"}
{"nom":"Mulsans","nomNormalise":"mulsans","typeCollectivite":"Commune","region":"Centre-Val de Loire","departement":"Loir-et-Cher","departementCode":"41","adresse":{"street":"10 route de Blois","postalCode":"41500","city":"Mulsans","country":"France"},"contacts":{"email":"mairie@mulsans.fr","telephone":"0254873473"},"horaires":"Du Lundi au Mardi : de 08h00 à 12h30 de 13h00 à 16h30\nLe Jeudi : de 08h00 à 12h30 de 13h00 à 16h30","latitude":47.697567,"longitude":1.386615,"website":"http://www.mulsans.fr/","hasWebsite":true,"hasHoraires":true,"url":"https://lannuaire.service-public.gouv.fr/centre-val-de-loire/loir-et-cher/f18c550b-ea1d-4a2b-a526-4ab2b5675c81"}
{"nom":"Mur-de-Sologne","nomNormalise":"murdesologne","typeCollectivite":"Commune","region":"Centre-Val de Loire","departement":"Loir-et-Cher","departementCode":"41","adresse":{"street":"3 square du Maréchal-de-Lattre-de-Tassigny","postalCode":"41230","city":"Mur-de-Sologne","country":"France"},"contacts":{"email":"secretariat@murdesologne.fr","telephone":"0254838115"},"horaires":"Du Lundi au Jeudi : de 08h30 à 12h30 de 14h00 à 18h30\nLe Vendredi : de 08h30 à 12h30 de 14h00 à 17h30","latitude":47.411377,"longitude":1.6088,"website":"https://murdesologne.fr/","hasWebsite":true,"hasHoraires":true,"url":"https://lannuaire.service-public.gouv.fr/centre-val-de-loire/loir-et-cher/afbebee4-06df-4023-b6a5-19920cf6741f"}
{"nom":"Naveil","nomNormalise":"naveil","typeCollectivite":"Commune","region":"Centre-Val de Loire","departement":"Loir-et-Cher","departementCode":"41","adresse":{"street":"1 place Louis-Leygue","postalCode":"41100","city":"Naveil","country":"France"},"contacts":{"email":"contact@naveil.fr","telephone":"0254735750"},"horaires":"Le Lundi : de 08h00 à 12h30 de 13h30 à 17h00\nLe Mardi : de 13h30 à 17h00\nLe Mercredi : de 08h00 à 12h30\nDu Jeudi au Vendredi : de 08h00 à 12h30 de 13h30 à 17h00","latitude":47.79385,"longitude":1.029667,"website":"https://www.naveil.fr/","hasWebsite":true,"hasHoraires":true,"url":"https://lannuaire.service-public.gouv.fr/centre-val-de-loire/loir-et-cher/c822b139-0e50-4cf6-bfae-3e73b49b9032"}
{"nom":"Neung-sur-Beuvron","nomNormalise":"neungsurbeuvron","typeCollectivite":"Commune","region":"Centre-Val de Loire","departement":"Loir-et-Cher","departementCode":"41","adresse":{"street":"1 rue des Anges","postalCode":"41210","city":"Neung-sur-Beuvron","country":"France"},"contacts":{"email":"mairie@neung-sur-beuvron.fr","telephone":"0254836338"},"horaires":"Du Lundi au Jeudi : de 08h30 à 12h00\nLe Vendredi : de 14h30 à 17h30\nLe Samedi : de 10h00 à 12h00\n\nUniquement les 1er et 3ème samedis du mois","latitude":47.5354,"longitude":1.80878,"website":"http://www.neung-sur-beuvron.fr/","hasWebsite":true,"hasHoraires":true,"url":"https://lannuaire.service-public.gouv.fr/centre-val-de-loire/loir-et-cher/17e5a28c-5e2f-45e5-8788-72840f26de2b"}
{"nom":"Neuvy","nomNormalise":"neuvy","typeCollectivite":"Commune","region":"Centre-Val de Loire","departement":"Loir-et-Cher","departementCode":"41","adresse":{"street":"21 route de Neung-sur-Beuvron","postalCode":"41250","city":"Neuvy","country":"France"},"contacts":{"email":"mairie.de.neuvy@wanadoo.fr","telephone":"0254464269"},"horaires":"Le Lundi : de 09h00 à 12h00\nLe Mardi : de 14h00 à 18h30\nLe Mercredi : de 16h00 à 18h00\nLe Vendredi : de 09h00 à 12h00","latitude":47.562794,"longitude":1.6031303,"website":"https://www.mairiedeneuvy41.fr/","hasWebsite":true,"hasHoraires":true,"url":"https://lannuaire.service-public.gouv.fr/centre-val-de-loire/loir-et-cher/b8fae1ec-09cc-44f7-b256-16ba9c7effb7"}
{"nom":"Nouan-le-Fuzelier","nomNormalise":"nouanlefuzelier","typeCollectivite":"Commune","region":"Centre-Val de Loire","departement":"Loir-et-Cher","departementCode":"41","adresse":{"street":"1 rue de la Grande-Sologne","postalCode":"41600","city":"Nouan-le-Fuzelier","country":"France"},"contacts":{"email":"mairie@nouanlefuzelier.com","telephone":"0254887440"},"horaires":"Le Lundi : de 08h30 à 12h00 de 13h30 à 17h00\nLe Mardi : de 08h30 à 12h00\nDu Mercredi au Vendredi : de 08h30 à 12h00 de 13h30 à 17h00","latitude":47.5364,"longitude":2.038047,"website":"http://www.nouan-le-fuzelier.fr/","hasWebsite":true,"hasHoraires":true,"url":"https://lannuaire.service-public.gouv.fr/centre-val-de-loire/loir-et-cher/5147aaf2-4646-40c4-917c-cc6f7b66a0c1"}
{"nom":"Nourray","nomNormalise":"nourray","typeCollectivite":"Commune","region":"Centre-Val de Loire","departement":"Loir-et-Cher","departementCode":"41","adresse":{"street":"2 rue du Polissoir","postalCode":"41310","city":"Nourray","country":"France"},"contacts":{"email":"mairie.nourray@orange.fr","telephone":"0254770538"},"horaires":"Le Mardi : de 08h00 à 13h00\nLe Jeudi : de 08h00 à 12h00","latitude":47.71724,"longitude":1.059036,"website":"","hasWebsite":false,"hasHoraires":true,"url":"https://lannuaire.service-public.gouv.fr/centre-val-de-loire/loir-et-cher/d220088c-ec9f-40af-8e22-6674f7bdc9eb"}
{"nom":"Noyers-sur-Cher","nomNormalise":"noyerssurcher","typeCollectivite":"Commune","region":"Centre-Val de Loire","departement":"Loir-et-Cher","departementCode":"41","adresse":{"street":"54 rue Nationale","postalCode":"41140","city":"Noyers-sur-Cher","country":"France"},"contacts":{"email":"secretariat@noyers-sur-cher.fr","telephone":"0254757272"},"horaires":"Du Lundi au Mardi : de 08h30 à 12h15 de 13h30 à 17h00\nLe Mercredi : de 08h30 à 12h15 de 13h30 à 17h30\nLe Jeudi : de 08h30 à 12h15 de 13h30 à 17h00\nLe Vendredi : de 08h15 à 12h15 de 13h30 à 16h30","latitude":47.27612,"longitude":1.40024,"website":"http://www.noyers-sur-cher.fr/","hasWebsite":true,"hasHoraires":true,"url":"https://lannuaire.service-public.gouv.fr/centre-val-de-loire/loir-et-cher/359da2fd-d662-499a-8f90-4bba253c0642"}
{"nom":"Mairie déléguée - Oigny","nomNormalise":"mairiedelegueeoigny","typeCollectivite":"Commune","region":"Centre-Val de Loire","departement":"Loir-et-Cher","departementCode":"41","adresse":{"street":"Oigny","postalCode":"41170","city":"Couëtron-au-Perche","country":"France"},"contacts":{"email":"mairie@couetronauperche.fr","telephone":"0254807692"},"horaires":"Le Mercredi : de 11h00 à 12h00","latitude":48.05825,"longitude":0.919117,"website":"http://www.couetronauperche.fr/","hasWebsite":true,"hasHoraires":true,"url":"https://lannuaire.service-public.gouv.fr/centre-val-de-loire/loir-et-cher/ba2ca05d-c98c-47ad-b9c4-035a94e5837e"}
{"nom":"Oisly","nomNormalise":"oisly","typeCollectivite":"Commune","region":"Centre-Val de Loire","departement":"Loir-et-Cher","departementCode":"41","adresse":{"street":"16 route de Contres","postalCode":"41700","city":"Oisly","country":"France"},"contacts":{"email":"secretariat@mairiedeoisly.fr","telephone":"0254795279"},"horaires":"Le Lundi : de 09h00 à 12h00\nLe Mardi : de 09h00 à 12h00 de 14h00 à 18h30\nLe Jeudi : de 09h00 à 12h00 de 14h00 à 18h00\nLe Vendredi : de 09h00 à 12h00","latitude":47.4092,"longitude":1.37535,"website":"http://www.oisly.fr/","hasWebsite":true,"hasHoraires":true,"url":"https://lannuaire.service-public.gouv.fr/centre-val-de-loire/loir-et-cher/09675261-deb9-43f3-8a43-ead405323d56"}
{"nom":"Orçay","nomNormalise":"orcay","typeCollectivite":"Commune","region":"Centre-Val de Loire","departement":"Loir-et-Cher","departementCode":"41","adresse":{"street":"2 route de Vierzon","postalCode":"41300","city":"Orçay","country":"France"},"contacts":{"email":"mairie-orcay@wanadoo.fr","telephone":"0254833780"},"horaires":"Le Lundi : de 08h15 à 12h15 de 12h45 à 16h15\nDu Jeudi au Vendredi : de 08h15 à 12h15 de 12h45 à 16h15","latitude":47.2903,"longitude":2.11061,"website":"","hasWebsite":false,"hasHoraires":true,"url":"https://lannuaire.service-public.gouv.fr/centre-val-de-loire/loir-et-cher/1bd800e2-93dd-4367-8e1e-a3bc7fac793e"}
{"nom":"Mairie déléguée - Ouchamps de Le Controis-en-Sologne","nomNormalise":"mairiedelegueeouchampsdelecontroisensologne","typeCollectivite":"Commune","region":"Centre-Val de Loire","departement":"Loir-et-Cher","departementCode":"41","adresse":{"street":"Ouchamps de Le Controis-en-Sologne","postalCode":"41120","city":"Controis-en-Sologne","country":"France"},"contacts":{"email":"mairie.ouchamps@controis-en-sologne.fr","telephone":"0254440288"},"horaires":"Du Mardi au Mercredi : de 13h00 à 17h00\nLe Vendredi : de 13h00 à 17h00","latitude":47.47299,"longitude":1.3077455,"website":"https://www.controis-en-sologne.fr/","hasWebsite":true,"hasHoraires":true,"url":"https://lannuaire.service-public.gouv.fr/centre-val-de-loire/loir-et-cher/88d17615-caa2-4f9e-a4cd-a4eb8dca9ab8"}
{"nom":"Oucques La Nouvelle","nomNormalise":"oucqueslanouvelle","typeCollectivite":"Commune","region":"Centre-Val de Loire","departement":"Loir-et-Cher","departementCode":"41","adresse":{"street":"Oucques","postalCode":"41290","city":"Oucques La Nouvelle","country":"France"},"contacts":{"email":"contact@oucqueslanouvelle.fr","telephone":"0254231100"},"horaires":"Le Lundi : de 09h00 à 12h15 de 14h00 à 18h00\nLe Mardi : de 09h00 à 12h15\nLe Mercredi : de 09h00 à 12h15 de 14h00 à 18h00\nLe Jeudi : de 09h00 à 12h15\nLe Vendredi : de 09h00 à 12h15 de 14h00 à 17h00","latitude":47.822754,"longitude":1.2942007,"website":"https://www.oucqueslanouvelle.fr/","hasWebsite":true,"hasHoraires":true,"url":"https://lannuaire.service-public.gouv.fr/centre-val-de-loire/loir-et-cher/ceff9c31-cb64-451f-8333-9eec83136f5f"}
{"nom":"Ouzouer-le-Doyen","nomNormalise":"ouzouerledoyen","typeCollectivite":"Commune","region":"Centre-Val de Loire","departement":"Loir-et-Cher","departementCode":"41","adresse":{"street":"4 rue du Moulin-à-Vent","postalCode":"41160","city":"Ouzouer-le-Doyen","country":"France"},"contacts":{"email":"commune.ouzouerledoyen@wanadoo.fr","telephone":"0254804903"},"horaires":"Le Lundi : de 13h45 à 18h45\nLe Mardi : de 13h45 à 17h15\nLe Jeudi : de 13h30 à 17h00","latitude":47.9409,"longitude":1.3434,"website":"https://ouzouerledoyen.com/","hasWebsite":true,"hasHoraires":true,"url":"https://lannuaire.service-public.gouv.fr/centre-val-de-loire/loir-et-cher/62fd7d1d-2161-46f6-912e-8baf2d692d37"}
{"nom":"Périgny","nomNormalise":"perigny","typeCollectivite":"Commune","region":"Centre-Val de Loire","departement":"Loir-et-Cher","departementCode":"41","adresse":{"street":"1 rue du Coudray","postalCode":"41100","city":"Périgny","country":"France"},"contacts":{"email":"mairie-perigny@wanadoo.fr","telephone":"0254238172"},"horaires":"Le Lundi : de 15h00 à 19h00\nLe Jeudi : de 15h00 à 18h00","latitude":47.7423,"longitude":1.14767,"website":"","hasWebsite":false,"hasHoraires":true,"url":"https://lannuaire.service-public.gouv.fr/centre-val-de-loire/loir-et-cher/ab775c4f-3833-4bcc-93dd-968353f6a7f8"}
{"nom":"Pezou","nomNormalise":"pezou","typeCollectivite":"Commune","region":"Centre-Val de Loire","departement":"Loir-et-Cher","departementCode":"41","adresse":{"street":"1 rue du Perche","postalCode":"41100","city":"Pezou","country":"France"},"contacts":{"email":"contact@mairiepezou.fr","telephone":"0254234069"},"horaires":"Le Lundi : de 09h00 à 12h00 de 13h30 à 17h00\nLe Mercredi : de 09h00 à 12h00\nLe Jeudi : de 09h00 à 12h00 de 13h30 à 17h00\nDu Vendredi au Samedi : de 09h00 à 12h00","latitude":47.86648,"longitude":1.1408463,"website":"https://pezou.fr/fr/","hasWebsite":true,"hasHoraires":true,"url":"https://lannuaire.service-public.gouv.fr/centre-val-de-loire/loir-et-cher/89df260a-3bd5-4bb9-96da-560d00e80456"}
{"nom":"Pierrefitte-sur-Sauldre","nomNormalise":"pierrefittesursauldre","typeCollectivite":"Commune","region":"Centre-Val de Loire","departement":"Loir-et-Cher","departementCode":"41","adresse":{"street":"26 rue de Souesmes","postalCode":"41300","city":"Pierrefitte-sur-Sauldre","country":"France"},"contacts":{"email":"pierrefitte.41mairie@wanadoo.fr","telephone":"0254886323"},"horaires":"Du Mardi au Mercredi : de 09h00 à 12h00 de 15h00 à 17h00\nLe Vendredi : de 09h00 à 12h00 de 15h00 à 17h00","latitude":47.5117,"longitude":2.15339,"website":"https://www.pierrefitte-sur-sauldre.fr/","hasWebsite":true,"hasHoraires":true,"url":"https://lannuaire.service-public.gouv.fr/centre-val-de-loire/loir-et-cher/f562d6dd-a3e8-434b-b8c8-b216254cfdd5"}
{"nom":"Pontlevoy","nomNormalise":"pontlevoy","typeCollectivite":"Commune","region":"Centre-Val de Loire","departement":"Loir-et-Cher","departementCode":"41","adresse":{"street":"2 rue du Colonel-Filloux","postalCode":"41400","city":"Pontlevoy","country":"France"},"contacts":{"email":"secretariat@mairie-pontlevoy.fr","telephone":"0254716070"},"horaires":"Du Lundi au Vendredi : de 09h00 à 12h00\nLe Samedi : de 09h00 à 12h00","latitude":47.390465,"longitude":1.254436,"website":"http://www.mairie-pontlevoy.fr/","hasWebsite":true,"hasHoraires":true,"url":"https://lannuaire.service-public.gouv.fr/centre-val-de-loire/loir-et-cher/14eac854-92e1-42a8-8dda-76adce591c8d"}
{"nom":"Pouillé","nomNormalise":"pouille","typeCollectivite":"Commune","region":"Centre-Val de Loire","departement":"Loir-et-Cher","departementCode":"41","adresse":{"street":"14 rue de la Liberté","postalCode":"41110","city":"Pouillé","country":"France"},"contacts":{"email":"mairie-pouille@wanadoo.fr","telephone":"0254714405"},"horaires":"Le Lundi : de 09h30 à 12h30\nDu Mardi au Vendredi : de 14h00 à 17h00\nLe Samedi : de 09h15 à 12h15\n\nAccueil ouvert uniquement le 1er samedi du mois.","latitude":47.31874,"longitude":1.2874305,"website":"http://www.mairie-pouille-loiretcher.fr/","hasWebsite":true,"hasHoraires":true,"url":"https://lannuaire.service-public.gouv.fr/centre-val-de-loire/loir-et-cher/f627ebc6-fcd4-452f-b68a-c36ae61c425e"}
{"nom":"Pray","nomNormalise":"pray","typeCollectivite":"Commune","region":"Centre-Val de Loire","departement":"Loir-et-Cher","departementCode":"41","adresse":{"street":"5 rue Pierre-de-Ronsard","postalCode":"41190","city":"Pray","country":"France"},"contacts":{"email":"mairie@pray.fr","telephone":"0254828221"},"horaires":"Le Lundi : de 08h30 à 13h00\n\nen télétravail\nLe Mercredi : de 08h30 à 12h00 de 14h00 à 17h00\nLe Jeudi : de 13h30 à 16h30","latitude":47.6775,"longitude":1.11583,"website":"https://pray.fr/","hasWebsite":true,"hasHoraires":true,"url":"https://lannuaire.service-public.gouv.fr/centre-val-de-loire/loir-et-cher/8e11f93d-b2aa-4db8-af05-01471679c341"}
{"nom":"Prunay-Cassereau","nomNormalise":"prunaycassereau","typeCollectivite":"Commune","region":"Centre-Val de Loire","departement":"Loir-et-Cher","departementCode":"41","adresse":{"street":"11 rue de l'Hôtel-de-Ville","postalCode":"41310","city":"Prunay-Cassereau","country":"France"},"contacts":{"email":"prunay-cassereau@wanadoo.fr","telephone":"0254803281"},"horaires":"Du Lundi au Mardi : de 14h00 à 17h00\nLe Jeudi : de 08h30 à 12h30 de 14h00 à 17h00\nLe Vendredi : de 14h00 à 17h00","latitude":47.6954,"longitude":0.922122,"website":"https://prunay-cassereau.fr/fr/","hasWebsite":true,"hasHoraires":true,"url":"https://lannuaire.service-public.gouv.fr/centre-val-de-loire/loir-et-cher/1a1aa7a5-b74d-4354-bf95-db19f11d9d89"}
{"nom":"Pruniers-en-Sologne","nomNormalise":"pruniersensologne","typeCollectivite":"Commune","region":"Centre-Val de Loire","departement":"Loir-et-Cher","departementCode":"41","adresse":{"street":"Place des Anciens-Combattants","postalCode":"41200","city":"Pruniers-en-Sologne","country":"France"},"contacts":{"email":"contact@pruniersensologne.com","telephone":"0254966053"},"horaires":"Du Lundi au Vendredi : de 08h30 à 12h00 de 13h30 à 17h30","latitude":47.322178,"longitude":1.670707,"website":"http://pruniersensologne.com/","hasWebsite":true,"hasHoraires":true,"url":"https://lannuaire.service-public.gouv.fr/centre-val-de-loire/loir-et-cher/39177f9b-5e05-4442-bbfc-c5d75ead5a16"}
{"nom":"Rahart","nomNormalise":"rahart","typeCollectivite":"Commune","region":"Centre-Val de Loire","departement":"Loir-et-Cher","departementCode":"41","adresse":{"street":"5 place de l'Église","postalCode":"41160","city":"Rahart","country":"France"},"contacts":{"email":"mairie.rahart@wanadoo.fr","telephone":"0254806703"},"horaires":"Le Lundi : de 14h00 à 17h30\nLe Jeudi : de 14h00 à 18h30","latitude":47.89377,"longitude":1.027142,"website":"","hasWebsite":false,"hasHoraires":true,"url":"https://lannuaire.service-public.gouv.fr/centre-val-de-loire/loir-et-cher/4405f4e3-3076-45a0-9237-e2e216f61fac"}
{"nom":"Renay","nomNormalise":"renay","typeCollectivite":"Commune","region":"Centre-Val de Loire","departement":"Loir-et-Cher","departementCode":"41","adresse":{"street":"2 rue de la Mairie","postalCode":"41100","city":"Renay","country":"France"},"contacts":{"email":"commune.renay@wanadoo.fr","telephone":"0254234793"},"horaires":"Le Mercredi : de 14h00 à 17h00\nLe Vendredi : de 14h00 à 17h00","latitude":47.84339,"longitude":1.166063,"website":"https://renay.fr/fr/","hasWebsite":true,"hasHoraires":true,"url":"https://lannuaire.service-public.gouv.fr/centre-val-de-loire/loir-et-cher/b0aa0edd-d7b5-40be-870a-518e63d061e9"}
{"nom":"Rhodon","nomNormalise":"rhodon","typeCollectivite":"Commune","region":"Centre-Val de Loire","departement":"Loir-et-Cher","departementCode":"41","adresse":{"street":"14 rue du Prieuré","postalCode":"41290","city":"Rhodon","country":"France"},"contacts":{"email":"mairie.rhodon@wanadoo.fr","telephone":"0254238632"},"horaires":"Le Jeudi : de 13h15 à 17h15","latitude":47.75224,"longitude":1.2668817,"website":"https://rhodon.fr/","hasWebsite":true,"hasHoraires":true,"url":"https://lannuaire.service-public.gouv.fr/centre-val-de-loire/loir-et-cher/999c91d5-5fa9-4e31-b56b-957cb7680e17"}
{"nom":"Rilly-sur-Loire","nomNormalise":"rillysurloire","typeCollectivite":"Commune","region":"Centre-Val de Loire","departement":"Loir-et-Cher","departementCode":"41","adresse":{"street":"20 rue Nationale","postalCode":"41150","city":"Rilly-sur-Loire","country":"France"},"contacts":{"email":"mairie.rilly41@wanadoo.fr","telephone":"0254209878"},"horaires":"Le Mardi : de 09h00 à 12h00 de 14h00 à 17h00\nDu Jeudi au Vendredi : de 09h00 à 12h00 de 14h00 à 17h00\nLe Samedi : de 09h00 à 12h00","latitude":47.4668,"longitude":1.13437,"website":"","hasWebsite":false,"hasHoraires":true,"url":"https://lannuaire.service-public.gouv.fr/centre-val-de-loire/loir-et-cher/fa44885c-9148-4bd3-80d5-567bd8f59ab3"}
{"nom":"Rocé","nomNormalise":"roce","typeCollectivite":"Commune","region":"Centre-Val de Loire","departement":"Loir-et-Cher","departementCode":"41","adresse":{"street":"1 rue du Presbytère","postalCode":"41100","city":"Rocé","country":"France"},"contacts":{"email":"contact@mairieroce.fr","telephone":"0254770578"},"horaires":"Le Mardi : de 13h30 à 17h30\nLe Jeudi : de 09h30 à 11h30","latitude":47.8056,"longitude":1.14517,"website":"","hasWebsite":false,"hasHoraires":true,"url":"https://lannuaire.service-public.gouv.fr/centre-val-de-loire/loir-et-cher/145fde54-513b-49b3-8fd9-9e616f3bfb83"}
{"nom":"Roches","nomNormalise":"roches","typeCollectivite":"Commune","region":"Centre-Val de Loire","departement":"Loir-et-Cher","departementCode":"41","adresse":{"street":"18 Grande-Rue","postalCode":"41370","city":"Roches","country":"France"},"contacts":{"email":"commune.roches@wanadoo.fr","telephone":"0254723930"},"horaires":"Le Mardi : de 13h30 à 17h30","latitude":47.822,"longitude":1.50016,"website":"","hasWebsite":false,"hasHoraires":true,"url":"https://lannuaire.service-public.gouv.fr/centre-val-de-loire/loir-et-cher/518e6968-4c78-4ed8-afdb-fa0a7d85f05a"}
{"nom":"Romilly","nomNormalise":"romilly","typeCollectivite":"Commune","region":"Centre-Val de Loire","departement":"Loir-et-Cher","departementCode":"41","adresse":{"street":"18 rue du Commerce","postalCode":"41270","city":"Romilly","country":"France"},"contacts":{"email":"mairie.romilly-du-perche@wanadoo.fr","telephone":"0254803399"},"horaires":"Le Mardi : de 13h30 à 17h30\nLe Vendredi : de 09h00 à 12h30","latitude":47.948856,"longitude":1.038563,"website":"http://www.romillyduperche.fr/","hasWebsite":true,"hasHoraires":true,"url":"https://lannuaire.service-public.gouv.fr/centre-val-de-loire/loir-et-cher/2a9d7e55-c019-4db6-b5e4-09915f51f79a"}
{"nom":"Romorantin-Lanthenay","nomNormalise":"romorantinlanthenay","typeCollectivite":"Commune","region":"Centre-Val de Loire","departement":"Loir-et-Cher","departementCode":"41","adresse":{"street":"18 faubourg Saint-Roch","postalCode":"41200","city":"Romorantin-Lanthenay","country":"France"},"contacts":{"email":"info@romorantin.fr","telephone":"0254944100"},"horaires":"Le Lundi : de 09h00 à 12h00 de 13h30 à 17h30\nDu Mardi au Jeudi : de 08h00 à 12h00 de 13h30 à 17h30\nLe Vendredi : de 08h00 à 12h00 de 13h30 à 16h30\nLe Samedi : de 09h00 à 12h00\n\nAccueil ouvert uniquement pour le service de l'état civil.","latitude":47.35813,"longitude":1.7491871,"website":"https://www.romorantin.com/","hasWebsite":true,"hasHoraires":true,"url":"https://lannuaire.service-public.gouv.fr/centre-val-de-loire/loir-et-cher/3b824fe6-445d-4799-90fe-2067cc624dd3"}
{"nom":"Rougeou","nomNormalise":"rougeou","typeCollectivite":"Commune","region":"Centre-Val de Loire","departement":"Loir-et-Cher","departementCode":"41","adresse":{"street":"Le Bourg","postalCode":"41230","city":"Rougeou","country":"France"},"contacts":{"email":"mairie.rougeou@orange.fr","telephone":"0254987551"},"horaires":"Le Lundi : de 08h30 à 12h30\nLe Vendredi : de 08h30 à 12h30","latitude":47.362816,"longitude":1.535896,"website":"","hasWebsite":false,"hasHoraires":true,"url":"https://lannuaire.service-public.gouv.fr/centre-val-de-loire/loir-et-cher/b1a82b9f-968f-4eca-aef1-0000968cc543"}
{"nom":"Ruan-sur-Egvonne","nomNormalise":"ruansuregvonne","typeCollectivite":"Commune","region":"Centre-Val de Loire","departement":"Loir-et-Cher","departementCode":"41","adresse":{"street":"1 place de la Mairie","postalCode":"41270","city":"Ruan-sur-Egvonne","country":"France"},"contacts":{"email":"contact@mairie-ruan41.fr","telephone":"0254805833"},"horaires":"Le Lundi : de 09h00 à 12h30 de 13h00 à 16h30\nLe Jeudi : de 09h00 à 12h30 de 13h00 à 17h30","latitude":48.01456,"longitude":1.142803,"website":"","hasWebsite":false,"hasHoraires":true,"url":"https://lannuaire.service-public.gouv.fr/centre-val-de-loire/loir-et-cher/b13749ca-d6e3-4aea-9ca5-23c1de0a1bba"}
{"nom":"Mairie déléguée - Saint-Agil","nomNormalise":"mairiedelegueesaintagil","typeCollectivite":"Commune","region":"Centre-Val de Loire","departement":"Loir-et-Cher","departementCode":"41","adresse":{"street":"Saint-Agil","postalCode":"41170","city":"Couëtron-au-Perche","country":"France"},"contacts":{"email":"mairie@couetronauperche.fr","telephone":"0254809413"},"horaires":"Le Mardi : de 14h00 à 18h00\nLe Vendredi : de 08h30 à 12h00","latitude":48.0417,"longitude":0.934978,"website":"https://www.couetronauperche.fr/","hasWebsite":true,"hasHoraires":true,"url":"https://lannuaire.service-public.gouv.fr/centre-val-de-loire/loir-et-cher/f2ec9e7d-61a0-4ff7-b581-ae74d640d4cd"}
{"nom":"Saint-Aignan","nomNormalise":"saintaignan","typeCollectivite":"Commune","region":"Centre-Val de Loire","departement":"Loir-et-Cher","departementCode":"41","adresse":{"street":"1 rue Victor-Hugo","postalCode":"41110","city":"Saint-Aignan","country":"France"},"contacts":{"email":"secretariat@ville-staignan.fr","telephone":"0254712222"},"horaires":"Le Lundi : de 14h30 à 17h00\nDu Mardi au Jeudi : de 09h00 à 12h30 de 14h30 à 17h00\nLe Vendredi : de 09h00 à 12h30","latitude":47.267944,"longitude":1.372277,"website":"https://www.ville-saintaignan.com/","hasWebsite":true,"hasHoraires":true,"url":"https://lannuaire.service-public.gouv.fr/centre-val-de-loire/loir-et-cher/03fafee4-bd1b-42d4-8961-7c4f94f0e798"}
{"nom":"Saint-Amand-Longpré","nomNormalise":"saintamandlongpre","typeCollectivite":"Commune","region":"Centre-Val de Loire","departement":"Loir-et-Cher","departementCode":"41","adresse":{"street":"18 rue Jules-Ferry","postalCode":"41310","city":"Saint-Amand-Longpré","country":"France"},"contacts":{"email":"secretariat@saintamandlongpre.fr","telephone":"0254828374"},"horaires":"Du Lundi au Jeudi : de 10h00 à 12h30\nLe Vendredi : de 10h00 à 12h30 de 14h00 à 16h00","latitude":47.68942,"longitude":1.0161588,"website":"http://www.saintamandlongpre.fr/","hasWebsite":true,"hasHoraires":true,"url":"https://lannuaire.service-public.gouv.fr/centre-val-de-loire/loir-et-cher/f1da08a7-79ea-4936-bb6f-13c664bd657d"}
{"nom":"Saint-Arnoult","nomNormalise":"saintarnoult","typeCollectivite":"Commune","region":"Centre-Val de Loire","departement":"Loir-et-Cher","departementCode":"41","adresse":{"street":"10 rue du Langeron","postalCode":"41800","city":"Saint-Arnoult","country":"France"},"contacts":{"email":"mairie.saint-arnoult@wanadoo.fr","telephone":"0254851006"},"horaires":"Le Lundi : de 09h30 à 11h30\nLe Vendredi : de 14h00 à 16h00","latitude":47.708523,"longitude":0.8728866,"website":"","hasWebsite":false,"hasHoraires":true,"url":"https://lannuaire.service-public.gouv.fr/centre-val-de-loire/loir-et-cher/12fcf27b-07a6-42c7-b2f6-173fdda5ddc8"}
{"nom":"Mairie déléguée - Saint-Avit","nomNormalise":"mairiedelegueesaintavit","typeCollectivite":"Commune","region":"Centre-Val de Loire","departement":"Loir-et-Cher","departementCode":"41","adresse":{"street":"Saint-Avit","postalCode":"41170","city":"Couëtron-au-Perche","country":"France"},"contacts":{"email":"mairie@couetronauperche.fr","telephone":"0254809244"},"horaires":"Le Jeudi : de 14h00 à 18h00","latitude":48.08985,"longitude":0.9145747,"website":"http://www.couetronauperche.fr/","hasWebsite":true,"hasHoraires":true,"url":"https://lannuaire.service-public.gouv.fr/centre-val-de-loire/loir-et-cher/82c34f4c-bbaf-4696-9453-fe7c8a02d4ba"}
{"nom":"Saint-Bohaire","nomNormalise":"saintbohaire","typeCollectivite":"Commune","region":"Centre-Val de Loire","departement":"Loir-et-Cher","departementCode":"41","adresse":{"street":"7 rue de l'Église","postalCode":"41330","city":"Saint-Bohaire","country":"France"},"contacts":{"email":"saint-bohaire@orange.fr","telephone":"0254200358"},"horaires":"Le Lundi : de 09h00 à 12h00\nLe Mardi : de 17h30 à 19h00\nLe Jeudi : de 17h30 à 19h00\nLe Vendredi : de 09h00 à 12h00","latitude":47.64556,"longitude":1.265146,"website":"http://www.saint-bohaire.fr/","hasWebsite":true,"hasHoraires":true,"url":"https://lannuaire.service-public.gouv.fr/centre-val-de-loire/loir-et-cher/e29921e9-a831-46dd-b3f4-700989288daf"}
{"nom":"Saint-Claude-de-Diray","nomNormalise":"saintclaudedediray","typeCollectivite":"Commune","region":"Centre-Val de Loire","departement":"Loir-et-Cher","departementCode":"41","adresse":{"street":"36 place de la Mairie","postalCode":"41350","city":"Saint-Claude-de-Diray","country":"France"},"contacts":{"email":"contact@saintclaudedediray.fr","telephone":"0254206617"},"horaires":"Du Lundi au Mercredi : de 10h00 à 12h00 de 14h00 à 17h00\nLe Vendredi : de 14h00 à 16h00","latitude":47.6148,"longitude":1.41679,"website":"https://saintclaudedediray.fr/","hasWebsite":true,"hasHoraires":true,"url":"https://lannuaire.service-public.gouv.fr/centre-val-de-loire/loir-et-cher/58493d94-bc57-4ae9-a135-a64b52e532ab"}
{"nom":"Saint-Cyr-du-Gault","nomNormalise":"saintcyrdugault","typeCollectivite":"Commune","region":"Centre-Val de Loire","departement":"Loir-et-Cher","departementCode":"41","adresse":{"street":"1 place de l'Église","postalCode":"41190","city":"Saint-Cyr-du-Gault","country":"France"},"contacts":{"email":"mairie.st-cyr-du-gault@wanadoo.fr","telephone":"0254461281"},"horaires":"Le Mardi : de 09h30 à 12h00\nLe Vendredi : de 14h00 à 15h30","latitude":47.620785,"longitude":1.0290244,"website":"","hasWebsite":false,"hasHoraires":true,"url":"https://lannuaire.service-public.gouv.fr/centre-val-de-loire/loir-et-cher/8d8905e3-0e7f-4231-b075-c7bb78ee0769"}
{"nom":"Saint-Denis-sur-Loire","nomNormalise":"saintdenissurloire","typeCollectivite":"Commune","region":"Centre-Val de Loire","departement":"Loir-et-Cher","departementCode":"41","adresse":{"street":"19 rue de la Loire","postalCode":"41000","city":"Saint-Denis-sur-Loire","country":"France"},"contacts":{"email":"contact@saintdenissurloire.fr","telephone":"0254786866"},"horaires":"Le Lundi : de 16h00 à 18h00\nLe Jeudi : de 09h00 à 12h00\nLe Vendredi : de 16h00 à 18h00","latitude":47.62579,"longitude":1.3859742,"website":"https://www.saintdenissurloire.fr/","hasWebsite":true,"hasHoraires":true,"url":"https://lannuaire.service-public.gouv.fr/centre-val-de-loire/loir-et-cher/da5f170d-2622-436b-b033-da8799e42f17"}
{"nom":"Saint-Dyé-sur-Loire","nomNormalise":"saintdyesurloire","typeCollectivite":"Commune","region":"Centre-Val de Loire","departement":"Loir-et-Cher","departementCode":"41","adresse":{"street":"75 route Nationale","postalCode":"41500","city":"Saint-Dyé-sur-Loire","country":"France"},"contacts":{"email":"accueil@stdye41.fr","telephone":"0254816046"},"horaires":"Le Lundi : de 10h00 à 12h00\nLe Mardi : de 14h00 à 18h30\nDu Mercredi au Jeudi : de 10h00 à 12h00\nLe Vendredi : de 14h00 à 18h30","latitude":47.6554,"longitude":1.48707,"website":"https://www.saint-dye-sur-loire.fr/","hasWebsite":true,"hasHoraires":true,"url":"https://lannuaire.service-public.gouv.fr/centre-val-de-loire/loir-et-cher/3fab2fe1-a7de-4c76-aa02-4e17af295953"}
{"nom":"Sainte-Anne","nomNormalise":"sainteanne","typeCollectivite":"Commune","region":"Centre-Val de Loire","departement":"Loir-et-Cher","departementCode":"41","adresse":{"street":"14 rue du Bourg","postalCode":"41100","city":"Sainte-Anne","country":"France"},"contacts":{"email":"mairie@sainteanne41.fr","telephone":"0254772302"},"horaires":"Le Lundi : de 08h00 à 12h45 de 13h30 à 17h30\nLe Jeudi : de 08h00 à 12h45 de 13h30 à 17h30\nLe Vendredi : de 08h00 à 12h45 de 13h30 à 18h00","latitude":47.7572,"longitude":1.08113,"website":"https://sainteanne41.fr/","hasWebsite":true,"hasHoraires":true,"url":"https://lannuaire.service-public.gouv.fr/centre-val-de-loire/loir-et-cher/c0f2e0f3-2c0c-4dc5-ad48-694f31b678ab"}
{"nom":"Mairie déléguée - Sainte-Gemmes","nomNormalise":"mairiedelegueesaintegemmes","typeCollectivite":"Commune","region":"Centre-Val de Loire","departement":"Loir-et-Cher","departementCode":"41","adresse":{"street":"Saintes-Gemmes","postalCode":"41290","city":"Oucques La Nouvelle","country":"France"},"contacts":{"email":"saintegemmes@oucqueslanouvelle.fr","telephone":"0254230309"},"horaires":"Le Jeudi : de 10h15 à 12h00","latitude":47.8184,"longitude":1.29442,"website":"https://www.oucqueslanouvelle.fr/","hasWebsite":true,"hasHoraires":true,"url":"https://lannuaire.service-public.gouv.fr/centre-val-de-loire/loir-et-cher/d524e638-8945-4a91-a088-43bb4bcd9ec9"}
{"nom":"Saint-Étienne-des-Guérets","nomNormalise":"saintetiennedesguerets","typeCollectivite":"Commune","region":"Centre-Val de Loire","departement":"Loir-et-Cher","departementCode":"41","adresse":{"street":"3 rue de Touraine","postalCode":"41190","city":"Saint-Étienne-des-Guérets","country":"France"},"contacts":{"email":"mairie.st-etienne-des-guerets@wanadoo.fr","telephone":"0254461260"},"horaires":"Le Jeudi : de 15h00 à 18h30","latitude":47.598827,"longitude":1.060633,"website":"","hasWebsite":false,"hasHoraires":true,"url":"https://lannuaire.service-public.gouv.fr/centre-val-de-loire/loir-et-cher/a6df1a60-9a55-451f-a8f3-8d780f7804ea"}
{"nom":"Saint-Firmin-des-Prés","nomNormalise":"saintfirmindespres","typeCollectivite":"Commune","region":"Centre-Val de Loire","departement":"Loir-et-Cher","departementCode":"41","adresse":{"street":"7 route de la Mouline","postalCode":"41100","city":"Saint-Firmin-des-Prés","country":"France"},"contacts":{"email":"mairie@saintfirmindespres.fr","telephone":"0254730646"},"horaires":"Le Lundi : de 15h00 à 18h00\nLe Mardi : de 15h00 à 19h00\nLe Mercredi : de 10h00 à 12h30 de 15h00 à 18h00\nLe Vendredi : de 09h00 à 12h00 de 13h00 à 15h00","latitude":47.842747,"longitude":1.113486,"website":"","hasWebsite":false,"hasHoraires":true,"url":"https://lannuaire.service-public.gouv.fr/centre-val-de-loire/loir-et-cher/f7993812-ef83-4de4-bc5b-75f16ae950c5"}
{"nom":"Saint-Georges-sur-Cher","nomNormalise":"saintgeorgessurcher","typeCollectivite":"Commune","region":"Centre-Val de Loire","departement":"Loir-et-Cher","departementCode":"41","adresse":{"street":"15 rue de Verdun","postalCode":"41400","city":"Saint-Georges-sur-Cher","country":"France"},"contacts":{"email":"contact@mairiestgsc.fr","telephone":"0254323019"},"horaires":"Le Lundi : de 08h30 à 12h30 de 14h00 à 17h00\nLe Mardi : de 08h30 à 12h30\nLe Mercredi : de 08h30 à 12h30 de 14h00 à 17h00\nLe Jeudi : de 08h30 à 12h30\nLe Vendredi : de 08h30 à 12h30 de 14h00 à 17h00\nLe Samedi : de 09h00 à 12h00\n\nAccueil fermé pendant les vacances scolaires.","latitude":47.325504,"longitude":1.124066,"website":"https://saintgeorgessurcher.com/","hasWebsite":true,"hasHoraires":true,"url":"https://lannuaire.service-public.gouv.fr/centre-val-de-loire/loir-et-cher/b91af0f5-4479-4ec4-9c43-3e0687924c18"}
{"nom":"Saint-Gervais-la-Forêt","nomNormalise":"saintgervaislaforet","typeCollectivite":"Commune","region":"Centre-Val de Loire","departement":"Loir-et-Cher","departementCode":"41","adresse":{"street":"15 rue des Écoles","postalCode":"41350","city":"Saint-Gervais-la-Forêt","country":"France"},"contacts":{"email":"mairie@stgervais41.fr","telephone":"0254505152"},"horaires":"Le Lundi : de 08h30 à 12h00 de 13h30 à 16h30\nLe Mardi : de 09h00 à 12h30 de 16h15 à 18h30\nLe Mercredi : de 09h00 à 12h30\nLe Jeudi : de 09h00 à 12h30 de 16h15 à 18h30\nLe Vendredi : de 08h30 à 12h00 de 13h30 à 16h30\nLe Samedi : de 10h00 à 12h00","latitude":47.5856,"longitude":1.37585,"website":"http://www.stgervais41.fr/","hasWebsite":true,"hasHoraires":true,"url":"https://lannuaire.service-public.gouv.fr/centre-val-de-loire/loir-et-cher/ccb28d27-8902-4975-9c1e-092b85b7d4b0"}
{"nom":"Saint-Gourgon","nomNormalise":"saintgourgon","typeCollectivite":"Commune","region":"Centre-Val de Loire","departement":"Loir-et-Cher","departementCode":"41","adresse":{"street":"7 rue de la Mairie","postalCode":"41310","city":"Saint-Gourgon","country":"France"},"contacts":{"email":"mairie.st.gourgon@wanadoo.fr","telephone":"0254828188"},"horaires":"Le Lundi : de 16h00 à 18h00\nLe Jeudi : de 09h00 à 12h00","latitude":47.660606,"longitude":1.016138,"website":"","hasWebsite":false,"hasHoraires":true,"url":"https://lannuaire.service-public.gouv.fr/centre-val-de-loire/loir-et-cher/27c2188c-b994-4a97-8f7f-b4716920a3e0"}
{"nom":"Saint-Hilaire-la-Gravelle","nomNormalise":"sainthilairelagravelle","typeCollectivite":"Commune","region":"Centre-Val de Loire","departement":"Loir-et-Cher","departementCode":"41","adresse":{"street":"9 rue Léon-Cibié","postalCode":"41160","city":"Saint-Hilaire-la-Gravelle","country":"France"},"contacts":{"email":"mairie@st-hilaire-la-gravelle.fr","telephone":"0254826508"},"horaires":"Le Lundi : de 09h00 à 12h00\nLe Mardi : de 14h30 à 18h30\nLe Jeudi : de 09h00 à 12h00\nLe Vendredi : de 14h00 à 17h30","latitude":47.924488,"longitude":1.207462,"website":"","hasWebsite":false,"hasHoraires":true,"url":"https://lannuaire.service-public.gouv.fr/centre-val-de-loire/loir-et-cher/85d8cc5c-8d3f-4022-b4f4-de0533f3ce47"}
{"nom":"Saint-Jacques-des-Guérets","nomNormalise":"saintjacquesdesguerets","typeCollectivite":"Commune","region":"Centre-Val de Loire","departement":"Loir-et-Cher","departementCode":"41","adresse":{"street":"12 rue du Loir","postalCode":"41800","city":"Saint-Jacques-des-Guérets","country":"France"},"contacts":{"email":"mairiestjacquesdesguerets@orange.fr","telephone":"0254725765"},"horaires":"Le Mardi : de 14h00 à 17h30\nLe Jeudi : de 14h00 à 17h30","latitude":47.77459,"longitude":0.793215,"website":"","hasWebsite":false,"hasHoraires":true,"url":"https://lannuaire.service-public.gouv.fr/centre-val-de-loire/loir-et-cher/0d202b1c-4a80-47f3-a2a7-3c8854843395"}
{"nom":"Saint-Jean-Froidmentel","nomNormalise":"saintjeanfroidmentel","typeCollectivite":"Commune","region":"Centre-Val de Loire","departement":"Loir-et-Cher","departementCode":"41","adresse":{"street":"4 avenue de la Gare","postalCode":"41160","city":"Saint-Jean-Froidmentel","country":"France"},"contacts":{"email":"sjf41@orange.fr","telephone":"0254826436"},"horaires":"Le Lundi : de 14h00 à 17h00\nLe Mardi : de 09h00 à 12h00\nLe Vendredi : de 09h00 à 12h00","latitude":47.95655,"longitude":1.23907,"website":"http://www.saintjeanfroidmentel.fr/","hasWebsite":true,"hasHoraires":true,"url":"https://lannuaire.service-public.gouv.fr/centre-val-de-loire/loir-et-cher/da096e8e-1b5f-4d8c-b21e-fbc0be18d2e4"}
{"nom":"Saint-Julien-de-Chédon","nomNormalise":"saintjuliendechedon","typeCollectivite":"Commune","region":"Centre-Val de Loire","departement":"Loir-et-Cher","departementCode":"41","adresse":{"street":"1 place de la Mairie","postalCode":"41400","city":"Saint-Julien-de-Chédon","country":"France"},"contacts":{"email":"mairie@chedonais.fr","telephone":"0254320503"},"horaires":"Du Lundi au Mardi : de 15h00 à 17h30\nDu Jeudi au Vendredi : de 15h00 à 17h30","latitude":47.33037,"longitude":1.2069151,"website":"https://www.chedonais.fr/","hasWebsite":true,"hasHoraires":true,"url":"https://lannuaire.service-public.gouv.fr/centre-val-de-loire/loir-et-cher/3380824e-7082-4d2a-b695-de6c7c475c3e"}
{"nom":"Saint-Julien-sur-Cher","nomNormalise":"saintjuliensurcher","typeCollectivite":"Commune","region":"Centre-Val de Loire","departement":"Loir-et-Cher","departementCode":"41","adresse":{"street":"2 rue des Dames","postalCode":"41320","city":"Saint-Julien-sur-Cher","country":"France"},"contacts":{"email":"secretariat@saintjuliensurcher.fr","telephone":"0254964228"},"horaires":"Du Lundi au Mardi : de 08h00 à 12h00 de 13h30 à 17h30\nDu Jeudi au Vendredi : de 08h00 à 12h00 de 13h30 à 17h30\nLe Samedi : de 08h00 à 12h00\n\nAccueil ouvert uniquement le 1er samedi de chaque mois.","latitude":47.28189,"longitude":1.773963,"website":"https://saintjuliensurcher.fr/","hasWebsite":true,"hasHoraires":true,"url":"https://lannuaire.service-public.gouv.fr/centre-val-de-loire/loir-et-cher/ecc1417f-bea3-4e83-b3ff-e5538058b0b2"}
{"nom":"Saint-Laurent-des-Bois","nomNormalise":"saintlaurentdesbois","typeCollectivite":"Commune","region":"Centre-Val de Loire","departement":"Loir-et-Cher","departementCode":"41","adresse":{"street":"Place de l'Église","postalCode":"41240","city":"Saint-Laurent-des-Bois","country":"France"},"contacts":{"email":"st.laurent.des.bois@wanadoo.fr","telephone":"0254723215"},"horaires":"Le Lundi : de 09h00 à 12h00\nLe Mardi : de 09h00 à 12h00 de 14h00 à 17h00\nLe Vendredi : de 14h00 à 17h00","latitude":47.8624,"longitude":1.53075,"website":"https://www.stlaurentdesbois41.fr/","hasWebsite":true,"hasHoraires":true,"url":"https://lannuaire.service-public.gouv.fr/centre-val-de-loire/loir-et-cher/e109ee84-28c3-4802-af9c-d15976198580"}
{"nom":"Saint-Laurent-Nouan","nomNormalise":"saintlaurentnouan","typeCollectivite":"Commune","region":"Centre-Val de Loire","departement":"Loir-et-Cher","departementCode":"41","adresse":{"street":"Place de la Mairie","postalCode":"41220","city":"Saint-Laurent-Nouan","country":"France"},"contacts":{"email":"mairie@stlaurentnouan.fr","telephone":"0254814560"},"horaires":"Le Lundi : de 08h30 à 12h30 de 15h00 à 17h30\nDu Mardi au Mercredi : de 08h30 à 12h30\nLe Jeudi : de 08h30 à 12h30 de 15h00 à 18h30\nLe Vendredi : de 08h30 à 12h30 de 15h00 à 16h30","latitude":47.6856,"longitude":1.56066,"website":"https://www.stlaurentnouan.fr/","hasWebsite":true,"hasHoraires":true,"url":"https://lannuaire.service-public.gouv.fr/centre-val-de-loire/loir-et-cher/c214a8b9-e3d9-4393-aff9-c305d2a79636"}
{"nom":"Saint-Léonard-en-Beauce","nomNormalise":"saintleonardenbeauce","typeCollectivite":"Commune","region":"Centre-Val de Loire","departement":"Loir-et-Cher","departementCode":"41","adresse":{"street":"6 place de l'Église","postalCode":"41370","city":"Saint-Léonard-en-Beauce","country":"France"},"contacts":{"email":"stleonardenbeauce@wanadoo.fr","telephone":"0254723154"},"horaires":"Le Mardi : de 14h00 à 18h00\nLe Jeudi : de 14h00 à 18h00\nLe Samedi : de 09h00 à 12h00","latitude":47.832233,"longitude":1.3800405,"website":"https://www.mairie.stleonardenbeauce.fr/","hasWebsite":true,"hasHoraires":true,"url":"https://lannuaire.service-public.gouv.fr/centre-val-de-loire/loir-et-cher/0b6c3b46-fe4a-4356-b2db-6937127cdc22"}
{"nom":"Saint-Loup","nomNormalise":"saintloup","typeCollectivite":"Commune","region":"Centre-Val de Loire","departement":"Loir-et-Cher","departementCode":"41","adresse":{"street":"1 impasse de la Grange","postalCode":"41320","city":"Saint-Loup","country":"France"},"contacts":{"email":"mairie.stloupsurcher@wanadoo.fr","telephone":"0254980053"},"horaires":"Du Lundi au Mardi : de 14h00 à 18h00\nLe Jeudi : de 14h00 à 18h00\nLe Vendredi : de 14h00 à 17h00\nLe Samedi : de 10h30 à 13h00\n\nPermanence uniquement du maire.","latitude":47.26579,"longitude":1.839048,"website":"","hasWebsite":false,"hasHoraires":true,"url":"https://lannuaire.service-public.gouv.fr/centre-val-de-loire/loir-et-cher/3694656a-74a7-44d7-8376-65eaf7965bd4"}
{"nom":"Saint-Lubin-en-Vergonnois","nomNormalise":"saintlubinenvergonnois","typeCollectivite":"Commune","region":"Centre-Val de Loire","departement":"Loir-et-Cher","departementCode":"41","adresse":{"street":"6 Place du Caquetoire","postalCode":"41190","city":"Saint-Lubin-en-Vergonnois","country":"France"},"contacts":{"email":"mairie@saintlubinenvergonnois.fr","telephone":"0254432231"},"horaires":"Le Lundi : de 16h30 à 18h30\nLe Jeudi : de 08h45 à 10h15 de 17h30 à 19h00\nLe Vendredi : de 11h00 à 13h00","latitude":47.612896,"longitude":1.238885,"website":"https://www.saintlubinenvergonnois.fr/","hasWebsite":true,"hasHoraires":true,"url":"https://lannuaire.service-public.gouv.fr/centre-val-de-loire/loir-et-cher/232bc849-0823-4c0f-af5f-bcad02056c7b"}
{"nom":"Saint-Marc-du-Cor","nomNormalise":"saintmarcducor","typeCollectivite":"Commune","region":"Centre-Val de Loire","departement":"Loir-et-Cher","departementCode":"41","adresse":{"street":"3 rue des Écoles","postalCode":"41170","city":"Saint-Marc-du-Cor","country":"France"},"contacts":{"email":"saint-marc-du-cor@wanadoo.fr","telephone":"0254809487"},"horaires":"Le Mardi : de 09h00 à 12h30\nLe Vendredi : de 09h00 à 12h30","latitude":47.973164,"longitude":0.9538769,"website":"","hasWebsite":false,"hasHoraires":true,"url":"https://lannuaire.service-public.gouv.fr/centre-val-de-loire/loir-et-cher/313bf67d-7713-49d3-a226-d51b7f162647"}
{"nom":"Saint-Martin-des-Bois","nomNormalise":"saintmartindesbois","typeCollectivite":"Commune","region":"Centre-Val de Loire","departement":"Loir-et-Cher","departementCode":"41","adresse":{"street":"17 rue Saint-Georges","postalCode":"41800","city":"Saint-Martin-des-Bois","country":"France"},"contacts":{"email":"mairie-st-martin-des-bois@wanadoo.fr","telephone":"0254850605"},"horaires":"Le Lundi : de 14h00 à 17h00\nLe Mardi : de 09h00 à 12h00\nLe Mercredi : de 14h00 à 17h00\nLe Jeudi : de 09h00 à 12h00\nLe Vendredi : de 14h00 à 17h00","latitude":47.723602,"longitude":0.8260493,"website":"","hasWebsite":false,"hasHoraires":true,"url":"https://lannuaire.service-public.gouv.fr/centre-val-de-loire/loir-et-cher/3038911c-e7eb-4f27-9b62-69bc326cb636"}
{"nom":"Saint-Ouen","nomNormalise":"saintouen","typeCollectivite":"Commune","region":"Centre-Val de Loire","departement":"Loir-et-Cher","departementCode":"41","adresse":{"street":"4 rue des Écoles","postalCode":"41100","city":"Saint-Ouen","country":"France"},"contacts":{"email":"mairie@saintouen41.fr","telephone":"0254733100"},"horaires":"Le Lundi : de 08h30 à 12h30 de 13h30 à 17h30\nLe Mardi : de 08h30 à 12h30\nDu Mercredi au Jeudi : de 08h30 à 12h30 de 13h30 à 17h30\nLe Vendredi : de 08h30 à 12h30 de 13h30 à 16h30","latitude":47.809814,"longitude":1.081736,"website":"https://www.saintouen41.fr/","hasWebsite":true,"hasHoraires":true,"url":"https://lannuaire.service-public.gouv.fr/centre-val-de-loire/loir-et-cher/9852fe5e-3e3d-49f3-938e-f05dc56f1da4"}
{"nom":"Saint-Rimay","nomNormalise":"saintrimay","typeCollectivite":"Commune","region":"Centre-Val de Loire","departement":"Loir-et-Cher","departementCode":"41","adresse":{"street":"2 rue des Plantes","postalCode":"41800","city":"Saint-Rimay","country":"France"},"contacts":{"email":"mairie@mairie-saintrimay.fr","telephone":"0254850673"},"horaires":"Le Mardi : de 09h00 à 12h30 de 14h00 à 17h00\nLe Jeudi : de 09h00 à 12h30 de 14h00 à 17h00","latitude":47.7635,"longitude":0.922595,"website":"","hasWebsite":false,"hasHoraires":true,"url":"https://lannuaire.service-public.gouv.fr/centre-val-de-loire/loir-et-cher/4ba52314-3326-47d0-bb1a-c0359921f98c"}
{"nom":"Saint-Romain-sur-Cher","nomNormalise":"saintromainsurcher","typeCollectivite":"Commune","region":"Centre-Val de Loire","departement":"Loir-et-Cher","departementCode":"41","adresse":{"street":"42 rue Principale","postalCode":"41140","city":"Saint-Romain-sur-Cher","country":"France"},"contacts":{"email":"mairie.sr@wanadoo.fr","telephone":"0254717203"},"horaires":"Le Lundi : de 09h00 à 12h30\nLe Mardi : de 09h00 à 12h30 de 14h00 à 17h00\nLe Mercredi : de 09h00 à 12h30\nLe Jeudi : de 09h00 à 12h30 de 14h00 à 17h00\nLe Vendredi : de 09h00 à 12h30\nLe Samedi : de 09h00 à 12h00","latitude":47.3202,"longitude":1.39999,"website":"http://www.saintromainsurcher.com/","hasWebsite":true,"hasHoraires":true,"url":"https://lannuaire.service-public.gouv.fr/centre-val-de-loire/loir-et-cher/a517672a-cdc7-4dfa-8590-861ca3bf37ab"}
{"nom":"Saint-Sulpice-de-Pommeray","nomNormalise":"saintsulpicedepommeray","typeCollectivite":"Commune","region":"Centre-Val de Loire","departement":"Loir-et-Cher","departementCode":"41","adresse":{"street":"10 rue des Écoles","postalCode":"41000","city":"Saint-Sulpice-de-Pommeray","country":"France"},"contacts":{"email":"saint.sulpice.mairie@wanadoo.fr","telephone":"0254525800"},"horaires":"Le Lundi : de 08h00 à 12h00\nLe Mardi : de 13h30 à 18h30\nLe Mercredi : de 08h00 à 12h00\nLe Jeudi : de 13h30 à 18h30\nLe Vendredi : de 13h30 à 17h30","latitude":47.6207,"longitude":1.32393,"website":"http://www.saintsulpicedepommeray.fr/","hasWebsite":true,"hasHoraires":true,"url":"https://lannuaire.service-public.gouv.fr/centre-val-de-loire/loir-et-cher/7b8fa88c-8ae9-406b-bf68-2353fcf648c8"}
{"nom":"Saint-Viâtre","nomNormalise":"saintviatre","typeCollectivite":"Commune","region":"Centre-Val de Loire","departement":"Loir-et-Cher","departementCode":"41","adresse":{"street":"20 rue de la Paix","postalCode":"41210","city":"Saint-Viâtre","country":"France"},"contacts":{"email":"mairie@saint-viatre.fr","telephone":"0254889320"},"horaires":"Du Mardi au Samedi : de 09h00 à 12h00","latitude":47.5198,"longitude":1.93108,"website":"http://www.saint-viatre.fr/","hasWebsite":true,"hasHoraires":true,"url":"https://lannuaire.service-public.gouv.fr/centre-val-de-loire/loir-et-cher/3390884c-da7f-49ff-85f2-8e1ee085779d"}
{"nom":"Salbris","nomNormalise":"salbris","typeCollectivite":"Commune","region":"Centre-Val de Loire","departement":"Loir-et-Cher","departementCode":"41","adresse":{"street":"33 boulevard de la République","postalCode":"41300","city":"Salbris","country":"France"},"contacts":{"email":"secretariat-general@salbris.fr","telephone":"0254941040"},"horaires":"Le Lundi : de 14h00 à 17h30\nDu Mardi au Vendredi : de 15h00 à 17h30\nLe Samedi : de 09h00 à 12h00","latitude":47.42701,"longitude":2.052059,"website":"https://salbris.fr/","hasWebsite":true,"hasHoraires":true,"url":"https://lannuaire.service-public.gouv.fr/centre-val-de-loire/loir-et-cher/9f08cb85-1ebe-4b96-ab45-56869983560f"}
{"nom":"Sambin","nomNormalise":"sambin","typeCollectivite":"Commune","region":"Centre-Val de Loire","departement":"Loir-et-Cher","departementCode":"41","adresse":{"street":"1 rue du Grain-d'Or","postalCode":"41120","city":"Sambin","country":"France"},"contacts":{"email":"mairie@sambin41.fr","telephone":"0254202827"},"horaires":"Du Lundi au Mardi : de 09h15 à 12h00\nLe Jeudi : de 09h15 à 12h00 de 14h15 à 17h00\nLe Vendredi : de 09h15 à 12h00","latitude":47.438534,"longitude":1.296533,"website":"","hasWebsite":false,"hasHoraires":true,"url":"https://lannuaire.service-public.gouv.fr/centre-val-de-loire/loir-et-cher/9de3524b-8e2d-45e3-aa81-4de3a1f35f38"}
{"nom":"Santenay","nomNormalise":"santenay","typeCollectivite":"Commune","region":"Centre-Val de Loire","departement":"Loir-et-Cher","departementCode":"41","adresse":{"street":"2 rue du Presbytère","postalCode":"41190","city":"Santenay","country":"France"},"contacts":{"email":"mairie.santenay41@wanadoo.fr","telephone":"0254461112"},"horaires":"Le Lundi : de 14h00 à 17h00\nLe Mardi : de 16h00 à 18h30\nLe Mercredi : de 09h00 à 12h00","latitude":47.5662,"longitude":1.11759,"website":"https://santenay41.fr/","hasWebsite":true,"hasHoraires":true,"url":"https://lannuaire.service-public.gouv.fr/centre-val-de-loire/loir-et-cher/1f2738de-8fb4-4255-8f24-bac26ac20f91"}
{"nom":"Sargé-sur-Braye","nomNormalise":"sargesurbraye","typeCollectivite":"Commune","region":"Centre-Val de Loire","departement":"Loir-et-Cher","departementCode":"41","adresse":{"street":"6 rue de l'Abbaye","postalCode":"41170","city":"Sargé-sur-Braye","country":"France"},"contacts":{"email":"mairie.sarge@orange.fr","telephone":"0254727317"},"horaires":"Le Mardi : de 08h00 à 12h00 de 13h30 à 17h30\nLe Jeudi : de 08h00 à 12h00 de 13h30 à 17h30\nLe Vendredi : de 13h30 à 17h00","latitude":47.924397,"longitude":0.851178,"website":"https://www.sargesurbraye.com/","hasWebsite":true,"hasHoraires":true,"url":"https://lannuaire.service-public.gouv.fr/centre-val-de-loire/loir-et-cher/cf6fa67b-47f1-47b6-bb4f-f3ecdc3721b0"}
{"nom":"Sasnières","nomNormalise":"sasnieres","typeCollectivite":"Commune","region":"Centre-Val de Loire","departement":"Loir-et-Cher","departementCode":"41","adresse":{"street":"8 rue de la Mairie","postalCode":"41310","city":"Sasnières","country":"France"},"contacts":{"email":"mairie.sasnieres@orange.fr","telephone":"0254828538"},"horaires":"Le Lundi : de 09h30 à 11h30\nLe Jeudi : de 14h00 à 17h00","latitude":47.719456,"longitude":0.934503,"website":"","hasWebsite":false,"hasHoraires":true,"url":"https://lannuaire.service-public.gouv.fr/centre-val-de-loire/loir-et-cher/51230515-bc44-413c-a8fe-58b1dbca858d"}
{"nom":"Sassay","nomNormalise":"sassay","typeCollectivite":"Commune","region":"Centre-Val de Loire","departement":"Loir-et-Cher","departementCode":"41","adresse":{"street":"7 route de Contres","postalCode":"41700","city":"Sassay","country":"France"},"contacts":{"email":"mairie@sassay41.fr","telephone":"0254795291"},"horaires":"Le Lundi : de 14h00 à 17h00\nLe Mercredi : de 09h00 à 12h00\nDu Jeudi au Vendredi : de 14h00 à 17h00\nLe Samedi : de 10h00 à 12h00","latitude":47.39513,"longitude":1.4414533,"website":"https://www.sassay41.fr/","hasWebsite":true,"hasHoraires":true,"url":"https://lannuaire.service-public.gouv.fr/centre-val-de-loire/loir-et-cher/4dd17fef-251c-45ec-9ca2-6f1035b44a6e"}
{"nom":"Savigny-sur-Braye","nomNormalise":"savignysurbraye","typeCollectivite":"Commune","region":"Centre-Val de Loire","departement":"Loir-et-Cher","departementCode":"41","adresse":{"street":"1 place de la Mairie","postalCode":"41360","city":"Savigny-sur-Braye","country":"France"},"contacts":{"email":"mairie@savigny-sur-braye.fr","telephone":"0254237479"},"horaires":"Du Lundi au Vendredi : de 09h00 à 12h30 de 14h00 à 17h00","latitude":47.8799,"longitude":0.8097054,"website":"http://www.savigny-sur-braye.fr/","hasWebsite":true,"hasHoraires":true,"url":"https://lannuaire.service-public.gouv.fr/centre-val-de-loire/loir-et-cher/ae1ac07d-327d-4798-9818-d4323e94318a"}
{"nom":"Seigy","nomNormalise":"seigy","typeCollectivite":"Commune","region":"Centre-Val de Loire","departement":"Loir-et-Cher","departementCode":"41","adresse":{"street":"21 rue Marcel-Cottereau","postalCode":"41110","city":"Seigy","country":"France"},"contacts":{"email":"mairie@seigy.com","telephone":"0254751231"},"horaires":"Le Lundi : de 09h00 à 12h00 de 14h00 à 17h00\nLe Mardi : de 09h00 à 12h00\nDu Mercredi au Vendredi : de 09h00 à 12h00 de 14h00 à 17h00","latitude":47.2519,"longitude":1.39483,"website":"https://www.seigy.fr/","hasWebsite":true,"hasHoraires":true,"url":"https://lannuaire.service-public.gouv.fr/centre-val-de-loire/loir-et-cher/dfe8e061-c57b-497a-adf0-b9a4538e0d9f"}
{"nom":"Mairie déléguée - Seillac","nomNormalise":"mairiedelegueeseillac","typeCollectivite":"Commune","region":"Centre-Val de Loire","departement":"Loir-et-Cher","departementCode":"41","adresse":{"street":"Seillac","postalCode":"41150","city":"Valloire-sur-Cisse","country":"France"},"contacts":{"email":"seillac@valloire-sur-cisse.fr","telephone":"0254208484"},"horaires":"Le Mardi : de 13h30 à 16h30","latitude":47.543156,"longitude":1.15797,"website":"https://valloire-sur-cisse.fr/","hasWebsite":true,"hasHoraires":true,"url":"https://lannuaire.service-public.gouv.fr/centre-val-de-loire/loir-et-cher/e85295c7-bd21-4046-a060-ce75136132d4"}
{"nom":"Selles-Saint-Denis","nomNormalise":"sellessaintdenis","typeCollectivite":"Commune","region":"Centre-Val de Loire","departement":"Loir-et-Cher","departementCode":"41","adresse":{"street":"4 rue de Bourgogne","postalCode":"41300","city":"Selles-Saint-Denis","country":"France"},"contacts":{"email":"mairie.selles.st.denis@orange.fr","telephone":"0254962223"},"horaires":"Le Lundi : de 09h00 à 12h00 de 14h00 à 18h00\nLe Mardi : de 09h00 à 12h00\nDu Mercredi au Jeudi : de 09h00 à 12h00 de 14h00 à 17h00\nLe Vendredi : de 09h00 à 12h00 de 14h00 à 18h00","latitude":47.38675,"longitude":1.923631,"website":"https://www.sellessaintdenis.com/","hasWebsite":true,"hasHoraires":true,"url":"https://lannuaire.service-public.gouv.fr/centre-val-de-loire/loir-et-cher/a5c0e723-743d-41d4-a9e6-eba2b6553d23"}
{"nom":"Selles-sur-Cher","nomNormalise":"sellessurcher","typeCollectivite":"Commune","region":"Centre-Val de Loire","departement":"Loir-et-Cher","departementCode":"41","adresse":{"street":"1 place Charles-de-Gaulle","postalCode":"41130","city":"Selles-sur-Cher","country":"France"},"contacts":{"email":"accueil@selles-sur-cher.fr","telephone":"0254952540"},"horaires":"Du Lundi au Mercredi : de 09h00 à 12h30 de 13h30 à 17h00\nLe Jeudi : de 08h30 à 12h00\nLe Vendredi : de 09h00 à 12h30 de 13h30 à 17h00","latitude":47.27469,"longitude":1.553859,"website":"http://www.selles-sur-cher.fr/","hasWebsite":true,"hasHoraires":true,"url":"https://lannuaire.service-public.gouv.fr/centre-val-de-loire/loir-et-cher/32de5eed-ad31-4517-86f4-6e885f1019ac"}
{"nom":"Selommes","nomNormalise":"selommes","typeCollectivite":"Commune","region":"Centre-Val de Loire","departement":"Loir-et-Cher","departementCode":"41","adresse":{"street":"1 place de la Mairie","postalCode":"41100","city":"Selommes","country":"France"},"contacts":{"email":"mairie@selommes41.fr","telephone":"0254238103"},"horaires":"Le Lundi : de 10h00 à 12h00\nLe Mardi : de 10h00 à 12h00 de 14h00 à 16h00\nLe Jeudi : de 10h00 à 12h00\nLe Vendredi : de 10h00 à 12h00\n\nSur rendez-vous l'après-midi.","latitude":47.756,"longitude":1.19229,"website":"http://www.selommes.fr/","hasWebsite":true,"hasHoraires":true,"url":"https://lannuaire.service-public.gouv.fr/centre-val-de-loire/loir-et-cher/25f88957-c6e3-4c46-9bd1-efa703d1256b"}
{"nom":"Séris","nomNormalise":"seris","typeCollectivite":"Commune","region":"Centre-Val de Loire","departement":"Loir-et-Cher","departementCode":"41","adresse":{"street":"3 rue du Bout-Hallé","postalCode":"41500","city":"Séris","country":"France"},"contacts":{"email":"mairie.seris@orange.fr","telephone":"0254810322"},"horaires":"Le Mardi : de 08h30 à 12h30 de 13h15 à 17h30\nLe Mercredi : de 08h30 à 12h30\nLe Vendredi : de 13h30 à 16h00","latitude":47.7571,"longitude":1.50177,"website":"https://seris41.fr/","hasWebsite":true,"hasHoraires":true,"url":"https://lannuaire.service-public.gouv.fr/centre-val-de-loire/loir-et-cher/79675a2e-7b1e-4fd3-a729-3619d6f80796"}
{"nom":"Seur","nomNormalise":"seur","typeCollectivite":"Commune","region":"Centre-Val de Loire","departement":"Loir-et-Cher","departementCode":"41","adresse":{"street":"3 place du 8-Mai-1945","postalCode":"41120","city":"Seur","country":"France"},"contacts":{"email":"mairie.seur@orange.fr","telephone":"0254440528"},"horaires":"Le Lundi : de 13h30 à 18h00\nLe Mardi : de 14h00 à 17h00\nLe Jeudi : de 08h30 à 12h30\nLe Vendredi : de 13h30 à 17h00","latitude":47.503304,"longitude":1.3341041,"website":"https://seur41.eu/","hasWebsite":true,"hasHoraires":true,"url":"https://lannuaire.service-public.gouv.fr/centre-val-de-loire/loir-et-cher/66922ff1-f69b-4527-9e38-c0acf332c5a7"}
{"nom":"Soings-en-Sologne","nomNormalise":"soingsensologne","typeCollectivite":"Commune","region":"Centre-Val de Loire","departement":"Loir-et-Cher","departementCode":"41","adresse":{"street":"1 rue de Selles-sur-Cher","postalCode":"41230","city":"Soings-en-Sologne","country":"France"},"contacts":{"email":"mairie@soings.fr","telephone":"0254987328"},"horaires":"Du Lundi au Vendredi : de 09h00 à 13h00","latitude":47.34238,"longitude":1.479983,"website":"https://www.soingsensologne.fr/fr/","hasWebsite":true,"hasHoraires":true,"url":"https://lannuaire.service-public.gouv.fr/centre-val-de-loire/loir-et-cher/7177da43-958b-4b6f-ae7f-6279e9746eb6"}
{"nom":"Souesmes","nomNormalise":"souesmes","typeCollectivite":"Commune","region":"Centre-Val de Loire","departement":"Loir-et-Cher","departementCode":"41","adresse":{"street":"8 rue du Bois","postalCode":"41300","city":"Souesmes","country":"France"},"contacts":{"email":"mairie.souesmes@orange.fr","telephone":"0254988314"},"horaires":"Du Lundi au Vendredi : de 08h30 à 12h00 de 14h00 à 17h30\nAccueil ouvert le samedi matin uniquement sur rendez-vous.","latitude":47.4585,"longitude":2.18095,"website":"https://www.souesmes.fr/","hasWebsite":true,"hasHoraires":true,"url":"https://lannuaire.service-public.gouv.fr/centre-val-de-loire/loir-et-cher/8a3a5cfa-c8a1-45b9-b8c4-27479a80823c"}
{"nom":"Sougé","nomNormalise":"souge","typeCollectivite":"Commune","region":"Centre-Val de Loire","departement":"Loir-et-Cher","departementCode":"41","adresse":{"street":"2 impasse de l'Église","postalCode":"41800","city":"Sougé","country":"France"},"contacts":{"email":"mairie.souge@orange.fr","telephone":"0254724443"},"horaires":"Le Lundi : de 09h00 à 13h00 de 15h00 à 18h00\nDu Mardi au Mercredi : de 09h00 à 13h00\nLe Jeudi : de 09h00 à 13h00 de 15h00 à 18h00\nLe Vendredi : de 09h00 à 13h00","latitude":47.769882,"longitude":0.7274151,"website":"https://www.souge.fr/","hasWebsite":true,"hasHoraires":true,"url":"https://lannuaire.service-public.gouv.fr/centre-val-de-loire/loir-et-cher/8d2c2be8-9193-462d-92a3-49dc3934a17a"}
{"nom":"Souvigny-en-Sologne","nomNormalise":"souvignyensologne","typeCollectivite":"Commune","region":"Centre-Val de Loire","departement":"Loir-et-Cher","departementCode":"41","adresse":{"street":"30 rue du Gâtinais","postalCode":"41600","city":"Souvigny-en-Sologne","country":"France"},"contacts":{"email":"mairie-souvigny2@wanadoo.fr","telephone":"0254884610"},"horaires":"Le Mardi : de 14h00 à 18h00\nLe Vendredi : de 14h00 à 18h00","latitude":47.6445,"longitude":2.16588,"website":"http://www.souvigny-en-sologne.fr/","hasWebsite":true,"hasHoraires":true,"url":"https://lannuaire.service-public.gouv.fr/centre-val-de-loire/loir-et-cher/a73db87d-2167-4cd4-a271-8fdfe802438e"}
{"nom":"Suèvres","nomNormalise":"suevres","typeCollectivite":"Commune","region":"Centre-Val de Loire","departement":"Loir-et-Cher","departementCode":"41","adresse":{"street":"1 rue Jean-Desjoyeaux","postalCode":"41500","city":"Suèvres","country":"France"},"contacts":{"email":"mairie@suevres41.fr","telephone":"0254878024"},"horaires":"Du Lundi au Mercredi : de 09h00 à 12h00\nLe Vendredi : de 09h00 à 12h00","latitude":47.667202,"longitude":1.460947,"website":"https://www.suevres41.fr/","hasWebsite":true,"hasHoraires":true,"url":"https://lannuaire.service-public.gouv.fr/centre-val-de-loire/loir-et-cher/34a012c9-3ee1-41d3-8735-ee53b2db05e5"}
{"nom":"Talcy","nomNormalise":"talcy","typeCollectivite":"Commune","region":"Centre-Val de Loire","departement":"Loir-et-Cher","departementCode":"41","adresse":{"street":"4 place Cassandre-Salviati","postalCode":"41370","city":"Talcy","country":"France"},"contacts":{"email":"mairie.talcy41@wanadoo.fr","telephone":"0254812045"},"horaires":"Le Mardi : de 09h30 à 11h30 de 13h30 à 15h30\nDu Jeudi au Vendredi : de 09h30 à 11h30 de 13h30 à 15h30\nFermé le lundi, mercredi et le week-end","latitude":47.76992,"longitude":1.44598,"website":"","hasWebsite":false,"hasHoraires":true,"url":"https://lannuaire.service-public.gouv.fr/centre-val-de-loire/loir-et-cher/b8f2a838-4193-4758-96c8-d31c1eb6a3cc"}
{"nom":"Ternay","nomNormalise":"ternay","typeCollectivite":"Commune","region":"Centre-Val de Loire","departement":"Loir-et-Cher","departementCode":"41","adresse":{"street":"8 rue de la Mairie","postalCode":"41800","city":"Ternay","country":"France"},"contacts":{"email":"mairie.ternay@wanadoo.fr","telephone":"0254725786"},"horaires":"Le Mardi : de 08h30 à 11h30\nLe Jeudi : de 08h30 à 11h30","latitude":47.729855,"longitude":0.779729,"website":"","hasWebsite":false,"hasHoraires":true,"url":"https://lannuaire.service-public.gouv.fr/centre-val-de-loire/loir-et-cher/4a2c1a5f-61b2-4b6f-9567-512187403c7e"}
{"nom":"Theillay","nomNormalise":"theillay","typeCollectivite":"Commune","region":"Centre-Val de Loire","departement":"Loir-et-Cher","departementCode":"41","adresse":{"street":"1 route de Châtres","postalCode":"41300","city":"Theillay","country":"France"},"contacts":{"email":"mairie@commune-theillay.fr","telephone":"0254833817"},"horaires":"Le Lundi : de 09h00 à 12h30\nLe Mardi : de 09h00 à 12h00 de 14h00 à 17h30\nLe Mercredi : de 09h00 à 12h30\nLe Jeudi : de 09h00 à 12h00\nLe Vendredi : de 09h00 à 12h00 de 14h00 à 18h00","latitude":47.3131,"longitude":2.03857,"website":"https://www.mairie-theillay.fr/fr.html","hasWebsite":true,"hasHoraires":true,"url":"https://lannuaire.service-public.gouv.fr/centre-val-de-loire/loir-et-cher/b00465d0-6299-438f-83af-91ebdb7f1c7d"}
{"nom":"Mairie déléguée - Thenay","nomNormalise":"mairiedelegueethenay","typeCollectivite":"Commune","region":"Centre-Val de Loire","departement":"Loir-et-Cher","departementCode":"41","adresse":{"street":"Thenay","postalCode":"41400","city":"Controis-en-Sologne","country":"France"},"contacts":{"email":"mairie-thenay-41@wanadoo.fr","telephone":"0254325207"},"horaires":"Le Lundi : de 10h30 à 12h30 de 14h00 à 17h30\nLe Mardi : de 14h00 à 17h30\nDu Jeudi au Vendredi : de 14h00 à 17h30\nLe Samedi : de 10h30 à 12h30","latitude":47.3886,"longitude":1.29057,"website":"http://www.val2c.fr/","hasWebsite":true,"hasHoraires":true,"url":"https://lannuaire.service-public.gouv.fr/centre-val-de-loire/loir-et-cher/fb0955db-05b7-4750-891f-0a453b4d277e"}
{"nom":"Thésée","nomNormalise":"thesee","typeCollectivite":"Commune","region":"Centre-Val de Loire","departement":"Loir-et-Cher","departementCode":"41","adresse":{"street":"Parc du Vaulx-Saint-Georges","postalCode":"41140","city":"Thésée","country":"France"},"contacts":{"email":"theseemairie@wanadoo.fr","telephone":"0254714020"},"horaires":"Le Lundi : de 09h30 à 12h30\nLe Mardi : de 09h30 à 12h30 de 14h00 à 17h00\nLe Jeudi : de 09h30 à 12h30\nLe Vendredi : de 09h30 à 12h30 de 14h00 à 17h00","latitude":47.326523,"longitude":1.302166,"website":"https://www.communedethesee.com/","hasWebsite":true,"hasHoraires":true,"url":"https://lannuaire.service-public.gouv.fr/centre-val-de-loire/loir-et-cher/19e577fc-1c7f-4944-9bde-2c232495d0a8"}
{"nom":"Thoré-la-Rochette","nomNormalise":"thorelarochette","typeCollectivite":"Commune","region":"Centre-Val de Loire","departement":"Loir-et-Cher","departementCode":"41","adresse":{"street":"Place de la Mairie","postalCode":"41100","city":"Thoré-la-Rochette","country":"France"},"contacts":{"email":"thoremairie@orange.fr","telephone":"0254728082"},"horaires":"Du Lundi au Mercredi : de 08h30 à 12h00\nDu Jeudi au Vendredi : de 14h00 à 18h00","latitude":47.78892,"longitude":0.963282,"website":"","hasWebsite":false,"hasHoraires":true,"url":"https://lannuaire.service-public.gouv.fr/centre-val-de-loire/loir-et-cher/bb75a084-9dc2-4fa8-aede-2c39e2fcfc7f"}
{"nom":"Thoury","nomNormalise":"thoury","typeCollectivite":"Commune","region":"Centre-Val de Loire","departement":"Loir-et-Cher","departementCode":"41","adresse":{"street":"8 route de Muides","postalCode":"41220","city":"Thoury","country":"France"},"contacts":{"email":"mairie.thoury@orange.fr","telephone":"0254875137"},"horaires":"Le Lundi : de 14h00 à 18h00\nLe Jeudi : de 09h30 à 12h00\nLe Vendredi : de 14h00 à 17h30","latitude":47.63031,"longitude":1.596151,"website":"http://www.mairie-thoury.fr/","hasWebsite":true,"hasHoraires":true,"url":"https://lannuaire.service-public.gouv.fr/centre-val-de-loire/loir-et-cher/b23c88ab-3a8f-46c7-8375-4367311175cd"}
{"nom":"Tourailles","nomNormalise":"tourailles","typeCollectivite":"Commune","region":"Centre-Val de Loire","departement":"Loir-et-Cher","departementCode":"41","adresse":{"street":"5 rue de Lamon","postalCode":"41190","city":"Tourailles","country":"France"},"contacts":{"email":"mairie.tourailles41@orange.fr","telephone":"0254829063"},"horaires":"Le Mercredi : de 10h00 à 12h00","latitude":47.686497,"longitude":1.1593821,"website":"","hasWebsite":false,"hasHoraires":true,"url":"https://lannuaire.service-public.gouv.fr/centre-val-de-loire/loir-et-cher/d76553d5-e8b5-4982-a2a2-e7f772113b2e"}
{"nom":"Tour-en-Sologne","nomNormalise":"tourensologne","typeCollectivite":"Commune","region":"Centre-Val de Loire","departement":"Loir-et-Cher","departementCode":"41","adresse":{"street":"81 rue de la Mairie","postalCode":"41250","city":"Tour-en-Sologne","country":"France"},"contacts":{"email":"commune.tour-en-sologne@wanadoo.fr","telephone":"0254464286"},"horaires":"Du Lundi au Mardi : de 08h30 à 12h30\nLe Mercredi : de 08h30 à 12h00\nDu Jeudi au Vendredi : de 13h30 à 18h30","latitude":47.538235,"longitude":1.5004,"website":"https://www.tourensologne.fr/","hasWebsite":true,"hasHoraires":true,"url":"https://lannuaire.service-public.gouv.fr/centre-val-de-loire/loir-et-cher/ea84937e-8905-4416-8721-bea458a2515d"}
{"nom":"Mairie déléguée - Tréhet","nomNormalise":"mairiedelegueetrehet","typeCollectivite":"Commune","region":"Centre-Val de Loire","departement":"Loir-et-Cher","departementCode":"41","adresse":{"street":"Tréhet","postalCode":"41800","city":"Vallée-de-Ronsard","country":"France"},"contacts":{"email":"mairie@valleederonsard.fr","telephone":"0254724114"},"horaires":"Le Mercredi : de 10h00 à 12h30 de 14h00 à 16h30","latitude":47.73565,"longitude":0.624145,"website":"https://valleederonsard.fr/","hasWebsite":true,"hasHoraires":true,"url":"https://lannuaire.service-public.gouv.fr/centre-val-de-loire/loir-et-cher/a825c7a1-1edc-4b1c-9461-f6fdc14053ca"}
{"nom":"Troo","nomNormalise":"troo","typeCollectivite":"Commune","region":"Centre-Val de Loire","departement":"Loir-et-Cher","departementCode":"41","adresse":{"street":"Place Sainte-Catherine","postalCode":"41800","city":"Troo","country":"France"},"contacts":{"email":"mairietroo@orange.fr","telephone":"0254735500"},"horaires":"Le Lundi : de 14h30 à 17h30\nLe Mercredi : de 10h00 à 12h00\nLe Vendredi : de 15h00 à 18h00","latitude":47.77707,"longitude":0.79804,"website":"https://www.troo.fr/","hasWebsite":true,"hasHoraires":true,"url":"https://lannuaire.service-public.gouv.fr/centre-val-de-loire/loir-et-cher/3b107ada-a1ed-43a7-8b22-864e86bfd281"}
{"nom":"Valaire","nomNormalise":"valaire","typeCollectivite":"Commune","region":"Centre-Val de Loire","departement":"Loir-et-Cher","departementCode":"41","adresse":{"street":"18 rue de l'Octroi","postalCode":"41120","city":"Valaire","country":"France"},"contacts":{"email":"mairie.valaire@orange.fr","telephone":"0254440440"},"horaires":"Le Mardi : de 08h30 à 11h45\nLe Mercredi : de 08h30 à 12h30 de 13h30 à 17h15\nLe Vendredi : de 08h30 à 11h45","latitude":47.470707,"longitude":1.2662278,"website":"","hasWebsite":false,"hasHoraires":true,"url":"https://lannuaire.service-public.gouv.fr/centre-val-de-loire/loir-et-cher/b85ba22e-5b14-41fd-bdea-52f954bc310a"}
{"nom":"Valencisse","nomNormalise":"valencisse","typeCollectivite":"Commune","region":"Centre-Val de Loire","departement":"Loir-et-Cher","departementCode":"41","adresse":{"street":"Molineuf","postalCode":"41190","city":"Valencisse","country":"France"},"contacts":{"email":"mairie@valencisse.fr","telephone":"0254700523"},"horaires":"Du Mardi au Vendredi : de 14h15 à 17h30\nLe Samedi : de 09h00 à 11h30","latitude":47.5772,"longitude":1.21813,"website":"https://www.valencisse.fr/","hasWebsite":true,"hasHoraires":true,"url":"https://lannuaire.service-public.gouv.fr/centre-val-de-loire/loir-et-cher/e29b7d8c-c3d6-4155-ad3d-8b4b4ffa2c4f"}
{"nom":"Vallée-de-Ronsard","nomNormalise":"valleederonsard","typeCollectivite":"Commune","region":"Centre-Val de Loire","departement":"Loir-et-Cher","departementCode":"41","adresse":{"street":"1 place des Anciens-ASN","postalCode":"41800","city":"Vallée-de-Ronsard","country":"France"},"contacts":{"email":"mairie@valleederonsard.fr","telephone":"0254724203"},"horaires":"Le Mardi : de 09h00 à 12h30 de 13h30 à 17h00\nLe Mercredi : de 13h30 à 17h00\nLe Jeudi : de 09h00 à 12h30 de 13h30 à 17h00\nLe Vendredi : de 13h30 à 17h00","latitude":47.7544,"longitude":0.686121,"website":"https://valleederonsard.fr/","hasWebsite":true,"hasHoraires":true,"url":"https://lannuaire.service-public.gouv.fr/centre-val-de-loire/loir-et-cher/01df15a2-8756-42ce-85ed-ec59bdd9effe"}
{"nom":"Vallières-les-Grandes","nomNormalise":"valliereslesgrandes","typeCollectivite":"Commune","region":"Centre-Val de Loire","departement":"Loir-et-Cher","departementCode":"41","adresse":{"street":"2 place de l'Église","postalCode":"41400","city":"Vallières-les-Grandes","country":"France"},"contacts":{"email":"mairie-vallieres-les-grandes@orange.fr","telephone":"0254209507"},"horaires":"Du Lundi au Vendredi : de 08h00 à 13h00\nLe Samedi : de 08h30 à 11h30\n\nAccueil ouvert uniquement les 1er et 3e samedis du mois.","latitude":47.4229,"longitude":1.14683,"website":"http://www.valliereslesgrandes.fr/","hasWebsite":true,"hasHoraires":true,"url":"https://lannuaire.service-public.gouv.fr/centre-val-de-loire/loir-et-cher/87fe24b8-c972-4df6-9a65-f0b17cb83b26"}
{"nom":"Valloire-sur-Cisse","nomNormalise":"valloiresurcisse","typeCollectivite":"Commune","region":"Centre-Val de Loire","departement":"Loir-et-Cher","departementCode":"41","adresse":{"street":"Chouzy-sur-Cisse","postalCode":"41150","city":"Valloire-sur-Cisse","country":"France"},"contacts":{"email":"mairie@valloire-sur-cisse.fr","telephone":"0254335545"},"horaires":"Le Lundi : de 08h00 à 12h30\nDu Mardi au Mercredi : de 08h00 à 12h30 de 13h30 à 16h30\nLe Jeudi : de 08h00 à 12h30\nLe Vendredi : de 08h00 à 12h30 de 13h30 à 16h30\nLe Samedi : de 09h00 à 12h00","latitude":47.5223,"longitude":1.24624,"website":"https://valloire-sur-cisse.fr/","hasWebsite":true,"hasHoraires":true,"url":"https://lannuaire.service-public.gouv.fr/centre-val-de-loire/loir-et-cher/9a54f5b8-e9ed-420f-9304-850948eb9ce8"}
{"nom":"Veilleins","nomNormalise":"veilleins","typeCollectivite":"Commune","region":"Centre-Val de Loire","departement":"Loir-et-Cher","departementCode":"41","adresse":{"street":"144 route de Romorantin","postalCode":"41230","city":"Veilleins","country":"Finlande"},"contacts":{"email":"mairie@veilleins41.fr","telephone":"0254838205"},"horaires":"Le Lundi : de 14h00 à 18h00\nLe Jeudi : de 08h30 à 12h00 de 13h30 à 16h30\nLe Vendredi : de 14h00 à 18h00","latitude":47.421173,"longitude":1.670184,"website":"http://www.veilleins.fr/","hasWebsite":true,"hasHoraires":true,"url":"https://lannuaire.service-public.gouv.fr/centre-val-de-loire/loir-et-cher/13c17db7-6a25-48c0-8b59-4aadba7763a9"}
{"nom":"Vendôme","nomNormalise":"vendome","typeCollectivite":"Commune","region":"Centre-Val de Loire","departement":"Loir-et-Cher","departementCode":"41","adresse":{"street":"Parc Ronsard","postalCode":"41100","city":"Vendôme","country":"France"},"contacts":{"email":"courrier@catv41.fr","telephone":"0254894200"},"horaires":"Le Lundi : de 08h30 à 12h00 de 13h30 à 17h30\nLe Mardi : de 13h30 à 17h30\nDu Mercredi au Jeudi : de 08h30 à 12h00 de 13h30 à 17h30\nLe Vendredi : de 08h30 à 17h30","latitude":47.79255,"longitude":1.065343,"website":"https://www.vendome.eu/","hasWebsite":true,"hasHoraires":true,"url":"https://lannuaire.service-public.gouv.fr/centre-val-de-loire/loir-et-cher/591003ce-7de9-49a0-9b0e-34a3c95ba6c2"}
{"nom":"Vernou-en-Sologne","nomNormalise":"vernouensologne","typeCollectivite":"Commune","region":"Centre-Val de Loire","departement":"Loir-et-Cher","departementCode":"41","adresse":{"street":"5 place de l'Église","postalCode":"41230","city":"Vernou-en-Sologne","country":"France"},"contacts":{"email":"mairie@vernou-en-sologne.com","telephone":"0254982022"},"horaires":"Du Lundi au Vendredi : de 09h30 à 12h00 de 14h00 à 16h00\nLe Samedi : de 09h30 à 12h00","latitude":47.501663,"longitude":1.680116,"website":"http://www.vernou-en-sologne.com/","hasWebsite":true,"hasHoraires":true,"url":"https://lannuaire.service-public.gouv.fr/centre-val-de-loire/loir-et-cher/0007750e-66d8-456f-8d24-c87131965ef7"}
{"nom":"Mairie déléguée - Veuves","nomNormalise":"mairiedelegueeveuves","typeCollectivite":"Commune","region":"Centre-Val de Loire","departement":"Loir-et-Cher","departementCode":"41","adresse":{"street":"Veuves","postalCode":"41150","city":"Veuzain-sur-Loire","country":"France"},"contacts":{"email":"communedeveuves@orange.fr","telephone":"0254702440"},"horaires":"Le Mardi : de 09h00 à 12h30\nLe Vendredi : de 09h00 à 12h30","latitude":47.473537,"longitude":1.1243566,"website":"https://www.veuzainsurloire.fr/","hasWebsite":true,"hasHoraires":true,"url":"https://lannuaire.service-public.gouv.fr/centre-val-de-loire/loir-et-cher/867df3b2-93b0-4bbc-b6e8-05eb7f4d0f55"}
{"nom":"Veuzain-sur-Loire","nomNormalise":"veuzainsurloire","typeCollectivite":"Commune","region":"Centre-Val de Loire","departement":"Loir-et-Cher","departementCode":"41","adresse":{"street":"Onzain","postalCode":"41150","city":"Veuzain-sur-Loire","country":"France"},"contacts":{"email":"mairie@veuzainsurloire.fr","telephone":"0254512040"},"horaires":"Le Lundi : de 09h00 à 12h30 de 14h00 à 17h00\nLe Mardi : de 09h00 à 12h30\nDu Mercredi au Vendredi : de 09h00 à 12h30 de 14h00 à 17h00","latitude":47.4993,"longitude":1.17464,"website":"https://www.veuzainsurloire.fr/","hasWebsite":true,"hasHoraires":true,"url":"https://lannuaire.service-public.gouv.fr/centre-val-de-loire/loir-et-cher/5360fb37-2a6b-4458-b636-118d15e2c082"}
{"nom":"Vievy-le-Rayé","nomNormalise":"vievyleraye","typeCollectivite":"Commune","region":"Centre-Val de Loire","departement":"Loir-et-Cher","departementCode":"41","adresse":{"street":"11 rue du Château","postalCode":"41290","city":"Vievy-le-Rayé","country":"France"},"contacts":{"email":"contact@vievyleraye.fr","telephone":"0254232347"},"horaires":"Le Lundi : de 09h00 à 12h00 de 14h00 à 16h00\nLe Mercredi : de 09h00 à 12h00\nLe Jeudi : de 09h00 à 12h00 de 14h00 à 16h00\nLe Vendredi : de 09h00 à 12h00","latitude":47.865757,"longitude":1.3165035,"website":"http://www.vievy-le-raye.fr/","hasWebsite":true,"hasHoraires":true,"url":"https://lannuaire.service-public.gouv.fr/centre-val-de-loire/loir-et-cher/db3f0691-bfbb-4766-9ecb-18cfc82eee80"}
{"nom":"Villavard","nomNormalise":"villavard","typeCollectivite":"Commune","region":"Centre-Val de Loire","departement":"Loir-et-Cher","departementCode":"41","adresse":{"street":"12 rue de la Fosse","postalCode":"41800","city":"Villavard","country":"France"},"contacts":{"email":"mairie.villavard@wanadoo.fr","telephone":"0254853243"},"horaires":"Le Mardi : de 14h00 à 18h00\nLe Vendredi : de 09h00 à 12h00","latitude":47.708996,"longitude":0.873142,"website":"","hasWebsite":false,"hasHoraires":true,"url":"https://lannuaire.service-public.gouv.fr/centre-val-de-loire/loir-et-cher/49a1a4c7-074f-4bcb-a575-c5186a7aa7e1"}
{"nom":"Villebarou","nomNormalise":"villebarou","typeCollectivite":"Commune","region":"Centre-Val de Loire","departement":"Loir-et-Cher","departementCode":"41","adresse":{"street":"9 rue Maurice-Pasquier","postalCode":"41000","city":"Villebarou","country":"France"},"contacts":{"email":"contact@villebarou.fr","telephone":"0254905300"},"horaires":"Le Lundi : de 09h00 à 12h15 de 14h00 à 17h00\nLe Mardi : de 09h00 à 12h15 de 16h00 à 19h00\nLe Jeudi : de 09h00 à 12h15 de 14h00 à 17h00\nLe Vendredi : de 09h00 à 16h00\nLe Samedi : de 09h00 à 12h00","latitude":47.62311,"longitude":1.324904,"website":"http://www.villebarou.fr/","hasWebsite":true,"hasHoraires":true,"url":"https://lannuaire.service-public.gouv.fr/centre-val-de-loire/loir-et-cher/fad11ece-2184-4a9f-abfd-bc39a30eda64"}
{"nom":"Villebout","nomNormalise":"villebout","typeCollectivite":"Commune","region":"Centre-Val de Loire","departement":"Loir-et-Cher","departementCode":"41","adresse":{"street":"2 rue de la Mairie","postalCode":"41270","city":"Villebout","country":"France"},"contacts":{"email":"mairie.villebout@wanadoo.fr","telephone":"0254805925"},"horaires":"Le Lundi : de 14h00 à 16h45\nLe Jeudi : de 14h30 à 18h45","latitude":47.98986,"longitude":1.1769187,"website":"","hasWebsite":false,"hasHoraires":true,"url":"https://lannuaire.service-public.gouv.fr/centre-val-de-loire/loir-et-cher/21f31464-13f0-4537-8c9f-8aaaa56b1793"}
{"nom":"Villechauve","nomNormalise":"villechauve","typeCollectivite":"Commune","region":"Centre-Val de Loire","departement":"Loir-et-Cher","departementCode":"41","adresse":{"street":"1 place Louis-Surgé","postalCode":"41310","city":"Villechauve","country":"France"},"contacts":{"email":"commune.villechauve@orange.fr","telephone":"0254803046"},"horaires":"Le Lundi : de 13h30 à 17h30\nLe Mardi : de 08h00 à 12h00 de 13h30 à 17h30\nLe Jeudi : de 08h00 à 12h00\nLe Vendredi : de 13h30 à 17h00","latitude":47.6491,"longitude":0.940846,"website":"http://www.villechauve.fr/","hasWebsite":true,"hasHoraires":true,"url":"https://lannuaire.service-public.gouv.fr/centre-val-de-loire/loir-et-cher/61d24184-6892-4599-8531-bf0f517dc057"}
{"nom":"Villedieu-le-Château","nomNormalise":"villedieulechateau","typeCollectivite":"Commune","region":"Centre-Val de Loire","departement":"Loir-et-Cher","departementCode":"41","adresse":{"street":"5 rue Principale","postalCode":"41800","city":"Villedieu-le-Château","country":"France"},"contacts":{"email":"mairie-villedieu@wanadoo.fr","telephone":"0254724101"},"horaires":"Le Lundi : de 10h00 à 12h00 de 15h00 à 17h00\nLe Mercredi : de 10h00 à 12h00\nDu Jeudi au Vendredi : de 10h00 à 12h00 de 15h00 à 17h00","latitude":47.7199,"longitude":0.647907,"website":"","hasWebsite":false,"hasHoraires":true,"url":"https://lannuaire.service-public.gouv.fr/centre-val-de-loire/loir-et-cher/1d9de63a-ac5f-4310-a648-6217df792d45"}
{"nom":"Villefranche-sur-Cher","nomNormalise":"villefranchesurcher","typeCollectivite":"Commune","region":"Centre-Val de Loire","departement":"Loir-et-Cher","departementCode":"41","adresse":{"street":"11 rue Emile-Filloux","postalCode":"41200","city":"Villefranche-sur-Cher","country":"France"},"contacts":{"email":"mairie@villefranchesurcher.fr","telephone":"0254964227"},"horaires":"Le Lundi : de 14h00 à 17h00\nDu Mardi au Mercredi : de 09h00 à 12h00 de 14h00 à 17h00\nLe Jeudi : de 09h00 à 12h00 de 14h00 à 19h00\nLe Vendredi : de 09h00 à 12h00 de 14h00 à 17h00","latitude":47.293392,"longitude":1.771811,"website":"https://www.villefranchesurcher.fr/","hasWebsite":true,"hasHoraires":true,"url":"https://lannuaire.service-public.gouv.fr/centre-val-de-loire/loir-et-cher/409dd6b2-fd5f-4f14-87b7-66e210cd6537"}
{"nom":"Villefrancur","nomNormalise":"villefrancur","typeCollectivite":"Commune","region":"Centre-Val de Loire","departement":"Loir-et-Cher","departementCode":"41","adresse":{"street":"2 rue de la Mairie","postalCode":"41330","city":"Villefrancur","country":"France"},"contacts":{"email":"mairie.villefrancoeur@orange.fr","telephone":"0254201761"},"horaires":"Le Mardi : de 17h30 à 19h00\nLe Vendredi : de 17h30 à 19h00","latitude":47.693478,"longitude":1.2181112,"website":"https://www.villefrancoeur.com/","hasWebsite":true,"hasHoraires":true,"url":"https://lannuaire.service-public.gouv.fr/centre-val-de-loire/loir-et-cher/759a8078-5794-436c-8d71-1e705e952dba"}
{"nom":"Villeherviers","nomNormalise":"villeherviers","typeCollectivite":"Commune","region":"Centre-Val de Loire","departement":"Loir-et-Cher","departementCode":"41","adresse":{"street":"6 rue de la Sauldre","postalCode":"41200","city":"Villeherviers","country":"France"},"contacts":{"email":"mairievilleherviers@wanadoo.fr","telephone":"0254760792"},"horaires":"Du Lundi au Vendredi : de 09h00 à 12h00 de 13h00 à 17h00","latitude":47.365204,"longitude":1.797669,"website":"https://www.villeherviers.fr/","hasWebsite":true,"hasHoraires":true,"url":"https://lannuaire.service-public.gouv.fr/centre-val-de-loire/loir-et-cher/236830f1-a6b4-4615-be78-7aee82cf42b9"}
{"nom":"Villemardy","nomNormalise":"villemardy","typeCollectivite":"Commune","region":"Centre-Val de Loire","departement":"Loir-et-Cher","departementCode":"41","adresse":{"street":"7 rue des Peziers","postalCode":"41100","city":"Villemardy","country":"France"},"contacts":{"email":"mairie-de-villemardy@wanadoo.fr","telephone":"0254238104"},"horaires":"Le Mardi : de 14h00 à 17h00\nLe Vendredi : de 09h00 à 12h00","latitude":47.731224,"longitude":1.1893886,"website":"http://www.villemardy.fr/","hasWebsite":true,"hasHoraires":true,"url":"https://lannuaire.service-public.gouv.fr/centre-val-de-loire/loir-et-cher/7fcb729e-a2ce-4c2d-bfc7-be5db3f1af02"}
{"nom":"Villeneuve-Frouville","nomNormalise":"villeneuvefrouville","typeCollectivite":"Commune","region":"Centre-Val de Loire","departement":"Loir-et-Cher","departementCode":"41","adresse":{"street":"Place de la Mairie","postalCode":"41290","city":"Villeneuve-Frouville","country":"France"},"contacts":{"email":"mairie.villeneuve-frouville@orange.fr","telephone":"0254230799"},"horaires":"Le Vendredi : de 13h30 à 16h30","latitude":47.78621,"longitude":1.308112,"website":"","hasWebsite":false,"hasHoraires":true,"url":"https://lannuaire.service-public.gouv.fr/centre-val-de-loire/loir-et-cher/48673826-c2e6-4b2e-99b8-53fe28a870d3"}
{"nom":"Villeny","nomNormalise":"villeny","typeCollectivite":"Commune","region":"Centre-Val de Loire","departement":"Loir-et-Cher","departementCode":"41","adresse":{"street":"1 place de l'Église","postalCode":"41220","city":"Villeny","country":"France"},"contacts":{"email":"mairie.villeny@orange.fr","telephone":"0254983525"},"horaires":"Le Lundi : de 14h00 à 18h00\nLe Mardi : de 14h00 à 16h30\nLe Vendredi : de 14h00 à 17h00\nLe Samedi : de 09h00 à 12h00\n\nLe premier samedi de chaque mois.","latitude":47.623207,"longitude":1.7551719,"website":"http://www.villeny.fr/","hasWebsite":true,"hasHoraires":true,"url":"https://lannuaire.service-public.gouv.fr/centre-val-de-loire/loir-et-cher/bec36f8d-9342-45ce-a9c0-cba3518b4e9a"}
{"nom":"Villeporcher","nomNormalise":"villeporcher","typeCollectivite":"Commune","region":"Centre-Val de Loire","departement":"Loir-et-Cher","departementCode":"41","adresse":{"street":"3 rue des Mimosas","postalCode":"41310","city":"Villeporcher","country":"France"},"contacts":{"email":"mairie.villeporcher@wanadoo.fr","telephone":"0254828178"},"horaires":"Le Mercredi : de 16h00 à 18h30","latitude":47.63854,"longitude":0.997955,"website":"","hasWebsite":false,"hasHoraires":true,"url":"https://lannuaire.service-public.gouv.fr/centre-val-de-loire/loir-et-cher/3bc1aef9-4613-431a-8e01-97070d8267f5"}
{"nom":"Villerable","nomNormalise":"villerable","typeCollectivite":"Commune","region":"Centre-Val de Loire","departement":"Loir-et-Cher","departementCode":"41","adresse":{"street":"1 place de la Mairie","postalCode":"41100","city":"Villerable","country":"France"},"contacts":{"email":"mairie@villerable41.fr","telephone":"0254771838"},"horaires":"Le Lundi : de 09h00 à 12h30 de 13h00 à 17h00\nLe Mercredi : de 09h00 à 12h30 de 13h00 à 17h00\nLe Vendredi : de 09h00 à 11h00","latitude":47.758076,"longitude":1.030805,"website":"","hasWebsite":false,"hasHoraires":true,"url":"https://lannuaire.service-public.gouv.fr/centre-val-de-loire/loir-et-cher/f805a159-bb23-4ee8-aa45-58f38426cb12"}
{"nom":"Villerbon","nomNormalise":"villerbon","typeCollectivite":"Commune","region":"Centre-Val de Loire","departement":"Loir-et-Cher","departementCode":"41","adresse":{"street":"37 route du Moulin","postalCode":"41000","city":"Villerbon","country":"France"},"contacts":{"email":"mairie-de-villerbon@wanadoo.fr","telephone":"0254468306"},"horaires":"Le Lundi : de 09h00 à 12h00 de 13h00 à 17h30\nLe Mardi : de 14h00 à 19h00\nLe Jeudi : de 09h00 à 12h00 de 13h00 à 17h30\nLe Vendredi : de 09h00 à 12h00 de 13h00 à 17h00","latitude":47.6617,"longitude":1.3706,"website":"https://www.villerbon.fr/","hasWebsite":true,"hasHoraires":true,"url":"https://lannuaire.service-public.gouv.fr/centre-val-de-loire/loir-et-cher/ecea4294-a40c-4c45-84a7-8ce9d2a05eeb"}
{"nom":"Villermain","nomNormalise":"villermain","typeCollectivite":"Commune","region":"Centre-Val de Loire","departement":"Loir-et-Cher","departementCode":"41","adresse":{"street":"Rue de l'École","postalCode":"41240","city":"Villermain","country":"France"},"contacts":{"email":"mairie.villermain@wanadoo.fr","telephone":"0254824375"},"horaires":"Le Mardi : de 16h00 à 19h00\nLe Jeudi : de 16h00 à 19h00","latitude":47.8625,"longitude":1.53217,"website":"","hasWebsite":false,"hasHoraires":true,"url":"https://lannuaire.service-public.gouv.fr/centre-val-de-loire/loir-et-cher/7c225eb6-0a91-4971-b9e3-3da3dcdccee3"}
{"nom":"Villeromain","nomNormalise":"villeromain","typeCollectivite":"Commune","region":"Centre-Val de Loire","departement":"Loir-et-Cher","departementCode":"41","adresse":{"street":"3 rue de la Mairie","postalCode":"41100","city":"Villeromain","country":"France"},"contacts":{"email":"mairie.villeromain@wanadoo.fr","telephone":"0254238100"},"horaires":"Le Mardi : de 09h00 à 12h00\nLe Jeudi : de 13h30 à 16h30","latitude":47.7288,"longitude":1.14233,"website":"","hasWebsite":false,"hasHoraires":true,"url":"https://lannuaire.service-public.gouv.fr/centre-val-de-loire/loir-et-cher/546aa664-f32d-414c-8b81-98be99f6ab4a"}
{"nom":"Villetrun","nomNormalise":"villetrun","typeCollectivite":"Commune","region":"Centre-Val de Loire","departement":"Loir-et-Cher","departementCode":"41","adresse":{"street":"2 rue de Touraine","postalCode":"41100","city":"Villetrun","country":"France"},"contacts":{"email":"mairie-de-villetrun@wanadoo.fr","telephone":"0254771136"},"horaires":"Le Lundi : de 10h00 à 12h30 de 15h00 à 17h00\nLe Mercredi : de 10h00 à 12h30\nLe Jeudi : de 08h00 à 12h30","latitude":47.7865,"longitude":1.160271,"website":"","hasWebsite":false,"hasHoraires":true,"url":"https://lannuaire.service-public.gouv.fr/centre-val-de-loire/loir-et-cher/037f94ec-c96d-408b-8afb-496c73c506f0"}
{"nom":"Villexanton","nomNormalise":"villexanton","typeCollectivite":"Commune","region":"Centre-Val de Loire","departement":"Loir-et-Cher","departementCode":"41","adresse":{"street":"3 rue de la Vove","postalCode":"41500","city":"Villexanton","country":"France"},"contacts":{"email":"mairie-villexanton@wanadoo.fr","telephone":"0254873751"},"horaires":"Le Mercredi : de 08h00 à 12h00 de 13h30 à 16h30\nLe Vendredi : de 08h00 à 12h00","latitude":47.7412,"longitude":1.42263,"website":"https://www.villexanton.fr/","hasWebsite":true,"hasHoraires":true,"url":"https://lannuaire.service-public.gouv.fr/centre-val-de-loire/loir-et-cher/eca2fe7a-9e49-46e5-b97c-67023a3014d5"}
{"nom":"Villiersfaux","nomNormalise":"villiersfaux","typeCollectivite":"Commune","region":"Centre-Val de Loire","departement":"Loir-et-Cher","departementCode":"41","adresse":{"street":"1 rue de la Basse-Cour","postalCode":"41100","city":"Villiersfaux","country":"France"},"contacts":{"email":"mairievilliersfaux@wanadoo.fr","telephone":"0254771841"},"horaires":"Le Mardi : de 09h30 à 12h00 de 14h00 à 19h00\nLe Vendredi : de 09h30 à 12h00","latitude":47.7485,"longitude":0.990784,"website":"https://villiersfaux.fr/","hasWebsite":true,"hasHoraires":true,"url":"https://lannuaire.service-public.gouv.fr/centre-val-de-loire/loir-et-cher/4fa1a501-6e4a-4c46-b579-71c944b0ab9e"}
{"nom":"Villiers-sur-Loir","nomNormalise":"villierssurloir","typeCollectivite":"Commune","region":"Centre-Val de Loire","departement":"Loir-et-Cher","departementCode":"41","adresse":{"street":"Place Fortier","postalCode":"41100","city":"Villiers-sur-Loir","country":"France"},"contacts":{"email":"mairie@villierssurloir.fr","telephone":"0254729083"},"horaires":"Du Lundi au Vendredi : de 13h30 à 18h00","latitude":47.806465,"longitude":0.994777,"website":"http://www.villiers-sur-loir.com/","hasWebsite":true,"hasHoraires":true,"url":"https://lannuaire.service-public.gouv.fr/centre-val-de-loire/loir-et-cher/3e3dcf55-24d7-4ad5-a897-96706e98e867"}
{"nom":"Vineuil","nomNormalise":"vineuil","typeCollectivite":"Commune","region":"Centre-Val de Loire","departement":"Loir-et-Cher","departementCode":"41","adresse":{"street":"4 rue de la République","postalCode":"41350","city":"Vineuil","country":"France"},"contacts":{"email":"mairie.vineuil@vineuil41.fr","telephone":"0254505450"},"horaires":"Du Lundi au Mercredi : de 09h00 à 12h00 de 13h30 à 17h00\nLe Jeudi : de 10h00 à 12h00 de 13h30 à 18h45\nLe Vendredi : de 09h00 à 12h00 de 13h30 à 17h00","latitude":47.58136,"longitude":1.377123,"website":"http://www.vineuil41.org/","hasWebsite":true,"hasHoraires":true,"url":"https://lannuaire.service-public.gouv.fr/centre-val-de-loire/loir-et-cher/f5938c5c-eeb9-48ff-bc4b-e26749420d1a"}
{"nom":"Vouzon","nomNormalise":"vouzon","typeCollectivite":"Commune","region":"Centre-Val de Loire","departement":"Loir-et-Cher","departementCode":"41","adresse":{"street":"24 Grande rue","postalCode":"41600","city":"Vouzon","country":"France"},"contacts":{"email":"mairiedevouzon@wanadoo.fr","telephone":"0254884416"},"horaires":"Du Lundi au Vendredi : de 09h00 à 12h00","latitude":47.64725,"longitude":2.0583062,"website":"https://www.vouzon.fr/","hasWebsite":true,"hasHoraires":true,"url":"https://lannuaire.service-public.gouv.fr/centre-val-de-loire/loir-et-cher/18ffc4aa-1aae-43cf-bb8c-5831097442f9"}
{"nom":"Yvoy-le-Marron","nomNormalise":"yvoylemarron","typeCollectivite":"Commune","region":"Centre-Val de Loire","departement":"Loir-et-Cher","departementCode":"41","adresse":{"street":"170 route de Chaumont","postalCode":"41600","city":"Yvoy-le-Marron","country":"France"},"contacts":{"email":"mairie@yvoy-le-marron.fr","telephone":"0254885111"},"horaires":"Du Lundi au Vendredi : de 09h00 à 12h00","latitude":47.631687,"longitude":1.85487,"website":"https://www.yvoy-le-marron.fr/","hasWebsite":true,"hasHoraires":true,"url":"https://lannuaire.service-public.gouv.fr/centre-val-de-loire/loir-et-cher/e504cba0-d8b1-47cb-b1f2-9610cbdc6fed"}
