{"nom":"Agnat","nomNormalise":"agnat","typeCollectivite":"Commune","region":"Auvergne-Rhône-Alpes","departement":"Haute-Loire","departementCode":"43","adresse":{"street":"Le Bourg","postalCode":"43100","city":"Agnat","country":"France"},"contacts":{"email":"mairie.agnat@wanadoo.fr","telephone":"0471763276"},"horaires":"Le Lundi : de 14h00 à 18h00\nLe Mercredi : de 09h00 à 12h00","latitude":45.34337,"longitude":3.448478,"website":"","hasWebsite":false,"hasHoraires":true,"url":"https://lannuaire.service-public.gouv.fr/auvergne-rhone-alpes/haute-loire/09bf365e-efe4-4c39-802b-1cfd2ee55797"}
{"nom":"Aiguilhe","nomNormalise":"aiguilhe","typeCollectivite":"Commune","region":"Auvergne-Rhône-Alpes","departement":"Haute-Loire","departementCode":"43","adresse":{"street":"1 rue Crozatier","postalCode":"43000","city":"Aiguilhe","country":"France"},"contacts":{"email":"mairie@aiguilhe.fr","telephone":"0471090383"},"horaires":"Le Lundi : de 09h00 à 12h00 de 14h00 à 16h00\nLe Mardi : de 09h00 à 12h00\nLe Mercredi : de 09h00 à 12h00 de 14h00 à 16h00\nDu Jeudi au Vendredi : de 09h00 à 12h00","latitude":45.049183,"longitude":3.883413,"website":"https://aiguilhe.fr/","hasWebsite":true,"hasHoraires":true,"url":"https://lannuaire.service-public.gouv.fr/auvergne-rhone-alpes/haute-loire/b8138dda-08c3-475e-86c8-242a51ab4ae6"}
{"nom":"Allègre","nomNormalise":"allegre","typeCollectivite":"Commune","region":"Auvergne-Rhône-Alpes","departement":"Haute-Loire","departementCode":"43","adresse":{"street":"4 rue Baptiste-Marcet","postalCode":"43270","city":"Allègre","country":"France"},"contacts":{"email":"mairie.allegre@wanadoo.fr","telephone":"0471007121"},"horaires":"Du Lundi au Mardi : de 09h00 à 12h00\nLe Mercredi : de 09h00 à 12h00 de 13h30 à 17h00\nDu Jeudi au Vendredi : de 09h00 à 12h00","latitude":45.20012,"longitude":3.712018,"website":"http://www.mairie-allegre.com/","hasWebsite":true,"hasHoraires":true,"url":"https://lannuaire.service-public.gouv.fr/auvergne-rhone-alpes/haute-loire/789799f8-1427-4a1c-b24d-b3d53ca995b0"}
{"nom":"Alleyrac","nomNormalise":"alleyrac","typeCollectivite":"Commune","region":"Auvergne-Rhône-Alpes","departement":"Haute-Loire","departementCode":"43","adresse":{"street":"Le Bourg","postalCode":"43150","city":"Alleyrac","country":"France"},"contacts":{"email":"mairie.alleyrac@orange.fr","telephone":"0471573733"},"horaires":"Du Lundi au Mardi : de 09h15 à 11h45 de 13h45 à 16h15\nLe Jeudi : de 09h15 à 11h45 de 13h45 à 16h15","latitude":44.890537,"longitude":3.984821,"website":"","hasWebsite":false,"hasHoraires":true,"url":"https://lannuaire.service-public.gouv.fr/auvergne-rhone-alpes/haute-loire/fabec451-8574-4533-9ac6-fd485c39c904"}
{"nom":"Alleyras","nomNormalise":"alleyras","typeCollectivite":"Commune","region":"Auvergne-Rhône-Alpes","departement":"Haute-Loire","departementCode":"43","adresse":{"street":"Le Bourg","postalCode":"43580","city":"Alleyras","country":"France"},"contacts":{"email":"mairie.alleyras@orange.fr","telephone":"0471575667"},"horaires":"Le Mardi : de 08h30 à 12h30\nDu Jeudi au Vendredi : de 08h30 à 12h30","latitude":44.907047,"longitude":3.681593,"website":"http://alleyras.fr/","hasWebsite":true,"hasHoraires":true,"url":"https://lannuaire.service-public.gouv.fr/auvergne-rhone-alpes/haute-loire/9daba497-0294-49b5-8d4f-3bc3c194a4dc"}
{"nom":"Ally","nomNormalise":"ally","typeCollectivite":"Commune","region":"Auvergne-Rhône-Alpes","departement":"Haute-Loire","departementCode":"43","adresse":{"street":"Le Bourg","postalCode":"43380","city":"Ally","country":"France"},"contacts":{"email":"mairieally@orange.fr","telephone":"0471767803"},"horaires":"Le Mardi : de 09h00 à 12h00 de 13h30 à 16h30\nLe Vendredi : de 13h30 à 16h30","latitude":45.159897,"longitude":3.31297,"website":"","hasWebsite":false,"hasHoraires":true,"url":"https://lannuaire.service-public.gouv.fr/auvergne-rhone-alpes/haute-loire/d963813b-81c1-4346-912c-5625b415b13d"}
{"nom":"Araules","nomNormalise":"araules","typeCollectivite":"Commune","region":"Auvergne-Rhône-Alpes","departement":"Haute-Loire","departementCode":"43","adresse":{"street":"Le Bourg","postalCode":"43200","city":"Araules","country":"France"},"contacts":{"email":"mairie.araules@wanadoo.fr","telephone":"0471596132"},"horaires":"Du Mardi au Samedi : de 08h00 à 12h00\nLe mardi ouvert l'après midi de 13h30 à 17h30","latitude":45.089912,"longitude":4.173858,"website":"https://www.mairie-araules.com/","hasWebsite":true,"hasHoraires":true,"url":"https://lannuaire.service-public.gouv.fr/auvergne-rhone-alpes/haute-loire/15189b6e-74b0-4f8d-98a4-9910306e1ac4"}
{"nom":"Arlempdes","nomNormalise":"arlempdes","typeCollectivite":"Commune","region":"Auvergne-Rhône-Alpes","departement":"Haute-Loire","departementCode":"43","adresse":{"street":"Le Bourg","postalCode":"43490","city":"Arlempdes","country":"France"},"contacts":{"email":"mairie.commune-arlempdes@orange.fr","telephone":"0471571097"},"horaires":"Le Mardi : de 09h00 à 12h00 de 14h00 à 18h00\nLe Jeudi : de 09h00 à 18h00","latitude":44.865128,"longitude":3.922557,"website":"https://www.village-arlempdes.fr/","hasWebsite":true,"hasHoraires":true,"url":"https://lannuaire.service-public.gouv.fr/auvergne-rhone-alpes/haute-loire/776bd9be-bd4b-4536-9dd4-b20f175cb7b6"}
{"nom":"Arlet","nomNormalise":"arlet","typeCollectivite":"Commune","region":"Auvergne-Rhône-Alpes","departement":"Haute-Loire","departementCode":"43","adresse":{"street":"1 rue de la Mairie","postalCode":"43380","city":"Arlet","country":"France"},"contacts":{"email":"mairie-arlet@bbox.fr","telephone":"0471774755"},"horaires":"Le Mardi : de 09h00 à 12h00 de 13h00 à 16h00","latitude":45.116123,"longitude":3.418294,"website":"","hasWebsite":false,"hasHoraires":true,"url":"https://lannuaire.service-public.gouv.fr/auvergne-rhone-alpes/haute-loire/7f7a0ebe-e21f-4ef6-bb39-ef7df0a420d2"}
{"nom":"Arsac-en-Velay","nomNormalise":"arsacenvelay","typeCollectivite":"Commune","region":"Auvergne-Rhône-Alpes","departement":"Haute-Loire","departementCode":"43","adresse":{"street":"3 route du Puy","postalCode":"43700","city":"Arsac-en-Velay","country":"France"},"contacts":{"email":"mairie.arsac43700@gmail.com","telephone":"0471088094"},"horaires":"Du Mardi au Samedi : de 08h30 à 12h00","latitude":44.991352,"longitude":3.943227,"website":"https://www.arsacenvelay.fr/","hasWebsite":true,"hasHoraires":true,"url":"https://lannuaire.service-public.gouv.fr/auvergne-rhone-alpes/haute-loire/aebbf3c2-4c6c-4605-90e8-d5e68b3c9ed5"}
{"nom":"Aubazat","nomNormalise":"aubazat","typeCollectivite":"Commune","region":"Auvergne-Rhône-Alpes","departement":"Haute-Loire","departementCode":"43","adresse":{"street":"Le Bourg","postalCode":"43380","city":"Aubazat","country":"France"},"contacts":{"email":"mairie.aubazat@wanadoo.fr","telephone":"0471774548"},"horaires":"Le Mardi : de 10h00 à 12h00\nLe Vendredi : de 10h00 à 12h00","latitude":45.139355,"longitude":3.438241,"website":"","hasWebsite":false,"hasHoraires":true,"url":"https://lannuaire.service-public.gouv.fr/auvergne-rhone-alpes/haute-loire/f99d24b0-a882-4eae-b530-3927b6372332"}
{"nom":"Aurec-sur-Loire","nomNormalise":"aurecsurloire","typeCollectivite":"Commune","region":"Auvergne-Rhône-Alpes","departement":"Haute-Loire","departementCode":"43","adresse":{"street":"Place du Breuil","postalCode":"43110","city":"Aurec-sur-Loire","country":"France"},"contacts":{"email":"mairie@mairie-aurec.fr","telephone":"0477354013"},"horaires":"Le Lundi : de 09h00 à 12h15 de 14h00 à 17h15\nLe Mardi : de 09h00 à 12h15\nDu Mercredi au Vendredi : de 09h00 à 12h15 de 14h00 à 17h15","latitude":45.3696,"longitude":4.201,"website":"https://mairie-aurec.fr/","hasWebsite":true,"hasHoraires":true,"url":"https://lannuaire.service-public.gouv.fr/auvergne-rhone-alpes/haute-loire/13f09cba-0428-430e-b004-c536c4286f21"}
{"nom":"Autrac","nomNormalise":"autrac","typeCollectivite":"Commune","region":"Auvergne-Rhône-Alpes","departement":"Haute-Loire","departementCode":"43","adresse":{"street":"Le Bourg","postalCode":"43450","city":"Autrac","country":"France"},"contacts":{"email":"mairieautrac@wanadoo.fr","telephone":"0471762555"},"horaires":"Le Mercredi : de 08h00 à 18h00","latitude":45.317665,"longitude":3.168597,"website":"","hasWebsite":false,"hasHoraires":true,"url":"https://lannuaire.service-public.gouv.fr/auvergne-rhone-alpes/haute-loire/dc7750c9-41d8-4c05-8f7b-0d9703460653"}
{"nom":"Auvers","nomNormalise":"auvers","typeCollectivite":"Commune","region":"Auvergne-Rhône-Alpes","departement":"Haute-Loire","departementCode":"43","adresse":{"street":"Le Bourg","postalCode":"43300","city":"Auvers","country":"France"},"contacts":{"email":"mairie.auvers@wanadoo.fr","telephone":"0471776679"},"horaires":"Le Mercredi : de 15h00 à 19h00","latitude":45.0305,"longitude":3.355397,"website":"","hasWebsite":false,"hasHoraires":true,"url":"https://lannuaire.service-public.gouv.fr/auvergne-rhone-alpes/haute-loire/78468561-fa15-4947-9bd9-d910bbad27f8"}
{"nom":"Auzon","nomNormalise":"auzon","typeCollectivite":"Commune","region":"Auvergne-Rhône-Alpes","departement":"Haute-Loire","departementCode":"43","adresse":{"street":"14 place de la Halle","postalCode":"43390","city":"Auzon","country":"France"},"contacts":{"email":"mairie-auzon@wanadoo.fr","telephone":"0471761142"},"horaires":"Le Lundi : de 14h00 à 18h00\nLe Mardi : de 09h00 à 12h00 de 14h00 à 18h00\nLe Mercredi : de 09h00 à 12h00 de 14h00 à 18h00\nLe Jeudi : de 09h00 à 12h00 de 13h00 à 18h00\nLe Vendredi : de 14h00 à 18h00","latitude":45.39208,"longitude":3.3737261,"website":"https://www.auzon.net/","hasWebsite":true,"hasHoraires":true,"url":"https://lannuaire.service-public.gouv.fr/auvergne-rhone-alpes/haute-loire/7dfabfbe-f577-4208-acfd-e49a0b75fbe3"}
{"nom":"Azérat","nomNormalise":"azerat","typeCollectivite":"Commune","region":"Auvergne-Rhône-Alpes","departement":"Haute-Loire","departementCode":"43","adresse":{"street":"Le Bourg","postalCode":"43390","city":"Azérat","country":"France"},"contacts":{"email":"mairie.azerat43@orange.fr","telephone":"0471761056"},"horaires":"Le Mardi : de 13h00 à 18h00\nLe Jeudi : de 13h00 à 18h00\nPermanences du maire le mercredi matin de 10h à 12h et le dimanche matin de 10h à 12h.","latitude":45.362415,"longitude":3.384001,"website":"","hasWebsite":false,"hasHoraires":true,"url":"https://lannuaire.service-public.gouv.fr/auvergne-rhone-alpes/haute-loire/24d3f65f-f590-446f-87a0-b651ad5b402e"}
{"nom":"Bains","nomNormalise":"bains","typeCollectivite":"Commune","region":"Auvergne-Rhône-Alpes","departement":"Haute-Loire","departementCode":"43","adresse":{"street":"966 route du Gévaudan","postalCode":"43370","city":"Bains","country":"France"},"contacts":{"email":"mairie-bains@wanadoo.fr","telephone":"0471575082"},"horaires":"Le Lundi : de 08h30 à 12h30 de 13h00 à 17h00\nLe Mardi : de 08h30 à 12h00\nLe Mercredi : de 08h30 à 12h00 de 13h30 à 17h00\nLe Jeudi : de 08h30 à 12h00\nLe Vendredi : de 08h30 à 12h00 de 13h30 à 17h00","latitude":45.009205,"longitude":3.7752125,"website":"https://www.bains43.fr/","hasWebsite":true,"hasHoraires":true,"url":"https://lannuaire.service-public.gouv.fr/auvergne-rhone-alpes/haute-loire/a004b7e0-2479-4a49-ae43-957cdc13b161"}
{"nom":"Barges","nomNormalise":"barges","typeCollectivite":"Commune","region":"Auvergne-Rhône-Alpes","departement":"Haute-Loire","departementCode":"43","adresse":{"street":"17 rue de la Rodde","postalCode":"43340","city":"Barges","country":"France"},"contacts":{"email":"mairiedebarges@9business.fr","telephone":"0471082970"},"horaires":"Le Mercredi : de 08h00 à 11h45\nLe Jeudi : de 08h00 à 11h45","latitude":44.83598,"longitude":3.89231,"website":"","hasWebsite":false,"hasHoraires":true,"url":"https://lannuaire.service-public.gouv.fr/auvergne-rhone-alpes/haute-loire/7fcf1217-c41e-4d5b-ba4d-18542502d5c5"}
{"nom":"Bas-en-Basset","nomNormalise":"basenbasset","typeCollectivite":"Commune","region":"Auvergne-Rhône-Alpes","departement":"Haute-Loire","departementCode":"43","adresse":{"street":"2 place de la Mairie","postalCode":"43210","city":"Bas-en-Basset","country":"France"},"contacts":{"email":"contact@basenbasset.fr","telephone":"0471667237"},"horaires":"Du Lundi au Mercredi : de 08h00 à 12h00 de 13h30 à 17h00\nLe Jeudi : de 08h00 à 12h00\nLe Vendredi : de 08h00 à 16h00\nLe Samedi : de 09h00 à 12h00\n\nFermé en juillet et août.","latitude":45.3056,"longitude":4.11001,"website":"http://www.basenbasset.fr/","hasWebsite":true,"hasHoraires":true,"url":"https://lannuaire.service-public.gouv.fr/auvergne-rhone-alpes/haute-loire/ee722bc2-1599-4483-9782-28d54c33dcb7"}
{"nom":"Beaulieu","nomNormalise":"beaulieu","typeCollectivite":"Commune","region":"Auvergne-Rhône-Alpes","departement":"Haute-Loire","departementCode":"43","adresse":{"street":"123 route des Sucs","postalCode":"43800","city":"Beaulieu","country":"France"},"contacts":{"email":"mairie@beaulieu43.fr","telephone":"0471085360"},"horaires":"Du Mardi au Samedi : de 09h00 à 12h00","latitude":45.12916,"longitude":3.94079,"website":"https://www.beaulieu43.fr/","hasWebsite":true,"hasHoraires":true,"url":"https://lannuaire.service-public.gouv.fr/auvergne-rhone-alpes/haute-loire/0a8cf773-6c9c-45bb-ac3b-02fbfd28e4b6"}
{"nom":"Beaumont","nomNormalise":"beaumont","typeCollectivite":"Commune","region":"Auvergne-Rhône-Alpes","departement":"Haute-Loire","departementCode":"43","adresse":{"street":"2 place de la Mairie","postalCode":"43100","city":"Beaumont","country":"France"},"contacts":{"email":"mairie.beaumont@wanadoo.fr","telephone":"0471500450"},"horaires":"Le Mardi : de 08h30 à 12h00\nLe Jeudi : de 09h00 à 12h30 de 14h00 à 19h00","latitude":45.312126,"longitude":3.341342,"website":"","hasWebsite":false,"hasHoraires":true,"url":"https://lannuaire.service-public.gouv.fr/auvergne-rhone-alpes/haute-loire/8a377669-edc7-4b5c-af69-c4b1be03174f"}
{"nom":"Beaune-sur-Arzon","nomNormalise":"beaunesurarzon","typeCollectivite":"Commune","region":"Auvergne-Rhône-Alpes","departement":"Haute-Loire","departementCode":"43","adresse":{"street":"Le Bourg","postalCode":"43500","city":"Beaune-sur-Arzon","country":"France"},"contacts":{"email":"mairie.beaune.sur.arzon@orange.fr","telephone":"0471036224"},"horaires":"Le Mardi : de 14h00 à 17h00\nLe Jeudi : de 14h00 à 17h00","latitude":45.279877,"longitude":3.816548,"website":"https://www.beaunesurarzon.fr/","hasWebsite":true,"hasHoraires":true,"url":"https://lannuaire.service-public.gouv.fr/auvergne-rhone-alpes/haute-loire/9e80bd82-81a2-4add-a1d4-53bedbde0c88"}
{"nom":"Beaux","nomNormalise":"beaux","typeCollectivite":"Commune","region":"Auvergne-Rhône-Alpes","departement":"Haute-Loire","departementCode":"43","adresse":{"street":"Le Bourg","postalCode":"43200","city":"Beaux","country":"France"},"contacts":{"email":"beaux43@orange.fr","telephone":"0966422266"},"horaires":"Le Lundi : de 08h30 à 11h30\nLe Mardi : de 08h30 à 11h30 de 14h00 à 16h30\nLe Mercredi : de 09h00 à 12h00\nDu Jeudi au Vendredi : de 08h30 à 11h30\nLe Samedi : de 09h00 à 12h00","latitude":45.18638,"longitude":4.094854,"website":"http://www.beaux.fr/","hasWebsite":true,"hasHoraires":true,"url":"https://lannuaire.service-public.gouv.fr/auvergne-rhone-alpes/haute-loire/a7e4a4b8-ab42-4273-956c-7d7266a440c9"}
{"nom":"Beauzac","nomNormalise":"beauzac","typeCollectivite":"Commune","region":"Auvergne-Rhône-Alpes","departement":"Haute-Loire","departementCode":"43","adresse":{"street":"1 rue des Remparts","postalCode":"43590","city":"Beauzac","country":"France"},"contacts":{"email":"mairie@ville-beauzac.fr","telephone":"0471614749"},"horaires":"Le Lundi : de 08h30 à 12h00\nDu Mardi au Mercredi : de 08h30 à 12h00 de 13h30 à 17h00\nLe Jeudi : de 08h30 à 12h00\nLe Vendredi : de 08h30 à 12h00 de 13h30 à 17h00\nLe Samedi : de 08h30 à 12h00","latitude":45.25934,"longitude":4.099179,"website":"https://www.ville-beauzac.fr/","hasWebsite":true,"hasHoraires":true,"url":"https://lannuaire.service-public.gouv.fr/auvergne-rhone-alpes/haute-loire/926c5959-6d13-4634-86f4-4fe69dd592e1"}
{"nom":"Bellevue-la-Montagne","nomNormalise":"bellevuelamontagne","typeCollectivite":"Commune","region":"Auvergne-Rhône-Alpes","departement":"Haute-Loire","departementCode":"43","adresse":{"street":"2 route de Craponne","postalCode":"43350","city":"Bellevue-la-Montagne","country":"France"},"contacts":{"email":"mairie.bellevuelamontagne@gmail.com","telephone":"0471006071"},"horaires":"Le Mardi : de 09h00 à 12h00\nDu Jeudi au Vendredi : de 09h00 à 12h00","latitude":45.2204,"longitude":3.82023,"website":"","hasWebsite":false,"hasHoraires":true,"url":"https://lannuaire.service-public.gouv.fr/auvergne-rhone-alpes/haute-loire/b3500af5-c3bc-41a2-b5f7-7e1e5c8fed24"}
{"nom":"Berbezit","nomNormalise":"berbezit","typeCollectivite":"Commune","region":"Auvergne-Rhône-Alpes","departement":"Haute-Loire","departementCode":"43","adresse":{"street":"Le Bourg","postalCode":"43160","city":"Berbezit","country":"France"},"contacts":{"email":"mairieberbezit@orange.fr","telephone":"0471000143"},"horaires":"Le Mardi : de 09h00 à 12h00\nLe Vendredi : de 13h30 à 17h30","latitude":45.28477,"longitude":3.595291,"website":"","hasWebsite":false,"hasHoraires":true,"url":"https://lannuaire.service-public.gouv.fr/auvergne-rhone-alpes/haute-loire/38c301ee-63c4-4c05-9d30-f98a77447e32"}
{"nom":"Bessamorel","nomNormalise":"bessamorel","typeCollectivite":"Commune","region":"Auvergne-Rhône-Alpes","departement":"Haute-Loire","departementCode":"43","adresse":{"street":"25 place de la Mairie","postalCode":"43200","city":"Bessamorel","country":"France"},"contacts":{"email":"mairie@bessamorel43.fr","telephone":"0471590228"},"horaires":"Le Mardi : de 09h00 à 12h00 de 14h00 à 18h00\nLe Jeudi : de 09h00 à 12h00 de 14h00 à 16h00\nLe Vendredi : de 09h00 à 12h00 de 14h00 à 17h00","latitude":45.089947,"longitude":4.173041,"website":"","hasWebsite":false,"hasHoraires":true,"url":"https://lannuaire.service-public.gouv.fr/auvergne-rhone-alpes/haute-loire/24e55c0e-8bb5-4408-8f65-dbe08618291b"}
{"nom":"Blanzac","nomNormalise":"blanzac","typeCollectivite":"Commune","region":"Auvergne-Rhône-Alpes","departement":"Haute-Loire","departementCode":"43","adresse":{"street":"15 rue Principale","postalCode":"43350","city":"Blanzac","country":"France"},"contacts":{"email":"mairieblanzac@wanadoo.fr","telephone":"0471095062"},"horaires":"Le Mardi : de 08h30 à 12h00 de 13h00 à 16h30\nLe Vendredi : de 08h30 à 12h00","latitude":45.108562,"longitude":3.8425362,"website":"https://www.blanzac.fr/","hasWebsite":true,"hasHoraires":true,"url":"https://lannuaire.service-public.gouv.fr/auvergne-rhone-alpes/haute-loire/8dfea788-0dc0-4107-a34f-639fb5f78a24"}
{"nom":"Blassac","nomNormalise":"blassac","typeCollectivite":"Commune","region":"Auvergne-Rhône-Alpes","departement":"Haute-Loire","departementCode":"43","adresse":{"street":"Le Bourg","postalCode":"43380","city":"Blassac","country":"France"},"contacts":{"email":"mairie.blassac@orange.fr","telephone":"0471774416"},"horaires":"Le Lundi : de 08h30 à 12h00\nLe Vendredi : de 14h00 à 17h30","latitude":45.17012,"longitude":3.400574,"website":"http://blassac.com/","hasWebsite":true,"hasHoraires":true,"url":"https://lannuaire.service-public.gouv.fr/auvergne-rhone-alpes/haute-loire/a7bccca5-6f9b-43a8-97a7-85ff6f2a72fc"}
{"nom":"Blavozy","nomNormalise":"blavozy","typeCollectivite":"Commune","region":"Auvergne-Rhône-Alpes","departement":"Haute-Loire","departementCode":"43","adresse":{"street":"Place de la Mairie","postalCode":"43700","city":"Blavozy","country":"France"},"contacts":{"email":"mairie.contact@blavozy.fr","telephone":"0471030019"},"horaires":"Du Lundi au Mardi : de 08h15 à 12h30\nLe Mercredi : de 08h15 à 12h00\nDu Jeudi au Vendredi : de 08h15 à 12h30\nLe Samedi : de 08h15 à 12h00","latitude":45.056564,"longitude":3.980585,"website":"https://www.blavozy.fr/","hasWebsite":true,"hasHoraires":true,"url":"https://lannuaire.service-public.gouv.fr/auvergne-rhone-alpes/haute-loire/931516b5-673d-4137-81da-03d6daf62002"}
{"nom":"Blesle","nomNormalise":"blesle","typeCollectivite":"Commune","region":"Auvergne-Rhône-Alpes","departement":"Haute-Loire","departementCode":"43","adresse":{"street":"1 place de la Mairie","postalCode":"43450","city":"Blesle","country":"France"},"contacts":{"email":"mairie.de.blesle@wanadoo.fr","telephone":"0471762075"},"horaires":"Le Lundi : de 14h00 à 16h00\nDu Mardi au Samedi : de 10h00 à 12h00","latitude":45.31908,"longitude":3.17033,"website":"https://www.blesle.fr/","hasWebsite":true,"hasHoraires":true,"url":"https://lannuaire.service-public.gouv.fr/auvergne-rhone-alpes/haute-loire/6c180c18-f4ca-4392-9fc0-a7a1d2dbe2d0"}
{"nom":"Boisset","nomNormalise":"boisset","typeCollectivite":"Commune","region":"Auvergne-Rhône-Alpes","departement":"Haute-Loire","departementCode":"43","adresse":{"street":"2 rue du Fournil","postalCode":"43500","city":"Boisset","country":"France"},"contacts":{"email":"mairie.boisset@orange.fr","telephone":"0471613266"},"horaires":"Le Lundi : de 09h00 à 12h00\nLe Mardi : de 14h00 à 18h00\nLe Jeudi : de 09h00 à 12h00\nLe Samedi : de 14h00 à 16h00","latitude":45.27069,"longitude":3.996363,"website":"https://www.ville-boisset.fr/","hasWebsite":true,"hasHoraires":true,"url":"https://lannuaire.service-public.gouv.fr/auvergne-rhone-alpes/haute-loire/2846edb4-62ac-40a6-8a98-4dab210322dc"}
{"nom":"Bonneval","nomNormalise":"bonneval","typeCollectivite":"Commune","region":"Auvergne-Rhône-Alpes","departement":"Haute-Loire","departementCode":"43","adresse":{"street":"1 place des Quatre-Saisons","postalCode":"43160","city":"Bonneval","country":"France"},"contacts":{"email":"mairiebonneval@orange.fr","telephone":"0471000498"},"horaires":"Le Lundi : de 09h00 à 12h00 de 13h00 à 16h00\nLe Vendredi : de 09h00 à 12h00","latitude":45.31176,"longitude":3.741648,"website":"","hasWebsite":false,"hasHoraires":true,"url":"https://lannuaire.service-public.gouv.fr/auvergne-rhone-alpes/haute-loire/68539742-fd23-42dd-9c07-15686514b518"}
{"nom":"Borne","nomNormalise":"borne","typeCollectivite":"Commune","region":"Auvergne-Rhône-Alpes","departement":"Haute-Loire","departementCode":"43","adresse":{"street":"Place de l'Église","postalCode":"43350","city":"Borne","country":"France"},"contacts":{"email":"mairiedeborne@orange.fr","telephone":"0471004645"},"horaires":"Le Mercredi : de 09h00 à 12h00\nLe Vendredi : de 14h00 à 17h00","latitude":45.100418,"longitude":3.797018,"website":"","hasWebsite":false,"hasHoraires":true,"url":"https://lannuaire.service-public.gouv.fr/auvergne-rhone-alpes/haute-loire/6008be63-b071-4629-9714-7cb3b3d94f89"}
{"nom":"Bournoncle-Saint-Pierre","nomNormalise":"bournonclesaintpierre","typeCollectivite":"Commune","region":"Auvergne-Rhône-Alpes","departement":"Haute-Loire","departementCode":"43","adresse":{"street":"8 place de la Mairie","postalCode":"43360","city":"Bournoncle-Saint-Pierre","country":"France"},"contacts":{"email":"mairie.bournoncle@wanadoo.fr","telephone":"0471760120"},"horaires":"Du Lundi au Mardi : de 09h00 à 12h00 de 15h00 à 17h30\nLe Jeudi : de 15h00 à 17h30\nLe Vendredi : de 09h00 à 12h00 de 15h00 à 17h30\nLe Samedi : de 09h00 à 12h00","latitude":45.343155,"longitude":3.318031,"website":"","hasWebsite":false,"hasHoraires":true,"url":"https://lannuaire.service-public.gouv.fr/auvergne-rhone-alpes/haute-loire/c14be872-d7ff-461f-9436-1b43ad88808a"}
{"nom":"Brioude","nomNormalise":"brioude","typeCollectivite":"Commune","region":"Auvergne-Rhône-Alpes","departement":"Haute-Loire","departementCode":"43","adresse":{"street":"2 place Lafayette","postalCode":"43101","city":"Brioude Cedex","country":"France"},"contacts":{"email":"accueil@ville-brioude.fr","telephone":"0471745600"},"horaires":"Du Lundi au Vendredi : de 08h30 à 12h00 de 13h30 à 17h30","latitude":45.29381,"longitude":3.386036,"website":"https://www.brioude.fr/","hasWebsite":true,"hasHoraires":true,"url":"https://lannuaire.service-public.gouv.fr/auvergne-rhone-alpes/haute-loire/087d875f-d900-4c9f-828d-d3726eb242c0"}
{"nom":"Brives-Charensac","nomNormalise":"brivescharensac","typeCollectivite":"Commune","region":"Auvergne-Rhône-Alpes","departement":"Haute-Loire","departementCode":"43","adresse":{"street":"1 place de la Mairie","postalCode":"43700","city":"Brives-Charensac","country":"France"},"contacts":{"email":"info@brives-charensac.fr","telephone":"0471021255"},"horaires":"Le Lundi : de 08h00 à 12h00 de 13h30 à 17h30\nLe Mardi : de 08h00 à 12h00 de 14h20 à 17h30\nDu Mercredi au Jeudi : de 08h00 à 12h00 de 13h30 à 17h30\nLe Vendredi : de 08h00 à 12h00 de 13h30 à 16h30","latitude":45.04684,"longitude":3.926567,"website":"https://www.brives-charensac.fr/","hasWebsite":true,"hasHoraires":true,"url":"https://lannuaire.service-public.gouv.fr/auvergne-rhone-alpes/haute-loire/810966dd-defd-418a-8bb0-617dd87e2774"}
{"nom":"Cayres","nomNormalise":"cayres","typeCollectivite":"Commune","region":"Auvergne-Rhône-Alpes","departement":"Haute-Loire","departementCode":"43","adresse":{"street":"2 place de la Mairie","postalCode":"43510","city":"Cayres","country":"France"},"contacts":{"email":"mairie.cayres@gmail.com","telephone":"0471573088"},"horaires":"Du Lundi au Vendredi : de 08h00 à 12h00","latitude":44.925007,"longitude":3.807878,"website":"","hasWebsite":false,"hasHoraires":true,"url":"https://lannuaire.service-public.gouv.fr/auvergne-rhone-alpes/haute-loire/f323b0cb-4644-4ca3-a187-60e40bf055c7"}
{"nom":"Céaux-d'Allègre","nomNormalise":"ceauxdallegre","typeCollectivite":"Commune","region":"Auvergne-Rhône-Alpes","departement":"Haute-Loire","departementCode":"43","adresse":{"street":"Le Bourg","postalCode":"43270","city":"Céaux-d'Allègre","country":"France"},"contacts":{"email":"mairie.ceaux.dallegre@wanadoo.fr","telephone":"0471007267"},"horaires":"Du Mercredi au Jeudi : de 14h30 à 16h30","latitude":45.181763,"longitude":3.746825,"website":"","hasWebsite":false,"hasHoraires":true,"url":"https://lannuaire.service-public.gouv.fr/auvergne-rhone-alpes/haute-loire/97036f41-3adf-44f7-b1ea-c4b26c7001af"}
{"nom":"Cerzat","nomNormalise":"cerzat","typeCollectivite":"Commune","region":"Auvergne-Rhône-Alpes","departement":"Haute-Loire","departementCode":"43","adresse":{"street":"45 rue des Combettes","postalCode":"43380","city":"Cerzat","country":"France"},"contacts":{"email":"mairie.cerzat@wanadoo.fr","telephone":"0471771676"},"horaires":"Le Mercredi : de 09h00 à 12h00 de 13h30 à 16h30\nLe Vendredi : de 09h00 à 12h00","latitude":45.159744,"longitude":3.480145,"website":"","hasWebsite":false,"hasHoraires":true,"url":"https://lannuaire.service-public.gouv.fr/auvergne-rhone-alpes/haute-loire/ff79effd-91f7-457c-9a62-3c7661433e4b"}
{"nom":"Ceyssac","nomNormalise":"ceyssac","typeCollectivite":"Commune","region":"Auvergne-Rhône-Alpes","departement":"Haute-Loire","departementCode":"43","adresse":{"street":"4 rue de la Fontaine-Haute","postalCode":"43000","city":"Ceyssac","country":"France"},"contacts":{"email":"ceyssac.mairie@orange.fr","telephone":"0471024286"},"horaires":"Le Lundi : de 08h30 à 12h30 de 13h00 à 17h00\nLe Jeudi : de 08h30 à 12h30 de 13h00 à 17h00","latitude":45.03895,"longitude":3.834798,"website":"http://www.ceyssac.fr/","hasWebsite":true,"hasHoraires":true,"url":"https://lannuaire.service-public.gouv.fr/auvergne-rhone-alpes/haute-loire/03389ca8-de8c-4ccf-95be-ec44ec69115a"}
{"nom":"Chadrac","nomNormalise":"chadrac","typeCollectivite":"Commune","region":"Auvergne-Rhône-Alpes","departement":"Haute-Loire","departementCode":"43","adresse":{"street":"8 cours de la Liberté","postalCode":"43770","city":"Chadrac","country":"France"},"contacts":{"email":"mairie@chadrac.fr","telephone":"0471022121"},"horaires":"Du Lundi au Vendredi : de 08h00 à 12h00 de 14h00 à 17h00","latitude":45.061188,"longitude":3.904535,"website":"http://www.chadrac.fr/","hasWebsite":true,"hasHoraires":true,"url":"https://lannuaire.service-public.gouv.fr/auvergne-rhone-alpes/haute-loire/26ef28e5-9cc9-440d-9900-73a800981807"}
{"nom":"Chadron","nomNormalise":"chadron","typeCollectivite":"Commune","region":"Auvergne-Rhône-Alpes","departement":"Haute-Loire","departementCode":"43","adresse":{"street":"Le Bourg","postalCode":"43150","city":"Chadron","country":"France"},"contacts":{"email":"contact@mairiedechadron.fr","telephone":"0471038162"},"horaires":"Le Lundi : de 14h00 à 19h00\nLe Mercredi : de 14h00 à 17h00\nLe Vendredi : de 09h30 à 11h30 de 14h00 à 17h00\nLe Samedi : de 10h30 à 12h00","latitude":44.960438,"longitude":3.935172,"website":"https://www.mairiedechadron.fr/","hasWebsite":true,"hasHoraires":true,"url":"https://lannuaire.service-public.gouv.fr/auvergne-rhone-alpes/haute-loire/8051f086-cf22-4349-b693-45615e0f2b5f"}
{"nom":"Chamalières-sur-Loire","nomNormalise":"chamalieressurloire","typeCollectivite":"Commune","region":"Auvergne-Rhône-Alpes","departement":"Haute-Loire","departementCode":"43","adresse":{"street":"Le Bourg","postalCode":"43800","city":"Chamalières-sur-Loire","country":"France"},"contacts":{"email":"mairie@chamalieres-sur-loire.fr","telephone":"0471034206"},"horaires":"Le Mardi : de 09h00 à 12h00\nLe Jeudi : de 09h00 à 12h00\nLe Vendredi : de 14h00 à 17h30","latitude":45.201714,"longitude":3.985057,"website":"https://www.chamalieres-sur-loire.fr/","hasWebsite":true,"hasHoraires":true,"url":"https://lannuaire.service-public.gouv.fr/auvergne-rhone-alpes/haute-loire/c64190c0-3ce7-44f7-bea5-f2ba0f4ba99d"}
{"nom":"Chambezon","nomNormalise":"chambezon","typeCollectivite":"Commune","region":"Auvergne-Rhône-Alpes","departement":"Haute-Loire","departementCode":"43","adresse":{"street":"4 rue de la Mairie","postalCode":"43410","city":"Chambezon","country":"France"},"contacts":{"email":"mairie-chambezon@orange.fr","telephone":"0471765955"},"horaires":"Le Mercredi : de 17h30 à 18h30\nLe Dimanche : de 11h00 à 12h00","latitude":45.379936,"longitude":3.2405453,"website":"","hasWebsite":false,"hasHoraires":true,"url":"https://lannuaire.service-public.gouv.fr/auvergne-rhone-alpes/haute-loire/43120db7-b7e0-4317-9974-59e37cf9732e"}
{"nom":"Champagnac-le-Vieux","nomNormalise":"champagnaclevieux","typeCollectivite":"Commune","region":"Auvergne-Rhône-Alpes","departement":"Haute-Loire","departementCode":"43","adresse":{"street":"Le Bourg","postalCode":"43440","city":"Champagnac-le-Vieux","country":"France"},"contacts":{"email":"mairie@champagnaclevieux.fr","telephone":"0471768091"},"horaires":"Le Vendredi : de 09h00 à 12h00","latitude":45.3575,"longitude":3.50318,"website":"","hasWebsite":false,"hasHoraires":true,"url":"https://lannuaire.service-public.gouv.fr/auvergne-rhone-alpes/haute-loire/841c8053-c5c7-4361-aee7-0a4eada6045a"}
{"nom":"Champclause","nomNormalise":"champclause","typeCollectivite":"Commune","region":"Auvergne-Rhône-Alpes","departement":"Haute-Loire","departementCode":"43","adresse":{"street":"Pôle communal Boussoulet","postalCode":"43260","city":"Champclause","country":"France"},"contacts":{"email":"mairie.champclause@orange.fr","telephone":"0471087340"},"horaires":"Le Mardi : de 09h00 à 12h00 de 14h00 à 17h30\nLe Jeudi : de 09h00 à 12h00 de 14h00 à 17h30\nLe Samedi : de 10h00 à 12h00","latitude":45.02949,"longitude":4.1227536,"website":"https://champclause.fr/","hasWebsite":true,"hasHoraires":true,"url":"https://lannuaire.service-public.gouv.fr/auvergne-rhone-alpes/haute-loire/83d95d6d-88bf-49d8-ad50-438191dfa32f"}
{"nom":"Chanaleilles","nomNormalise":"chanaleilles","typeCollectivite":"Commune","region":"Auvergne-Rhône-Alpes","departement":"Haute-Loire","departementCode":"43","adresse":{"street":"Le Bourg","postalCode":"43170","city":"Chanaleilles","country":"France"},"contacts":{"email":"chanaleilles@wanadoo.fr","telephone":"0471744107"},"horaires":"Le Mardi : de 08h30 à 17h00\nLe Vendredi : de 08h30 à 17h00","latitude":44.861538,"longitude":3.487551,"website":"https://chanaleilles-hautgevaudan.fr/","hasWebsite":true,"hasHoraires":true,"url":"https://lannuaire.service-public.gouv.fr/auvergne-rhone-alpes/haute-loire/a11bff05-f94e-4f6e-bf06-8f6683145c19"}
{"nom":"Chaniat","nomNormalise":"chaniat","typeCollectivite":"Commune","region":"Auvergne-Rhône-Alpes","departement":"Haute-Loire","departementCode":"43","adresse":{"street":"Le Bourg","postalCode":"43100","city":"Chaniat","country":"France"},"contacts":{"email":"chaniat.mairie@wanadoo.fr","telephone":"0471743113"},"horaires":"Le Mardi : de 15h00 à 19h00\nLe Mercredi : de 10h00 à 12h00\n\nPermanence du maire\nLe Vendredi : de 09h00 à 12h00 de 14h00 à 17h00","latitude":45.317318,"longitude":3.484815,"website":"","hasWebsite":false,"hasHoraires":true,"url":"https://lannuaire.service-public.gouv.fr/auvergne-rhone-alpes/haute-loire/b434f0f7-9dc6-4301-aebc-d0b58ee0816b"}
{"nom":"Chanteuges","nomNormalise":"chanteuges","typeCollectivite":"Commune","region":"Auvergne-Rhône-Alpes","departement":"Haute-Loire","departementCode":"43","adresse":{"street":"12 route de Haut-Allier","postalCode":"43300","city":"Chanteuges","country":"France"},"contacts":{"email":"mairie.chanteuges@wanadoo.fr","telephone":"0471740287"},"horaires":"Le Mardi : de 08h30 à 12h30 de 13h30 à 17h30\nLe Jeudi : de 08h30 à 12h30\nLe Samedi : de 08h30 à 12h00","latitude":45.072563,"longitude":3.53048,"website":"https://www.chanteuges.fr/","hasWebsite":true,"hasHoraires":true,"url":"https://lannuaire.service-public.gouv.fr/auvergne-rhone-alpes/haute-loire/44125309-bc12-4673-b653-ee5c3bb0f1e4"}
{"nom":"Charraix","nomNormalise":"charraix","typeCollectivite":"Commune","region":"Auvergne-Rhône-Alpes","departement":"Haute-Loire","departementCode":"43","adresse":{"street":"Le Bourg","postalCode":"43300","city":"Charraix","country":"France"},"contacts":{"email":"mairiecharraix@orange.fr","telephone":"0471778078"},"horaires":"Le Lundi : de 09h00 à 12h00\nLe Jeudi : de 09h00 à 12h00","latitude":45.025726,"longitude":3.56921,"website":"","hasWebsite":false,"hasHoraires":true,"url":"https://lannuaire.service-public.gouv.fr/auvergne-rhone-alpes/haute-loire/7a1a7ad3-abe3-49ef-b4a0-d7c868b332bc"}
{"nom":"Chaspinhac","nomNormalise":"chaspinhac","typeCollectivite":"Commune","region":"Auvergne-Rhône-Alpes","departement":"Haute-Loire","departementCode":"43","adresse":{"street":"2 place de l'Église","postalCode":"43700","city":"Chaspinhac","country":"France"},"contacts":{"email":"mairie.chaspinhac@wanadoo.fr","telephone":"0471035644"},"horaires":"Le Lundi : de 13h30 à 17h30\nLe Mardi : de 12h00 à 17h30\nLe Mercredi : de 08h30 à 12h00\nLe Jeudi : de 12h00 à 17h30\nLe Vendredi : de 13h30 à 17h30\nLe Samedi : de 08h30 à 12h00","latitude":45.086086,"longitude":3.946243,"website":"https://commune-chaspinhac.fr/","hasWebsite":true,"hasHoraires":true,"url":"https://lannuaire.service-public.gouv.fr/auvergne-rhone-alpes/haute-loire/e8d207cc-4f32-4f82-b8ec-e0f562a118eb"}
{"nom":"Chaspuzac","nomNormalise":"chaspuzac","typeCollectivite":"Commune","region":"Auvergne-Rhône-Alpes","departement":"Haute-Loire","departementCode":"43","adresse":{"street":"1 place de l'Église","postalCode":"43320","city":"Chaspuzac","country":"France"},"contacts":{"email":"mairie.chaspuzac@gmail.com","telephone":"0471086067"},"horaires":"Du Lundi au Mardi : de 08h30 à 12h00 de 13h30 à 17h30\nLe Mercredi : de 08h30 à 12h00\nDu Jeudi au Vendredi : de 08h30 à 12h00 de 13h30 à 17h30\nLe Samedi : de 08h45 à 12h00","latitude":45.067966,"longitude":3.750022,"website":"https://www.chaspuzac.fr/","hasWebsite":true,"hasHoraires":true,"url":"https://lannuaire.service-public.gouv.fr/auvergne-rhone-alpes/haute-loire/0525797c-7ea4-48ff-bab5-dba5f621f5f1"}
{"nom":"Chassagnes","nomNormalise":"chassagnes","typeCollectivite":"Commune","region":"Auvergne-Rhône-Alpes","departement":"Haute-Loire","departementCode":"43","adresse":{"street":"Le Bourg","postalCode":"43230","city":"Chassagnes","country":"France"},"contacts":{"email":"communedechassagnes@wanadoo.fr","telephone":"0471768608"},"horaires":"Le Lundi : de 14h00 à 17h00\nLe Vendredi : de 09h00 à 12h00","latitude":45.21471,"longitude":3.539653,"website":"","hasWebsite":false,"hasHoraires":true,"url":"https://lannuaire.service-public.gouv.fr/auvergne-rhone-alpes/haute-loire/65b84b77-edb0-417a-b490-6f07e4528406"}
{"nom":"Chassignolles","nomNormalise":"chassignolles","typeCollectivite":"Commune","region":"Auvergne-Rhône-Alpes","departement":"Haute-Loire","departementCode":"43","adresse":{"street":"Le Bourg","postalCode":"43440","city":"Chassignolles","country":"France"},"contacts":{"email":"mairie.chassignoles@wanadoo.fr","telephone":"0471763433"},"horaires":"Le Lundi : de 14h00 à 18h00","latitude":45.397617,"longitude":3.491954,"website":"","hasWebsite":false,"hasHoraires":true,"url":"https://lannuaire.service-public.gouv.fr/auvergne-rhone-alpes/haute-loire/c21c7024-5b98-4093-b2a0-9f1355f8866c"}
{"nom":"Chastel","nomNormalise":"chastel","typeCollectivite":"Commune","region":"Auvergne-Rhône-Alpes","departement":"Haute-Loire","departementCode":"43","adresse":{"street":"Le Bourg","postalCode":"43300","city":"Chastel","country":"France"},"contacts":{"email":"mairie.chastel@orange.fr","telephone":"0471774576"},"horaires":"Le Lundi : de 08h00 à 12h00 de 12h30 à 17h30\nLe Mercredi : de 08h00 à 12h00 de 12h30 à 17h30\nLe Jeudi : de 08h00 à 13h00","latitude":45.0305,"longitude":3.355397,"website":"","hasWebsite":false,"hasHoraires":true,"url":"https://lannuaire.service-public.gouv.fr/auvergne-rhone-alpes/haute-loire/920b1dcd-1686-42db-b210-2a62c55453f1"}
{"nom":"Chaudeyrolles","nomNormalise":"chaudeyrolles","typeCollectivite":"Commune","region":"Auvergne-Rhône-Alpes","departement":"Haute-Loire","departementCode":"43","adresse":{"street":"17 route du Mézenc","postalCode":"43430","city":"Chaudeyrolles","country":"France"},"contacts":{"email":"mairie@chaudeyrolles.fr","telephone":"0471595045"},"horaires":"Le Mardi : de 09h00 à 12h30 de 14h00 à 18h30\nLe Vendredi : de 09h00 à 12h30 de 14h00 à 18h30","latitude":44.950203,"longitude":4.203048,"website":"http://www.chaudeyrolles.fr/","hasWebsite":true,"hasHoraires":true,"url":"https://lannuaire.service-public.gouv.fr/auvergne-rhone-alpes/haute-loire/8534d9ee-2a5b-4cc1-a745-fb4b46153060"}
{"nom":"Chavaniac-Lafayette","nomNormalise":"chavaniaclafayette","typeCollectivite":"Commune","region":"Auvergne-Rhône-Alpes","departement":"Haute-Loire","departementCode":"43","adresse":{"street":"1 place Georges Washington","postalCode":"43230","city":"Chavaniac-Lafayette","country":"France"},"contacts":{"email":"commune-chavaniac-lafayette2@wanadoo.fr","telephone":"0471775150"},"horaires":"Le Mardi : de 09h00 à 12h00\nLe Mercredi : de 14h00 à 17h00\nDu Jeudi au Vendredi : de 09h00 à 12h00","latitude":45.158417,"longitude":3.579812,"website":"https://www.chavaniac-lafayette.fr/","hasWebsite":true,"hasHoraires":true,"url":"https://lannuaire.service-public.gouv.fr/auvergne-rhone-alpes/haute-loire/47843ef6-1072-44ab-9950-ba5f9f9a7080"}
{"nom":"Chazelles","nomNormalise":"chazelles","typeCollectivite":"Commune","region":"Auvergne-Rhône-Alpes","departement":"Haute-Loire","departementCode":"43","adresse":{"street":"340 route de Rochelongue","postalCode":"43300","city":"Chazelles","country":"France"},"contacts":{"email":"chazelles.mairie@sfr.fr","telephone":"0471740606"},"horaires":"Le Lundi : de 09h00 à 12h00","latitude":45.019424,"longitude":3.488509,"website":"","hasWebsite":false,"hasHoraires":true,"url":"https://lannuaire.service-public.gouv.fr/auvergne-rhone-alpes/haute-loire/10e27528-f45d-4f91-9b69-d59afb928fda"}
{"nom":"Chenereilles","nomNormalise":"chenereilles","typeCollectivite":"Commune","region":"Auvergne-Rhône-Alpes","departement":"Haute-Loire","departementCode":"43","adresse":{"street":"Le Bourg","postalCode":"43190","city":"Chenereilles","country":"France"},"contacts":{"email":"contact@chenereilles.fr","telephone":"0471598797"},"horaires":"Le Lundi : de 14h00 à 18h00\nLe Jeudi : de 14h00 à 18h00","latitude":45.013023,"longitude":4.123837,"website":"https://www.chenereilles.fr/","hasWebsite":true,"hasHoraires":true,"url":"https://lannuaire.service-public.gouv.fr/auvergne-rhone-alpes/haute-loire/dd6a646b-85fd-4799-9017-0584c29ebbeb"}
{"nom":"Chilhac","nomNormalise":"chilhac","typeCollectivite":"Commune","region":"Auvergne-Rhône-Alpes","departement":"Haute-Loire","departementCode":"43","adresse":{"street":"Place de Lachaud","postalCode":"43380","city":"Chilhac","country":"France"},"contacts":{"email":"contact@chilhac.fr","telephone":"0471774171"},"horaires":"Le Mercredi : de 14h00 à 17h00\nLe Vendredi : de 09h00 à 15h30","latitude":45.136852,"longitude":3.46649,"website":"https://www.chilhac.fr/","hasWebsite":true,"hasHoraires":true,"url":"https://lannuaire.service-public.gouv.fr/auvergne-rhone-alpes/haute-loire/58c5adfc-0f05-440c-9ddf-0c880ae86965"}
{"nom":"Chomelix","nomNormalise":"chomelix","typeCollectivite":"Commune","region":"Auvergne-Rhône-Alpes","departement":"Haute-Loire","departementCode":"43","adresse":{"street":"86 rue de la Mairie","postalCode":"43500","city":"Chomelix","country":"France"},"contacts":{"email":"mairie@chomelix.fr","telephone":"0471036310"},"horaires":"Du Lundi au Mardi : de 09h00 à 12h00\nLe Jeudi : de 09h00 à 12h00\nEt sur rendez-vous l'après-midi.","latitude":45.261604,"longitude":3.827679,"website":"https://www.chomelix.fr/","hasWebsite":true,"hasHoraires":true,"url":"https://lannuaire.service-public.gouv.fr/auvergne-rhone-alpes/haute-loire/339804ce-a604-4664-954a-39655d6f24fd"}
{"nom":"Cistrières","nomNormalise":"cistrieres","typeCollectivite":"Commune","region":"Auvergne-Rhône-Alpes","departement":"Haute-Loire","departementCode":"43","adresse":{"street":"22 place Saint Pierre","postalCode":"43160","city":"Cistrières","country":"France"},"contacts":{"email":"mairiecistrieres@orange.fr","telephone":"0471000247"},"horaires":"Le Mardi : de 13h30 à 15h30\nLe Vendredi : de 10h00 à 12h00","latitude":45.3215,"longitude":3.6208496,"website":"","hasWebsite":false,"hasHoraires":true,"url":"https://lannuaire.service-public.gouv.fr/auvergne-rhone-alpes/haute-loire/45f3d9bf-d9ce-49bc-8f20-3f29e2ba0546"}
{"nom":"Cohade","nomNormalise":"cohade","typeCollectivite":"Commune","region":"Auvergne-Rhône-Alpes","departement":"Haute-Loire","departementCode":"43","adresse":{"street":"1 place de la Mairie","postalCode":"43100","city":"Cohade","country":"France"},"contacts":{"email":"cohade.mairie@orange.fr","telephone":"0471501532"},"horaires":"Du Lundi au Mardi : de 15h30 à 18h00\nLe Jeudi : de 15h30 à 18h00\nLe Samedi : de 09h00 à 11h30\n\nUniquement le 1er samedi de chaque mois.","latitude":45.337666,"longitude":3.373015,"website":"http://www.cohade.net/","hasWebsite":true,"hasHoraires":true,"url":"https://lannuaire.service-public.gouv.fr/auvergne-rhone-alpes/haute-loire/82168930-24c1-4a01-949b-9dfe8dc5e50b"}
{"nom":"Collat","nomNormalise":"collat","typeCollectivite":"Commune","region":"Auvergne-Rhône-Alpes","departement":"Haute-Loire","departementCode":"43","adresse":{"street":"17 rue du Temple","postalCode":"43230","city":"Collat","country":"France"},"contacts":{"email":"communedecollat@orange.fr","telephone":"0471504278"},"horaires":"Le Mardi : de 14h00 à 18h00\nLe Vendredi : de 09h30 à 11h30","latitude":45.244167,"longitude":3.610635,"website":"","hasWebsite":false,"hasHoraires":true,"url":"https://lannuaire.service-public.gouv.fr/auvergne-rhone-alpes/haute-loire/3bdf7973-dbe9-4c0c-8eaf-589425b6b87c"}
{"nom":"Connangles","nomNormalise":"connangles","typeCollectivite":"Commune","region":"Auvergne-Rhône-Alpes","departement":"Haute-Loire","departementCode":"43","adresse":{"street":"Le Bourg","postalCode":"43160","city":"Connangles","country":"France"},"contacts":{"email":"mairie.connangles@orange.fr","telephone":"0471000306"},"horaires":"Le Lundi : de 14h30 à 18h00\nLe Mercredi : de 10h00 à 12h00","latitude":45.298523,"longitude":3.64857,"website":"https://www.connangles.fr/","hasWebsite":true,"hasHoraires":true,"url":"https://lannuaire.service-public.gouv.fr/auvergne-rhone-alpes/haute-loire/7090ce2c-0c3e-44fd-9c16-cdfe63b77e1b"}
{"nom":"Costaros","nomNormalise":"costaros","typeCollectivite":"Commune","region":"Auvergne-Rhône-Alpes","departement":"Haute-Loire","departementCode":"43","adresse":{"street":"8 Place de la Mairie","postalCode":"43490","city":"Costaros","country":"France"},"contacts":{"email":"mairie@costaros43.fr","telephone":"0471571661"},"horaires":"Du Lundi au Vendredi : de 08h00 à 12h00","latitude":44.893192,"longitude":3.8491182,"website":"","hasWebsite":false,"hasHoraires":true,"url":"https://lannuaire.service-public.gouv.fr/auvergne-rhone-alpes/haute-loire/075eec3b-5e93-40d5-9116-2c0576bd983c"}
{"nom":"Coubon","nomNormalise":"coubon","typeCollectivite":"Commune","region":"Auvergne-Rhône-Alpes","departement":"Haute-Loire","departementCode":"43","adresse":{"street":"Place Clément-Janequin","postalCode":"43700","city":"Coubon","country":"France"},"contacts":{"email":"mairie@coubon.fr","telephone":"0471088032"},"horaires":"Le Lundi : de 08h30 à 12h00 de 13h30 à 17h30\nLe Mardi : de 08h30 à 12h00\nLe Mercredi : de 08h30 à 12h00 de 13h30 à 16h30\nLe Jeudi : de 08h30 à 16h30\nLe Vendredi : de 09h30 à 12h00 de 13h30 à 16h30","latitude":44.997,"longitude":3.91759,"website":"http://www.coubon-mairie.fr/","hasWebsite":true,"hasHoraires":true,"url":"https://lannuaire.service-public.gouv.fr/auvergne-rhone-alpes/haute-loire/bb9d959d-cff3-4a22-b3ac-103815bf0835"}
{"nom":"Couteuges","nomNormalise":"couteuges","typeCollectivite":"Commune","region":"Auvergne-Rhône-Alpes","departement":"Haute-Loire","departementCode":"43","adresse":{"street":"85 rue de la Mairie","postalCode":"43230","city":"Couteuges","country":"France"},"contacts":{"email":"commune.couteuges@wanadoo.fr","telephone":"0471768676"},"horaires":"Le Mardi : de 14h00 à 16h00\nDu Jeudi au Vendredi : de 09h30 à 11h30","latitude":45.188316,"longitude":3.497076,"website":"","hasWebsite":false,"hasHoraires":true,"url":"https://lannuaire.service-public.gouv.fr/auvergne-rhone-alpes/haute-loire/2815b3be-0edd-4e60-8a4f-6c5edcbc85c1"}
{"nom":"Craponne-sur-Arzon","nomNormalise":"craponnesurarzon","typeCollectivite":"Commune","region":"Auvergne-Rhône-Alpes","departement":"Haute-Loire","departementCode":"43","adresse":{"street":"10 boulevard Félix-Allard","postalCode":"43500","city":"Craponne-sur-Arzon","country":"France"},"contacts":{"email":"craponnesurarzon@craponnesurarzon.fr","telephone":"0471032003"},"horaires":"Le Lundi : de 09h00 à 12h00 de 14h00 à 16h00\nLe Mardi : de 09h00 à 12h00\nLe Mercredi : de 09h00 à 12h00 de 14h00 à 16h00\nLe Jeudi : de 09h00 à 12h00\nLe Vendredi : de 09h00 à 12h00 de 14h00 à 16h00\nLe Samedi : de 09h00 à 12h00","latitude":45.3297,"longitude":3.84526,"website":"https://craponnesurarzon.fr/","hasWebsite":true,"hasHoraires":true,"url":"https://lannuaire.service-public.gouv.fr/auvergne-rhone-alpes/haute-loire/3f4d0606-6462-4973-9dae-6df2958f4cf7"}
{"nom":"Cronce","nomNormalise":"cronce","typeCollectivite":"Commune","region":"Auvergne-Rhône-Alpes","departement":"Haute-Loire","departementCode":"43","adresse":{"street":"1 route d'Arlet","postalCode":"43300","city":"Cronce","country":"France"},"contacts":{"email":"mairie-cronce@wanadoo.fr","telephone":"0471774655"},"horaires":"Le Lundi : de 13h30 à 16h45\nLe Jeudi : de 13h30 à 16h45","latitude":45.09278,"longitude":3.360956,"website":"","hasWebsite":false,"hasHoraires":true,"url":"https://lannuaire.service-public.gouv.fr/auvergne-rhone-alpes/haute-loire/885ead8a-6fdf-4a05-a737-fe4ba204a868"}
{"nom":"Cubelles","nomNormalise":"cubelles","typeCollectivite":"Commune","region":"Auvergne-Rhône-Alpes","departement":"Haute-Loire","departementCode":"43","adresse":{"street":"Chemin d'Estours","postalCode":"43170","city":"Cubelles","country":"France"},"contacts":{"email":"mairiecubelles@orange.fr","telephone":"0471778042"},"horaires":"Le Lundi : de 13h30 à 16h30\nLe Jeudi : de 13h30 à 16h30","latitude":45.003754,"longitude":3.578147,"website":"","hasWebsite":false,"hasHoraires":true,"url":"https://lannuaire.service-public.gouv.fr/auvergne-rhone-alpes/haute-loire/973118b8-d3e8-4485-b0d7-fce44c5cf43a"}
{"nom":"Cussac-sur-Loire","nomNormalise":"cussacsurloire","typeCollectivite":"Commune","region":"Auvergne-Rhône-Alpes","departement":"Haute-Loire","departementCode":"43","adresse":{"street":"5 rue des Écoles","postalCode":"43370","city":"Cussac-sur-Loire","country":"France"},"contacts":{"email":"contact@cussacsurloire.fr","telephone":"0471031130"},"horaires":"Le Lundi : de 14h00 à 17h00\nDu Mardi au Mercredi : de 09h00 à 12h00\nLe Jeudi : de 09h00 à 12h00 de 14h00 à 17h00\nLe Vendredi : de 14h00 à 17h00","latitude":44.990177,"longitude":3.870729,"website":"http://www.cussac-sur-loire.fr/","hasWebsite":true,"hasHoraires":true,"url":"https://lannuaire.service-public.gouv.fr/auvergne-rhone-alpes/haute-loire/7e529704-6d7f-44a1-a51e-28dba57a17b4"}
{"nom":"Desges","nomNormalise":"desges","typeCollectivite":"Commune","region":"Auvergne-Rhône-Alpes","departement":"Haute-Loire","departementCode":"43","adresse":{"street":"Le Bourg","postalCode":"43300","city":"Desges","country":"France"},"contacts":{"email":"mairie.desges@wanadoo.fr","telephone":"0471740096"},"horaires":"Le Mercredi : de 09h00 à 12h00 de 14h00 à 17h00","latitude":45.01747,"longitude":3.450646,"website":"","hasWebsite":false,"hasHoraires":true,"url":"https://lannuaire.service-public.gouv.fr/auvergne-rhone-alpes/haute-loire/5a1068c3-20cc-402a-8d37-28d58870cff3"}
{"nom":"Domeyrat","nomNormalise":"domeyrat","typeCollectivite":"Commune","region":"Auvergne-Rhône-Alpes","departement":"Haute-Loire","departementCode":"43","adresse":{"street":"Le Bourg","postalCode":"43230","city":"Domeyrat","country":"France"},"contacts":{"email":"mairie.domeyrat@orange.fr","telephone":"0471768568"},"horaires":"Le Jeudi : de 08h00 à 12h00 de 14h00 à 17h00","latitude":45.248234,"longitude":3.502043,"website":"","hasWebsite":false,"hasHoraires":true,"url":"https://lannuaire.service-public.gouv.fr/auvergne-rhone-alpes/haute-loire/93121964-47c6-4386-8dca-077868e31918"}
{"nom":"Dunières","nomNormalise":"dunieres","typeCollectivite":"Commune","region":"Auvergne-Rhône-Alpes","departement":"Haute-Loire","departementCode":"43","adresse":{"street":"2 place de l'Hôtel-de-Ville","postalCode":"43220","city":"Dunières","country":"France"},"contacts":{"email":"mairie@dunieres43.fr","telephone":"0471668035"},"horaires":"Du Lundi au Vendredi : de 09h00 à 12h00 de 14h00 à 17h00\nLe Samedi : de 09h00 à 12h00\n\nLa mairie sera fermée les samedis en Juillet et Août","latitude":45.21788,"longitude":4.34188,"website":"https://www.dunieres43.fr/","hasWebsite":true,"hasHoraires":true,"url":"https://lannuaire.service-public.gouv.fr/auvergne-rhone-alpes/haute-loire/33076f6d-c0aa-4e87-b64e-fe9593878d1b"}
{"nom":"Espalem","nomNormalise":"espalem","typeCollectivite":"Commune","region":"Auvergne-Rhône-Alpes","departement":"Haute-Loire","departementCode":"43","adresse":{"street":"2 rue de l'Église","postalCode":"43450","city":"Espalem","country":"France"},"contacts":{"email":"mairie.espalem@wanadoo.fr","telephone":"0471762161"},"horaires":"Le Lundi : de 17h00 à 19h00\nLe Mercredi : de 09h00 à 12h00","latitude":45.306934,"longitude":3.232792,"website":"","hasWebsite":false,"hasHoraires":true,"url":"https://lannuaire.service-public.gouv.fr/auvergne-rhone-alpes/haute-loire/6385b278-0b60-4ba8-90a9-682b0bc10dd9"}
{"nom":"Espaly-Saint-Marcel","nomNormalise":"espalysaintmarcel","typeCollectivite":"Commune","region":"Auvergne-Rhône-Alpes","departement":"Haute-Loire","departementCode":"43","adresse":{"street":"20 avenue de la Mairie","postalCode":"43000","city":"Espaly-Saint-Marcel","country":"France"},"contacts":{"email":"mairie@espaly.fr","telephone":"0471099560"},"horaires":"Du Lundi au Jeudi : de 08h00 à 12h00 de 13h30 à 17h00\nLe Vendredi : de 08h00 à 12h00 de 13h30 à 16h30\nLe Samedi : de 09h00 à 11h00","latitude":45.046375,"longitude":3.86587,"website":"https://www.espaly.fr/","hasWebsite":true,"hasHoraires":true,"url":"https://lannuaire.service-public.gouv.fr/auvergne-rhone-alpes/haute-loire/3a639284-8591-4885-9fb1-d72c93ee4009"}
{"nom":"Esplantas-Vazeilles","nomNormalise":"esplantasvazeilles","typeCollectivite":"Commune","region":"Auvergne-Rhône-Alpes","departement":"Haute-Loire","departementCode":"43","adresse":{"street":"2 place Saint Clair","postalCode":"43170","city":"Esplantas-Vazeilles","country":"France"},"contacts":{"email":"mairie.esplantas@orange.fr","telephone":"0471744534"},"horaires":"Le Lundi : de 09h00 à 12h00\nLe Mercredi : de 09h00 à 12h00\nLe Vendredi : de 09h00 à 12h00\nLe Samedi : de 09h00 à 12h00\n\n(un samedi sur deux)","latitude":44.908363,"longitude":3.547196,"website":"","hasWebsite":false,"hasHoraires":true,"url":"https://lannuaire.service-public.gouv.fr/auvergne-rhone-alpes/haute-loire/2f6fca14-4c0f-4479-b3f8-01360ed7f772"}
{"nom":"Fay-sur-Lignon","nomNormalise":"faysurlignon","typeCollectivite":"Commune","region":"Auvergne-Rhône-Alpes","departement":"Haute-Loire","departementCode":"43","adresse":{"street":"9 place du Foirail","postalCode":"43430","city":"Fay-sur-Lignon","country":"France"},"contacts":{"email":"accueil@faysurlignon43.fr","telephone":"0471595163"},"horaires":"Du Lundi au Mardi : de 09h00 à 12h00 de 14h00 à 16h30\nLe Mercredi : de 09h00 à 12h00\nLe Vendredi : de 09h00 à 12h00","latitude":44.985615,"longitude":4.226837,"website":"http://www.faysurlignon.fr/","hasWebsite":true,"hasHoraires":true,"url":"https://lannuaire.service-public.gouv.fr/auvergne-rhone-alpes/haute-loire/eb2db152-b54d-46ef-8d28-52ce177de7c2"}
{"nom":"Félines","nomNormalise":"felines","typeCollectivite":"Commune","region":"Auvergne-Rhône-Alpes","departement":"Haute-Loire","departementCode":"43","adresse":{"street":"Le Bourg","postalCode":"43160","city":"Félines","country":"France"},"contacts":{"email":"mairie.felines43@orange.fr","telephone":"0471009064"},"horaires":"Le Mercredi : de 09h00 à 12h00\nLe Vendredi : de 14h00 à 17h00","latitude":45.271053,"longitude":3.744927,"website":"http://www.mairie-felines.fr/","hasWebsite":true,"hasHoraires":true,"url":"https://lannuaire.service-public.gouv.fr/auvergne-rhone-alpes/haute-loire/08ce6aa1-ca4a-4726-b64b-8baa49d6b0a0"}
{"nom":"Ferrussac","nomNormalise":"ferrussac","typeCollectivite":"Commune","region":"Auvergne-Rhône-Alpes","departement":"Haute-Loire","departementCode":"43","adresse":{"street":"Le Bourg","postalCode":"43300","city":"Ferrussac","country":"France"},"contacts":{"email":"mairie.ferrussac@wanadoo.fr","telephone":"0471741276"},"horaires":"Le Lundi : de 14h00 à 18h00\nLe Jeudi : de 10h00 à 12h00","latitude":45.0305,"longitude":3.355397,"website":"","hasWebsite":false,"hasHoraires":true,"url":"https://lannuaire.service-public.gouv.fr/auvergne-rhone-alpes/haute-loire/be2d8ec2-8a3a-46a4-884f-12f8959567e2"}
{"nom":"Fix-Saint-Geneys","nomNormalise":"fixsaintgeneys","typeCollectivite":"Commune","region":"Auvergne-Rhône-Alpes","departement":"Haute-Loire","departementCode":"43","adresse":{"street":"4 rue de la Mairie","postalCode":"43320","city":"Fix-Saint-Geneys","country":"France"},"contacts":{"email":"mairiefixstgeneys@orange.fr","telephone":"0471570318"},"horaires":"Le Mardi : de 08h00 à 12h00\nLe Vendredi : de 08h00 à 12h00","latitude":45.142128,"longitude":3.667205,"website":"https://www.fixstgeneys.fr/contact-mairie-fix-saint-geneys-43_fr.html","hasWebsite":true,"hasHoraires":true,"url":"https://lannuaire.service-public.gouv.fr/auvergne-rhone-alpes/haute-loire/f46e50c0-9b0c-4249-91ff-55f5d5459bc9"}
{"nom":"Fontannes","nomNormalise":"fontannes","typeCollectivite":"Commune","region":"Auvergne-Rhône-Alpes","departement":"Haute-Loire","departementCode":"43","adresse":{"street":"37 avenue Henri-Veysseyre","postalCode":"43100","city":"Fontannes","country":"France"},"contacts":{"email":"mairie.fontannes@orange.fr","telephone":"0471764203"},"horaires":"Le Lundi : de 08h30 à 12h00 de 15h00 à 17h30\nDu Mardi au Vendredi : de 08h30 à 12h00","latitude":45.2888,"longitude":3.42111,"website":"https://www.fontannes.fr/","hasWebsite":true,"hasHoraires":true,"url":"https://lannuaire.service-public.gouv.fr/auvergne-rhone-alpes/haute-loire/4adcca05-0278-4db6-8556-cb4ba25ce1e4"}
{"nom":"Freycenet-la-Cuche","nomNormalise":"freycenetlacuche","typeCollectivite":"Commune","region":"Auvergne-Rhône-Alpes","departement":"Haute-Loire","departementCode":"43","adresse":{"street":"Le Bourg","postalCode":"43150","city":"Freycenet-la-Cuche","country":"France"},"contacts":{"email":"freycenet-la-cu.mairie@wanadoo.fr","telephone":"0471038626"},"horaires":"Le Mardi : de 08h00 à 12h00 de 13h00 à 16h30\nLe Jeudi : de 08h00 à 12h00 de 13h00 à 16h30","latitude":44.893715,"longitude":4.088217,"website":"https://freycenet-la-cuche.fr/","hasWebsite":true,"hasHoraires":true,"url":"https://lannuaire.service-public.gouv.fr/auvergne-rhone-alpes/haute-loire/6a59a8c6-3c6b-44a6-88ba-b802eaef583c"}
{"nom":"Freycenet-la-Tour","nomNormalise":"freycenetlatour","typeCollectivite":"Commune","region":"Auvergne-Rhône-Alpes","departement":"Haute-Loire","departementCode":"43","adresse":{"street":"2 route des Barthes","postalCode":"43150","city":"Freycenet-la-Tour","country":"France"},"contacts":{"email":"mairiefreycenetlatour@orange.fr","telephone":"0471038355"},"horaires":"Le Mardi : de 08h30 à 12h30 de 13h30 à 16h30\nDu Mercredi au Vendredi : de 08h30 à 12h00","latitude":44.937874,"longitude":4.060122,"website":"","hasWebsite":false,"hasHoraires":true,"url":"https://lannuaire.service-public.gouv.fr/auvergne-rhone-alpes/haute-loire/2800244a-d3b6-4aca-bf72-c78d3b95b775"}
{"nom":"Frugères-les-Mines","nomNormalise":"frugereslesmines","typeCollectivite":"Commune","region":"Auvergne-Rhône-Alpes","departement":"Haute-Loire","departementCode":"43","adresse":{"street":"1 rue de la Mairie","postalCode":"43250","city":"Frugerès-les-Mines","country":"France"},"contacts":{"email":"mairiefrugeresmines@wanadoo.fr","telephone":"0471765016"},"horaires":"Le Lundi : de 07h30 à 18h00\nLe Jeudi : de 07h30 à 18h00\n\nPermanence d'élus de 16h à 18h uniquement.","latitude":45.385193,"longitude":3.3060617,"website":"","hasWebsite":false,"hasHoraires":true,"url":"https://lannuaire.service-public.gouv.fr/auvergne-rhone-alpes/haute-loire/8bd01006-3393-48a9-a037-78159d95c42f"}
{"nom":"Frugières-le-Pin","nomNormalise":"frugiereslepin","typeCollectivite":"Commune","region":"Auvergne-Rhône-Alpes","departement":"Haute-Loire","departementCode":"43","adresse":{"street":"1 route du Doulon","postalCode":"43230","city":"Frugières-le-Pin","country":"France"},"contacts":{"email":"mairie.frugiereslepin@wanadoo.fr","telephone":"0471764237"},"horaires":"Le Lundi : de 08h30 à 12h00\nLe Jeudi : de 08h30 à 12h00 de 13h30 à 17h00","latitude":45.270206,"longitude":3.488583,"website":"","hasWebsite":false,"hasHoraires":true,"url":"https://lannuaire.service-public.gouv.fr/auvergne-rhone-alpes/haute-loire/2595ecbd-91e5-4568-a50a-6d89f45d6a53"}
{"nom":"Goudet","nomNormalise":"goudet","typeCollectivite":"Commune","region":"Auvergne-Rhône-Alpes","departement":"Haute-Loire","departementCode":"43","adresse":{"street":"Le Bourg","postalCode":"43150","city":"Goudet","country":"France"},"contacts":{"email":"mairiedegoudet@orange.fr","telephone":"0471571580"},"horaires":"Le Jeudi : de 09h00 à 17h00","latitude":44.88886,"longitude":3.922369,"website":"","hasWebsite":false,"hasHoraires":true,"url":"https://lannuaire.service-public.gouv.fr/auvergne-rhone-alpes/haute-loire/d2074e60-5f90-435a-a460-a412f20983bd"}
{"nom":"Grazac","nomNormalise":"grazac","typeCollectivite":"Commune","region":"Auvergne-Rhône-Alpes","departement":"Haute-Loire","departementCode":"43","adresse":{"street":"1 place du 19-Mars-1962","postalCode":"43200","city":"Grazac","country":"France"},"contacts":{"email":"accueil@grazac.fr","telephone":"0471593847"},"horaires":"Le Mardi : de 09h00 à 12h00\nLe Mercredi : de 09h00 à 12h00 de 13h30 à 18h30\nDu Jeudi au Samedi : de 09h00 à 12h00","latitude":45.184914,"longitude":4.183443,"website":"","hasWebsite":false,"hasHoraires":true,"url":"https://lannuaire.service-public.gouv.fr/auvergne-rhone-alpes/haute-loire/1846d414-04fe-4f66-baae-d94bfaadb9d0"}
{"nom":"Grenier-Montgon","nomNormalise":"greniermontgon","typeCollectivite":"Commune","region":"Auvergne-Rhône-Alpes","departement":"Haute-Loire","departementCode":"43","adresse":{"street":"Route Impériale","postalCode":"43450","city":"Grenier-Montgon","country":"France"},"contacts":{"email":"mairie.grenier-montgon@wanadoo.fr","telephone":"0471762015"},"horaires":"Du Lundi au Mardi : de 13h30 à 16h00\nDu Jeudi au Vendredi : de 13h30 à 16h00","latitude":45.287365,"longitude":3.195283,"website":"","hasWebsite":false,"hasHoraires":true,"url":"https://lannuaire.service-public.gouv.fr/auvergne-rhone-alpes/haute-loire/c1340852-af91-48bf-a795-3e47235278e7"}
{"nom":"Grèzes","nomNormalise":"grezes","typeCollectivite":"Commune","region":"Auvergne-Rhône-Alpes","departement":"Haute-Loire","departementCode":"43","adresse":{"street":"Le Bourg","postalCode":"43170","city":"Grèzes","country":"France"},"contacts":{"email":"mairie.grezes@free.fr","telephone":"0471744369"},"horaires":"Le Lundi : de 13h30 à 17h00\nLe Jeudi : de 13h30 à 17h00","latitude":44.91915,"longitude":3.487272,"website":"","hasWebsite":false,"hasHoraires":true,"url":"https://lannuaire.service-public.gouv.fr/auvergne-rhone-alpes/haute-loire/60c971e4-c753-4ea9-a4dd-f1775918054d"}
{"nom":"Javaugues","nomNormalise":"javaugues","typeCollectivite":"Commune","region":"Auvergne-Rhône-Alpes","departement":"Haute-Loire","departementCode":"43","adresse":{"street":"Route de La Chaise-Dieu","postalCode":"43100","city":"Javaugues","country":"France"},"contacts":{"email":"mairie@javaugues.fr","telephone":"0471764470"},"horaires":"Le Mardi : de 09h00 à 12h00 de 14h00 à 17h30\nLe Vendredi : de 09h00 à 12h00 de 14h00 à 17h30","latitude":45.288532,"longitude":3.483635,"website":"","hasWebsite":false,"hasHoraires":true,"url":"https://lannuaire.service-public.gouv.fr/auvergne-rhone-alpes/haute-loire/fe24a26f-c3be-4baf-8e36-32aa74975bdc"}
{"nom":"Jax","nomNormalise":"jax","typeCollectivite":"Commune","region":"Auvergne-Rhône-Alpes","departement":"Haute-Loire","departementCode":"43","adresse":{"street":"7 rue de la Mairie","postalCode":"43230","city":"Jax","country":"France"},"contacts":{"email":"commune-jax@orange.fr","telephone":"0471775064"},"horaires":"Le Lundi : de 10h00 à 17h00\nLe Jeudi : de 09h30 à 11h30","latitude":45.168335,"longitude":3.618548,"website":"","hasWebsite":false,"hasHoraires":true,"url":"https://lannuaire.service-public.gouv.fr/auvergne-rhone-alpes/haute-loire/4b13c98e-8342-404a-8a9c-94dec563e5a4"}
{"nom":"Josat","nomNormalise":"josat","typeCollectivite":"Commune","region":"Auvergne-Rhône-Alpes","departement":"Haute-Loire","departementCode":"43","adresse":{"street":"131 route d'Allègre","postalCode":"43230","city":"Josat","country":"France"},"contacts":{"email":"communedejosat@orange.fr","telephone":"0471503700"},"horaires":"Le Mardi : de 14h00 à 17h00\nLe Vendredi : de 09h00 à 12h00","latitude":45.21223,"longitude":3.61075,"website":"","hasWebsite":false,"hasHoraires":true,"url":"https://lannuaire.service-public.gouv.fr/auvergne-rhone-alpes/haute-loire/50b25a39-7ca0-4fb6-8912-dc0f9111a31d"}
{"nom":"Jullianges","nomNormalise":"jullianges","typeCollectivite":"Commune","region":"Auvergne-Rhône-Alpes","departement":"Haute-Loire","departementCode":"43","adresse":{"street":"Le Bourg","postalCode":"43500","city":"Jullianges","country":"France"},"contacts":{"email":"mairie-de-jullianges@wanadoo.fr","telephone":"0471032268"},"horaires":"Le Mardi : de 09h00 à 12h00 de 14h00 à 17h00\nLe Vendredi : de 09h00 à 12h00 de 14h00 à 17h00","latitude":45.30513,"longitude":3.790626,"website":"","hasWebsite":false,"hasHoraires":true,"url":"https://lannuaire.service-public.gouv.fr/auvergne-rhone-alpes/haute-loire/b0c8eabf-08c4-4de0-9094-b8cca35fed39"}
{"nom":"La Besseyre-Saint-Mary","nomNormalise":"labesseyresaintmary","typeCollectivite":"Commune","region":"Auvergne-Rhône-Alpes","departement":"Haute-Loire","departementCode":"43","adresse":{"street":"Le Bourg","postalCode":"43170","city":"La Besseyre-Saint-Mary","country":"France"},"contacts":{"email":"mairielabesseyresaintmary@orange.fr","telephone":"0471776746"},"horaires":"Le Mardi : de 14h00 à 17h00\nLe Jeudi : de 14h00 à 17h00","latitude":44.97032,"longitude":3.417355,"website":"","hasWebsite":false,"hasHoraires":true,"url":"https://lannuaire.service-public.gouv.fr/auvergne-rhone-alpes/haute-loire/9496ce59-78d5-409c-ac73-20e9041e65be"}
{"nom":"La Chaise-Dieu","nomNormalise":"lachaisedieu","typeCollectivite":"Commune","region":"Auvergne-Rhône-Alpes","departement":"Haute-Loire","departementCode":"43","adresse":{"street":"4 rue Saint-Esprit","postalCode":"43160","city":"La Chaise-Dieu","country":"France"},"contacts":{"email":"lcdmairie@wanadoo.fr","telephone":"0471000157"},"horaires":"Le Lundi : de 09h00 à 12h00 de 13h30 à 17h30\nDu Mercredi au Jeudi : de 09h00 à 12h00 de 13h30 à 17h30\nLe Vendredi : de 09h00 à 12h00 de 13h30 à 16h30","latitude":45.321423,"longitude":3.697947,"website":"http://www.lachaisedieu.fr/","hasWebsite":true,"hasHoraires":true,"url":"https://lannuaire.service-public.gouv.fr/auvergne-rhone-alpes/haute-loire/80278dc8-ec93-4e72-905d-594c65e5fd34"}
{"nom":"La Chapelle-Bertin","nomNormalise":"lachapellebertin","typeCollectivite":"Commune","region":"Auvergne-Rhône-Alpes","departement":"Haute-Loire","departementCode":"43","adresse":{"street":"Le Bourg","postalCode":"43270","city":"La Chapelle-Bertin","country":"France"},"contacts":{"email":"mairie.chapellebertin@orange.fr","telephone":"0471002194"},"horaires":"Le Jeudi : de 12h00 à 17h00","latitude":45.21939,"longitude":3.64919,"website":"","hasWebsite":false,"hasHoraires":true,"url":"https://lannuaire.service-public.gouv.fr/auvergne-rhone-alpes/haute-loire/b6082862-9781-4e0f-b40f-50fdfae30c1a"}
{"nom":"La Chapelle-d'Aurec","nomNormalise":"lachapelledaurec","typeCollectivite":"Commune","region":"Auvergne-Rhône-Alpes","departement":"Haute-Loire","departementCode":"43","adresse":{"street":"22 place Marcellin-Martin","postalCode":"43120","city":"La Chapelle-d'Aurec","country":"France"},"contacts":{"email":"accueil@mairie-lachapelledaurec.fr","telephone":"0471612080"},"horaires":"Le Lundi : de 14h00 à 17h30\nLe Mardi : de 09h00 à 12h30 de 14h00 à 17h30\nLe Jeudi : de 09h00 à 12h30 de 14h00 à 17h30\nLe Vendredi : de 09h00 à 12h30 de 14h00 à 15h30\nLe Samedi : de 09h00 à 12h00\n\nAccueil ouvert uniquement le 1er samedi du mois.","latitude":45.35571,"longitude":4.2514315,"website":"https://www.mairie-lachapelledaurec.fr/","hasWebsite":true,"hasHoraires":true,"url":"https://lannuaire.service-public.gouv.fr/auvergne-rhone-alpes/haute-loire/f22b9db7-dad0-4be8-82c9-839644e83ac1"}
{"nom":"La Chapelle-Geneste","nomNormalise":"lachapellegeneste","typeCollectivite":"Commune","region":"Auvergne-Rhône-Alpes","departement":"Haute-Loire","departementCode":"43","adresse":{"street":"Le Bourg","postalCode":"43160","city":"La Chapelle-Geneste","country":"France"},"contacts":{"email":"mairie.lachapellegeneste@gmail.com","telephone":"0471000234"},"horaires":"Le Mardi : de 09h00 à 12h00\nLe Vendredi : de 14h00 à 16h30","latitude":45.34979,"longitude":3.666627,"website":"","hasWebsite":false,"hasHoraires":true,"url":"https://lannuaire.service-public.gouv.fr/auvergne-rhone-alpes/haute-loire/07d95e47-5f57-4fb4-9b32-cfa286619e1a"}
{"nom":"la Chomette","nomNormalise":"lachomette","typeCollectivite":"Commune","region":"Auvergne-Rhône-Alpes","departement":"Haute-Loire","departementCode":"43","adresse":{"street":"Le Bourg","postalCode":"43230","city":"La Chomette","country":"France"},"contacts":{"email":"commune-de-la-chomette@orange.fr","telephone":"0471768833"},"horaires":"Le Mardi : de 09h00 à 12h00\nLe Mercredi : de 14h00 à 18h00","latitude":45.229496,"longitude":3.474426,"website":"","hasWebsite":false,"hasHoraires":true,"url":"https://lannuaire.service-public.gouv.fr/auvergne-rhone-alpes/haute-loire/d38be791-c7f2-4f13-a4d2-1c6372a6ef9f"}
{"nom":"Lafarre","nomNormalise":"lafarre","typeCollectivite":"Commune","region":"Auvergne-Rhône-Alpes","departement":"Haute-Loire","departementCode":"43","adresse":{"street":"Le Bourg","postalCode":"43490","city":"Lafarre","country":"France"},"contacts":{"email":"mairie.commune-lafarre@orange.fr","telephone":"0471573974"},"horaires":"Le Jeudi : de 09h00 à 12h00 de 14h00 à 17h00","latitude":44.84229,"longitude":3.990253,"website":"","hasWebsite":false,"hasHoraires":true,"url":"https://lannuaire.service-public.gouv.fr/auvergne-rhone-alpes/haute-loire/4d6b90d8-c194-4c29-9e41-7323524749ef"}
{"nom":"Lamothe","nomNormalise":"lamothe","typeCollectivite":"Commune","region":"Auvergne-Rhône-Alpes","departement":"Haute-Loire","departementCode":"43","adresse":{"street":"12 rue de Vialle","postalCode":"43100","city":"Lamothe","country":"France"},"contacts":{"email":"mairie@lamothe43.fr","telephone":"0471764440"},"horaires":"Du Lundi au Vendredi : de 08h30 à 13h00","latitude":45.3153,"longitude":3.42923,"website":"https://www.lamothe43.fr/","hasWebsite":true,"hasHoraires":true,"url":"https://lannuaire.service-public.gouv.fr/auvergne-rhone-alpes/haute-loire/a4c05424-5664-4642-85b9-34f4e9ef1418"}
{"nom":"Landos","nomNormalise":"landos","typeCollectivite":"Commune","region":"Auvergne-Rhône-Alpes","departement":"Haute-Loire","departementCode":"43","adresse":{"street":"1 route du Haut-Allier","postalCode":"43340","city":"Landos","country":"France"},"contacts":{"email":"accueil.landos@orange.fr","telephone":"0471082019"},"horaires":"Du Lundi au Vendredi : de 08h30 à 12h30","latitude":44.841026,"longitude":3.8319006,"website":"https://www.landos.fr/","hasWebsite":true,"hasHoraires":true,"url":"https://lannuaire.service-public.gouv.fr/auvergne-rhone-alpes/haute-loire/09be230c-afc5-466f-97ce-22b6b26a682a"}
{"nom":"Langeac","nomNormalise":"langeac","typeCollectivite":"Commune","region":"Auvergne-Rhône-Alpes","departement":"Haute-Loire","departementCode":"43","adresse":{"street":"Place de la Favière","postalCode":"43300","city":"Langeac","country":"France"},"contacts":{"email":"secretariat.general@ville-langeac.com","telephone":"0471777110"},"horaires":"Le Lundi : de 09h00 à 12h00 de 13h30 à 17h30\nDu Mardi au Jeudi : de 08h30 à 12h00 de 13h30 à 17h30\nLe Vendredi : de 08h30 à 12h00 de 13h30 à 17h00","latitude":45.0988,"longitude":3.49418,"website":"https://www.langeac.fr/presentation/","hasWebsite":true,"hasHoraires":true,"url":"https://lannuaire.service-public.gouv.fr/auvergne-rhone-alpes/haute-loire/8b92153e-0bcd-4df1-93ff-7d99eadeebf7"}
{"nom":"Lantriac","nomNormalise":"lantriac","typeCollectivite":"Commune","region":"Auvergne-Rhône-Alpes","departement":"Haute-Loire","departementCode":"43","adresse":{"street":"1 place de la Mairie","postalCode":"43260","city":"Lantriac","country":"France"},"contacts":{"email":"mairie.lantriac@wanadoo.fr","telephone":"0471051086"},"horaires":"Du Lundi au Vendredi : de 08h00 à 12h00 de 14h00 à 17h00","latitude":45.000774,"longitude":4.004484,"website":"https://www.lantriac.fr/","hasWebsite":true,"hasHoraires":true,"url":"https://lannuaire.service-public.gouv.fr/auvergne-rhone-alpes/haute-loire/8024dd24-5760-49a1-bed6-521ed2570046"}
{"nom":"Lapte","nomNormalise":"lapte","typeCollectivite":"Commune","region":"Auvergne-Rhône-Alpes","departement":"Haute-Loire","departementCode":"43","adresse":{"street":"10 place Marius-Sarda","postalCode":"43200","city":"Lapte","country":"France"},"contacts":{"email":"mairie@lapte43.fr","telephone":"0471593745"},"horaires":"Le Lundi : de 08h30 à 12h00 de 13h30 à 17h00\nDu Mardi au Mercredi : de 08h30 à 12h00\nLe Jeudi : de 08h30 à 12h00 de 13h30 à 17h00\nDu Vendredi au Samedi : de 08h30 à 12h00","latitude":45.185146,"longitude":4.217309,"website":"https://www.lapte43.fr/","hasWebsite":true,"hasHoraires":true,"url":"https://lannuaire.service-public.gouv.fr/auvergne-rhone-alpes/haute-loire/b859c40b-1012-477a-99d9-3290b8ea216c"}
{"nom":"La Séauve-sur-Semène","nomNormalise":"laseauvesursemene","typeCollectivite":"Commune","region":"Auvergne-Rhône-Alpes","departement":"Haute-Loire","departementCode":"43","adresse":{"street":"Place de la Gare","postalCode":"43140","city":"La Séauve-sur-Semène","country":"France"},"contacts":{"email":"mairie.seauve@orange.fr","telephone":"0471610480"},"horaires":"Le Lundi : de 09h00 à 12h00 de 13h00 à 16h30\nLe Mardi : de 09h00 à 12h00\nLe Mercredi : de 09h00 à 12h00\nLe Vendredi : de 09h00 à 12h00 de 13h30 à 17h00\nLe Samedi : de 09h00 à 12h00","latitude":45.29517,"longitude":4.2496037,"website":"http://www.la-seauve-sur-semene.fr/","hasWebsite":true,"hasHoraires":true,"url":"https://lannuaire.service-public.gouv.fr/auvergne-rhone-alpes/haute-loire/3badd9b5-fc1a-4fa8-9fcf-5fc1ddacfa18"}
{"nom":"Laussonne","nomNormalise":"laussonne","typeCollectivite":"Commune","region":"Auvergne-Rhône-Alpes","departement":"Haute-Loire","departementCode":"43","adresse":{"street":"8 place de la Mairie","postalCode":"43150","city":"Laussonne","country":"France"},"contacts":{"email":"contact@mairie-laussonne.fr","telephone":"0471051174"},"horaires":"Du Lundi au Vendredi : de 08h30 à 12h00","latitude":45.000626,"longitude":4.004656,"website":"https://www.mairie-laussonne.fr/","hasWebsite":true,"hasHoraires":true,"url":"https://lannuaire.service-public.gouv.fr/auvergne-rhone-alpes/haute-loire/fa63acb9-c2a0-4408-bb65-0f06d3782622"}
{"nom":"Laval-sur-Doulon","nomNormalise":"lavalsurdoulon","typeCollectivite":"Commune","region":"Auvergne-Rhône-Alpes","departement":"Haute-Loire","departementCode":"43","adresse":{"street":"Le Bourg","postalCode":"43440","city":"Laval sur Doulon","country":"France"},"contacts":{"email":"mairielavalsurdoulon@free.fr","telephone":"0471763159"},"horaires":"Le Mercredi : de 18h00 à 20h00","latitude":45.3517,"longitude":3.56178,"website":"","hasWebsite":false,"hasHoraires":true,"url":"https://lannuaire.service-public.gouv.fr/auvergne-rhone-alpes/haute-loire/af32aa5d-02e6-4859-861b-03c8302a7089"}
{"nom":"Lavaudieu","nomNormalise":"lavaudieu","typeCollectivite":"Commune","region":"Auvergne-Rhône-Alpes","departement":"Haute-Loire","departementCode":"43","adresse":{"street":"Le Bourg","postalCode":"43100","city":"Lavaudieu","country":"France"},"contacts":{"email":"mairielavaudieu@orange.fr","telephone":"0471764274"},"horaires":"Le Mardi : de 14h00 à 16h30\nLe Vendredi : de 09h30 à 12h00","latitude":45.262997,"longitude":3.453869,"website":"","hasWebsite":false,"hasHoraires":true,"url":"https://lannuaire.service-public.gouv.fr/auvergne-rhone-alpes/haute-loire/6f8022fe-0548-4500-accc-2cb181a0cffd"}
{"nom":"Lavoûte-Chilhac","nomNormalise":"lavoutechilhac","typeCollectivite":"Commune","region":"Auvergne-Rhône-Alpes","departement":"Haute-Loire","departementCode":"43","adresse":{"street":"Place du Fer-à-Cheval","postalCode":"43380","city":"Lavoûte-Chilhac","country":"France"},"contacts":{"email":"commune-de-lavoute-chilhac@orange.fr","telephone":"0471774567"},"horaires":"Le Lundi : de 08h00 à 12h00\nLe Mardi : de 08h00 à 12h00 de 13h30 à 17h30\nLe Jeudi : de 08h00 à 12h00 de 13h30 à 17h30\nLe Vendredi : de 08h00 à 12h00","latitude":45.149734,"longitude":3.4035685,"website":"http://www.lavoute-chilhac.com/","hasWebsite":true,"hasHoraires":true,"url":"https://lannuaire.service-public.gouv.fr/auvergne-rhone-alpes/haute-loire/6f228ca8-06fb-48ce-9ee4-92a65a959562"}
{"nom":"Lavoûte-sur-Loire","nomNormalise":"lavoutesurloire","typeCollectivite":"Commune","region":"Auvergne-Rhône-Alpes","departement":"Haute-Loire","departementCode":"43","adresse":{"street":"1 place de la Mairie","postalCode":"43800","city":"Lavoûte-sur-Loire","country":"France"},"contacts":{"email":"mairie@lavoutesurloire.fr","telephone":"0471085013"},"horaires":"Du Lundi au Samedi : de 09h00 à 12h00","latitude":45.11878,"longitude":3.90646,"website":"https://www.lavoutesurloire.fr/","hasWebsite":true,"hasHoraires":true,"url":"https://lannuaire.service-public.gouv.fr/auvergne-rhone-alpes/haute-loire/f0a2bb7f-b7f5-4917-8e8b-3365f00d9aab"}
{"nom":"Le Bouchet-Saint-Nicolas","nomNormalise":"lebouchetsaintnicolas","typeCollectivite":"Commune","region":"Auvergne-Rhône-Alpes","departement":"Haute-Loire","departementCode":"43","adresse":{"street":"Le Bourg","postalCode":"43510","city":"Le Bouchet-Saint-Nicolas","country":"France"},"contacts":{"email":"mairie.lebouchetstnicolas@orange.fr","telephone":"0471573222"},"horaires":"Le Lundi : de 08h30 à 12h30 de 13h30 à 17h30\nLe Mercredi : de 08h30 à 12h30 de 13h30 à 17h30\nLe Vendredi : de 08h30 à 12h30","latitude":44.89047,"longitude":3.791783,"website":"http://www.lebouchetsaintnicolas.fr/","hasWebsite":true,"hasHoraires":true,"url":"https://lannuaire.service-public.gouv.fr/auvergne-rhone-alpes/haute-loire/7e2e4149-bf27-4af2-881c-bfafa6ebf61e"}
{"nom":"Le Brignon","nomNormalise":"lebrignon","typeCollectivite":"Commune","region":"Auvergne-Rhône-Alpes","departement":"Haute-Loire","departementCode":"43","adresse":{"street":"65 route de la Cascade","postalCode":"43370","city":"Le Brignon","country":"France"},"contacts":{"email":"mairielebrignon@wanadoo.fr","telephone":"0471571988"},"horaires":"Du Lundi au Vendredi : de 09h00 à 12h00","latitude":44.935413,"longitude":3.880744,"website":"https://www.lebrignon.fr/","hasWebsite":true,"hasHoraires":true,"url":"https://lannuaire.service-public.gouv.fr/auvergne-rhone-alpes/haute-loire/2ea8d282-7e2c-451a-9399-6788a7b42a60"}
{"nom":"Le Chambon-sur-Lignon","nomNormalise":"lechambonsurlignon","typeCollectivite":"Commune","region":"Auvergne-Rhône-Alpes","departement":"Haute-Loire","departementCode":"43","adresse":{"street":"Espace des Droits-de-l'Homme","postalCode":"43400","city":"Le Chambon-sur-Lignon","country":"France"},"contacts":{"email":"chambon@ville-lechambonsurlignon.fr","telephone":"0471657190"},"horaires":"Le Lundi : de 13h30 à 17h00\nLe Mardi : de 08h30 à 12h00 de 13h30 à 17h00\nLe Mercredi : de 08h30 à 12h00\nDu Jeudi au Vendredi : de 08h30 à 12h00 de 13h30 à 17h00\nLe Samedi : de 08h30 à 12h00\n\nPermanence état civil.","latitude":45.059322,"longitude":4.301174,"website":"https://www.ville-lechambonsurlignon.fr/","hasWebsite":true,"hasHoraires":true,"url":"https://lannuaire.service-public.gouv.fr/auvergne-rhone-alpes/haute-loire/c85bff0f-13d2-4fdb-8c8a-82a3064f7dfa"}
{"nom":"Le Mas-de-Tence","nomNormalise":"lemasdetence","typeCollectivite":"Commune","region":"Auvergne-Rhône-Alpes","departement":"Haute-Loire","departementCode":"43","adresse":{"street":"44 rue des Écoles","postalCode":"43190","city":"Le Mas-de-Tence","country":"France"},"contacts":{"email":"mairie.lemasdetence@wanadoo.fr","telephone":"0471598697"},"horaires":"Le Mardi : de 13h30 à 16h30\nLe Mercredi : de 08h00 à 12h00\nLe Jeudi : de 13h30 à 16h30\nLe Vendredi : de 08h00 à 12h00","latitude":45.121284,"longitude":4.35873,"website":"","hasWebsite":false,"hasHoraires":true,"url":"https://lannuaire.service-public.gouv.fr/auvergne-rhone-alpes/haute-loire/e1abcbae-b5fb-471d-a781-443792726ec9"}
{"nom":"Le Monastier-sur-Gazeille","nomNormalise":"lemonastiersurgazeille","typeCollectivite":"Commune","region":"Auvergne-Rhône-Alpes","departement":"Haute-Loire","departementCode":"43","adresse":{"street":"1 place du Pôle Laurent Eynac","postalCode":"43150","city":"Le Monastier-sur-Gazeille","country":"France"},"contacts":{"email":"secretariat@lemonastiersurgazeille.fr","telephone":"0471038001"},"horaires":"Du Lundi au Mardi : de 09h00 à 12h00\nLe Mercredi : de 09h00 à 12h00 de 13h30 à 16h30\n\n(sauf juillet et août)\nDu Jeudi au Samedi : de 09h00 à 12h00","latitude":44.938164,"longitude":3.995137,"website":"https://lemonastiersurgazeille.fr/","hasWebsite":true,"hasHoraires":true,"url":"https://lannuaire.service-public.gouv.fr/auvergne-rhone-alpes/haute-loire/baa765b3-c40a-4920-9c30-611bbd06c782"}
{"nom":"Le Monteil","nomNormalise":"lemonteil","typeCollectivite":"Commune","region":"Auvergne-Rhône-Alpes","departement":"Haute-Loire","departementCode":"43","adresse":{"street":"Place de la Mairie","postalCode":"43700","city":"Le Monteil","country":"France"},"contacts":{"email":"mairie.lemonteil@wanadoo.fr","telephone":"0471053940"},"horaires":"Le Mardi : de 08h30 à 12h30\nLe Jeudi : de 08h30 à 12h30","latitude":45.064545,"longitude":3.913481,"website":"https://mairielemonteil43.fr/","hasWebsite":true,"hasHoraires":true,"url":"https://lannuaire.service-public.gouv.fr/auvergne-rhone-alpes/haute-loire/d36ba5f5-b49b-404e-aec8-36c3e44eb663"}
{"nom":"Lempdes-sur-Allagnon","nomNormalise":"lempdessurallagnon","typeCollectivite":"Commune","region":"Auvergne-Rhône-Alpes","departement":"Haute-Loire","departementCode":"43","adresse":{"street":"13 avenue de la Gare","postalCode":"43410","city":"Lempdes-sur-Allagnon","country":"France"},"contacts":{"email":"mairielempdessurallagnon@orange.fr","telephone":"0471765122"},"horaires":"Le Lundi : de 10h00 à 12h00\nDu Mardi au Jeudi : de 10h00 à 12h00 de 15h00 à 17h30\nDu Vendredi au Samedi : de 10h00 à 12h00","latitude":45.38315,"longitude":3.270537,"website":"","hasWebsite":false,"hasHoraires":true,"url":"https://lannuaire.service-public.gouv.fr/auvergne-rhone-alpes/haute-loire/91739173-7b6b-4bbc-9710-5ed5be2fb12c"}
{"nom":"Léotoing","nomNormalise":"leotoing","typeCollectivite":"Commune","region":"Auvergne-Rhône-Alpes","departement":"Haute-Loire","departementCode":"43","adresse":{"street":"Le Bourg","postalCode":"43410","city":"Léotoing","country":"France"},"contacts":{"email":"mairie-leotoing@orange.fr","telephone":"0471765068"},"horaires":"Le Mardi : de 14h00 à 17h00\nLe Jeudi : de 14h00 à 17h00","latitude":45.361446,"longitude":3.223306,"website":"","hasWebsite":false,"hasHoraires":true,"url":"https://lannuaire.service-public.gouv.fr/auvergne-rhone-alpes/haute-loire/175573ab-0a9e-4010-8247-d4f48a29c714"}
{"nom":"Le Pertuis","nomNormalise":"lepertuis","typeCollectivite":"Commune","region":"Auvergne-Rhône-Alpes","departement":"Haute-Loire","departementCode":"43","adresse":{"street":"70 place du souvenir","postalCode":"43200","city":"Le Pertuis","country":"France"},"contacts":{"email":"mairie.lepertuis@wanadoo.fr","telephone":"0471576161"},"horaires":"Le Lundi : de 09h00 à 12h00\nLe Mardi : de 13h30 à 16h30\nLe Jeudi : de 09h00 à 12h00\nLe Vendredi : de 13h30 à 16h30\nLe Samedi : de 09h00 à 12h00","latitude":45.09712,"longitude":4.059499,"website":"","hasWebsite":false,"hasHoraires":true,"url":"https://lannuaire.service-public.gouv.fr/auvergne-rhone-alpes/haute-loire/aaf84967-959f-4f5e-9b81-2fc21d7965a8"}
{"nom":"Le Puy-en-Velay","nomNormalise":"lepuyenvelay","typeCollectivite":"Commune","region":"Auvergne-Rhône-Alpes","departement":"Haute-Loire","departementCode":"43","adresse":{"street":"1 place du Martouret","postalCode":"43000","city":"Le-Puy-en-Velay","country":"France"},"contacts":{"email":"contact@lepuyenvelay.fr","telephone":"0471040740"},"horaires":"Du Lundi au Jeudi : de 08h30 à 12h00 de 13h30 à 17h30\nLe Vendredi : de 08h30 à 12h00 de 13h30 à 17h00","latitude":45.042934,"longitude":3.8846214,"website":"http://www.lepuyenvelay.fr/","hasWebsite":true,"hasHoraires":true,"url":"https://lannuaire.service-public.gouv.fr/auvergne-rhone-alpes/haute-loire/2514313d-c030-467e-a2fe-9e5e031c340a"}
{"nom":"Les Estables","nomNormalise":"lesestables","typeCollectivite":"Commune","region":"Auvergne-Rhône-Alpes","departement":"Haute-Loire","departementCode":"43","adresse":{"street":"2 route des Boutières","postalCode":"43150","city":"Les Estables","country":"France"},"contacts":{"email":"contact@mairielesestables.fr","telephone":"0471083438"},"horaires":"Du Lundi au Jeudi : de 08h30 à 12h00 de 14h00 à 16h00\nLe Vendredi : de 08h30 à 12h00","latitude":44.90351,"longitude":4.156063,"website":"https://www.lesestables.fr/","hasWebsite":true,"hasHoraires":true,"url":"https://lannuaire.service-public.gouv.fr/auvergne-rhone-alpes/haute-loire/c25263b4-5b4a-4f9e-b0e3-e4b386b099d3"}
{"nom":"Les Vastres","nomNormalise":"lesvastres","typeCollectivite":"Commune","region":"Auvergne-Rhône-Alpes","departement":"Haute-Loire","departementCode":"43","adresse":{"street":"65 route de l'Étang","postalCode":"43430","city":"Les Vastres","country":"France"},"contacts":{"email":"mairielesvastres@orange.fr","telephone":"0471595092"},"horaires":"Le Lundi : de 09h00 à 12h00 de 14h00 à 17h00\nLe Mercredi : de 08h30 à 12h00 de 14h00 à 17h00\nLe Samedi : de 09h00 à 12h00","latitude":44.989155,"longitude":4.261915,"website":"","hasWebsite":false,"hasHoraires":true,"url":"https://lannuaire.service-public.gouv.fr/auvergne-rhone-alpes/haute-loire/101c2a11-d4f2-4170-99af-4f7809704be8"}
{"nom":"Les Villettes","nomNormalise":"lesvillettes","typeCollectivite":"Commune","region":"Auvergne-Rhône-Alpes","departement":"Haute-Loire","departementCode":"43","adresse":{"street":"19 C place de la Mairie","postalCode":"43600","city":"Les Villettes","country":"France"},"contacts":{"email":"mairie@les-villettes.fr","telephone":"0471665438"},"horaires":"Le Mardi : de 09h00 à 12h00 de 14h00 à 18h00\nLe Jeudi : de 09h00 à 12h00 de 14h00 à 18h00\nLe Samedi : de 08h30 à 12h00","latitude":45.23504,"longitude":4.1832414,"website":"http://www.les-villettes.fr/","hasWebsite":true,"hasHoraires":true,"url":"https://lannuaire.service-public.gouv.fr/auvergne-rhone-alpes/haute-loire/c66e9d65-0335-47e1-b985-2ba0d32ecc9e"}
{"nom":"Le Vernet","nomNormalise":"levernet","typeCollectivite":"Commune","region":"Auvergne-Rhône-Alpes","departement":"Haute-Loire","departementCode":"43","adresse":{"street":"10 place de l'Église","postalCode":"43320","city":"Le Vernet","country":"France"},"contacts":{"email":"le.vernet.43@orange.fr","telephone":"0471086333"},"horaires":"Le Mardi : de 08h30 à 12h30 de 13h00 à 17h00","latitude":45.03628,"longitude":3.67275,"website":"","hasWebsite":false,"hasHoraires":true,"url":"https://lannuaire.service-public.gouv.fr/auvergne-rhone-alpes/haute-loire/9b26d200-89cf-4f55-b29b-34af01ee83a7"}
{"nom":"Lissac","nomNormalise":"lissac","typeCollectivite":"Commune","region":"Auvergne-Rhône-Alpes","departement":"Haute-Loire","departementCode":"43","adresse":{"street":"4 rue Centrale","postalCode":"43350","city":"Lissac","country":"France"},"contacts":{"email":"contact@mairiedelissac.fr","telephone":"0471570319"},"horaires":"Le Lundi : de 08h30 à 14h30\nLe Jeudi : de 08h30 à 14h30","latitude":45.132587,"longitude":3.768372,"website":"","hasWebsite":false,"hasHoraires":true,"url":"https://lannuaire.service-public.gouv.fr/auvergne-rhone-alpes/haute-loire/954d2eff-0932-4594-afff-641ffa571c37"}
{"nom":"Lorlanges","nomNormalise":"lorlanges","typeCollectivite":"Commune","region":"Auvergne-Rhône-Alpes","departement":"Haute-Loire","departementCode":"43","adresse":{"street":"1 rue de la Mairie","postalCode":"43360","city":"Lorlanges","country":"France"},"contacts":{"email":"mairie.lorlanges@wanadoo.fr","telephone":"0471760263"},"horaires":"Le Mardi : de 09h00 à 12h00\nLe Vendredi : de 16h30 à 18h30","latitude":45.33655,"longitude":3.265917,"website":"","hasWebsite":false,"hasHoraires":true,"url":"https://lannuaire.service-public.gouv.fr/auvergne-rhone-alpes/haute-loire/77e92fa9-275c-4aa2-a799-50f168caac91"}
{"nom":"Loudes","nomNormalise":"loudes","typeCollectivite":"Commune","region":"Auvergne-Rhône-Alpes","departement":"Haute-Loire","departementCode":"43","adresse":{"street":"1 Place de la Mairie","postalCode":"43320","city":"Loudes","country":"France"},"contacts":{"email":"contact@mairiedeloudes.fr","telephone":"0471086016"},"horaires":"Le Lundi : de 09h00 à 12h00\nDu Mardi au Vendredi : de 09h00 à 12h00 de 13h30 à 17h30","latitude":45.08962,"longitude":3.747987,"website":"https://www.loudes.fr/","hasWebsite":true,"hasHoraires":true,"url":"https://lannuaire.service-public.gouv.fr/auvergne-rhone-alpes/haute-loire/b9bb7b3e-2910-408c-91d9-f7bd649594d4"}
{"nom":"Lubilhac","nomNormalise":"lubilhac","typeCollectivite":"Commune","region":"Auvergne-Rhône-Alpes","departement":"Haute-Loire","departementCode":"43","adresse":{"street":"Le Bourg","postalCode":"43100","city":"Lubilhac","country":"France"},"contacts":{"email":"mairie-lubilhac@wanadoo.fr","telephone":"0471768194"},"horaires":"Le Jeudi : de 08h00 à 12h00\nLe Samedi : de 08h00 à 12h00","latitude":45.248688,"longitude":3.240642,"website":"","hasWebsite":false,"hasHoraires":true,"url":"https://lannuaire.service-public.gouv.fr/auvergne-rhone-alpes/haute-loire/30d45e78-e028-4f06-abd0-c82a42179b8d"}
{"nom":"Malrevers","nomNormalise":"malrevers","typeCollectivite":"Commune","region":"Auvergne-Rhône-Alpes","departement":"Haute-Loire","departementCode":"43","adresse":{"street":"20 Impasse Clément-Charbonnier","postalCode":"43800","city":"Malrevers","country":"France"},"contacts":{"email":"mairie@malrevers.fr","telephone":"0471085188"},"horaires":"Du Lundi au Mardi : de 14h00 à 17h00\nLe Jeudi : de 14h00 à 17h00\nLe Vendredi : de 09h00 à 12h00 de 14h00 à 17h00","latitude":45.098206,"longitude":3.965571,"website":"","hasWebsite":false,"hasHoraires":true,"url":"https://lannuaire.service-public.gouv.fr/auvergne-rhone-alpes/haute-loire/bb7d8e37-abd7-4e6f-8cd8-ce592b7e5f28"}
{"nom":"Malvalette","nomNormalise":"malvalette","typeCollectivite":"Commune","region":"Auvergne-Rhône-Alpes","departement":"Haute-Loire","departementCode":"43","adresse":{"street":"6 place du Monument","postalCode":"43210","city":"Malvalette","country":"France"},"contacts":{"email":"mairie.malvalette@orange.fr","telephone":"0471667000"},"horaires":"Le Lundi : de 14h00 à 17h00\nLe Jeudi : de 14h00 à 17h00","latitude":45.354126,"longitude":4.158377,"website":"https://www.malvalette.fr/","hasWebsite":true,"hasHoraires":true,"url":"https://lannuaire.service-public.gouv.fr/auvergne-rhone-alpes/haute-loire/c5439954-85b2-4a5a-8365-86b33af2d1fb"}
{"nom":"Malvières","nomNormalise":"malvieres","typeCollectivite":"Commune","region":"Auvergne-Rhône-Alpes","departement":"Haute-Loire","departementCode":"43","adresse":{"street":"1 rue du Bancillon","postalCode":"43160","city":"Malvières","country":"France"},"contacts":{"email":"mairie.malvieres@orange.fr","telephone":"0471000409"},"horaires":"Le Mardi : de 16h00 à 18h00\nLe Vendredi : de 15h30 à 17h30","latitude":45.337112,"longitude":3.732395,"website":"","hasWebsite":false,"hasHoraires":true,"url":"https://lannuaire.service-public.gouv.fr/auvergne-rhone-alpes/haute-loire/059a873a-0ec9-42d4-b3e7-5f3a0dff9069"}
{"nom":"Mazerat-Aurouze","nomNormalise":"mazerataurouze","typeCollectivite":"Commune","region":"Auvergne-Rhône-Alpes","departement":"Haute-Loire","departementCode":"43","adresse":{"street":"Le Bourg","postalCode":"43230","city":"Mazerat-Aurouze","country":"France"},"contacts":{"email":"mairie.mazerat.aurouze@wanadoo.fr","telephone":"0471768270"},"horaires":"Le Mardi : de 09h00 à 12h00\nLe Vendredi : de 14h00 à 17h00","latitude":45.186996,"longitude":3.560115,"website":"","hasWebsite":false,"hasHoraires":true,"url":"https://lannuaire.service-public.gouv.fr/auvergne-rhone-alpes/haute-loire/213c2fcc-3834-455f-b0a8-a948cb843e28"}
{"nom":"Mazet-Saint-Voy","nomNormalise":"mazetsaintvoy","typeCollectivite":"Commune","region":"Auvergne-Rhône-Alpes","departement":"Haute-Loire","departementCode":"43","adresse":{"street":"1 place de la Mairie","postalCode":"43520","city":"Mazet-Saint-Voy","country":"France"},"contacts":{"email":"mairie@mazet-st-voy.com","telephone":"0471650109"},"horaires":"Le Mardi : de 08h00 à 12h00 de 14h00 à 18h00\nLe Mercredi : de 08h00 à 12h00\nLe Jeudi : de 08h00 à 12h00 de 14h00 à 18h00\nDu Vendredi au Samedi : de 08h00 à 12h00","latitude":45.060814,"longitude":4.3021545,"website":"https://mazet-st-voy.com/","hasWebsite":true,"hasHoraires":true,"url":"https://lannuaire.service-public.gouv.fr/auvergne-rhone-alpes/haute-loire/a34e1a5f-411d-4673-9354-0f711d24ea8a"}
{"nom":"Mazeyrat-d'Allier","nomNormalise":"mazeyratdallier","typeCollectivite":"Commune","region":"Auvergne-Rhône-Alpes","departement":"Haute-Loire","departementCode":"43","adresse":{"street":"5 rue Gustave-Portal","postalCode":"43300","city":"Mazeyrat-d'Allier","country":"France"},"contacts":{"email":"mairie@mazeyratdallier.fr","telephone":"0471770702"},"horaires":"Le Lundi : de 13h45 à 17h00\nDu Mardi au Jeudi : de 08h45 à 12h00 de 13h45 à 17h00\nLe Vendredi : de 08h45 à 12h00","latitude":45.131138,"longitude":3.517137,"website":"","hasWebsite":false,"hasHoraires":true,"url":"https://lannuaire.service-public.gouv.fr/auvergne-rhone-alpes/haute-loire/91a8bdef-6265-41a3-9935-3c2f1f75f0b3"}
{"nom":"Mercoeur","nomNormalise":"mercoeur","typeCollectivite":"Commune","region":"Auvergne-Rhône-Alpes","departement":"Haute-Loire","departementCode":"43","adresse":{"street":"Le Bourg","postalCode":"43100","city":"Mercoeur","country":"France"},"contacts":{"email":"mairiemercoeur081@orange.fr","telephone":"0471767790"},"horaires":"Le Lundi : de 14h00 à 17h00\nLe Vendredi : de 14h00 à 17h00","latitude":45.192,"longitude":3.29274,"website":"","hasWebsite":false,"hasHoraires":true,"url":"https://lannuaire.service-public.gouv.fr/auvergne-rhone-alpes/haute-loire/d7b1b1c1-0382-4c05-ba8a-3117f46c655b"}
{"nom":"Mézères","nomNormalise":"mezeres","typeCollectivite":"Commune","region":"Auvergne-Rhône-Alpes","departement":"Haute-Loire","departementCode":"43","adresse":{"street":"80 rue de l'Église","postalCode":"43800","city":"Mézères","country":"France"},"contacts":{"email":"mairie@mezeres.fr","telephone":"0471574222"},"horaires":"Du Lundi au Mardi : de 08h00 à 12h00 de 13h00 à 16h30","latitude":45.16064,"longitude":4.018558,"website":"","hasWebsite":false,"hasHoraires":true,"url":"https://lannuaire.service-public.gouv.fr/auvergne-rhone-alpes/haute-loire/89a0f9a6-b476-40f3-89cd-e927f4450a94"}
{"nom":"Monistrol-d'Allier","nomNormalise":"monistroldallier","typeCollectivite":"Commune","region":"Auvergne-Rhône-Alpes","departement":"Haute-Loire","departementCode":"43","adresse":{"street":"187 rue des Jacquets","postalCode":"43580","city":"Monistrol-d'Allier","country":"France"},"contacts":{"email":"mairie.monistroldallier@orange.fr","telephone":"0471572121"},"horaires":"Le Mardi : de 08h00 à 12h00\nDu Jeudi au Vendredi : de 08h00 à 12h00\nLe Samedi : de 08h00 à 12h00\n\nAccueil ouvert uniquement les semaines paires.","latitude":44.96868,"longitude":3.644901,"website":"https://www.monistroldallier.fr/","hasWebsite":true,"hasHoraires":true,"url":"https://lannuaire.service-public.gouv.fr/auvergne-rhone-alpes/haute-loire/c7eb477b-2007-472c-b982-00da8a514910"}
{"nom":"Monistrol-sur-Loire","nomNormalise":"monistrolsurloire","typeCollectivite":"Commune","region":"Auvergne-Rhône-Alpes","departement":"Haute-Loire","departementCode":"43","adresse":{"street":"7 avenue de la Libération","postalCode":"43120","city":"Monistrol-sur-Loire","country":"France"},"contacts":{"email":"dgs@monistrol.fr","telephone":"0471665345"},"horaires":"Le Lundi : de 08h30 à 12h00\nDu Mardi au Vendredi : de 08h30 à 12h00 de 13h30 à 17h00\nLe Samedi : de 09h00 à 12h00","latitude":45.291462,"longitude":4.171727,"website":"https://www.mairie-monistrol-sur-loire.fr/","hasWebsite":true,"hasHoraires":true,"url":"https://lannuaire.service-public.gouv.fr/auvergne-rhone-alpes/haute-loire/0359443e-b2d1-4c36-8377-36d61047fd67"}
{"nom":"Monlet","nomNormalise":"monlet","typeCollectivite":"Commune","region":"Auvergne-Rhône-Alpes","departement":"Haute-Loire","departementCode":"43","adresse":{"street":"Le Bourg","postalCode":"43270","city":"Monlet","country":"France"},"contacts":{"email":"contact@monlet.fr","telephone":"0471007365"},"horaires":"Le Mardi : de 08h00 à 12h00 de 14h00 à 16h00\nLe Jeudi : de 08h00 à 12h00 de 14h00 à 16h00\nLe Vendredi : de 08h00 à 12h00","latitude":45.22023,"longitude":3.71535,"website":"https://monlet.fr/","hasWebsite":true,"hasHoraires":true,"url":"https://lannuaire.service-public.gouv.fr/auvergne-rhone-alpes/haute-loire/b5e26e23-a79a-4d1f-8d5f-b9a1d3edc873"}
{"nom":"Montclard","nomNormalise":"montclard","typeCollectivite":"Commune","region":"Auvergne-Rhône-Alpes","departement":"Haute-Loire","departementCode":"43","adresse":{"street":"Trabesson","postalCode":"43230","city":"Montclard","country":"France"},"contacts":{"email":"commune.montclard@orange.fr","telephone":"0471766833"},"horaires":"Le Mardi : de 09h00 à 11h30","latitude":45.263214,"longitude":3.591033,"website":"","hasWebsite":false,"hasHoraires":true,"url":"https://lannuaire.service-public.gouv.fr/auvergne-rhone-alpes/haute-loire/3721fc86-8057-4122-ae48-4cdeb3a5fab0"}
{"nom":"Montfaucon-en-Velay","nomNormalise":"montfauconenvelay","typeCollectivite":"Commune","region":"Auvergne-Rhône-Alpes","departement":"Haute-Loire","departementCode":"43","adresse":{"street":"Rue des Pénitents","postalCode":"43290","city":"Montfaucon-en-Velay","country":"France"},"contacts":{"email":"mairie@montfauconenvelay.fr","telephone":"0471599236"},"horaires":"Du Lundi au Vendredi : de 08h30 à 12h00 de 13h30 à 17h00","latitude":45.18514,"longitude":4.31425,"website":"https://www.montfauconenvelay.fr/","hasWebsite":true,"hasHoraires":true,"url":"https://lannuaire.service-public.gouv.fr/auvergne-rhone-alpes/haute-loire/fdf36665-b4b5-4b31-ba85-c0ae5f45cc0e"}
{"nom":"Montregard","nomNormalise":"montregard","typeCollectivite":"Commune","region":"Auvergne-Rhône-Alpes","departement":"Haute-Loire","departementCode":"43","adresse":{"street":"1 place de la Fontaine","postalCode":"43290","city":"Montregard","country":"France"},"contacts":{"email":"commune@montregard.fr","telephone":"0471599345"},"horaires":"Le Lundi : de 08h00 à 12h00\nDu Mardi au Mercredi : de 08h00 à 13h00\nLe Jeudi : de 08h00 à 16h00\nLe Vendredi : de 08h00 à 13h00\nLe Samedi : de 09h00 à 12h00","latitude":45.158127,"longitude":4.346186,"website":"https://montregard.fr/","hasWebsite":true,"hasHoraires":true,"url":"https://lannuaire.service-public.gouv.fr/auvergne-rhone-alpes/haute-loire/ce47fa95-58d2-4534-a988-1426a5724a8d"}
{"nom":"Montusclat","nomNormalise":"montusclat","typeCollectivite":"Commune","region":"Auvergne-Rhône-Alpes","departement":"Haute-Loire","departementCode":"43","adresse":{"street":"87 rue du Chastelat","postalCode":"43260","city":"Montusclat","country":"France"},"contacts":{"email":"montusclat.mairie@wanadoo.fr","telephone":"0471084144"},"horaires":"Le Lundi : de 09h00 à 12h00 de 13h30 à 16h30\nLe Jeudi : de 09h00 à 12h00 de 13h30 à 16h30","latitude":45.013023,"longitude":4.123837,"website":"","hasWebsite":false,"hasHoraires":true,"url":"https://lannuaire.service-public.gouv.fr/auvergne-rhone-alpes/haute-loire/ceb84fa0-527e-498a-a205-58ebd4316d0c"}
{"nom":"Moudeyres","nomNormalise":"moudeyres","typeCollectivite":"Commune","region":"Auvergne-Rhône-Alpes","departement":"Haute-Loire","departementCode":"43","adresse":{"street":"1 place de la Mairie","postalCode":"43150","city":"Moudeyres","country":"France"},"contacts":{"email":"mairiedemoudeyres@orange.fr","telephone":"0471083139"},"horaires":"Le Mardi : de 09h30 à 14h30\nLe Mercredi : de 09h30 à 14h30\nLe Vendredi : de 09h30 à 14h30","latitude":44.95584,"longitude":4.099684,"website":"https://www.moudeyres.fr/","hasWebsite":true,"hasHoraires":true,"url":"https://lannuaire.service-public.gouv.fr/auvergne-rhone-alpes/haute-loire/12bab9e6-e722-4335-977a-30a83d20ee71"}
{"nom":"Ouides","nomNormalise":"ouides","typeCollectivite":"Commune","region":"Auvergne-Rhône-Alpes","departement":"Haute-Loire","departementCode":"43","adresse":{"street":"266 route de l'Église Saint-Jean-Baptiste","postalCode":"43510","city":"Ouides","country":"France"},"contacts":{"email":"commune.ouides@orange.fr","telephone":"0471573175"},"horaires":"Le Mardi : de 08h00 à 12h00\nLe Jeudi : de 08h00 à 12h00","latitude":44.90426,"longitude":3.735092,"website":"","hasWebsite":false,"hasHoraires":true,"url":"https://lannuaire.service-public.gouv.fr/auvergne-rhone-alpes/haute-loire/43862795-bb7a-4d0f-a837-5d3d3a30cf18"}
{"nom":"Paulhac","nomNormalise":"paulhac","typeCollectivite":"Commune","region":"Auvergne-Rhône-Alpes","departement":"Haute-Loire","departementCode":"43","adresse":{"street":"37 Grande-Rue","postalCode":"43100","city":"Paulhac","country":"France"},"contacts":{"email":"contact@paulhac43.fr","telephone":"0471502777"},"horaires":"Le Lundi : de 08h00 à 12h30\nLe Mercredi : de 08h00 à 12h30 de 14h30 à 18h00\nLe Jeudi : de 14h30 à 17h30","latitude":45.300564,"longitude":3.393362,"website":"","hasWebsite":false,"hasHoraires":true,"url":"https://lannuaire.service-public.gouv.fr/auvergne-rhone-alpes/haute-loire/b7639ab9-3e2a-40df-bf71-dff972e6d4bf"}
{"nom":"Paulhaguet","nomNormalise":"paulhaguet","typeCollectivite":"Commune","region":"Auvergne-Rhône-Alpes","departement":"Haute-Loire","departementCode":"43","adresse":{"street":"Place Lafayette","postalCode":"43230","city":"Paulhaguet","country":"France"},"contacts":{"email":"mairie@paulhaguet.fr","telephone":"0471766237"},"horaires":"Du Lundi au Vendredi : de 09h00 à 12h00","latitude":45.20708,"longitude":3.515317,"website":"","hasWebsite":false,"hasHoraires":true,"url":"https://lannuaire.service-public.gouv.fr/auvergne-rhone-alpes/haute-loire/9db7489a-770d-4e18-98dd-79022b63e1f1"}
{"nom":"Pébrac","nomNormalise":"pebrac","typeCollectivite":"Commune","region":"Auvergne-Rhône-Alpes","departement":"Haute-Loire","departementCode":"43","adresse":{"street":"15 rue de l'Abbaye","postalCode":"43300","city":"Pébrac","country":"France"},"contacts":{"email":"mairie-pebrac@wanadoo.fr","telephone":"0471740285"},"horaires":"Le Mardi : de 09h30 à 17h00\nLe Mercredi : de 14h00 à 17h00\n\nSemaines impaires uniquement.","latitude":45.031345,"longitude":3.508976,"website":"","hasWebsite":false,"hasHoraires":true,"url":"https://lannuaire.service-public.gouv.fr/auvergne-rhone-alpes/haute-loire/1d6940eb-c6ef-434c-89e2-4cc1a3d5d898"}
{"nom":"Pinols","nomNormalise":"pinols","typeCollectivite":"Commune","region":"Auvergne-Rhône-Alpes","departement":"Haute-Loire","departementCode":"43","adresse":{"street":"Le Bourg","postalCode":"43300","city":"Pinols","country":"France"},"contacts":{"email":"mairiepinols@wanadoo.fr","telephone":"0471741042"},"horaires":"Du Lundi au Mardi : de 09h00 à 17h00\nLe Jeudi : de 09h00 à 17h00\nLe Vendredi : de 09h00 à 12h00","latitude":45.0305,"longitude":3.355397,"website":"","hasWebsite":false,"hasHoraires":true,"url":"https://lannuaire.service-public.gouv.fr/auvergne-rhone-alpes/haute-loire/96089bbd-57b5-49cf-98c6-960fc365e309"}
{"nom":"Polignac","nomNormalise":"polignac","typeCollectivite":"Commune","region":"Auvergne-Rhône-Alpes","departement":"Haute-Loire","departementCode":"43","adresse":{"street":"2 place de l'Église","postalCode":"43000","city":"Polignac","country":"France"},"contacts":{"email":"accueil@mairiedepolignac.fr","telephone":"0471094978"},"horaires":"Du Lundi au Mercredi : de 08h00 à 12h00 de 13h30 à 17h00\nLe Jeudi : de 08h00 à 12h00\nLe Vendredi : de 08h00 à 12h00 de 13h30 à 17h00","latitude":45.070995,"longitude":3.8600008,"website":"http://www.mairiedepolignac.fr/","hasWebsite":true,"hasHoraires":true,"url":"https://lannuaire.service-public.gouv.fr/auvergne-rhone-alpes/haute-loire/69c9313e-f3a0-472c-9075-d397bec1b6e7"}
{"nom":"Pont-Salomon","nomNormalise":"pontsalomon","typeCollectivite":"Commune","region":"Auvergne-Rhône-Alpes","departement":"Haute-Loire","departementCode":"43","adresse":{"street":"16 rue de la Mairie","postalCode":"43330","city":"Pont-Salomon","country":"France"},"contacts":{"email":"secretariat.pontsalomon.mairie@orange.fr","telephone":"0477355125"},"horaires":"Du Lundi au Mercredi : de 09h15 à 12h00 de 14h00 à 16h30\nLe Jeudi : de 09h15 à 11h30\nLe Vendredi : de 09h15 à 12h00\nLe Samedi : de 09h15 à 11h30","latitude":45.34075,"longitude":4.2444377,"website":"","hasWebsite":false,"hasHoraires":true,"url":"https://lannuaire.service-public.gouv.fr/auvergne-rhone-alpes/haute-loire/82c6ae9f-82a4-4e9b-8cd2-27913a265480"}
{"nom":"Pradelles","nomNormalise":"pradelles","typeCollectivite":"Commune","region":"Auvergne-Rhône-Alpes","departement":"Haute-Loire","departementCode":"43","adresse":{"street":"Rue du Jeu-de-Paume","postalCode":"43420","city":"Pradelles","country":"France"},"contacts":{"email":"mairie-pradelles@wanadoo.fr","telephone":"0471008037"},"horaires":"Du Lundi au Vendredi : de 09h00 à 12h00\nLe Samedi : de 09h00 à 12h00\n\nLe samedi ouvert uniquement sur rendez-vous","latitude":44.7698,"longitude":3.88245,"website":"https://www.pradelles43.fr/","hasWebsite":true,"hasHoraires":true,"url":"https://lannuaire.service-public.gouv.fr/auvergne-rhone-alpes/haute-loire/e6fbfecc-138b-480a-8323-2daa936a6a4c"}
{"nom":"Prades","nomNormalise":"prades","typeCollectivite":"Commune","region":"Auvergne-Rhône-Alpes","departement":"Haute-Loire","departementCode":"43","adresse":{"street":"12 rue de la Mairie","postalCode":"43300","city":"Prades","country":"France"},"contacts":{"email":"prades.haut-allier@wanadoo.fr","telephone":"0471740190"},"horaires":"Le Mardi : de 08h30 à 11h00\nLe Vendredi : de 14h00 à 16h30","latitude":45.027775,"longitude":3.592779,"website":"","hasWebsite":false,"hasHoraires":true,"url":"https://lannuaire.service-public.gouv.fr/auvergne-rhone-alpes/haute-loire/6c006d96-680c-4c63-8bce-51ac8a6c4ecb"}
{"nom":"Présailles","nomNormalise":"presailles","typeCollectivite":"Commune","region":"Auvergne-Rhône-Alpes","departement":"Haute-Loire","departementCode":"43","adresse":{"street":"11 route des Jonquilles","postalCode":"43150","city":"Présailles","country":"France"},"contacts":{"email":"sec.mairie.presailles@orange.fr","telephone":"0471039433"},"horaires":"Le Lundi : de 08h30 à 12h30 de 13h30 à 16h30\nLe Mercredi : de 08h30 à 12h30\nLe Vendredi : de 08h30 à 12h30","latitude":44.902874,"longitude":4.02687,"website":"https://mairie-presailles.com/","hasWebsite":true,"hasHoraires":true,"url":"https://lannuaire.service-public.gouv.fr/auvergne-rhone-alpes/haute-loire/5ff9bf28-950f-4229-80a9-9937ebb85043"}
{"nom":"Queyrières","nomNormalise":"queyrieres","typeCollectivite":"Commune","region":"Auvergne-Rhône-Alpes","departement":"Haute-Loire","departementCode":"43","adresse":{"street":"Le Bourg","postalCode":"43260","city":"Queyrières","country":"France"},"contacts":{"email":"mairiedequeyrieres@outlook.fr","telephone":"0471576090"},"horaires":"Du Lundi au Mardi : de 08h30 à 12h00 de 13h30 à 17h00\nLe Jeudi : de 08h30 à 12h00 de 13h30 à 17h00\nLe Vendredi : de 13h30 à 17h00","latitude":45.07209,"longitude":4.09752,"website":"http://queyrieres.fr/","hasWebsite":true,"hasHoraires":true,"url":"https://lannuaire.service-public.gouv.fr/auvergne-rhone-alpes/haute-loire/9b23591f-de2e-416c-b60e-a81052b01c7b"}
{"nom":"Raucoules","nomNormalise":"raucoules","typeCollectivite":"Commune","region":"Auvergne-Rhône-Alpes","departement":"Haute-Loire","departementCode":"43","adresse":{"street":"7 rue de la Mairie","postalCode":"43290","city":"Raucoules","country":"France"},"contacts":{"email":"raucoules.commune@wanadoo.fr","telephone":"0471599006"},"horaires":"Du Lundi au Samedi : de 09h00 à 12h00","latitude":45.187916,"longitude":4.2951627,"website":"https://raucoules.fr/","hasWebsite":true,"hasHoraires":true,"url":"https://lannuaire.service-public.gouv.fr/auvergne-rhone-alpes/haute-loire/b21c8421-38f2-4513-a52d-cbd8eba99b79"}
{"nom":"Rauret","nomNormalise":"rauret","typeCollectivite":"Commune","region":"Auvergne-Rhône-Alpes","departement":"Haute-Loire","departementCode":"43","adresse":{"street":"25 place de la Mairie","postalCode":"43340","city":"Rauret","country":"France"},"contacts":{"email":"mairie@rauret.fr","telephone":"0471082451"},"horaires":"Le Mardi : de 14h00 à 17h00\nLe Vendredi : de 14h00 à 17h00","latitude":44.817303,"longitude":3.791574,"website":"https://www.rauret.fr/","hasWebsite":true,"hasHoraires":true,"url":"https://lannuaire.service-public.gouv.fr/auvergne-rhone-alpes/haute-loire/66fd5692-ac72-423c-8df5-6da6e2cd893d"}
{"nom":"Retournac","nomNormalise":"retournac","typeCollectivite":"Commune","region":"Auvergne-Rhône-Alpes","departement":"Haute-Loire","departementCode":"43","adresse":{"street":"16 rue de l'Hôtel-de-Ville","postalCode":"43130","city":"Retournac","country":"France"},"contacts":{"email":"mairie@ville-retournac.fr","telephone":"0471594100"},"horaires":"Du Lundi au Mercredi : de 08h00 à 12h30 de 13h30 à 17h00\nDu Jeudi au Vendredi : de 08h00 à 12h30","latitude":45.2035,"longitude":4.03292,"website":"http://www.ville-retournac.fr/","hasWebsite":true,"hasHoraires":true,"url":"https://lannuaire.service-public.gouv.fr/auvergne-rhone-alpes/haute-loire/e94d889c-a584-4e20-b59e-6aac797e9f95"}
{"nom":"Riotord","nomNormalise":"riotord","typeCollectivite":"Commune","region":"Auvergne-Rhône-Alpes","departement":"Haute-Loire","departementCode":"43","adresse":{"street":"1 place des Combattants","postalCode":"43220","city":"Riotord","country":"France"},"contacts":{"email":"secretariat@commune-riotord.fr","telephone":"0471753885"},"horaires":"Du Lundi au Mardi : de 08h00 à 12h00 de 13h30 à 16h45\nDu Mercredi au Jeudi : de 08h00 à 12h00\nLe Vendredi : de 08h00 à 12h00 de 13h30 à 16h45\nLe Samedi : de 08h00 à 12h00","latitude":45.23166,"longitude":4.401143,"website":"https://www.riotord.fr/","hasWebsite":true,"hasHoraires":true,"url":"https://lannuaire.service-public.gouv.fr/auvergne-rhone-alpes/haute-loire/72ce9571-1b1a-41d4-bf37-75d71f782c43"}
{"nom":"Roche-en-Régnier","nomNormalise":"rocheenregnier","typeCollectivite":"Commune","region":"Auvergne-Rhône-Alpes","departement":"Haute-Loire","departementCode":"43","adresse":{"street":"237 place du Sucheyron","postalCode":"43810","city":"Roche-en-Régnier","country":"France"},"contacts":{"email":"mairie@rocheenregnier.fr","telephone":"0471034173"},"horaires":"Le Lundi : de 09h00 à 12h00\nLe Mardi : de 15h00 à 17h00\nLe Jeudi : de 09h00 à 12h00\nLe Vendredi : de 15h00 à 17h00","latitude":45.220158,"longitude":3.939997,"website":"","hasWebsite":false,"hasHoraires":true,"url":"https://lannuaire.service-public.gouv.fr/auvergne-rhone-alpes/haute-loire/0a5c49e7-8c2a-426e-a8d0-e8ac938c48bf"}
{"nom":"Rosières","nomNormalise":"rosieres","typeCollectivite":"Commune","region":"Auvergne-Rhône-Alpes","departement":"Haute-Loire","departementCode":"43","adresse":{"street":"2 rue de la Résistance","postalCode":"43800","city":"Rosières","country":"France"},"contacts":{"email":"accueil@ville-rosieres.fr","telephone":"0471574059"},"horaires":"Le Lundi : de 08h00 à 12h00\nLe Mardi : de 08h00 à 12h00 de 13h30 à 16h00\nDu Mercredi au Jeudi : de 08h00 à 12h00\nLe Vendredi : de 08h00 à 12h00 de 13h30 à 16h00\nLe Samedi : de 09h00 à 12h00","latitude":45.13227,"longitude":3.98617,"website":"https://www.ville-rosieres.fr/","hasWebsite":true,"hasHoraires":true,"url":"https://lannuaire.service-public.gouv.fr/auvergne-rhone-alpes/haute-loire/ad2c7ecd-2670-449f-962c-48fd4f452b7a"}
{"nom":"Saint-André-de-Chalencon","nomNormalise":"saintandredechalencon","typeCollectivite":"Commune","region":"Auvergne-Rhône-Alpes","departement":"Haute-Loire","departementCode":"43","adresse":{"street":"Le Bourg","postalCode":"43130","city":"Saint-André-de-Chalencon","country":"France"},"contacts":{"email":"secretariat.mairie.fesches-25@wanadoo.fr","telephone":"0471584501"},"horaires":"Du Lundi au Mardi : de 09h00 à 12h00\nLe Jeudi : de 09h00 à 12h00\nLe Vendredi : de 14h00 à 16h00","latitude":45.272808,"longitude":3.969085,"website":"http://www.saint-andre-de-chalencon.fr/","hasWebsite":true,"hasHoraires":true,"url":"https://lannuaire.service-public.gouv.fr/auvergne-rhone-alpes/haute-loire/08db7f36-a5bd-46bf-90f2-b2a5438b4068"}
{"nom":"Saint-Arcons-d'Allier","nomNormalise":"saintarconsdallier","typeCollectivite":"Commune","region":"Auvergne-Rhône-Alpes","departement":"Haute-Loire","departementCode":"43","adresse":{"street":"1 Route du Moulin","postalCode":"43300","city":"Saint-Arcons-d'Allier","country":"France"},"contacts":{"email":"commune-de-st-arcons-d-allier@orange.fr","telephone":"0471740204"},"horaires":"Le Mercredi : de 08h30 à 12h30\nLe Vendredi : de 13h30 à 17h00","latitude":45.06877,"longitude":3.548465,"website":"","hasWebsite":false,"hasHoraires":true,"url":"https://lannuaire.service-public.gouv.fr/auvergne-rhone-alpes/haute-loire/31889f89-b1d3-40fb-9d48-308f00126e09"}
{"nom":"Saint-Arcons-de-Barges","nomNormalise":"saintarconsdebarges","typeCollectivite":"Commune","region":"Auvergne-Rhône-Alpes","departement":"Haute-Loire","departementCode":"43","adresse":{"street":"Le Bourg","postalCode":"43420","city":"Saint-Arcons-de-Barges","country":"France"},"contacts":{"email":"mairiestarconsdebarges@orange.fr","telephone":"0471082589"},"horaires":"Le Mardi : de 09h00 à 12h00 de 14h00 à 17h00\nLe Jeudi : de 14h00 à 16h00","latitude":44.839172,"longitude":3.922931,"website":"","hasWebsite":false,"hasHoraires":true,"url":"https://lannuaire.service-public.gouv.fr/auvergne-rhone-alpes/haute-loire/a188873a-1724-45cc-a4a5-14f63955ecc1"}
{"nom":"Saint-Austremoine","nomNormalise":"saintaustremoine","typeCollectivite":"Commune","region":"Auvergne-Rhône-Alpes","departement":"Haute-Loire","departementCode":"43","adresse":{"street":"1 place de la Mairie","postalCode":"43380","city":"Saint-Austremoine","country":"France"},"contacts":{"email":"saint-austremoine@wanadoo.fr","telephone":"0471774397"},"horaires":"Le Mardi : de 08h00 à 12h00 de 13h30 à 17h30","latitude":45.120342,"longitude":3.370316,"website":"","hasWebsite":false,"hasHoraires":true,"url":"https://lannuaire.service-public.gouv.fr/auvergne-rhone-alpes/haute-loire/0a2c2e79-1358-4404-8e06-5ef2d3f03577"}
{"nom":"Saint-Beauzire","nomNormalise":"saintbeauzire","typeCollectivite":"Commune","region":"Auvergne-Rhône-Alpes","departement":"Haute-Loire","departementCode":"43","adresse":{"street":"3 rue de la Mairie","postalCode":"43100","city":"Saint-Beauzire","country":"France"},"contacts":{"email":"mairiestbeauzire@orange.fr","telephone":"0471768042"},"horaires":"Du Lundi au Mercredi : de 07h30 à 12h00\nLe Vendredi : de 07h30 à 12h00","latitude":45.275818,"longitude":3.2662518,"website":"https://saint-beauzire-43.fr/","hasWebsite":true,"hasHoraires":true,"url":"https://lannuaire.service-public.gouv.fr/auvergne-rhone-alpes/haute-loire/bc2eb42c-6d61-4345-b55d-8c68ddb5df2c"}
{"nom":"Saint-Bérain","nomNormalise":"saintberain","typeCollectivite":"Commune","region":"Auvergne-Rhône-Alpes","departement":"Haute-Loire","departementCode":"43","adresse":{"street":"Le Bourg","postalCode":"43300","city":"Saint-Bérain","country":"France"},"contacts":{"email":"saintberain43@gmail.com","telephone":"0471742364"},"horaires":"Le Mardi : de 09h30 à 17h00","latitude":45.03247,"longitude":3.634323,"website":"","hasWebsite":false,"hasHoraires":true,"url":"https://lannuaire.service-public.gouv.fr/auvergne-rhone-alpes/haute-loire/a13b7298-5458-4239-a079-0a468f05a5b5"}
{"nom":"Saint-Bonnet-le-Froid","nomNormalise":"saintbonnetlefroid","typeCollectivite":"Commune","region":"Auvergne-Rhône-Alpes","departement":"Haute-Loire","departementCode":"43","adresse":{"street":"1 chemin de Brard","postalCode":"43290","city":"Saint-Bonnet-le-Froid","country":"France"},"contacts":{"email":"mairie@saintbonnetlefroid.fr","telephone":"0471599312"},"horaires":"Du Lundi au Mardi : de 08h30 à 12h00\nLe Jeudi : de 09h00 à 12h00\nLe Vendredi : de 08h30 à 12h00","latitude":45.14196,"longitude":4.4351,"website":"https://saintbonnetlefroid.fr/","hasWebsite":true,"hasHoraires":true,"url":"https://lannuaire.service-public.gouv.fr/auvergne-rhone-alpes/haute-loire/c7417ac6-fa2c-4547-ac95-c547b3fafdb5"}
{"nom":"Saint-Christophe-d'Allier","nomNormalise":"saintchristophedallier","typeCollectivite":"Commune","region":"Auvergne-Rhône-Alpes","departement":"Haute-Loire","departementCode":"43","adresse":{"street":"Le Bourg","postalCode":"43340","city":"Saint-Christophe-d'Allier","country":"France"},"contacts":{"email":"commune-st-christophe-d-allier@orange.fr","telephone":"0466696336"},"horaires":"Le Mardi : de 09h00 à 12h00 de 14h00 à 17h00\nLe Mercredi : de 14h00 à 17h00","latitude":44.856262,"longitude":3.7054253,"website":"","hasWebsite":false,"hasHoraires":true,"url":"https://lannuaire.service-public.gouv.fr/auvergne-rhone-alpes/haute-loire/82173772-e3f6-48a8-b3db-661e3b41024c"}
{"nom":"Saint-Christophe-sur-Dolaison","nomNormalise":"saintchristophesurdolaison","typeCollectivite":"Commune","region":"Auvergne-Rhône-Alpes","departement":"Haute-Loire","departementCode":"43","adresse":{"street":"10 rue de la Mairie","postalCode":"43370","city":"Saint-Christophe-sur-Dolaison","country":"France"},"contacts":{"email":"mairie@saintchristophesurdolaizon.fr","telephone":"0471031078"},"horaires":"Le Lundi : de 08h30 à 12h00 de 13h30 à 17h00\nLe Mardi : de 08h30 à 12h00\nLe Mercredi : de 08h30 à 12h00 de 13h30 à 17h00\nLe Jeudi : de 08h30 à 12h00\nLe Vendredi : de 08h30 à 12h00 de 13h30 à 17h00","latitude":44.997616,"longitude":3.821006,"website":"https://www.saintchristophesurdolaizon.fr/","hasWebsite":true,"hasHoraires":true,"url":"https://lannuaire.service-public.gouv.fr/auvergne-rhone-alpes/haute-loire/7eaf419c-af32-4877-8b80-31607c6f0456"}
{"nom":"Saint-Cirgues","nomNormalise":"saintcirgues","typeCollectivite":"Commune","region":"Auvergne-Rhône-Alpes","departement":"Haute-Loire","departementCode":"43","adresse":{"street":"Le Bourg","postalCode":"43380","city":"Saint-Cirgues","country":"France"},"contacts":{"email":"mairie.saintcirgues@outlook.fr","telephone":"0951607704"},"horaires":"Le Mardi : de 14h00 à 17h00\nLe Vendredi : de 09h00 à 12h00","latitude":45.13579,"longitude":3.391902,"website":"","hasWebsite":false,"hasHoraires":true,"url":"https://lannuaire.service-public.gouv.fr/auvergne-rhone-alpes/haute-loire/8c5ea85f-56cf-436e-bfdb-e77e4c39cce4"}
{"nom":"Mairie déléguée - Saint-Didier-d'Allier","nomNormalise":"mairiedelegueesaintdidierdallier","typeCollectivite":"Commune","region":"Auvergne-Rhône-Alpes","departement":"Haute-Loire","departementCode":"43","adresse":{"street":"Le Chier","postalCode":"43580","city":"Saint-Privat-d'Allier","country":"France"},"contacts":{"email":"","telephone":"0471572913"},"horaires":"","latitude":44.987724,"longitude":3.692129,"website":"","hasWebsite":false,"hasHoraires":false,"url":"https://lannuaire.service-public.gouv.fr/auvergne-rhone-alpes/haute-loire/b1dc71da-7bf4-4f0d-ae12-adc2f7712f26"}
{"nom":"Saint-Didier-en-Velay","nomNormalise":"saintdidierenvelay","typeCollectivite":"Commune","region":"Auvergne-Rhône-Alpes","departement":"Haute-Loire","departementCode":"43","adresse":{"street":"2 boulevard Pélissac","postalCode":"43140","city":"Saint-Didier-en-Velay","country":"France"},"contacts":{"email":"accueil@saint-didier.com","telephone":"0471611407"},"horaires":"Le Lundi : de 09h00 à 12h00 de 13h30 à 17h00\nDu Mardi au Jeudi : de 09h00 à 12h00\n\nLe mercredi après-midi sur rendez-vous.\nLe Vendredi : de 09h00 à 12h00 de 13h30 à 17h00","latitude":45.302296,"longitude":4.2737694,"website":"https://st-didier-en-velay.fr/","hasWebsite":true,"hasHoraires":true,"url":"https://lannuaire.service-public.gouv.fr/auvergne-rhone-alpes/haute-loire/6e6860be-3390-4373-86a7-e40516230390"}
{"nom":"Saint-Didier-sur-Doulon","nomNormalise":"saintdidiersurdoulon","typeCollectivite":"Commune","region":"Auvergne-Rhône-Alpes","departement":"Haute-Loire","departementCode":"43","adresse":{"street":"65 chemin du Calvaire","postalCode":"43440","city":"Saint-Didier-sur-Doulon","country":"France"},"contacts":{"email":"st-didier-sur-doulon@wanadoo.fr","telephone":"0471764238"},"horaires":"Le Mardi : de 14h00 à 17h30\nLe Jeudi : de 14h00 à 17h30\nLe Samedi : de 10h00 à 12h00","latitude":45.3005,"longitude":3.53912,"website":"http://www.saintdidiersurdoulon.fr/","hasWebsite":true,"hasHoraires":true,"url":"https://lannuaire.service-public.gouv.fr/auvergne-rhone-alpes/haute-loire/2c0501fc-58d3-4431-bbb5-2b3646499b28"}
{"nom":"Sainte-Eugénie-de-Villeneuve","nomNormalise":"sainteeugeniedevilleneuve","typeCollectivite":"Commune","region":"Auvergne-Rhône-Alpes","departement":"Haute-Loire","departementCode":"43","adresse":{"street":"8 rue de l'Impératrice","postalCode":"43230","city":"Sainte-Eugénie-de-Villeneuve","country":"France"},"contacts":{"email":"mairie.st.eugenie@wanadoo.fr","telephone":"0471742896"},"horaires":"Le Lundi : de 13h30 à 17h45\nLe Jeudi : de 08h00 à 12h00","latitude":45.139225,"longitude":3.623255,"website":"","hasWebsite":false,"hasHoraires":true,"url":"https://lannuaire.service-public.gouv.fr/auvergne-rhone-alpes/haute-loire/e8d5ff07-f2d9-4bab-96bf-d5a7e9bc7cb7"}
{"nom":"Sainte-Florine","nomNormalise":"sainteflorine","typeCollectivite":"Commune","region":"Auvergne-Rhône-Alpes","departement":"Haute-Loire","departementCode":"43","adresse":{"street":"Place François-Mitterrand","postalCode":"43250","city":"Sainte-Florine","country":"France"},"contacts":{"email":"contact@sainte-florine.fr","telephone":"0473541978"},"horaires":"Du Lundi au Vendredi : de 08h30 à 12h00 de 13h30 à 17h00","latitude":45.40545,"longitude":3.319422,"website":"https://www.sainte-florine.fr/","hasWebsite":true,"hasHoraires":true,"url":"https://lannuaire.service-public.gouv.fr/auvergne-rhone-alpes/haute-loire/a2df3ace-982b-48b1-8a9d-a37384c8ea02"}
{"nom":"Sainte-Marguerite","nomNormalise":"saintemarguerite","typeCollectivite":"Commune","region":"Auvergne-Rhône-Alpes","departement":"Haute-Loire","departementCode":"43","adresse":{"street":"Le Bourg","postalCode":"43230","city":"Sainte-Marguerite","country":"France"},"contacts":{"email":"mairiesaintemarguerite@orange.fr","telephone":"0471503248"},"horaires":"Le Mercredi : de 09h00 à 12h00 de 13h30 à 18h00\nLe Vendredi : de 09h00 à 12h00 de 13h30 à 18h00","latitude":45.206486,"longitude":3.591413,"website":"","hasWebsite":false,"hasHoraires":true,"url":"https://lannuaire.service-public.gouv.fr/auvergne-rhone-alpes/haute-loire/90cba477-6ebc-4777-ba6e-bf8fd57ccbe0"}
{"nom":"Sainte-Sigolène","nomNormalise":"saintesigolene","typeCollectivite":"Commune","region":"Auvergne-Rhône-Alpes","departement":"Haute-Loire","departementCode":"43","adresse":{"street":"Place Jean-Salque","postalCode":"43600","city":"Sainte-Sigolène","country":"France"},"contacts":{"email":"contact@sainte-sigolene.fr","telephone":"0471666312"},"horaires":"Le Lundi : de 08h30 à 12h00 de 14h00 à 17h00\nLe Mardi : de 08h30 à 12h00 de 14h00 à 19h00\nDu Mercredi au Vendredi : de 08h30 à 12h00 de 13h30 à 17h00","latitude":45.243378,"longitude":4.2329373,"website":"https://www.sainte-sigolene.fr/","hasWebsite":true,"hasHoraires":true,"url":"https://lannuaire.service-public.gouv.fr/auvergne-rhone-alpes/haute-loire/7fc2d3dc-f7b6-40d6-81ce-6aa95fdc2e95"}
{"nom":"Saint-Étienne-du-Vigan","nomNormalise":"saintetienneduvigan","typeCollectivite":"Commune","region":"Auvergne-Rhône-Alpes","departement":"Haute-Loire","departementCode":"43","adresse":{"street":"124 rue de l'Église Saint-Etienne","postalCode":"43420","city":"Saint-Étienne-du-Vigan","country":"France"},"contacts":{"email":"mairie-stetienneduvigan@orange.fr","telephone":"0471008626"},"horaires":"Le Mercredi : de 09h00 à 17h00\nLe Jeudi : de 09h00 à 12h00","latitude":44.77994,"longitude":3.837049,"website":"","hasWebsite":false,"hasHoraires":true,"url":"https://lannuaire.service-public.gouv.fr/auvergne-rhone-alpes/haute-loire/0d85f6b7-4fe2-4cbd-bb7f-81fa4e4287e4"}
{"nom":"Saint-Étienne-Lardeyrol","nomNormalise":"saintetiennelardeyrol","typeCollectivite":"Commune","region":"Auvergne-Rhône-Alpes","departement":"Haute-Loire","departementCode":"43","adresse":{"street":"Le Bourg","postalCode":"43260","city":"Saint-Étienne-Lardeyrol","country":"France"},"contacts":{"email":"mairie@saintetiennelardeyrol43.fr","telephone":"0471030065"},"horaires":"Le Lundi : de 14h00 à 17h00\nLe Mardi : de 09h00 à 11h45\nDu Jeudi au Vendredi : de 14h00 à 17h00","latitude":45.072033,"longitude":4.00183,"website":"https://www.saintetiennelardeyrol43.fr/","hasWebsite":true,"hasHoraires":true,"url":"https://lannuaire.service-public.gouv.fr/auvergne-rhone-alpes/haute-loire/abcad7e3-cab7-4ee3-a5ab-48340e9ff37e"}
{"nom":"Saint-Étienne-sur-Blesle","nomNormalise":"saintetiennesurblesle","typeCollectivite":"Commune","region":"Auvergne-Rhône-Alpes","departement":"Haute-Loire","departementCode":"43","adresse":{"street":"Le Cheylat","postalCode":"43450","city":"Saint-Étienne-sur-Blesle","country":"France"},"contacts":{"email":"mairie.stet@wanadoo.fr","telephone":"0471762469"},"horaires":"Le Vendredi : de 08h30 à 12h00","latitude":45.31191,"longitude":3.137587,"website":"","hasWebsite":false,"hasHoraires":true,"url":"https://lannuaire.service-public.gouv.fr/auvergne-rhone-alpes/haute-loire/0c0c2d4b-b6c6-49cf-a4f6-451337a52153"}
{"nom":"Saint-Ferréol-d'Auroure","nomNormalise":"saintferreoldauroure","typeCollectivite":"Commune","region":"Auvergne-Rhône-Alpes","departement":"Haute-Loire","departementCode":"43","adresse":{"street":"10 place de l'Église","postalCode":"43330","city":"Saint-Ferréol-d'Auroure","country":"France"},"contacts":{"email":"commune.saint.ferreol@orange.fr","telephone":"0477355025"},"horaires":"Le Lundi : de 08h30 à 18h30\nLe Mardi : de 09h00 à 12h00 de 14h00 à 17h00\nLe Mercredi : de 09h00 à 12h00 de 14h00 à 16h00\nLe Jeudi : de 09h00 à 12h00\nLe Vendredi : de 09h00 à 12h00 de 14h00 à 17h00\nAccueil ouvert pendant les vacances scolaires de 9h à 12h et de 14h à 17h.","latitude":45.35546,"longitude":4.255057,"website":"https://st-ferreol.fr/","hasWebsite":true,"hasHoraires":true,"url":"https://lannuaire.service-public.gouv.fr/auvergne-rhone-alpes/haute-loire/f59d7ec1-5fe7-45ff-afc8-57666e294e1d"}
{"nom":"Saint-Front","nomNormalise":"saintfront","typeCollectivite":"Commune","region":"Auvergne-Rhône-Alpes","departement":"Haute-Loire","departementCode":"43","adresse":{"street":"1 Place de la Mairie","postalCode":"43550","city":"Saint-Front","country":"France"},"contacts":{"email":"mairie.saint.front43@orange.fr","telephone":"0471595117"},"horaires":"Le Mardi : de 09h00 à 12h00 de 13h30 à 17h00\nLe Mercredi : de 09h00 à 12h00\nDu Jeudi au Vendredi : de 09h00 à 12h00 de 13h30 à 17h00\nLe Samedi : de 09h00 à 12h00","latitude":44.977932,"longitude":4.143672,"website":"http://www.saintfront43.fr/","hasWebsite":true,"hasHoraires":true,"url":"https://lannuaire.service-public.gouv.fr/auvergne-rhone-alpes/haute-loire/420a3086-a87d-4e05-932b-c5a6f48fb786"}
{"nom":"Saint-Geneys-près-Saint-Paulien","nomNormalise":"saintgeneyspressaintpaulien","typeCollectivite":"Commune","region":"Auvergne-Rhône-Alpes","departement":"Haute-Loire","departementCode":"43","adresse":{"street":"1 place de la Maison-Carrée","postalCode":"43350","city":"Saint-Geneys-près-Saint-Paulien","country":"France"},"contacts":{"email":"mairie.st.geneys@wanadoo.fr","telephone":"0471004291"},"horaires":"Le Lundi : de 08h30 à 16h30\nLe Jeudi : de 08h30 à 16h30","latitude":45.157406,"longitude":3.825114,"website":"http://www.saint-geneys.fr/","hasWebsite":true,"hasHoraires":true,"url":"https://lannuaire.service-public.gouv.fr/auvergne-rhone-alpes/haute-loire/7c2f7f49-078c-42b3-9857-ab9801cfd4dd"}
{"nom":"Saint-Georges-d'Aurac","nomNormalise":"saintgeorgesdaurac","typeCollectivite":"Commune","region":"Auvergne-Rhône-Alpes","departement":"Haute-Loire","departementCode":"43","adresse":{"street":"8 route du Velay","postalCode":"43230","city":"Saint-Georges-d'Aurac","country":"France"},"contacts":{"email":"mairie.st.georges.aurac@wanadoo.fr","telephone":"0471775175"},"horaires":"Le Mardi : de 09h00 à 12h00\nLe Jeudi : de 09h00 à 12h00\nLe Samedi : de 09h00 à 12h00","latitude":45.156532,"longitude":3.540547,"website":"http://www.saint-georges-d-aurac.fr/","hasWebsite":true,"hasHoraires":true,"url":"https://lannuaire.service-public.gouv.fr/auvergne-rhone-alpes/haute-loire/81d076f4-0cbe-4800-8ae1-32fd83b139dc"}
{"nom":"Saint-Georges-Lagricol","nomNormalise":"saintgeorgeslagricol","typeCollectivite":"Commune","region":"Auvergne-Rhône-Alpes","departement":"Haute-Loire","departementCode":"43","adresse":{"street":"203 route de l'Ecole","postalCode":"43500","city":"Saint-Georges-Lagricol","country":"France"},"contacts":{"email":"mairiestgeorgeslagricol@wanadoo.fr","telephone":"0471032424"},"horaires":"Le Lundi : de 08h15 à 12h15 de 13h15 à 17h15\nLe Vendredi : de 13h15 à 17h15","latitude":45.298557,"longitude":3.8855553,"website":"","hasWebsite":false,"hasHoraires":true,"url":"https://lannuaire.service-public.gouv.fr/auvergne-rhone-alpes/haute-loire/7f48ed0f-3614-47d8-8ed9-91e9187153c1"}
{"nom":"Saint-Germain-Laprade","nomNormalise":"saintgermainlaprade","typeCollectivite":"Commune","region":"Auvergne-Rhône-Alpes","departement":"Haute-Loire","departementCode":"43","adresse":{"street":"1 place de la Mairie","postalCode":"43700","city":"Saint-Germain-Laprade","country":"France"},"contacts":{"email":"secretariat@saintgermainlaprade.fr","telephone":"0471030077"},"horaires":"Le Lundi : de 14h00 à 18h00\nLe Mardi : de 09h00 à 12h00 de 14h00 à 18h00\nLe Mercredi : de 09h00 à 12h00 de 14h00 à 17h00\nLe Jeudi : de 09h00 à 12h00\nLe Vendredi : de 09h00 à 17h00\nLe Samedi : de 10h00 à 12h00\n\nPermanence des élus uniquement.","latitude":45.03801,"longitude":3.968552,"website":"http://stgermainlaprade.free.fr/","hasWebsite":true,"hasHoraires":true,"url":"https://lannuaire.service-public.gouv.fr/auvergne-rhone-alpes/haute-loire/14f0ad7c-ff88-4fe5-9a01-98d8ccad5c36"}
{"nom":"Saint-Géron","nomNormalise":"saintgeron","typeCollectivite":"Commune","region":"Auvergne-Rhône-Alpes","departement":"Haute-Loire","departementCode":"43","adresse":{"street":"4 rue de la Mairie","postalCode":"43360","city":"Saint-Géron","country":"France"},"contacts":{"email":"mairiestgeron43@wanadoo.fr","telephone":"0471760152"},"horaires":"Le Lundi : de 09h00 à 16h00\nLe Mercredi : de 09h00 à 17h00","latitude":45.343163,"longitude":3.294884,"website":"","hasWebsite":false,"hasHoraires":true,"url":"https://lannuaire.service-public.gouv.fr/auvergne-rhone-alpes/haute-loire/714b161c-e974-4e7f-9072-da91500e082f"}
{"nom":"Saint-Haon","nomNormalise":"sainthaon","typeCollectivite":"Commune","region":"Auvergne-Rhône-Alpes","departement":"Haute-Loire","departementCode":"43","adresse":{"street":"Le Bourg","postalCode":"43340","city":"Saint-Haon","country":"France"},"contacts":{"email":"mairie.sthaon@wanadoo.fr","telephone":"0471082064"},"horaires":"Du Lundi au Vendredi : de 08h00 à 12h00","latitude":44.845726,"longitude":3.759608,"website":"https://sainthaon43340.fr/","hasWebsite":true,"hasHoraires":true,"url":"https://lannuaire.service-public.gouv.fr/auvergne-rhone-alpes/haute-loire/f3dee854-d082-45bb-9ac0-090b206973c1"}
{"nom":"Saint-Hilaire","nomNormalise":"sainthilaire","typeCollectivite":"Commune","region":"Auvergne-Rhône-Alpes","departement":"Haute-Loire","departementCode":"43","adresse":{"street":"Le Bourg","postalCode":"43390","city":"Saint-Hilaire","country":"France"},"contacts":{"email":"saint-hilaire-mairie@orange.fr","telephone":"0471761170"},"horaires":"Le Lundi : de 09h00 à 12h00\nLe Mercredi : de 15h00 à 18h00","latitude":45.381027,"longitude":3.43715,"website":"","hasWebsite":false,"hasHoraires":true,"url":"https://lannuaire.service-public.gouv.fr/auvergne-rhone-alpes/haute-loire/f6a7ee62-61bf-401a-891d-f26183371f94"}
{"nom":"Saint-Hostien","nomNormalise":"sainthostien","typeCollectivite":"Commune","region":"Auvergne-Rhône-Alpes","departement":"Haute-Loire","departementCode":"43","adresse":{"street":"Le Bourg","postalCode":"43260","city":"Saint-Hostien","country":"France"},"contacts":{"email":"mairie-sthostien@wanadoo.fr","telephone":"0471576083"},"horaires":"Du Lundi au Mardi : de 14h00 à 18h00\nLe Mercredi : de 09h00 à 12h30 de 14h00 à 18h00\nDu Jeudi au Vendredi : de 14h00 à 18h00","latitude":45.072037,"longitude":4.001717,"website":"https://www.saint-hostien.fr/","hasWebsite":true,"hasHoraires":true,"url":"https://lannuaire.service-public.gouv.fr/auvergne-rhone-alpes/haute-loire/c4e1dcc9-bf3f-4bd3-8550-53c2ae724d02"}
{"nom":"Saint-Ilpize","nomNormalise":"saintilpize","typeCollectivite":"Commune","region":"Auvergne-Rhône-Alpes","departement":"Haute-Loire","departementCode":"43","adresse":{"street":"Le Bourg","postalCode":"43380","city":"Saint-Ilpize","country":"France"},"contacts":{"email":"contact@mairiest-ilpize.fr","telephone":"0964372974"},"horaires":"Le Lundi : de 08h00 à 12h00 de 13h00 à 17h30\nPrise de rendez-vous possible en dehors des horaires d’ouverture.","latitude":45.196465,"longitude":3.389383,"website":"https://mairiest-ilpize.fr/","hasWebsite":true,"hasHoraires":true,"url":"https://lannuaire.service-public.gouv.fr/auvergne-rhone-alpes/haute-loire/5a3d02d8-a1bc-4f1c-9499-70ccd64bfd5f"}
{"nom":"Saint-Jean-d'Aubrigoux","nomNormalise":"saintjeandaubrigoux","typeCollectivite":"Commune","region":"Auvergne-Rhône-Alpes","departement":"Haute-Loire","departementCode":"43","adresse":{"street":"260 route de dore l'Eglise","postalCode":"43500","city":"Saint-Jean-d'Aubrigoux","country":"France"},"contacts":{"email":"mairie.stjeandaubrigoux@wanadoo.fr","telephone":"0471032282"},"horaires":"Le Mardi : de 08h30 à 12h30\nLe Vendredi : de 08h30 à 16h30","latitude":45.330692,"longitude":3.847247,"website":"","hasWebsite":false,"hasHoraires":true,"url":"https://lannuaire.service-public.gouv.fr/auvergne-rhone-alpes/haute-loire/46f91a0c-9c0f-43d0-a607-d3fb2703ac6c"}
{"nom":"Saint-Jean-de Nay","nomNormalise":"saintjeandenay","typeCollectivite":"Commune","region":"Auvergne-Rhône-Alpes","departement":"Haute-Loire","departementCode":"43","adresse":{"street":"3 rue Saint-Michel","postalCode":"43320","city":"Saint-Jean-de-Nay","country":"France"},"contacts":{"email":"mairie.stjean.denay@orange.fr","telephone":"0471086179"},"horaires":"Le Lundi : de 08h30 à 12h30 de 13h30 à 17h00\nLe Vendredi : de 08h30 à 12h30 de 13h30 à 17h00","latitude":45.070507,"longitude":3.696963,"website":"https://www.saint-jean-de-nay.fr/","hasWebsite":true,"hasHoraires":true,"url":"https://lannuaire.service-public.gouv.fr/auvergne-rhone-alpes/haute-loire/229cca04-83c6-4060-ae01-0a202d8e5718"}
{"nom":"Saint-Jean-Lachalm","nomNormalise":"saintjeanlachalm","typeCollectivite":"Commune","region":"Auvergne-Rhône-Alpes","departement":"Haute-Loire","departementCode":"43","adresse":{"street":"Le Bourg","postalCode":"43510","city":"Saint-Jean-Lachalm","country":"France"},"contacts":{"email":"mairie.stjeanlachalm@wanadoo.fr","telephone":"0471575727"},"horaires":"Du Lundi au Vendredi : de 09h00 à 12h00","latitude":44.9438,"longitude":3.714749,"website":"http://www.saintjeanlachalm.fr/","hasWebsite":true,"hasHoraires":true,"url":"https://lannuaire.service-public.gouv.fr/auvergne-rhone-alpes/haute-loire/ccb218dd-f24d-465a-af7c-e8cd87d4bbe0"}
{"nom":"Saint-Jeures","nomNormalise":"saintjeures","typeCollectivite":"Commune","region":"Auvergne-Rhône-Alpes","departement":"Haute-Loire","departementCode":"43","adresse":{"street":"2 rue du Sabotier","postalCode":"43200","city":"Saint-Jeures","country":"France"},"contacts":{"email":"mairie@saintjeures.fr","telephone":"0471596076"},"horaires":"Du Lundi au Samedi : de 09h00 à 11h30","latitude":45.096195,"longitude":4.204284,"website":"","hasWebsite":false,"hasHoraires":true,"url":"https://lannuaire.service-public.gouv.fr/auvergne-rhone-alpes/haute-loire/69aa6518-7b22-403e-b4e2-c2411e9cc877"}
{"nom":"Saint-Julien-Chapteuil","nomNormalise":"saintjulienchapteuil","typeCollectivite":"Commune","region":"Auvergne-Rhône-Alpes","departement":"Haute-Loire","departementCode":"43","adresse":{"street":"Place Saint-Robert","postalCode":"43260","city":"Saint-Julien-Chapteuil","country":"France"},"contacts":{"email":"mairie@saintjulienchapteuil.fr","telephone":"0471087014"},"horaires":"Le Lundi : de 09h00 à 12h30\nLe Mardi : de 09h00 à 12h30 de 13h15 à 17h00\nLe Mercredi : de 09h00 à 12h30\nDu Jeudi au Vendredi : de 09h00 à 12h30 de 13h15 à 17h00","latitude":45.0365,"longitude":4.06071,"website":"https://saintjulienchapteuil.fr/","hasWebsite":true,"hasHoraires":true,"url":"https://lannuaire.service-public.gouv.fr/auvergne-rhone-alpes/haute-loire/5ecc7154-4644-49d2-8477-f68e3aff04fa"}
{"nom":"Saint-Julien-d'Ance","nomNormalise":"saintjuliendance","typeCollectivite":"Commune","region":"Auvergne-Rhône-Alpes","departement":"Haute-Loire","departementCode":"43","adresse":{"street":"Le Bourg","postalCode":"43500","city":"Saint-Julien-d'Ance","country":"France"},"contacts":{"email":"mairie.stjuliendance@cegetel.net","telephone":"0471032472"},"horaires":"Le Mardi : de 09h00 à 12h00\nLe Vendredi : de 09h00 à 12h00","latitude":45.30335,"longitude":3.913048,"website":"","hasWebsite":false,"hasHoraires":true,"url":"https://lannuaire.service-public.gouv.fr/auvergne-rhone-alpes/haute-loire/6fd41a09-7c89-4a82-8756-05a1c1073367"}
{"nom":"Saint-Julien-des-Chazes","nomNormalise":"saintjuliendeschazes","typeCollectivite":"Commune","region":"Auvergne-Rhône-Alpes","departement":"Haute-Loire","departementCode":"43","adresse":{"street":"Le Bourg","postalCode":"43300","city":"Saint-Julien-des-Chazes","country":"France"},"contacts":{"email":"mairie.saintjulien0726@orange.fr","telephone":"0471740488"},"horaires":"Le Mercredi : de 09h00 à 11h00\nLe Vendredi : de 09h00 à 11h00","latitude":45.04654,"longitude":3.584222,"website":"","hasWebsite":false,"hasHoraires":true,"url":"https://lannuaire.service-public.gouv.fr/auvergne-rhone-alpes/haute-loire/9520174a-0d52-4198-98d1-a0fd475763cb"}
{"nom":"Saint-Julien-du-Pinet","nomNormalise":"saintjuliendupinet","typeCollectivite":"Commune","region":"Auvergne-Rhône-Alpes","departement":"Haute-Loire","departementCode":"43","adresse":{"street":"Le Bourg","postalCode":"43200","city":"Saint-Julien-du-Pinet","country":"France"},"contacts":{"email":"mairie.saintjuliendupinet@orange.fr","telephone":"0471590876"},"horaires":"Le Lundi : de 08h30 à 12h00 de 14h00 à 17h00\nLe Mardi : de 08h30 à 11h30 de 13h30 à 17h00\nLe Mercredi : de 09h00 à 12h00\nDu Jeudi au Vendredi : de 08h30 à 11h30 de 13h30 à 17h00","latitude":45.151306,"longitude":4.039319,"website":"https://saint-julien-du-pinet.fr/","hasWebsite":true,"hasHoraires":true,"url":"https://lannuaire.service-public.gouv.fr/auvergne-rhone-alpes/haute-loire/06f64036-ed29-420e-ae6f-75829bb7722d"}
{"nom":"Saint-Julien-Molhesabate","nomNormalise":"saintjulienmolhesabate","typeCollectivite":"Commune","region":"Auvergne-Rhône-Alpes","departement":"Haute-Loire","departementCode":"43","adresse":{"street":"23 rue du Lavoir","postalCode":"43220","city":"Saint-Julien-Molhesabate","country":"France"},"contacts":{"email":"mairie.st-julien-molhesabate@orange.fr","telephone":"0471668487"},"horaires":"Le Lundi : de 13h30 à 18h00\nLe Jeudi : de 13h30 à 18h00\nLe Vendredi : de 14h00 à 17h00","latitude":45.18583,"longitude":4.4271235,"website":"https://saint-julien-molhesabate.fr/","hasWebsite":true,"hasHoraires":true,"url":"https://lannuaire.service-public.gouv.fr/auvergne-rhone-alpes/haute-loire/12be7dba-87e6-4e51-a78b-574014c8724c"}
{"nom":"Saint-Just-Malmont","nomNormalise":"saintjustmalmont","typeCollectivite":"Commune","region":"Auvergne-Rhône-Alpes","departement":"Haute-Loire","departementCode":"43","adresse":{"street":"2 place Marie-Louise-Deguillaume","postalCode":"43240","city":"Saint-Just-Malmont","country":"France"},"contacts":{"email":"mairie@saintjustmalmont.fr","telephone":"0443088013"},"horaires":"Du Lundi au Mercredi : de 08h00 à 11h30 de 13h30 à 17h00\nLe Jeudi : de 08h00 à 11h30\nLe Vendredi : de 08h00 à 11h30 de 13h30 à 17h00\nLe Samedi : de 09h00 à 11h30\n\nouvert juillet aôut de 8h à 16h du lundi au vendredi","latitude":45.340595,"longitude":4.313275,"website":"https://www.saintjustmalmont.fr/","hasWebsite":true,"hasHoraires":true,"url":"https://lannuaire.service-public.gouv.fr/auvergne-rhone-alpes/haute-loire/e2561d12-8535-4ff9-8438-bff5d3f4f849"}
{"nom":"Saint-Just-près-Brioude","nomNormalise":"saintjustpresbrioude","typeCollectivite":"Commune","region":"Auvergne-Rhône-Alpes","departement":"Haute-Loire","departementCode":"43","adresse":{"street":"Le Bourg","postalCode":"43100","city":"Saint-Just-près-Brioude","country":"France"},"contacts":{"email":"mairie.stjustpresbrioude@orange.fr","telephone":"0471767263"},"horaires":"Du Lundi au Mardi : de 09h30 à 11h30 de 14h00 à 17h00\nLe Mercredi : de 09h30 à 11h30\nLe Jeudi : de 09h30 à 11h30 de 15h00 à 18h00","latitude":45.215717,"longitude":3.30551,"website":"","hasWebsite":false,"hasHoraires":true,"url":"https://lannuaire.service-public.gouv.fr/auvergne-rhone-alpes/haute-loire/1272d898-2084-4372-beab-d139604c2826"}
{"nom":"Saint-Laurent-Chabreuges","nomNormalise":"saintlaurentchabreuges","typeCollectivite":"Commune","region":"Auvergne-Rhône-Alpes","departement":"Haute-Loire","departementCode":"43","adresse":{"street":"62 Les Queyres","postalCode":"43100","city":"Saint-Laurent-Chabreuges","country":"France"},"contacts":{"email":"mairie.st-laurent-chabreuges@wanadoo.fr","telephone":"0471502672"},"horaires":"Le Lundi : de 09h00 à 12h30 de 13h00 à 17h30\nLe Jeudi : de 10h00 à 12h30 de 13h00 à 17h30","latitude":45.28038,"longitude":3.3443978,"website":"","hasWebsite":false,"hasHoraires":true,"url":"https://lannuaire.service-public.gouv.fr/auvergne-rhone-alpes/haute-loire/2f36436c-d2c9-4916-8dea-36d16a2c4bd6"}
{"nom":"Saint-Martin-de-Fugères","nomNormalise":"saintmartindefugeres","typeCollectivite":"Commune","region":"Auvergne-Rhône-Alpes","departement":"Haute-Loire","departementCode":"43","adresse":{"street":"83 rue de Charcon","postalCode":"43150","city":"Saint-Martin-de-Fugères","country":"France"},"contacts":{"email":"mairie.stmartindefugeres@orange.fr","telephone":"0471038216"},"horaires":"Du Lundi au Jeudi : de 14h00 à 18h00","latitude":44.905445,"longitude":3.935301,"website":"","hasWebsite":false,"hasHoraires":true,"url":"https://lannuaire.service-public.gouv.fr/auvergne-rhone-alpes/haute-loire/06dcacdf-53e2-424c-99d3-2b52545bfadc"}
{"nom":"Saint-Maurice-de-Lignon","nomNormalise":"saintmauricedelignon","typeCollectivite":"Commune","region":"Auvergne-Rhône-Alpes","departement":"Haute-Loire","departementCode":"43","adresse":{"street":"27 rue Nationale","postalCode":"43200","city":"Saint-Maurice-de-Lignon","country":"France"},"contacts":{"email":"contact@smdl.org","telephone":"0471653132"},"horaires":"Du Mardi au Samedi : de 08h15 à 11h45","latitude":45.224247,"longitude":4.139177,"website":"http://www.smdl.org/","hasWebsite":true,"hasHoraires":true,"url":"https://lannuaire.service-public.gouv.fr/auvergne-rhone-alpes/haute-loire/da3c3dc7-64c7-4daf-af7f-53e4150597f2"}
{"nom":"Saint-Pal-de-Chalencon","nomNormalise":"saintpaldechalencon","typeCollectivite":"Commune","region":"Auvergne-Rhône-Alpes","departement":"Haute-Loire","departementCode":"43","adresse":{"street":"2 place Neuve","postalCode":"43500","city":"Saint-Pal-de-Chalencon","country":"France"},"contacts":{"email":"mairie@saint-pal-de-chalencon.fr","telephone":"0471613019"},"horaires":"Le Lundi : de 08h30 à 12h00\nLe Mardi : de 08h30 à 12h00 de 13h30 à 16h30\nLe Mercredi : de 08h30 à 12h00\nDu Jeudi au Vendredi : de 08h30 à 12h00 de 13h30 à 16h30\nLe Samedi : de 08h30 à 12h00","latitude":45.356995,"longitude":3.956769,"website":"https://www.saint-pal-de-chalencon.fr/","hasWebsite":true,"hasHoraires":true,"url":"https://lannuaire.service-public.gouv.fr/auvergne-rhone-alpes/haute-loire/56cd9f9b-3467-417d-8f25-eaad35b1d7f7"}
{"nom":"Saint-Pal-de-Mons","nomNormalise":"saintpaldemons","typeCollectivite":"Commune","region":"Auvergne-Rhône-Alpes","departement":"Haute-Loire","departementCode":"43","adresse":{"street":"Place de l'Église","postalCode":"43620","city":"Saint-Pal-de-Mons","country":"France"},"contacts":{"email":"contact@mairie-saintpaldemons.fr","telephone":"0471610151"},"horaires":"Du Lundi au Mardi : de 09h00 à 12h00 de 13h30 à 17h00\nLe Mercredi : de 09h00 à 12h00\nDu Jeudi au Vendredi : de 09h00 à 12h00 de 13h30 à 17h00\nLe Samedi : de 09h00 à 12h00","latitude":45.24592,"longitude":4.2740903,"website":"http://www.mairie-saintpaldemons.fr/","hasWebsite":true,"hasHoraires":true,"url":"https://lannuaire.service-public.gouv.fr/auvergne-rhone-alpes/haute-loire/d75b43b3-c07b-4760-a9ce-ea7827c60c0a"}
{"nom":"Saint-Pal-de-Senouire","nomNormalise":"saintpaldesenouire","typeCollectivite":"Commune","region":"Auvergne-Rhône-Alpes","departement":"Haute-Loire","departementCode":"43","adresse":{"street":"12 place de l'Église","postalCode":"43160","city":"Saint-Pal-de-Senouire","country":"France"},"contacts":{"email":"mairiepalsenouire@orange.fr","telephone":"0471009193"},"horaires":"Le Lundi : de 09h00 à 12h00 de 14h00 à 16h00","latitude":45.266872,"longitude":3.644784,"website":"https://www.mairie-saintpaldesenouire.fr/","hasWebsite":true,"hasHoraires":true,"url":"https://lannuaire.service-public.gouv.fr/auvergne-rhone-alpes/haute-loire/887ccd17-f263-4b8a-9077-fbfa8d17409f"}
{"nom":"Saint-Paul-de-Tartas","nomNormalise":"saintpauldetartas","typeCollectivite":"Commune","region":"Auvergne-Rhône-Alpes","departement":"Haute-Loire","departementCode":"43","adresse":{"street":"39 route du Monastier","postalCode":"43420","city":"Saint-Paul-de-Tartas","country":"France"},"contacts":{"email":"stpauldetartas@gmail.com","telephone":"0471008144"},"horaires":"Le Mardi : de 14h00 à 17h00\nLe Jeudi : de 14h00 à 17h00","latitude":44.80374,"longitude":3.906875,"website":"https://www.saint-paul-de-tartas.fr/","hasWebsite":true,"hasHoraires":true,"url":"https://lannuaire.service-public.gouv.fr/auvergne-rhone-alpes/haute-loire/21cc1080-d6f6-432f-a771-c32b7e41deec"}
{"nom":"Saint-Paulien","nomNormalise":"saintpaulien","typeCollectivite":"Commune","region":"Auvergne-Rhône-Alpes","departement":"Haute-Loire","departementCode":"43","adresse":{"street":"1 rue des Remparts","postalCode":"43350","city":"Saint-Paulien","country":"France"},"contacts":{"email":"mairie@saint-paulien.fr","telephone":"0471004088"},"horaires":"Le Lundi : de 09h00 à 12h00 de 14h00 à 18h00\nLe Mardi : de 09h00 à 12h00 de 16h30 à 18h00\nLe Mercredi : de 09h00 à 12h00 de 14h00 à 16h30\nLe Jeudi : de 09h00 à 12h00 de 16h30 à 18h00\nLe Vendredi : de 09h00 à 12h00 de 14h00 à 18h00","latitude":45.13506,"longitude":3.8138952,"website":"https://www.saint-paulien.fr/","hasWebsite":true,"hasHoraires":true,"url":"https://lannuaire.service-public.gouv.fr/auvergne-rhone-alpes/haute-loire/9b9ea192-2895-493c-afad-695affac786d"}
{"nom":"Saint-Pierre-du-Champ","nomNormalise":"saintpierreduchamp","typeCollectivite":"Commune","region":"Auvergne-Rhône-Alpes","departement":"Haute-Loire","departementCode":"43","adresse":{"street":"10 place de la Mairie","postalCode":"43810","city":"Saint-Pierre-du-Champ","country":"France"},"contacts":{"email":"mairie@saintpierreduchamp43.fr","telephone":"0471034454"},"horaires":"Du Lundi au Mardi : de 09h00 à 12h00\nLe Vendredi : de 09h00 à 12h00\nLe Samedi : de 10h00 à 12h00\n\npermanence des élus uniquement sur rendez-vous.","latitude":45.24754,"longitude":3.899506,"website":"https://www.saintpierreduchamp43.fr/","hasWebsite":true,"hasHoraires":true,"url":"https://lannuaire.service-public.gouv.fr/auvergne-rhone-alpes/haute-loire/9cf0a3d9-7463-43ae-837e-72b14ba867e8"}
{"nom":"Saint-Pierre-Eynac","nomNormalise":"saintpierreeynac","typeCollectivite":"Commune","region":"Auvergne-Rhône-Alpes","departement":"Haute-Loire","departementCode":"43","adresse":{"street":"Le Bourg","postalCode":"43260","city":"Saint-Pierre-Eynac","country":"France"},"contacts":{"email":"commune@saint-pierre-eynac.fr","telephone":"0471030056"},"horaires":"Du Lundi au Mardi : de 08h45 à 12h00 de 13h45 à 17h30\nLe Mercredi : de 08h45 à 12h00\nLe Jeudi : de 08h45 à 12h00 de 13h45 à 17h30\nLe Vendredi : de 13h45 à 17h00\nLe Samedi : de 09h00 à 12h00","latitude":45.046722,"longitude":4.032525,"website":"https://www.saint-pierre-eynac.fr/","hasWebsite":true,"hasHoraires":true,"url":"https://lannuaire.service-public.gouv.fr/auvergne-rhone-alpes/haute-loire/e654775e-cf96-46bd-8d69-4bdf3c3b5f6b"}
{"nom":"Saint-Préjet-Armandon","nomNormalise":"saintprejetarmandon","typeCollectivite":"Commune","region":"Auvergne-Rhône-Alpes","departement":"Haute-Loire","departementCode":"43","adresse":{"street":"61 rue de la Mairie","postalCode":"43230","city":"Saint-Préjet-Armandon","country":"France"},"contacts":{"email":"mairie.saint-prejet-armandon@orange.fr","telephone":"0471766390"},"horaires":"Le Vendredi : de 14h00 à 17h00","latitude":45.254868,"longitude":3.541765,"website":"","hasWebsite":false,"hasHoraires":true,"url":"https://lannuaire.service-public.gouv.fr/auvergne-rhone-alpes/haute-loire/0b305abe-de9d-41d8-8a82-cd08be4c6a84"}
{"nom":"Saint-Préjet-d'Allier","nomNormalise":"saintprejetdallier","typeCollectivite":"Commune","region":"Auvergne-Rhône-Alpes","departement":"Haute-Loire","departementCode":"43","adresse":{"street":"13 rue de la Croix","postalCode":"43580","city":"Saint-Préjet-d'Allier","country":"France"},"contacts":{"email":"mairie@saintprejetdallier.com","telephone":"0471744309"},"horaires":"Le Mardi : de 13h00 à 16h00\nLe Jeudi : de 13h00 à 16h00\nLe Samedi : de 10h30 à 12h00\n\nPermanence des élus en plus de l'accueil.","latitude":44.95946,"longitude":3.5553734,"website":"http://www.saintprejetdallier.com/","hasWebsite":true,"hasHoraires":true,"url":"https://lannuaire.service-public.gouv.fr/auvergne-rhone-alpes/haute-loire/f51fc3f8-0051-464a-9e11-49521f81617d"}
{"nom":"Saint-Privat-d'Allier","nomNormalise":"saintprivatdallier","typeCollectivite":"Commune","region":"Auvergne-Rhône-Alpes","departement":"Haute-Loire","departementCode":"43","adresse":{"street":"Le Bourg","postalCode":"43580","city":"Saint-Privat-d'Allier","country":"France"},"contacts":{"email":"info@mairie-saintprivatdallier.fr","telephone":"0471572213"},"horaires":"Le Mardi : de 09h30 à 12h30 de 14h00 à 17h00\nDu Mercredi au Jeudi : de 09h30 à 12h30\nLe Vendredi : de 09h30 à 12h30 de 14h00 à 17h00\nLe Samedi : de 09h30 à 12h30","latitude":44.990665,"longitude":3.678305,"website":"https://www.mairie-saintprivatdallier.fr/","hasWebsite":true,"hasHoraires":true,"url":"https://lannuaire.service-public.gouv.fr/auvergne-rhone-alpes/haute-loire/2f0f5f67-2966-4f1b-90e9-d544b2200993"}
{"nom":"Saint-Privat-du-Dragon","nomNormalise":"saintprivatdudragon","typeCollectivite":"Commune","region":"Auvergne-Rhône-Alpes","departement":"Haute-Loire","departementCode":"43","adresse":{"street":"Le Bourg","postalCode":"43380","city":"Saint-Privat-du-Dragon","country":"France"},"contacts":{"email":"st-privatdudragon@orange.fr","telephone":"0471766332"},"horaires":"Le Lundi : de 14h00 à 17h00\nLe Vendredi : de 08h00 à 12h00","latitude":45.18811,"longitude":3.448407,"website":"http://www.saintprivatdudragon.com/","hasWebsite":true,"hasHoraires":true,"url":"https://lannuaire.service-public.gouv.fr/auvergne-rhone-alpes/haute-loire/551d6d26-f970-4699-b5d4-8d5b75c00683"}
{"nom":"Saint-Romain-Lachalm","nomNormalise":"saintromainlachalm","typeCollectivite":"Commune","region":"Auvergne-Rhône-Alpes","departement":"Haute-Loire","departementCode":"43","adresse":{"street":"1 route du Château","postalCode":"43620","city":"Saint-Romain-Lachalm","country":"France"},"contacts":{"email":"accueil@saint-romain-lachalm.fr","telephone":"0471610008"},"horaires":"Le Lundi : de 08h30 à 12h00\nLe Mardi : de 08h30 à 12h00 de 13h30 à 17h00\nDu Mercredi au Jeudi : de 08h30 à 12h00\nLe Vendredi : de 08h30 à 12h00 de 13h30 à 17h00\nLe Samedi : de 08h30 à 12h00","latitude":45.229958,"longitude":4.401968,"website":"https://saint-romain-lachalm.fr/","hasWebsite":true,"hasHoraires":true,"url":"https://lannuaire.service-public.gouv.fr/auvergne-rhone-alpes/haute-loire/f89200c1-b060-4c8f-9a45-e38267fa4791"}
{"nom":"Saint-Vénérand","nomNormalise":"saintvenerand","typeCollectivite":"Commune","region":"Auvergne-Rhône-Alpes","departement":"Haute-Loire","departementCode":"43","adresse":{"street":"Le Bourg","postalCode":"43580","city":"Saint-Vénérand","country":"France"},"contacts":{"email":"mairie.stvenerand@orange.fr","telephone":"0466691682"},"horaires":"Le Lundi : de 14h00 à 18h00\nLe Mercredi : de 14h00 à 17h00","latitude":44.86755,"longitude":3.680342,"website":"","hasWebsite":false,"hasHoraires":true,"url":"https://lannuaire.service-public.gouv.fr/auvergne-rhone-alpes/haute-loire/5216e4a6-96c8-4c5f-a09f-f86407c8c8c0"}
{"nom":"Saint-Vert","nomNormalise":"saintvert","typeCollectivite":"Commune","region":"Auvergne-Rhône-Alpes","departement":"Haute-Loire","departementCode":"43","adresse":{"street":"Le Bourg","postalCode":"43440","city":"Saint-Vert","country":"France"},"contacts":{"email":"mairie.saintvert@orange.fr","telephone":"0471763263"},"horaires":"Le Mardi : de 14h00 à 17h00\nLe Jeudi : de 14h00 à 17h00","latitude":45.37137,"longitude":3.53197,"website":"","hasWebsite":false,"hasHoraires":true,"url":"https://lannuaire.service-public.gouv.fr/auvergne-rhone-alpes/haute-loire/e27c68e4-c149-42d9-821a-a7ae48737e33"}
{"nom":"Saint-Victor-Malescours","nomNormalise":"saintvictormalescours","typeCollectivite":"Commune","region":"Auvergne-Rhône-Alpes","departement":"Haute-Loire","departementCode":"43","adresse":{"street":"1 place de l'Église","postalCode":"43140","city":"Saint-Victor-Malescours","country":"France"},"contacts":{"email":"mairie@saint-victor-malescours.fr","telephone":"0471610509"},"horaires":"Du Lundi au Mardi : de 09h00 à 12h00 de 14h00 à 17h00\nLe Mercredi : de 09h00 à 12h00\nDu Jeudi au Vendredi : de 09h00 à 12h00 de 14h00 à 17h00","latitude":45.291447,"longitude":4.311823,"website":"https://www.saint-victor-malescours.fr/","hasWebsite":true,"hasHoraires":true,"url":"https://lannuaire.service-public.gouv.fr/auvergne-rhone-alpes/haute-loire/0c3007ba-1c04-42ee-af00-c6bed2dc881e"}
{"nom":"Saint-Victor-sur-Arlanc","nomNormalise":"saintvictorsurarlanc","typeCollectivite":"Commune","region":"Auvergne-Rhône-Alpes","departement":"Haute-Loire","departementCode":"43","adresse":{"street":"4 rue des Écoles","postalCode":"43500","city":"Saint-Victor-sur-Arlanc","country":"France"},"contacts":{"email":"mairie.st-victor-sur-arlanc@wanadoo.fr","telephone":"0471032828"},"horaires":"Le Jeudi : de 09h30 à 12h00 de 14h00 à 16h30","latitude":45.334633,"longitude":3.774595,"website":"","hasWebsite":false,"hasHoraires":true,"url":"https://lannuaire.service-public.gouv.fr/auvergne-rhone-alpes/haute-loire/39f8a8f4-cd09-41a2-bd21-9a3e84f2700a"}
{"nom":"Saint-Vidal","nomNormalise":"saintvidal","typeCollectivite":"Commune","region":"Auvergne-Rhône-Alpes","departement":"Haute-Loire","departementCode":"43","adresse":{"street":"22 rue Antoine-de-la-Tour","postalCode":"43320","city":"Saint-Vidal","country":"France"},"contacts":{"email":"saintvidal.mairie@orange.fr","telephone":"0471086834"},"horaires":"Du Lundi au Mardi : de 09h00 à 13h00 de 13h30 à 17h00\nDu Jeudi au Vendredi : de 09h00 à 13h00 de 13h30 à 17h00","latitude":45.074112,"longitude":3.8016644,"website":"https://www.saint-vidal.fr/","hasWebsite":true,"hasHoraires":true,"url":"https://lannuaire.service-public.gouv.fr/auvergne-rhone-alpes/haute-loire/8539044b-5f51-4ea4-a6d2-fb61e20159cc"}
{"nom":"Saint-Vincent","nomNormalise":"saintvincent","typeCollectivite":"Commune","region":"Auvergne-Rhône-Alpes","departement":"Haute-Loire","departementCode":"43","adresse":{"street":"2 rue de la Mairie","postalCode":"43800","city":"Saint-Vincent","country":"France"},"contacts":{"email":"mairie@saintvincent43.fr","telephone":"0471085111"},"horaires":"Du Lundi au Vendredi : de 09h00 à 12h00\nLe Samedi : de 09h00 à 11h30","latitude":45.143726,"longitude":3.9074845,"website":"http://www.saintvincent43.fr/","hasWebsite":true,"hasHoraires":true,"url":"https://lannuaire.service-public.gouv.fr/auvergne-rhone-alpes/haute-loire/0f5a648b-f48b-4ee7-927c-66cfc6c9f7f3"}
{"nom":"Salettes","nomNormalise":"salettes","typeCollectivite":"Commune","region":"Auvergne-Rhône-Alpes","departement":"Haute-Loire","departementCode":"43","adresse":{"street":"28 rue du Presbytère","postalCode":"43150","city":"Salettes","country":"France"},"contacts":{"email":"mairie.salettes702@orange.fr","telephone":"0471573626"},"horaires":"Du Lundi au Vendredi : de 08h45 à 12h15","latitude":44.86281,"longitude":3.96467,"website":"","hasWebsite":false,"hasHoraires":true,"url":"https://lannuaire.service-public.gouv.fr/auvergne-rhone-alpes/haute-loire/018a4f77-764d-49b5-a481-72887469b291"}
{"nom":"Salzuit","nomNormalise":"salzuit","typeCollectivite":"Commune","region":"Auvergne-Rhône-Alpes","departement":"Haute-Loire","departementCode":"43","adresse":{"street":"Le Bourg","postalCode":"43230","city":"Salzuit","country":"France"},"contacts":{"email":"mairiedesalzuit@wanadoo.fr","telephone":"0471766676"},"horaires":"Le Mardi : de 14h00 à 17h00\nLe Jeudi : de 09h00 à 12h00\nLe Vendredi : de 14h00 à 17h00","latitude":45.209404,"longitude":3.483808,"website":"","hasWebsite":false,"hasHoraires":true,"url":"https://lannuaire.service-public.gouv.fr/auvergne-rhone-alpes/haute-loire/ce00c8e5-a791-4db7-b110-b45c0bdf8b98"}
{"nom":"Sanssac-l'Église","nomNormalise":"sanssacleglise","typeCollectivite":"Commune","region":"Auvergne-Rhône-Alpes","departement":"Haute-Loire","departementCode":"43","adresse":{"street":"6 Place de l'Église","postalCode":"43320","city":"Sanssac-l'Église","country":"France"},"contacts":{"email":"mairie@sanssacleglise.fr","telephone":"0471086443"},"horaires":"Du Lundi au Vendredi : de 08h00 à 12h00","latitude":45.05156,"longitude":3.779933,"website":"https://sanssacleglise.fr/","hasWebsite":true,"hasHoraires":true,"url":"https://lannuaire.service-public.gouv.fr/auvergne-rhone-alpes/haute-loire/607fce09-08e3-49dc-b2b1-1041ce5d12f3"}
{"nom":"Saugues","nomNormalise":"saugues","typeCollectivite":"Commune","region":"Auvergne-Rhône-Alpes","departement":"Haute-Loire","departementCode":"43","adresse":{"street":"8 rue de l'Hôtel-de-Ville","postalCode":"43170","city":"Saugues","country":"France"},"contacts":{"email":"secretariat@saugues.fr","telephone":"0471777130"},"horaires":"Le Lundi : de 08h30 à 12h00 de 13h30 à 17h00\nLe Mardi : de 08h30 à 12h00\nDu Mercredi au Vendredi : de 08h30 à 12h00 de 13h30 à 17h00","latitude":44.9601,"longitude":3.54628,"website":"https://www.saugues.fr/","hasWebsite":true,"hasHoraires":true,"url":"https://lannuaire.service-public.gouv.fr/auvergne-rhone-alpes/haute-loire/fe5f3a44-2593-4234-a4f8-a209296c8596"}
{"nom":"Sembadel","nomNormalise":"sembadel","typeCollectivite":"Commune","region":"Auvergne-Rhône-Alpes","departement":"Haute-Loire","departementCode":"43","adresse":{"street":"23 rue de Saint Badel","postalCode":"43160","city":"Sembadel","country":"France"},"contacts":{"email":"mairie.sembadel@wanadoo.fr","telephone":"0471009062"},"horaires":"Le Jeudi : de 09h00 à 12h00\nLe Samedi : de 09h00 à 12h00","latitude":45.27519,"longitude":3.687873,"website":"http://www.sembadel.fr/","hasWebsite":true,"hasHoraires":true,"url":"https://lannuaire.service-public.gouv.fr/auvergne-rhone-alpes/haute-loire/376016d2-7c62-43ba-87a5-330e529e9241"}
{"nom":"Séneujols","nomNormalise":"seneujols","typeCollectivite":"Commune","region":"Auvergne-Rhône-Alpes","departement":"Haute-Loire","departementCode":"43","adresse":{"street":"2 place de la Mairie","postalCode":"43510","city":"Séneujols","country":"France"},"contacts":{"email":"mairie.seneujols@wanadoo.fr","telephone":"0471039838"},"horaires":"Du Lundi au Mardi : de 13h30 à 17h00\nDu Jeudi au Vendredi : de 13h30 à 17h00\nLe Samedi : de 09h00 à 12h00","latitude":44.95798,"longitude":3.783551,"website":"","hasWebsite":false,"hasHoraires":true,"url":"https://lannuaire.service-public.gouv.fr/auvergne-rhone-alpes/haute-loire/229ea65e-1df8-4a05-b016-ef5b299c6007"}
{"nom":"Siaugues-Sainte-Marie","nomNormalise":"siauguessaintemarie","typeCollectivite":"Commune","region":"Auvergne-Rhône-Alpes","departement":"Haute-Loire","departementCode":"43","adresse":{"street":"Place Claude-Pierre-Favard","postalCode":"43300","city":"Siaugues-Sainte-Marie","country":"France"},"contacts":{"email":"mairie.siauguestemarie@wanadoo.fr","telephone":"0471742142"},"horaires":"Du Mardi au Samedi : de 09h00 à 12h00","latitude":45.094032,"longitude":3.632097,"website":"https://www.mairie-siaugues-stemarie.fr/","hasWebsite":true,"hasHoraires":true,"url":"https://lannuaire.service-public.gouv.fr/auvergne-rhone-alpes/haute-loire/8fcb4483-50cc-4360-8641-a6d35f64f9f2"}
{"nom":"Solignac-sous-Roche","nomNormalise":"solignacsousroche","typeCollectivite":"Commune","region":"Auvergne-Rhône-Alpes","departement":"Haute-Loire","departementCode":"43","adresse":{"street":"2 rue de la Mairie","postalCode":"43130","city":"Solignac-sous-Roche","country":"France"},"contacts":{"email":"mairie@solignacsousroche.fr","telephone":"0471592122"},"horaires":"Le Lundi : de 14h00 à 16h00\nLe Mercredi : de 14h00 à 16h00\nDu Vendredi au Samedi : de 10h00 à 12h00\n\nLe premier samedi du mois : de 10h00 à 12h00","latitude":45.252285,"longitude":3.996486,"website":"https://solignacsousroche.fr/","hasWebsite":true,"hasHoraires":true,"url":"https://lannuaire.service-public.gouv.fr/auvergne-rhone-alpes/haute-loire/fbbe279a-c628-44af-a127-3c3638bf4a6a"}
{"nom":"Solignac-sur-Loire","nomNormalise":"solignacsurloire","typeCollectivite":"Commune","region":"Auvergne-Rhône-Alpes","departement":"Haute-Loire","departementCode":"43","adresse":{"street":"1 place du Marchedial","postalCode":"43370","city":"Solignac-sur-Loire","country":"France"},"contacts":{"email":"mairie.solignacsurloire@orange.fr","telephone":"0471031146"},"horaires":"Le Lundi : de 14h00 à 17h30\nDu Mardi au Jeudi : de 09h00 à 12h00\nLe Vendredi : de 09h00 à 12h00 de 14h00 à 17h30\nLe Samedi : de 10h00 à 12h00","latitude":44.968002,"longitude":3.887834,"website":"https://www.solignac-sur-loire.fr/","hasWebsite":true,"hasHoraires":true,"url":"https://lannuaire.service-public.gouv.fr/auvergne-rhone-alpes/haute-loire/22b94494-d455-4e0e-b76d-f33afd06cb7c"}
{"nom":"Tailhac","nomNormalise":"tailhac","typeCollectivite":"Commune","region":"Auvergne-Rhône-Alpes","departement":"Haute-Loire","departementCode":"43","adresse":{"street":"Le Bourg","postalCode":"43300","city":"Tailhac","country":"France"},"contacts":{"email":"commune.tailhac@laposte.net","telephone":"0471741171"},"horaires":"Le Lundi : de 09h00 à 13h00\nLe Mercredi : de 09h00 à 17h00","latitude":45.042515,"longitude":3.457857,"website":"","hasWebsite":false,"hasHoraires":true,"url":"https://lannuaire.service-public.gouv.fr/auvergne-rhone-alpes/haute-loire/fbf081c1-37a4-4f1f-a3a0-17e5569a2b0e"}
{"nom":"Tence","nomNormalise":"tence","typeCollectivite":"Commune","region":"Auvergne-Rhône-Alpes","departement":"Haute-Loire","departementCode":"43","adresse":{"street":"Place de l'Hôtel-de-Ville","postalCode":"43190","city":"Tence","country":"France"},"contacts":{"email":"mairie@ville-tence.fr","telephone":"0471598267"},"horaires":"Du Lundi au Vendredi : de 09h00 à 12h00 de 14h00 à 17h00\nLe Samedi : de 09h00 à 12h00","latitude":45.1144,"longitude":4.29439,"website":"http://www.ville-tence.fr/","hasWebsite":true,"hasHoraires":true,"url":"https://lannuaire.service-public.gouv.fr/auvergne-rhone-alpes/haute-loire/20e84ec0-b554-4d65-901a-01507e5795ab"}
{"nom":"Thoras","nomNormalise":"thoras","typeCollectivite":"Commune","region":"Auvergne-Rhône-Alpes","departement":"Haute-Loire","departementCode":"43","adresse":{"street":"Le Bourg","postalCode":"43170","city":"Thoras","country":"France"},"contacts":{"email":"mairiedethoras@orange.fr","telephone":"0471744061"},"horaires":"Le Mardi : de 09h00 à 12h00 de 14h00 à 17h00\nLe Jeudi : de 14h00 à 17h00\nLe Samedi : de 09h00 à 12h00","latitude":44.864994,"longitude":3.563329,"website":"https://www.thorasenmargeride.fr/","hasWebsite":true,"hasHoraires":true,"url":"https://lannuaire.service-public.gouv.fr/auvergne-rhone-alpes/haute-loire/aa941a60-bd58-4144-8424-19130aa38f9b"}
{"nom":"Tiranges","nomNormalise":"tiranges","typeCollectivite":"Commune","region":"Auvergne-Rhône-Alpes","departement":"Haute-Loire","departementCode":"43","adresse":{"street":"Place de la Terrasse","postalCode":"43530","city":"Tiranges","country":"France"},"contacts":{"email":"mairie.tiranges@wanadoo.fr","telephone":"0471613213"},"horaires":"Du Mardi au Mercredi : de 09h00 à 12h00\nLe Jeudi : de 14h00 à 17h00\nDu Vendredi au Samedi : de 09h00 à 12h00","latitude":45.27069,"longitude":3.996363,"website":"","hasWebsite":false,"hasHoraires":true,"url":"https://lannuaire.service-public.gouv.fr/auvergne-rhone-alpes/haute-loire/1c333b0a-6753-46de-a739-5d2ec29d5f1c"}
{"nom":"Torsiac","nomNormalise":"torsiac","typeCollectivite":"Commune","region":"Auvergne-Rhône-Alpes","departement":"Haute-Loire","departementCode":"43","adresse":{"street":"Place de la Mairie","postalCode":"43450","city":"Torsiac","country":"France"},"contacts":{"email":"mairie.torsiac@orange.fr","telephone":"0471763669"},"horaires":"Le Vendredi : de 13h30 à 16h30","latitude":45.351437,"longitude":3.216559,"website":"","hasWebsite":false,"hasHoraires":true,"url":"https://lannuaire.service-public.gouv.fr/auvergne-rhone-alpes/haute-loire/460822fe-e382-474b-864d-2668acd433fd"}
{"nom":"Valprivas","nomNormalise":"valprivas","typeCollectivite":"Commune","region":"Auvergne-Rhône-Alpes","departement":"Haute-Loire","departementCode":"43","adresse":{"street":"Le Bourg","postalCode":"43210","city":"Valprivas","country":"France"},"contacts":{"email":"mairie@valprivas.com","telephone":"0471667264"},"horaires":"Du Lundi au Samedi : de 09h00 à 12h00\nAccueil ouvert uniquement les 1er et 3e samedis du mois.","latitude":45.27069,"longitude":3.996363,"website":"https://www.valprivas.fr/","hasWebsite":true,"hasHoraires":true,"url":"https://lannuaire.service-public.gouv.fr/auvergne-rhone-alpes/haute-loire/22010813-8812-4b6a-8ab6-4cc5a1e4c9ea"}
{"nom":"Vals-le-Chastel","nomNormalise":"valslechastel","typeCollectivite":"Commune","region":"Auvergne-Rhône-Alpes","departement":"Haute-Loire","departementCode":"43","adresse":{"street":"Le Bourg","postalCode":"43230","city":"Vasl-le-Chastel","country":"France"},"contacts":{"email":"mairie.valslechastel@orange.fr","telephone":"0471764081"},"horaires":"Le Vendredi : de 14h00 à 16h00","latitude":45.270287,"longitude":3.521084,"website":"","hasWebsite":false,"hasHoraires":true,"url":"https://lannuaire.service-public.gouv.fr/auvergne-rhone-alpes/haute-loire/d12d1edd-8c0e-4914-a715-3a9585f988f2"}
{"nom":"Vals-près-le-Puy","nomNormalise":"valspreslepuy","typeCollectivite":"Commune","region":"Auvergne-Rhône-Alpes","departement":"Haute-Loire","departementCode":"43","adresse":{"street":"2 place du Monastère","postalCode":"43750","city":"Vals-près-le-Puy","country":"France"},"contacts":{"email":"mairie@valspreslepuy.fr","telephone":"0471057777"},"horaires":"Du Lundi au Jeudi : de 08h00 à 12h00 de 13h30 à 17h30\nLe Vendredi : de 08h00 à 12h00 de 13h30 à 16h30","latitude":45.0299,"longitude":3.87614,"website":"https://www.valspreslepuy.fr/","hasWebsite":true,"hasHoraires":true,"url":"https://lannuaire.service-public.gouv.fr/auvergne-rhone-alpes/haute-loire/66f31236-0440-4104-8f75-37003d690527"}
{"nom":"Varennes-Saint-Honorat","nomNormalise":"varennessainthonorat","typeCollectivite":"Commune","region":"Auvergne-Rhône-Alpes","departement":"Haute-Loire","departementCode":"43","adresse":{"street":"Le Bourg","postalCode":"43270","city":"Varennes-Saint-Honorat","country":"France"},"contacts":{"email":"communevarennes@orange.fr","telephone":"0471002266"},"horaires":"Le Mardi : de 14h00 à 17h00\nLe Jeudi : de 14h00 à 17h30","latitude":45.17901,"longitude":3.638758,"website":"","hasWebsite":false,"hasHoraires":true,"url":"https://lannuaire.service-public.gouv.fr/auvergne-rhone-alpes/haute-loire/6a9ab6b9-644f-461f-868a-9326b6c3ab79"}
{"nom":"Vazeilles-Limandre","nomNormalise":"vazeilleslimandre","typeCollectivite":"Commune","region":"Auvergne-Rhône-Alpes","departement":"Haute-Loire","departementCode":"43","adresse":{"street":"Vazeilles","postalCode":"43320","city":"Vazeilles-Limandre","country":"France"},"contacts":{"email":"mairie.vazeilles.limandre0@orange.fr","telephone":"0471086181"},"horaires":"Le Lundi : de 14h00 à 18h00\nLe Mardi : de 09h00 à 12h00\nLe Jeudi : de 14h00 à 18h00\nLe Vendredi : de 09h00 à 12h00","latitude":45.11277,"longitude":3.69801,"website":"","hasWebsite":false,"hasHoraires":true,"url":"https://lannuaire.service-public.gouv.fr/auvergne-rhone-alpes/haute-loire/da52cfc7-bc0b-4a37-8f8f-7151afba842b"}
{"nom":"Venteuges","nomNormalise":"venteuges","typeCollectivite":"Commune","region":"Auvergne-Rhône-Alpes","departement":"Haute-Loire","departementCode":"43","adresse":{"street":"215 Rue de la Mairie","postalCode":"43170","city":"Venteuges","country":"France"},"contacts":{"email":"mairieventeuges@wanadoo.fr","telephone":"0471778171"},"horaires":"Le Lundi : de 09h00 à 12h00\nLe Mercredi : de 09h00 à 12h00\nLe Vendredi : de 14h00 à 16h30","latitude":44.9859,"longitude":3.498495,"website":"","hasWebsite":false,"hasHoraires":true,"url":"https://lannuaire.service-public.gouv.fr/auvergne-rhone-alpes/haute-loire/e887928b-e214-4423-8ff3-c5027707eeb8"}
{"nom":"Vergezac","nomNormalise":"vergezac","typeCollectivite":"Commune","region":"Auvergne-Rhône-Alpes","departement":"Haute-Loire","departementCode":"43","adresse":{"street":"Le Bourg","postalCode":"43320","city":"Vergezac","country":"France"},"contacts":{"email":"vergezac.mairie@wanadoo.fr","telephone":"0471086076"},"horaires":"Le Mardi : de 08h30 à 12h30\nLe Jeudi : de 08h30 à 12h30 de 14h00 à 17h00\nLe Vendredi : de 08h00 à 12h00\nLe Samedi : de 10h00 à 12h00\n\nPermanence du Maire","latitude":45.032658,"longitude":3.727971,"website":"https://www.mairie-vergezac.com/","hasWebsite":true,"hasHoraires":true,"url":"https://lannuaire.service-public.gouv.fr/auvergne-rhone-alpes/haute-loire/b58257c6-212a-40c2-b70f-06cd898d95dc"}
{"nom":"Vergongheon","nomNormalise":"vergongheon","typeCollectivite":"Commune","region":"Auvergne-Rhône-Alpes","departement":"Haute-Loire","departementCode":"43","adresse":{"street":"1 rue Marcel-Ustachon","postalCode":"43360","city":"Vergongheon","country":"France"},"contacts":{"email":"mairie.vergongheon43@vergongheon.fr","telephone":"0471760362"},"horaires":"Du Lundi au Vendredi : de 08h30 à 12h00 de 13h30 à 18h00\nLe Samedi : de 09h00 à 12h00","latitude":45.37056,"longitude":3.318773,"website":"","hasWebsite":false,"hasHoraires":true,"url":"https://lannuaire.service-public.gouv.fr/auvergne-rhone-alpes/haute-loire/072942a3-d4b2-4ca1-afb4-8a8f5c23f225"}
{"nom":"Vernassal","nomNormalise":"vernassal","typeCollectivite":"Commune","region":"Auvergne-Rhône-Alpes","departement":"Haute-Loire","departementCode":"43","adresse":{"street":"1 rue Principale","postalCode":"43270","city":"Vernassal","country":"France"},"contacts":{"email":"mairie.vernassal@wanadoo.fr","telephone":"0471570013"},"horaires":"Le Lundi : de 15h00 à 17h00\nLe Mercredi : de 09h00 à 12h00\nLe Vendredi : de 09h00 à 12h00","latitude":45.14824,"longitude":3.703435,"website":"http://vernassal.com.free.fr/","hasWebsite":true,"hasHoraires":true,"url":"https://lannuaire.service-public.gouv.fr/auvergne-rhone-alpes/haute-loire/d99317b8-953f-498a-93f1-737c7e92b000"}
{"nom":"Vézézoux","nomNormalise":"vezezoux","typeCollectivite":"Commune","region":"Auvergne-Rhône-Alpes","departement":"Haute-Loire","departementCode":"43","adresse":{"street":"3 rue de la Mairie","postalCode":"43390","city":"Vézézoux","country":"France"},"contacts":{"email":"mairie-de-vezezoux@wanadoo.fr","telephone":"0471761666"},"horaires":"Du Lundi au Vendredi : de 13h30 à 17h30\nLe Samedi : de 10h00 à 12h00","latitude":45.403107,"longitude":3.3431633,"website":"","hasWebsite":false,"hasHoraires":true,"url":"https://lannuaire.service-public.gouv.fr/auvergne-rhone-alpes/haute-loire/82d2f080-8295-410d-954d-4b38709f2616"}
{"nom":"Vieille-Brioude","nomNormalise":"vieillebrioude","typeCollectivite":"Commune","region":"Auvergne-Rhône-Alpes","departement":"Haute-Loire","departementCode":"43","adresse":{"street":"3 place de la Croix-des-Prés","postalCode":"43100","city":"Vieille-Brioude","country":"France"},"contacts":{"email":"mairie@vieillebrioude.fr","telephone":"0471509052"},"horaires":"Du Lundi au Vendredi : de 09h00 à 12h00 de 16h00 à 17h30","latitude":45.264523,"longitude":3.404467,"website":"https://www.vieille-brioude.fr/","hasWebsite":true,"hasHoraires":true,"url":"https://lannuaire.service-public.gouv.fr/auvergne-rhone-alpes/haute-loire/adec4f3b-6dac-407f-ae79-78c7f5c0412a"}
{"nom":"Vielprat","nomNormalise":"vielprat","typeCollectivite":"Commune","region":"Auvergne-Rhône-Alpes","departement":"Haute-Loire","departementCode":"43","adresse":{"street":"10 place du Chomet","postalCode":"43490","city":"Vielprat","country":"France"},"contacts":{"email":"mairie.vielprat@orange.fr","telephone":"0471573063"},"horaires":"Le Mardi : de 09h00 à 12h00 de 14h00 à 17h00","latitude":44.854153,"longitude":3.954036,"website":"https://mairievielprat.wixsite.com/website","hasWebsite":true,"hasHoraires":true,"url":"https://lannuaire.service-public.gouv.fr/auvergne-rhone-alpes/haute-loire/254442d3-afa9-42a2-b1ec-b9ae63070c14"}
{"nom":"Villeneuve-d'Allier","nomNormalise":"villeneuvedallier","typeCollectivite":"Commune","region":"Auvergne-Rhône-Alpes","departement":"Haute-Loire","departementCode":"43","adresse":{"street":"Le Bourg","postalCode":"43380","city":"Villeneuve-d'Allier","country":"France"},"contacts":{"email":"mairie.villeneuvedallier@wanadoo.fr","telephone":"0471747137"},"horaires":"Le Lundi : de 09h00 à 12h00 de 14h00 à 17h00\nDu Mercredi au Jeudi : de 09h00 à 12h00 de 14h00 à 17h00","latitude":45.19838,"longitude":3.38404,"website":"http://www.mairievilleneuvedallier.fr/","hasWebsite":true,"hasHoraires":true,"url":"https://lannuaire.service-public.gouv.fr/auvergne-rhone-alpes/haute-loire/8f56807d-5ada-4d9d-b281-fdd885917f02"}
{"nom":"Vissac-Auteyrac","nomNormalise":"vissacauteyrac","typeCollectivite":"Commune","region":"Auvergne-Rhône-Alpes","departement":"Haute-Loire","departementCode":"43","adresse":{"street":"Lachaud","postalCode":"43300","city":"Vissac-Auteyrac","country":"France"},"contacts":{"email":"mairie-vissac-auteyrac@orange.fr","telephone":"0471742103"},"horaires":"Le Mardi : de 14h00 à 17h00\nLe Jeudi : de 14h00 à 17h00","latitude":45.121933,"longitude":3.609616,"website":"http://www.vissac-auteyrac.fr/","hasWebsite":true,"hasHoraires":true,"url":"https://lannuaire.service-public.gouv.fr/auvergne-rhone-alpes/haute-loire/96666565-3ce7-42f9-a8dd-2ffecc436675"}
{"nom":"Vorey-sur-Arzon","nomNormalise":"voreysurarzon","typeCollectivite":"Commune","region":"Auvergne-Rhône-Alpes","departement":"Haute-Loire","departementCode":"43","adresse":{"street":"Place de la Mairie","postalCode":"43800","city":"Vorey","country":"France"},"contacts":{"email":"mairie@vorey.fr","telephone":"0471034039"},"horaires":"Le Lundi : de 09h00 à 12h00\nLe Mardi : de 09h00 à 12h00 de 14h00 à 17h00\nDu Mercredi au Jeudi : de 09h00 à 12h00\nLe Vendredi : de 09h00 à 12h00 de 14h00 à 17h00\nLe Samedi : de 09h00 à 12h00","latitude":45.186756,"longitude":3.9098003,"website":"https://www.vorey.fr/","hasWebsite":true,"hasHoraires":true,"url":"https://lannuaire.service-public.gouv.fr/auvergne-rhone-alpes/haute-loire/5ba7a8fd-9d86-4fa2-a6dd-7cc9e4de28fc"}
{"nom":"Yssingeaux","nomNormalise":"yssingeaux","typeCollectivite":"Commune","region":"Auvergne-Rhône-Alpes","departement":"Haute-Loire","departementCode":"43","adresse":{"street":"Place Charles-de-Gaulle","postalCode":"43200","city":"Yssingeaux","country":"France"},"contacts":{"email":"mairie@yssingeaux.fr","telephone":"0471657330"},"horaires":"Du Lundi au Jeudi : de 08h30 à 12h00 de 13h30 à 17h00\nLe Vendredi : de 08h30 à 12h30 de 13h30 à 16h30","latitude":45.143047,"longitude":4.123511,"website":"https://www.yssingeaux.fr/fr/","hasWebsite":true,"hasHoraires":true,"url":"https://lannuaire.service-public.gouv.fr/auvergne-rhone-alpes/haute-loire/9874d974-28cb-42e3-82c6-7105457f20e6"}
