{"nom":"Abbaretz","nomNormalise":"abbaretz","typeCollectivite":"Commune","region":"Pays de la Loire","departement":"Loire-Atlantique","departementCode":"44","adresse":{"street":"22 rue de la Mairie","postalCode":"44170","city":"Abbaretz","country":"France"},"contacts":{"email":"mairie@abbaretz.fr","telephone":"0240870013"},"horaires":"Du Lundi au Vendredi : de 08h30 à 12h30","latitude":47.5537,"longitude":-1.5318763,"website":"http://www.abbaretz.fr/","hasWebsite":true,"hasHoraires":true,"url":"https://lannuaire.service-public.gouv.fr/pays-de-la-loire/loire-atlantique/fbdf22b1-a4c3-426f-9e32-3d64c2460f92"}
{"nom":"Aigrefeuille-sur-Maine","nomNormalise":"aigrefeuillesurmaine","typeCollectivite":"Commune","region":"Pays de la Loire","departement":"Loire-Atlantique","departementCode":"44","adresse":{"street":"29 avenue de la Vendée","postalCode":"44140","city":"Aigrefeuille-sur-Maine","country":"France"},"contacts":{"email":"info@aigrefeuillesurmaine.com","telephone":"0240066120"},"horaires":"Du Lundi au Mercredi : de 08h30 à 12h30 de 13h30 à 17h30\nLe Jeudi : de 08h30 à 12h30 de 15h00 à 17h30\nLe Vendredi : de 08h30 à 12h30 de 13h30 à 16h30","latitude":47.0704,"longitude":-1.39187,"website":"https://www.aigrefeuillesurmaine.com/","hasWebsite":true,"hasHoraires":true,"url":"https://lannuaire.service-public.gouv.fr/pays-de-la-loire/loire-atlantique/96bc1374-1abd-4a77-8e63-8692e800efe4"}
{"nom":"Ancenis-Saint-Géréon","nomNormalise":"ancenissaintgereon","typeCollectivite":"Commune","region":"Pays de la Loire","departement":"Loire-Atlantique","departementCode":"44","adresse":{"street":"Place du Maréchal-Foch","postalCode":"44156","city":"Ancenis-Saint-Géréon","country":"France"},"contacts":{"email":"mairie@ancenis-saint-gereon.fr","telephone":"0240838700"},"horaires":"Du Lundi au Mercredi : de 09h00 à 12h30 de 14h00 à 17h15\nLe Jeudi : de 09h00 à 12h30\nLe Vendredi : de 09h00 à 12h30 de 14h00 à 17h15\nLe Samedi : de 09h00 à 12h00","latitude":47.36551,"longitude":-1.177579,"website":"https://www.ancenis-saint-gereon.fr/","hasWebsite":true,"hasHoraires":true,"url":"https://lannuaire.service-public.gouv.fr/pays-de-la-loire/loire-atlantique/2d35505e-4b41-418f-bc3d-e69d28d1888c"}
{"nom":"Mairie déléguée - Anetz","nomNormalise":"mairiedelegueeanetz","typeCollectivite":"Commune","region":"Pays de la Loire","departement":"Loire-Atlantique","departementCode":"44","adresse":{"street":"Anetz","postalCode":"44150","city":"Vair-sur-Loire","country":"France"},"contacts":{"email":"mairie@vairsurloire.fr","telephone":"0240980223"},"horaires":"Du Lundi au Mercredi : de 09h00 à 12h00\nLe Vendredi : de 09h00 à 12h00\nLe Samedi : de 09h30 à 12h00","latitude":47.40769,"longitude":-1.095145,"website":"https://vairsurloire.fr/","hasWebsite":true,"hasHoraires":true,"url":"https://lannuaire.service-public.gouv.fr/pays-de-la-loire/loire-atlantique/535d7be2-8d3d-484e-af8b-8117e3e4cd04"}
{"nom":"Assérac","nomNormalise":"asserac","typeCollectivite":"Commune","region":"Pays de la Loire","departement":"Loire-Atlantique","departementCode":"44","adresse":{"street":"15 rue du Pont-Bérin","postalCode":"44410","city":"Assérac","country":"France"},"contacts":{"email":"info@asserac.fr","telephone":"0240017000"},"horaires":"Du Lundi au Mardi : de 08h45 à 12h00\nLe Mercredi : de 09h00 à 12h00\nDu Jeudi au Vendredi : de 08h45 à 12h00\nLe Samedi : de 09h00 à 12h00\n\nAffaires générales et Etat civil uniquement le 1er et le 3e\nAccueil ouvert uniquement sur rendez-vous l'après-midi sauf le mercredi.","latitude":47.429012,"longitude":-2.390158,"website":"https://www.asserac.fr/","hasWebsite":true,"hasHoraires":true,"url":"https://lannuaire.service-public.gouv.fr/pays-de-la-loire/loire-atlantique/8bc295fb-cbbf-4785-a12e-afb29acb7ca6"}
{"nom":"Avessac","nomNormalise":"avessac","typeCollectivite":"Commune","region":"Pays de la Loire","departement":"Loire-Atlantique","departementCode":"44","adresse":{"street":"5 place de l'Église","postalCode":"44460","city":"Avessac","country":"France"},"contacts":{"email":"mairie@avessac.fr","telephone":"0299910087"},"horaires":"Du Lundi au Jeudi : de 08h30 à 12h15 de 13h45 à 18h00\nLe Vendredi : de 08h30 à 12h15 de 13h45 à 17h00","latitude":47.6441,"longitude":-2.06909,"website":"https://www.mairie-avessac.fr/","hasWebsite":true,"hasHoraires":true,"url":"https://lannuaire.service-public.gouv.fr/pays-de-la-loire/loire-atlantique/b822bb88-4279-489f-bd8c-fdecef45a5a0"}
{"nom":"Basse-Goulaine","nomNormalise":"bassegoulaine","typeCollectivite":"Commune","region":"Pays de la Loire","departement":"Loire-Atlantique","departementCode":"44","adresse":{"street":"25 rue de la Razée","postalCode":"44115","city":"Basse-Goulaine","country":"France"},"contacts":{"email":"contact@basse-goulaine.fr","telephone":"0240035556"},"horaires":"Du Lundi au Vendredi : de 08h45 à 12h15 de 13h30 à 17h15","latitude":47.215073,"longitude":-1.4672841,"website":"http://www.basse-goulaine.fr/","hasWebsite":true,"hasHoraires":true,"url":"https://lannuaire.service-public.gouv.fr/pays-de-la-loire/loire-atlantique/64eae448-3f35-43f3-805e-68a1955ef820"}
{"nom":"Batz-sur-Mer","nomNormalise":"batzsurmer","typeCollectivite":"Commune","region":"Pays de la Loire","departement":"Loire-Atlantique","departementCode":"44","adresse":{"street":"34 rue Jean-XXIII","postalCode":"44740","city":"Batz-sur-Mer","country":"France"},"contacts":{"email":"mairie@mairie-batzsurmer.fr","telephone":"0240239225"},"horaires":"Du Lundi au Vendredi : de 08h45 à 12h00 de 13h45 à 17h00\nLe Samedi : de 09h00 à 12h00","latitude":47.27761,"longitude":-2.4775002,"website":"https://www.batzsurmer.fr/","hasWebsite":true,"hasHoraires":true,"url":"https://lannuaire.service-public.gouv.fr/pays-de-la-loire/loire-atlantique/3960715e-5387-4d3f-8b87-1fff88f924c3"}
{"nom":"Besné","nomNormalise":"besne","typeCollectivite":"Commune","region":"Pays de la Loire","departement":"Loire-Atlantique","departementCode":"44","adresse":{"street":"15 place de l'Église","postalCode":"44160","city":"Besné","country":"France"},"contacts":{"email":"contact@besne.fr","telephone":"0240013013"},"horaires":"Le Lundi : de 08h30 à 12h00 de 13h30 à 16h00\nLe Mardi : de 08h30 à 12h00\nLe Mercredi : de 08h30 à 12h00 de 13h30 à 16h00\nLe Jeudi : de 08h30 à 12h00\nLe Vendredi : de 08h30 à 12h00 de 13h30 à 17h00","latitude":47.3964,"longitude":-2.09086,"website":"http://www.mairie-besne.fr/","hasWebsite":true,"hasHoraires":true,"url":"https://lannuaire.service-public.gouv.fr/pays-de-la-loire/loire-atlantique/0b5be972-0c4b-4dca-b028-d7548b9ad884"}
{"nom":"Blain","nomNormalise":"blain","typeCollectivite":"Commune","region":"Pays de la Loire","departement":"Loire-Atlantique","departementCode":"44","adresse":{"street":"2 rue Charles-de-Gaulle","postalCode":"44130","city":"Blain","country":"France"},"contacts":{"email":"mairie@ville-blain.fr","telephone":"0240790008"},"horaires":"Du Lundi au Mercredi : de 08h30 à 12h15 de 13h30 à 17h30\nLe Jeudi : de 08h30 à 12h15\nLe Vendredi : de 08h30 à 12h15 de 13h30 à 17h00\nLe Samedi : de 09h00 à 12h00","latitude":47.4779,"longitude":-1.7662,"website":"https://www.ville-blain.fr/","hasWebsite":true,"hasHoraires":true,"url":"https://lannuaire.service-public.gouv.fr/pays-de-la-loire/loire-atlantique/3655932f-106c-4d3f-ae88-6b6dd04b97a9"}
{"nom":"Mairie déléguée - Bonnœuvre","nomNormalise":"mairiedelegueebonnuvre","typeCollectivite":"Commune","region":"Pays de la Loire","departement":"Loire-Atlantique","departementCode":"44","adresse":{"street":"18 avenue Charles-Henry de Cossé Brissac","postalCode":"44540","city":"Vallons-de-l'Erdre","country":"France"},"contacts":{"email":"contact@vallonsdelerdre.fr","telephone":"0285293300"},"horaires":"Du Lundi au Mardi : de 09h00 à 12h15 de 14h00 à 17h00\nLe Mercredi : de 09h00 à 12h15\nDu Jeudi au Vendredi : de 09h00 à 12h15 de 14h00 à 17h00\nLe Samedi : de 09h00 à 12h00","latitude":47.5273,"longitude":-1.23971,"website":"https://www.vallonsdelerdre.fr/","hasWebsite":true,"hasHoraires":true,"url":"https://lannuaire.service-public.gouv.fr/pays-de-la-loire/loire-atlantique/8d85b2df-7dd0-4248-a8a0-0d683f237174"}
{"nom":"Bouaye","nomNormalise":"bouaye","typeCollectivite":"Commune","region":"Pays de la Loire","departement":"Loire-Atlantique","departementCode":"44","adresse":{"street":"12 rue de Pornic","postalCode":"44830","city":"Bouaye","country":"France"},"contacts":{"email":"accueil@bouaye.fr","telephone":"0251705555"},"horaires":"Du Lundi au Mercredi : de 09h00 à 12h15 de 13h45 à 17h30\nLe Jeudi : de 09h00 à 12h15\nLe Vendredi : de 09h00 à 12h15 de 13h45 à 17h30","latitude":47.143734,"longitude":-1.694366,"website":"https://www.bouaye.fr/","hasWebsite":true,"hasHoraires":true,"url":"https://lannuaire.service-public.gouv.fr/pays-de-la-loire/loire-atlantique/c4d3ef45-1aa9-49e2-97a1-8699e66cb6a5"}
{"nom":"Bouée","nomNormalise":"bouee","typeCollectivite":"Commune","region":"Pays de la Loire","departement":"Loire-Atlantique","departementCode":"44","adresse":{"street":"2 route du Syl","postalCode":"44260","city":"Bouée","country":"France"},"contacts":{"email":"accueil@bouee.fr","telephone":"0240561218"},"horaires":"Le Mardi : de 08h30 à 12h00\nLe Mercredi : de 08h30 à 12h00 de 13h30 à 16h30\nDu Jeudi au Vendredi : de 08h30 à 12h00\nLe Samedi : de 09h00 à 12h00\n\nAccueil fermé en juillet-août.","latitude":47.320114,"longitude":-1.910153,"website":"http://www.bouee.fr/","hasWebsite":true,"hasHoraires":true,"url":"https://lannuaire.service-public.gouv.fr/pays-de-la-loire/loire-atlantique/63ca57ec-e011-4194-81cd-0840bd595922"}
{"nom":"Bouguenais","nomNormalise":"bouguenais","typeCollectivite":"Commune","region":"Pays de la Loire","departement":"Loire-Atlantique","departementCode":"44","adresse":{"street":"1 rue de la Commune-de-Paris-1871","postalCode":"44340","city":"Bouguenais","country":"France"},"contacts":{"email":"courriel@ville-bouguenais.fr","telephone":"0240322929"},"horaires":"Du Lundi au Vendredi : de 09h00 à 12h00 de 13h30 à 17h30\nLe Samedi : de 09h00 à 12h00\n\nAccueil ouvert uniquement pour l'état civil.","latitude":47.17909,"longitude":-1.618805,"website":"https://www.bouguenais.fr/","hasWebsite":true,"hasHoraires":true,"url":"https://lannuaire.service-public.gouv.fr/pays-de-la-loire/loire-atlantique/39f2cf09-5adc-45ef-8c00-0771a7a40e3e"}
{"nom":"Boussay","nomNormalise":"boussay","typeCollectivite":"Commune","region":"Pays de la Loire","departement":"Loire-Atlantique","departementCode":"44","adresse":{"street":"4 rue du Val-de-Sèvre","postalCode":"44190","city":"Boussay","country":"France"},"contacts":{"email":"contact@boussay.fr","telephone":"0240068125"},"horaires":"Du Lundi au Mardi : de 09h00 à 12h30 de 15h00 à 17h30\nLe Mercredi : de 15h00 à 17h30\nDu Jeudi au Vendredi : de 09h00 à 12h30 de 15h00 à 17h30","latitude":47.0429,"longitude":-1.18723,"website":"https://www.boussay.fr/","hasWebsite":true,"hasHoraires":true,"url":"https://lannuaire.service-public.gouv.fr/pays-de-la-loire/loire-atlantique/6ac0ba1e-c9ee-4be2-b5b0-210cd61b5725"}
{"nom":"Bouvron","nomNormalise":"bouvron","typeCollectivite":"Commune","region":"Pays de la Loire","departement":"Loire-Atlantique","departementCode":"44","adresse":{"street":"12 rue Louis-Guihot","postalCode":"44130","city":"Bouvron","country":"France"},"contacts":{"email":"accueil@bouvron.eu","telephone":"0240563218"},"horaires":"Du Lundi au Mercredi : de 09h00 à 12h30 de 13h30 à 17h00\nLe Jeudi : de 09h00 à 12h30\nLe Vendredi : de 09h00 à 12h30 de 13h30 à 17h00","latitude":47.417667,"longitude":-1.847699,"website":"https://www.bouvron.eu/","hasWebsite":true,"hasHoraires":true,"url":"https://lannuaire.service-public.gouv.fr/pays-de-la-loire/loire-atlantique/75845cfe-0025-4928-95da-4ac8cb5b7b8e"}
{"nom":"Brains","nomNormalise":"brains","typeCollectivite":"Commune","region":"Pays de la Loire","departement":"Loire-Atlantique","departementCode":"44","adresse":{"street":"2 place de la Mairie","postalCode":"44830","city":"Brains","country":"France"},"contacts":{"email":"accueil@mairie-brains.fr","telephone":"0240655130"},"horaires":"Le Lundi : de 14h00 à 17h00\nLe Mardi : de 08h30 à 13h00 de 14h00 à 17h00\nDu Mercredi au Jeudi : de 08h30 à 13h00\nLe Vendredi : de 08h30 à 13h00 de 14h00 à 17h00","latitude":47.169327,"longitude":-1.722352,"website":"https://www.mairie-brains.fr/","hasWebsite":true,"hasHoraires":true,"url":"https://lannuaire.service-public.gouv.fr/pays-de-la-loire/loire-atlantique/13cacc10-87ac-4ddc-947b-df141bbde1a6"}
{"nom":"Campbon","nomNormalise":"campbon","typeCollectivite":"Commune","region":"Pays de la Loire","departement":"Loire-Atlantique","departementCode":"44","adresse":{"street":"Place de l'Église","postalCode":"44750","city":"Campbon","country":"France"},"contacts":{"email":"mairie@campbon.fr","telephone":"0240565500"},"horaires":"Du Lundi au Mercredi : de 09h00 à 12h30 de 14h00 à 17h00\nLe Jeudi : de 09h00 à 12h30\nLe Vendredi : de 09h00 à 12h30 de 14h00 à 17h00","latitude":47.41258,"longitude":-1.9696739,"website":"https://www.campbon.fr/","hasWebsite":true,"hasHoraires":true,"url":"https://lannuaire.service-public.gouv.fr/pays-de-la-loire/loire-atlantique/29cdd483-eeac-465c-9b32-c2c78440367e"}
{"nom":"Carquefou","nomNormalise":"carquefou","typeCollectivite":"Commune","region":"Pays de la Loire","departement":"Loire-Atlantique","departementCode":"44","adresse":{"street":"Rue de l'Hôtel-de-Ville","postalCode":"44470","city":"Carquefou","country":"France"},"contacts":{"email":"contact@mairie-carquefou.fr","telephone":"0228222222"},"horaires":"Du Lundi au Vendredi : de 09h00 à 12h30 de 13h30 à 17h00\nLe Samedi : de 09h00 à 12h00\n\nUniquement ouvert pour l'état civil.","latitude":47.29886,"longitude":-1.492938,"website":"https://www.carquefou.fr/","hasWebsite":true,"hasHoraires":true,"url":"https://lannuaire.service-public.gouv.fr/pays-de-la-loire/loire-atlantique/5bafaf61-6aec-42f4-a191-4ba1db9510c1"}
{"nom":"Casson","nomNormalise":"casson","typeCollectivite":"Commune","region":"Pays de la Loire","departement":"Loire-Atlantique","departementCode":"44","adresse":{"street":"3 rue de la Mairie","postalCode":"44390","city":"Casson","country":"France"},"contacts":{"email":"contact@casson.fr","telephone":"0240776246"},"horaires":"Le Lundi : de 09h00 à 12h00 de 14h00 à 17h00\nLe Mardi : de 09h00 à 12h00\nLe Mercredi : de 09h00 à 12h00 de 14h00 à 17h00\nLe Jeudi : de 09h00 à 12h00\nLe Vendredi : de 09h00 à 12h00 de 14h00 à 17h00\nLe Samedi : de 09h00 à 12h00\n\nLes 1er et 3e samedis du mois hors juillet et août","latitude":47.38687,"longitude":-1.558531,"website":"https://www.casson.fr/","hasWebsite":true,"hasHoraires":true,"url":"https://lannuaire.service-public.gouv.fr/pays-de-la-loire/loire-atlantique/68bedcd6-4ae5-49cc-8a2d-bd31775d669d"}
{"nom":"Châteaubriant","nomNormalise":"chateaubriant","typeCollectivite":"Commune","region":"Pays de la Loire","departement":"Loire-Atlantique","departementCode":"44","adresse":{"street":"Place Ernest-Bréant","postalCode":"44110","city":"Châteaubriant","country":"France"},"contacts":{"email":"mairie@ville-chateaubriant.fr","telephone":"0240810232"},"horaires":"Du Lundi au Jeudi : de 08h30 à 12h00 de 13h30 à 17h30\nLe Vendredi : de 08h30 à 12h00 de 13h30 à 17h00\nLe Samedi : de 09h00 à 12h00","latitude":47.72107,"longitude":-1.3763702,"website":"https://www.mairie-chateaubriant.fr/","hasWebsite":true,"hasHoraires":true,"url":"https://lannuaire.service-public.gouv.fr/pays-de-la-loire/loire-atlantique/35742e86-2970-4f97-be88-84993d96e508"}
{"nom":"Château-Thébaud","nomNormalise":"chateauthebaud","typeCollectivite":"Commune","region":"Pays de la Loire","departement":"Loire-Atlantique","departementCode":"44","adresse":{"street":"1 place de l'Église","postalCode":"44690","city":"Château-Thébaud","country":"France"},"contacts":{"email":"mairie@chateau-thebaud.fr","telephone":"0240065318"},"horaires":"Le Lundi : de 08h30 à 12h30 de 14h30 à 17h15\nLe Mardi : de 08h30 à 12h30\nLe Mercredi : de 08h30 à 12h30 de 14h30 à 17h15\nLe Jeudi : de 08h30 à 12h30 de 14h30 à 17h15\nLe Vendredi : de 08h30 à 12h30 de 14h30 à 17h15","latitude":47.12453,"longitude":-1.418752,"website":"http://www.chateau-thebaud.fr/","hasWebsite":true,"hasHoraires":true,"url":"https://lannuaire.service-public.gouv.fr/pays-de-la-loire/loire-atlantique/e7f6bac5-d8e9-4091-98cf-0ce05c945025"}
{"nom":"Chaumes-en-Retz","nomNormalise":"chaumesenretz","typeCollectivite":"Commune","region":"Pays de la Loire","departement":"Loire-Atlantique","departementCode":"44","adresse":{"street":"Arthon-en-Retz","postalCode":"44320","city":"Chaumes-en-Retz","country":"France"},"contacts":{"email":"mairie@chaumesenretz.fr","telephone":"0240213011"},"horaires":"Le Lundi : de 09h00 à 12h00 de 13h30 à 17h00\nLe Mardi : de 09h00 à 12h00\nDu Mercredi au Vendredi : de 09h00 à 12h00 de 13h30 à 17h00\nLe Samedi : de 09h00 à 11h30","latitude":47.11693,"longitude":-1.9457036,"website":"https://www.chaumesenretz.fr/","hasWebsite":true,"hasHoraires":true,"url":"https://lannuaire.service-public.gouv.fr/pays-de-la-loire/loire-atlantique/2b8c51cf-ed2c-4b54-92bb-f55284063790"}
{"nom":"Chauvé","nomNormalise":"chauve","typeCollectivite":"Commune","region":"Pays de la Loire","departement":"Loire-Atlantique","departementCode":"44","adresse":{"street":"4 place du Champ-de-Foire","postalCode":"44320","city":"Chauvé","country":"France"},"contacts":{"email":"accueil@chauve.fr","telephone":"0240211214"},"horaires":"Du Lundi au Mercredi : de 09h00 à 12h30 de 14h00 à 16h30\nLe Jeudi : de 09h00 à 12h30\nLe Vendredi : de 09h00 à 12h30 de 14h00 à 16h30\nLe Samedi : de 09h00 à 12h00\n\nAccueil fermé en juillet-août.","latitude":47.15006,"longitude":-1.9881128,"website":"https://www.chauve.fr/","hasWebsite":true,"hasHoraires":true,"url":"https://lannuaire.service-public.gouv.fr/pays-de-la-loire/loire-atlantique/e9cbf0ae-d695-46de-a39f-d762f6086e31"}
{"nom":"Cheix-en-Retz","nomNormalise":"cheixenretz","typeCollectivite":"Commune","region":"Pays de la Loire","departement":"Loire-Atlantique","departementCode":"44","adresse":{"street":"3 place Saint-Martin","postalCode":"44640","city":"Cheix-en-Retz","country":"France"},"contacts":{"email":"accueil@cheixenretz.fr","telephone":"0240046501"},"horaires":"Du Lundi au Mardi : de 10h00 à 12h00 de 14h00 à 16h00\nLe Jeudi : de 10h00 à 12h00 de 14h00 à 16h00\nLe Vendredi : de 10h00 à 12h00 de 15h00 à 18h00","latitude":47.1817,"longitude":-1.81526,"website":"http://www.cheixenretz.fr/","hasWebsite":true,"hasHoraires":true,"url":"https://lannuaire.service-public.gouv.fr/pays-de-la-loire/loire-atlantique/ed059d84-eb19-4e21-ad71-8d986f72f23f"}
{"nom":"Clisson","nomNormalise":"clisson","typeCollectivite":"Commune","region":"Pays de la Loire","departement":"Loire-Atlantique","departementCode":"44","adresse":{"street":"3 Grande rue de la Trinité","postalCode":"44190","city":"Clisson","country":"France"},"contacts":{"email":"contact@mairie-clisson.fr","telephone":"0240801780"},"horaires":"Du Lundi au Vendredi : de 09h00 à 12h15 de 13h30 à 17h00\nLe Samedi : de 09h00 à 12h00\n\nAccueil ouvert uniquement pour l'état civil. 2ème et 4ème samedi du mois","latitude":47.088734,"longitude":-1.278014,"website":"https://www.mairie-clisson.fr/","hasWebsite":true,"hasHoraires":true,"url":"https://lannuaire.service-public.gouv.fr/pays-de-la-loire/loire-atlantique/4bd7406b-4f2c-4ca0-8124-3953afd24c92"}
{"nom":"Conquereuil","nomNormalise":"conquereuil","typeCollectivite":"Commune","region":"Pays de la Loire","departement":"Loire-Atlantique","departementCode":"44","adresse":{"street":"2 rue de la Mairie","postalCode":"44290","city":"Conquereuil","country":"France"},"contacts":{"email":"mairie@conquereuil.fr","telephone":"0240873206"},"horaires":"Du Lundi au Vendredi : de 08h30 à 12h00","latitude":47.6288,"longitude":-1.83438,"website":"https://conquereuil.fr/","hasWebsite":true,"hasHoraires":true,"url":"https://lannuaire.service-public.gouv.fr/pays-de-la-loire/loire-atlantique/a18e43b6-b903-4904-9d8f-6cb28ef842a2"}
{"nom":"Corcoué-sur-Logne","nomNormalise":"corcouesurlogne","typeCollectivite":"Commune","region":"Pays de la Loire","departement":"Loire-Atlantique","departementCode":"44","adresse":{"street":"11 rue Lejeune","postalCode":"44650","city":"Corcoué-sur-Logne","country":"France"},"contacts":{"email":"contact@mairiecorcoue.fr","telephone":"0240058690"},"horaires":"Le Lundi : de 09h00 à 12h00 de 14h00 à 17h00\nLe Mardi : de 09h00 à 12h00\nLe Mercredi : de 09h00 à 12h00 de 14h00 à 17h00\nLe Jeudi : de 09h00 à 12h00\nLe Vendredi : de 09h00 à 12h00 de 14h00 à 17h00\nLe Samedi : de 09h00 à 12h00\n\nAccueil fermé le samedi du 15 juillet au 12 août 2023 inclus.","latitude":46.95982,"longitude":-1.571212,"website":"https://corcoue-sur-logne.fr/fr/","hasWebsite":true,"hasHoraires":true,"url":"https://lannuaire.service-public.gouv.fr/pays-de-la-loire/loire-atlantique/008b5615-ce44-4ccc-8724-a135fc036906"}
{"nom":"Cordemais","nomNormalise":"cordemais","typeCollectivite":"Commune","region":"Pays de la Loire","departement":"Loire-Atlantique","departementCode":"44","adresse":{"street":"Avenue des Quatre-Vents","postalCode":"44360","city":"Cordemais","country":"France"},"contacts":{"email":"mairie@cordemais.fr","telephone":"0240578518"},"horaires":"Du Lundi au Mardi : de 09h00 à 12h00 de 13h30 à 17h00\nLe Mercredi : de 09h00 à 12h00 de 13h30 à 18h30\nLe Vendredi : de 09h00 à 12h00 de 13h30 à 17h00","latitude":47.2914,"longitude":-1.87722,"website":"https://www.cordemais.fr/","hasWebsite":true,"hasHoraires":true,"url":"https://lannuaire.service-public.gouv.fr/pays-de-la-loire/loire-atlantique/6a835799-9396-4845-a083-296170ec1e85"}
{"nom":"Corsept","nomNormalise":"corsept","typeCollectivite":"Commune","region":"Pays de la Loire","departement":"Loire-Atlantique","departementCode":"44","adresse":{"street":"6 rue de la Mairie","postalCode":"44560","city":"Corsept","country":"France"},"contacts":{"email":"accueil@corsept.fr","telephone":"0240275196"},"horaires":"Le Lundi : de 09h00 à 12h30 de 13h30 à 17h00\nLe Mardi : de 09h00 à 12h30\nLe Mercredi : de 09h00 à 12h30 de 13h30 à 17h00\nLe Jeudi : de 09h00 à 12h30\nLe Vendredi : de 09h00 à 12h30 de 13h30 à 17h00","latitude":47.2782,"longitude":-2.05821,"website":"http://www.corsept.fr/","hasWebsite":true,"hasHoraires":true,"url":"https://lannuaire.service-public.gouv.fr/pays-de-la-loire/loire-atlantique/b3bafc21-6582-40f4-8519-3624cf9170a1"}
{"nom":"Couëron","nomNormalise":"coueron","typeCollectivite":"Commune","region":"Pays de la Loire","departement":"Loire-Atlantique","departementCode":"44","adresse":{"street":"8 place Charles-de-Gaulle","postalCode":"44220","city":"Couëron","country":"France"},"contacts":{"email":"contact@mairie-coueron.fr","telephone":"0240385100"},"horaires":"Du Lundi au Vendredi : de 08h30 à 12h30 de 13h30 à 17h00\nLe Samedi : de 09h00 à 12h00","latitude":47.194225,"longitude":-1.7213091,"website":"https://www.ville-coueron.fr/","hasWebsite":true,"hasHoraires":true,"url":"https://lannuaire.service-public.gouv.fr/pays-de-la-loire/loire-atlantique/23342957-0830-4fb9-8919-ab7c094d1d56"}
{"nom":"Couffé","nomNormalise":"couffe","typeCollectivite":"Commune","region":"Pays de la Loire","departement":"Loire-Atlantique","departementCode":"44","adresse":{"street":"25 rue du Général-Charette-de-la-Contrie","postalCode":"44521","city":"Couffé","country":"France"},"contacts":{"email":"mairie@couffe.fr","telephone":"0240965005"},"horaires":"Le Lundi : de 09h00 à 12h00 de 14h00 à 16h00\nDu Mardi au Jeudi : de 09h00 à 12h30\nLe Vendredi : de 09h00 à 12h00 de 14h00 à 17h00\nLe Samedi : de 09h00 à 12h00\n\nAccueil fermé en juillet-août.","latitude":47.3915,"longitude":-1.2915,"website":"https://www.couffe.fr/","hasWebsite":true,"hasHoraires":true,"url":"https://lannuaire.service-public.gouv.fr/pays-de-la-loire/loire-atlantique/063e1b21-9966-41d6-8344-0ade12da84ea"}
{"nom":"Crossac","nomNormalise":"crossac","typeCollectivite":"Commune","region":"Pays de la Loire","departement":"Loire-Atlantique","departementCode":"44","adresse":{"street":"9 rue Pierre-Plaisance","postalCode":"44160","city":"Crossac","country":"France"},"contacts":{"email":"mairie@crossac.fr","telephone":"0240010285"},"horaires":"Le Lundi : de 13h30 à 17h00\nLe Mardi : de 09h00 à 12h00 de 13h30 à 17h00\nLe Mercredi : de 09h00 à 12h00\nDu Jeudi au Vendredi : de 09h00 à 12h00 de 13h30 à 17h00\nLe Samedi : de 09h00 à 12h00","latitude":47.411198,"longitude":-2.168593,"website":"https://www.crossac.fr/","hasWebsite":true,"hasHoraires":true,"url":"https://lannuaire.service-public.gouv.fr/pays-de-la-loire/loire-atlantique/648f70e4-8853-42e1-9484-27e92eced97a"}
{"nom":"Derval","nomNormalise":"derval","typeCollectivite":"Commune","region":"Pays de la Loire","departement":"Loire-Atlantique","departementCode":"44","adresse":{"street":"15 rue de Rennes","postalCode":"44590","city":"Derval","country":"France"},"contacts":{"email":"mairie@derval.fr","telephone":"0240077011"},"horaires":"Le Lundi : de 08h30 à 12h00 de 13h30 à 18h00\nLe Mardi : de 08h30 à 12h00 de 14h30 à 18h00\nDu Mercredi au Vendredi : de 08h30 à 12h00 de 13h30 à 18h00","latitude":47.6695,"longitude":-1.6728,"website":"http://www.derval.fr/","hasWebsite":true,"hasHoraires":true,"url":"https://lannuaire.service-public.gouv.fr/pays-de-la-loire/loire-atlantique/a4e47e1f-2f3e-42eb-b8fd-00b583d47c0e"}
{"nom":"Divatte-sur-Loire","nomNormalise":"divattesurloire","typeCollectivite":"Commune","region":"Pays de la Loire","departement":"Loire-Atlantique","departementCode":"44","adresse":{"street":"La Chapelle-Basse-Mer","postalCode":"44450","city":"Divatte-sur-Loire","country":"France"},"contacts":{"email":"mairie@divattesurloire.fr","telephone":"0240333400"},"horaires":"Le Lundi : de 09h00 à 12h00 de 14h00 à 17h00\nLe Mardi : de 09h00 à 12h00 de 14h00 à 18h00\nLe Mercredi : de 09h00 à 12h00 de 14h00 à 17h00\nLe Jeudi : de 14h00 à 17h00\nLe Vendredi : de 09h00 à 12h00 de 14h00 à 17h00\nLe Samedi : de 09h00 à 12h00","latitude":47.271984,"longitude":-1.339312,"website":"http://www.divattesurloire.fr/","hasWebsite":true,"hasHoraires":true,"url":"https://lannuaire.service-public.gouv.fr/pays-de-la-loire/loire-atlantique/5d55e003-5549-452b-b180-b634ad751fd2"}
{"nom":"Donges","nomNormalise":"donges","typeCollectivite":"Commune","region":"Pays de la Loire","departement":"Loire-Atlantique","departementCode":"44","adresse":{"street":"Place Armand-Morvan","postalCode":"44480","city":"Donges","country":"France"},"contacts":{"email":"","telephone":"0240457979"},"horaires":"Du Lundi au Jeudi : de 09h00 à 12h00 de 14h00 à 17h00\nLe Vendredi : de 09h00 à 12h00 de 14h00 à 16h30","latitude":47.319,"longitude":-2.07502,"website":"https://ville-donges.fr/","hasWebsite":true,"hasHoraires":true,"url":"https://lannuaire.service-public.gouv.fr/pays-de-la-loire/loire-atlantique/88bae7ab-e5b8-438f-8a0d-b90bf2f9112d"}
{"nom":"Drefféac","nomNormalise":"dreffeac","typeCollectivite":"Commune","region":"Pays de la Loire","departement":"Loire-Atlantique","departementCode":"44","adresse":{"street":"7 place de l'Église","postalCode":"44530","city":"Drefféac","country":"France"},"contacts":{"email":"administration@mairie-dreffeac.fr","telephone":"0240669040"},"horaires":"Le Lundi : de 13h30 à 17h00\nLe Mardi : de 09h00 à 12h00\nLe Mercredi : de 09h00 à 12h00 de 13h30 à 17h00\nLe Jeudi : de 09h00 à 12h00\nLe Vendredi : de 09h00 à 12h00 de 13h30 à 17h00\nLe Samedi : de 09h00 à 12h00","latitude":47.476826,"longitude":-2.0575328,"website":"https://www.dreffeac.fr/","hasWebsite":true,"hasHoraires":true,"url":"https://lannuaire.service-public.gouv.fr/pays-de-la-loire/loire-atlantique/faa0ada7-d23e-46fe-b4a0-7aa43c71fe8a"}
{"nom":"Erbray","nomNormalise":"erbray","typeCollectivite":"Commune","region":"Pays de la Loire","departement":"Loire-Atlantique","departementCode":"44","adresse":{"street":"6 place de la Mairie","postalCode":"44110","city":"Erbray","country":"France"},"contacts":{"email":"accueil.mairie@erbray.fr","telephone":"0240550111"},"horaires":"Du Lundi au Mardi : de 08h30 à 12h00 de 14h00 à 17h30\nLe Mercredi : de 08h30 à 12h00\nLe Jeudi : de 08h30 à 12h00 de 14h00 à 17h30\nLe Vendredi : de 08h30 à 12h00\nLe Samedi : de 09h00 à 12h00\n\nAccueil ouvert du lundi au vendredi de 8h30 à 12h en juillet-août et fermé le samedi.","latitude":47.654495,"longitude":-1.317546,"website":"https://www.erbray.fr/","hasWebsite":true,"hasHoraires":true,"url":"https://lannuaire.service-public.gouv.fr/pays-de-la-loire/loire-atlantique/ab12d0e1-3377-4cb5-b568-96c83ec98291"}
{"nom":"Fay-de-Bretagne","nomNormalise":"faydebretagne","typeCollectivite":"Commune","region":"Pays de la Loire","departement":"Loire-Atlantique","departementCode":"44","adresse":{"street":"11 rue de la Mairie","postalCode":"44130","city":"Fay-de-Bretagne","country":"France"},"contacts":{"email":"mairie@faydebretagne.fr","telephone":"0240874218"},"horaires":"Le Lundi : de 09h00 à 12h30 de 14h00 à 17h30\nLe Mardi : de 14h00 à 17h30\nLe Mercredi : de 09h00 à 12h30\nDu Jeudi au Vendredi : de 09h00 à 12h30 de 14h00 à 17h30\nLe Samedi : de 09h00 à 12h00\n\nFermé du 17 juillet au 14 août inclus.","latitude":47.414093,"longitude":-1.79068,"website":"https://faydebretagne.fr/","hasWebsite":true,"hasHoraires":true,"url":"https://lannuaire.service-public.gouv.fr/pays-de-la-loire/loire-atlantique/87b0e1a7-b647-43d7-86f0-1efb0745f076"}
{"nom":"Fégréac","nomNormalise":"fegreac","typeCollectivite":"Commune","region":"Pays de la Loire","departement":"Loire-Atlantique","departementCode":"44","adresse":{"street":"1 rue de la Mairie","postalCode":"44460","city":"Fégréac","country":"France"},"contacts":{"email":"mairie@fegreac.fr","telephone":"0240912021"},"horaires":"Du Lundi au Vendredi : de 09h00 à 12h00 de 14h00 à 17h30\nLe Samedi : de 09h00 à 12h00\n\nSamedi matin : uniquement le premier du mois","latitude":47.5864,"longitude":-2.03986,"website":"https://www.fegreac.fr/","hasWebsite":true,"hasHoraires":true,"url":"https://lannuaire.service-public.gouv.fr/pays-de-la-loire/loire-atlantique/325ddf07-1efc-4949-92d3-9174d0f361d8"}
{"nom":"Fercé","nomNormalise":"ferce","typeCollectivite":"Commune","region":"Pays de la Loire","departement":"Loire-Atlantique","departementCode":"44","adresse":{"street":"13 rue des Jonquilles","postalCode":"44660","city":"Ruffigné","country":"France"},"contacts":{"email":"mairie.ruffigne@wanadoo.fr","telephone":"0240288252"},"horaires":"Du Lundi au Mardi : de 09h00 à 12h00 de 14h00 à 16h00\nLe Jeudi : de 09h00 à 12h00\nLe Vendredi : de 09h00 à 12h00 de 14h00 à 16h00","latitude":47.7541,"longitude":-1.48657,"website":"https://www.mairiederuffigne.fr/","hasWebsite":true,"hasHoraires":true,"url":"https://lannuaire.service-public.gouv.fr/pays-de-la-loire/loire-atlantique/8ea7d8b5-bd3c-4e2a-99f5-c31fc1847e56"}
{"nom":"Fercé","nomNormalise":"ferce","typeCollectivite":"Commune","region":"Pays de la Loire","departement":"Loire-Atlantique","departementCode":"44","adresse":{"street":"9 rue de la Mairie","postalCode":"44660","city":"Fercé","country":"France"},"contacts":{"email":"mairie.ferce@wanadoo.fr","telephone":"0240288757"},"horaires":"Du Lundi au Mardi : de 09h15 à 12h00 de 14h00 à 18h00\n\nmardi 17h\nLe Mercredi : de 09h15 à 12h00\nLe Jeudi : de 09h15 à 12h00 de 14h00 à 17h00\n\nAccueil sur rendez-vous uniquement les après-midi.\nLe Vendredi : de 09h15 à 12h00 de 14h00 à 16h00","latitude":47.795616,"longitude":-1.4159263,"website":"https://fercesursarthe.fr/","hasWebsite":true,"hasHoraires":true,"url":"https://lannuaire.service-public.gouv.fr/pays-de-la-loire/loire-atlantique/96543bf1-1271-463b-a2bb-4c83ad333d5f"}
{"nom":"Mairie déléguée - Freigné","nomNormalise":"mairiedelegueefreigne","typeCollectivite":"Commune","region":"Pays de la Loire","departement":"Loire-Atlantique","departementCode":"44","adresse":{"street":"Freigné","postalCode":"44540","city":"Vallons-de-l'Erdre","country":"France"},"contacts":{"email":"","telephone":"0285293300"},"horaires":"Du Lundi au Vendredi : de 14h00 à 17h00","latitude":47.548687,"longitude":-1.12369,"website":"https://www.vallonsdelerdre.fr/","hasWebsite":true,"hasHoraires":true,"url":"https://lannuaire.service-public.gouv.fr/pays-de-la-loire/loire-atlantique/69538380-6989-4058-a49b-8b5be9487bd7"}
{"nom":"Frossay","nomNormalise":"frossay","typeCollectivite":"Commune","region":"Pays de la Loire","departement":"Loire-Atlantique","departementCode":"44","adresse":{"street":"4 rue du Capitaine-Robert-Martin","postalCode":"44320","city":"Frossay","country":"France"},"contacts":{"email":"mairie@frossay.fr","telephone":"0240397272"},"horaires":"Le Lundi : de 09h00 à 12h30\nDu Mardi au Vendredi : de 09h00 à 12h30 de 14h00 à 17h00\nLe Samedi : de 09h00 à 12h00","latitude":47.2445,"longitude":-1.93386,"website":"https://www.frossay.fr/","hasWebsite":true,"hasHoraires":true,"url":"https://lannuaire.service-public.gouv.fr/pays-de-la-loire/loire-atlantique/42cb9313-151f-4b55-ba77-2d9e57a059fc"}
{"nom":"Geneston","nomNormalise":"geneston","typeCollectivite":"Commune","region":"Pays de la Loire","departement":"Loire-Atlantique","departementCode":"44","adresse":{"street":"37 rue Jean-Baptiste-Legeay","postalCode":"44140","city":"Geneston","country":"France"},"contacts":{"email":"mairie@geneston.fr","telephone":"0240261020"},"horaires":"Le Lundi : de 08h30 à 12h30 de 13h30 à 17h00\nLe Mardi : de 08h30 à 12h30\nLe Mercredi : de 08h30 à 12h30 de 13h30 à 17h00\nLe Jeudi : de 08h30 à 12h30\nLe Vendredi : de 08h30 à 12h30 de 13h30 à 17h00\nLe Samedi : de 09h00 à 12h00\n\nAccueil ouvert un samedi sur deux les semaines paires.","latitude":47.058,"longitude":-1.52496,"website":"https://www.geneston.fr/","hasWebsite":true,"hasHoraires":true,"url":"https://lannuaire.service-public.gouv.fr/pays-de-la-loire/loire-atlantique/6b58c1e3-6b5b-4775-a426-fda621d44b6c"}
{"nom":"Gétigné","nomNormalise":"getigne","typeCollectivite":"Commune","region":"Pays de la Loire","departement":"Loire-Atlantique","departementCode":"44","adresse":{"street":"4 rue du Pont-Jean-Vay","postalCode":"44190","city":"Gétigné","country":"France"},"contacts":{"email":"mairie@getigne.fr","telephone":"0240360707"},"horaires":"Le Lundi : de 09h00 à 12h00 de 14h00 à 17h30\nLe Mardi : de 09h00 à 12h00\nLe Mercredi : de 09h00 à 12h00 de 14h00 à 17h30\nLe Jeudi : de 09h00 à 12h00\nLe Vendredi : de 08h00 à 12h00 de 14h00 à 17h30\nLe Samedi : de 09h00 à 12h00\n\nAccueil ouvert le samedi pour l'état civil uniquement.","latitude":47.0779,"longitude":-1.24918,"website":"https://www.getigne.fr/","hasWebsite":true,"hasHoraires":true,"url":"https://lannuaire.service-public.gouv.fr/pays-de-la-loire/loire-atlantique/6a5991d4-7098-4582-a7de-3683b97701af"}
{"nom":"Gorges","nomNormalise":"gorges","typeCollectivite":"Commune","region":"Pays de la Loire","departement":"Loire-Atlantique","departementCode":"44","adresse":{"street":"3 place de l'Église","postalCode":"44190","city":"Gorges","country":"France"},"contacts":{"email":"contact@gorges44.fr","telephone":"0240069390"},"horaires":"Du Lundi au Vendredi : de 09h00 à 12h00 de 15h30 à 17h30\nLe Samedi : de 09h00 à 12h00","latitude":47.101,"longitude":-1.30215,"website":"https://www.gorges44.fr/","hasWebsite":true,"hasHoraires":true,"url":"https://lannuaire.service-public.gouv.fr/pays-de-la-loire/loire-atlantique/fae8dfff-9afe-437d-ae78-e51f0892df32"}
{"nom":"Grand-Auverné","nomNormalise":"grandauverne","typeCollectivite":"Commune","region":"Pays de la Loire","departement":"Loire-Atlantique","departementCode":"44","adresse":{"street":"7 rue de la Barre-David","postalCode":"44520","city":"Grand-Auverné","country":"France"},"contacts":{"email":"accueil@grand-auverne.fr","telephone":"0240075212"},"horaires":"Du Lundi au Vendredi : de 09h00 à 12h30","latitude":47.589874,"longitude":-1.3290795,"website":"https://grand-auverne.fr/","hasWebsite":true,"hasHoraires":true,"url":"https://lannuaire.service-public.gouv.fr/pays-de-la-loire/loire-atlantique/22cd8dbe-17c3-4bd9-95ae-259f6c7a6448"}
{"nom":"Grandchamp-des-Fontaines","nomNormalise":"grandchampdesfontaines","typeCollectivite":"Commune","region":"Pays de la Loire","departement":"Loire-Atlantique","departementCode":"44","adresse":{"street":"25 avenue du Général-de-Gaulle","postalCode":"44119","city":"Grandchamp-des-Fontaines","country":"France"},"contacts":{"email":"contact@grandchampdesfontaines.fr","telephone":"0240771326"},"horaires":"Du Lundi au Mercredi : de 08h30 à 12h00 de 13h30 à 17h00\nLe Jeudi : de 08h30 à 12h00\nLe Vendredi : de 08h30 à 12h00 de 13h30 à 17h00\nLe Samedi : de 09h00 à 12h00\n\nAccueil ouvert uniquement les 1er et 3e samedis du mois.","latitude":47.364296,"longitude":-1.605771,"website":"https://www.grandchampdesfontaines.fr/","hasWebsite":true,"hasHoraires":true,"url":"https://lannuaire.service-public.gouv.fr/pays-de-la-loire/loire-atlantique/92a12b31-9c7e-432b-b3be-4ad078a2bb3c"}
{"nom":"Guémené-Penfao","nomNormalise":"guemenepenfao","typeCollectivite":"Commune","region":"Pays de la Loire","departement":"Loire-Atlantique","departementCode":"44","adresse":{"street":"22 rue de l'Hôtel-de-Ville","postalCode":"44290","city":"Guémené-Penfao","country":"France"},"contacts":{"email":"contact@mairie-guemene-penfao.fr","telephone":"0240792424"},"horaires":"Du Lundi au Jeudi : de 08h30 à 12h30 de 13h30 à 17h30\nLe Vendredi : de 08h30 à 12h30 de 13h30 à 16h30\nLe Samedi : de 09h00 à 12h00\n\nUniquement pour l'état civil.","latitude":47.62867,"longitude":-1.834333,"website":"https://www.mairie-guemene-penfao.fr/","hasWebsite":true,"hasHoraires":true,"url":"https://lannuaire.service-public.gouv.fr/pays-de-la-loire/loire-atlantique/709317f6-dd95-408f-98c7-81e2c819914b"}
{"nom":"Guenrouet","nomNormalise":"guenrouet","typeCollectivite":"Commune","region":"Pays de la Loire","departement":"Loire-Atlantique","departementCode":"44","adresse":{"street":"1 rue André-Caux","postalCode":"44530","city":"Genrouët","country":"France"},"contacts":{"email":"mairie@guenrouet.fr","telephone":"0240876418"},"horaires":"Du Lundi au Mercredi : de 08h30 à 12h00 de 13h30 à 16h30\nLe Vendredi : de 08h30 à 12h00 de 13h30 à 16h30\nLe Samedi : de 08h30 à 12h00","latitude":47.5192,"longitude":-1.95833,"website":"https://www.guenrouet.fr/","hasWebsite":true,"hasHoraires":true,"url":"https://lannuaire.service-public.gouv.fr/pays-de-la-loire/loire-atlantique/59db9296-4d64-4da6-a4b5-d84271e7e7bc"}
{"nom":"Guérande","nomNormalise":"guerande","typeCollectivite":"Commune","region":"Pays de la Loire","departement":"Loire-Atlantique","departementCode":"44","adresse":{"street":"7 place du Marché-au-Bois","postalCode":"44350","city":"Guérande","country":"France"},"contacts":{"email":"accueil.mairie@ville-guerande.fr","telephone":"0240156040"},"horaires":"Du Lundi au Vendredi : de 08h30 à 12h00 de 13h30 à 17h30\nLe Samedi : de 09h00 à 12h00\n\nAccueil ouvert uniquement pour l'état civil et les formalités administratives.","latitude":47.327717,"longitude":-2.4263816,"website":"https://www.ville-guerande.fr/","hasWebsite":true,"hasHoraires":true,"url":"https://lannuaire.service-public.gouv.fr/pays-de-la-loire/loire-atlantique/73191e29-926c-48d7-a4b8-ea6280c17f0b"}
{"nom":"Haute-Goulaine","nomNormalise":"hautegoulaine","typeCollectivite":"Commune","region":"Pays de la Loire","departement":"Loire-Atlantique","departementCode":"44","adresse":{"street":"2 rue Victor-Hugo","postalCode":"44115","city":"Haute-Goulaine","country":"France"},"contacts":{"email":"mairie@hautegoulaine.fr","telephone":"0240549222"},"horaires":"Du Lundi au Mercredi : de 08h45 à 12h00 de 14h00 à 17h30\nLe Jeudi : de 08h45 à 12h00\nLe Vendredi : de 08h45 à 12h00 de 14h00 à 17h30\nLe Samedi : de 09h00 à 12h00","latitude":47.198017,"longitude":-1.4307864,"website":"https://www.hautegoulaine.fr/","hasWebsite":true,"hasHoraires":true,"url":"https://lannuaire.service-public.gouv.fr/pays-de-la-loire/loire-atlantique/d5250d72-1c37-4d35-a75c-ead7e5315b34"}
{"nom":"Herbignac","nomNormalise":"herbignac","typeCollectivite":"Commune","region":"Pays de la Loire","departement":"Loire-Atlantique","departementCode":"44","adresse":{"street":"1 avenue de la Monneraye","postalCode":"44410","city":"Herbignac","country":"France"},"contacts":{"email":"contact@herbignac.com","telephone":"0240889001"},"horaires":"Du Lundi au Vendredi : de 09h00 à 12h00 de 13h30 à 17h30\nLe Jeudi : de 08h30 à 13h00\nLe Samedi : de 09h00 à 12h00\n\nEtat-Civil uniquement","latitude":47.4493,"longitude":-2.31671,"website":"https://www.herbignac.com/","hasWebsite":true,"hasHoraires":true,"url":"https://lannuaire.service-public.gouv.fr/pays-de-la-loire/loire-atlantique/ac0c03b2-57ad-437f-b158-20dd942d1d40"}
{"nom":"Héric","nomNormalise":"heric","typeCollectivite":"Commune","region":"Pays de la Loire","departement":"Loire-Atlantique","departementCode":"44","adresse":{"street":"2 rue Saint-Jean","postalCode":"44810","city":"Héric","country":"France"},"contacts":{"email":"contact.mairie@heric.fr","telephone":"0240579610"},"horaires":"Le Lundi : de 09h00 à 12h30 de 14h00 à 17h30\nLe Mardi : de 09h00 à 12h30\nLe Mercredi : de 09h00 à 12h30 de 14h00 à 17h30\nLe Jeudi : de 09h00 à 12h30\nLe Vendredi : de 09h00 à 12h30 de 14h00 à 17h30\nLe Samedi : de 09h30 à 12h00","latitude":47.412,"longitude":-1.65152,"website":"https://www.heric.fr/","hasWebsite":true,"hasHoraires":true,"url":"https://lannuaire.service-public.gouv.fr/pays-de-la-loire/loire-atlantique/cfb848b0-8d31-4898-a5ff-94a798fdd38d"}
{"nom":"Indre","nomNormalise":"indre","typeCollectivite":"Commune","region":"Pays de la Loire","departement":"Loire-Atlantique","departementCode":"44","adresse":{"street":"51 avenue de la Loire","postalCode":"44610","city":"Indre","country":"France"},"contacts":{"email":"mairie@indre44.fr","telephone":"0240854585"},"horaires":"Du Lundi au Mercredi : de 08h30 à 12h00 de 13h30 à 17h30\nLe Jeudi : de 13h30 à 17h30\nLe Vendredi : de 08h30 à 12h00 de 13h30 à 17h30","latitude":47.200375,"longitude":-1.667816,"website":"https://www.indre44.fr/","hasWebsite":true,"hasHoraires":true,"url":"https://lannuaire.service-public.gouv.fr/pays-de-la-loire/loire-atlantique/f9436330-faf1-4c09-aa4a-2b6289f575bd"}
{"nom":"Issé","nomNormalise":"isse","typeCollectivite":"Commune","region":"Pays de la Loire","departement":"Loire-Atlantique","departementCode":"44","adresse":{"street":"1 rue de la Coutrie","postalCode":"44520","city":"Issé","country":"France"},"contacts":{"email":"mairie.isse@orange.fr","telephone":"0240551923"},"horaires":"Du Lundi au Vendredi : de 08h30 à 12h30","latitude":47.6227,"longitude":-1.43678,"website":"http://www.isse.fr/","hasWebsite":true,"hasHoraires":true,"url":"https://lannuaire.service-public.gouv.fr/pays-de-la-loire/loire-atlantique/51560a3a-636e-448c-b8ac-6759d4d5923e"}
{"nom":"Jans","nomNormalise":"jans","typeCollectivite":"Commune","region":"Pays de la Loire","departement":"Loire-Atlantique","departementCode":"44","adresse":{"street":"8 place de l'Église","postalCode":"44170","city":"Jans","country":"France"},"contacts":{"email":"accueil.mairie@jans.fr","telephone":"0240514373"},"horaires":"Du Lundi au Vendredi : de 08h30 à 12h30\nLe Samedi : de 09h00 à 12h00","latitude":47.62223,"longitude":-1.6124058,"website":"http://www.mairie-jans.fr/","hasWebsite":true,"hasHoraires":true,"url":"https://lannuaire.service-public.gouv.fr/pays-de-la-loire/loire-atlantique/36711a85-f76d-4d80-ac15-98df5de51759"}
{"nom":"Joué-sur-Erdre","nomNormalise":"jouesurerdre","typeCollectivite":"Commune","region":"Pays de la Loire","departement":"Loire-Atlantique","departementCode":"44","adresse":{"street":"87 rue du Bocage","postalCode":"44440","city":"Joué-sur-Erdre","country":"France"},"contacts":{"email":"mairiejouesurerdre@wanadoo.fr","telephone":"0240723543"},"horaires":"Du Lundi au Jeudi : de 09h00 à 12h00\nLe Vendredi : de 09h00 à 12h00 de 14h00 à 17h00\nLe Samedi : de 09h00 à 12h00\n\nAccueil fermé en juillet-août.","latitude":47.496002,"longitude":-1.419917,"website":"https://www.jouesurerdre.fr/","hasWebsite":true,"hasHoraires":true,"url":"https://lannuaire.service-public.gouv.fr/pays-de-la-loire/loire-atlantique/4af107d3-8584-4d55-b0bb-610afce78695"}
{"nom":"Juigné-des-Moutiers","nomNormalise":"juignedesmoutiers","typeCollectivite":"Commune","region":"Pays de la Loire","departement":"Loire-Atlantique","departementCode":"44","adresse":{"street":"11 rue de la Mairie","postalCode":"44670","city":"Juigné-des-Moutiers","country":"France"},"contacts":{"email":"mairie@juignedesmoutiers.fr","telephone":"0240555106"},"horaires":"Le Lundi : de 09h00 à 13h00\nLe Mardi : de 09h00 à 13h00 de 14h00 à 18h00\nLe Mercredi : de 14h00 à 17h00\nLe Jeudi : de 10h00 à 13h00 de 14h00 à 16h00","latitude":47.6789,"longitude":-1.18762,"website":"http://www.juignedesmoutiers.fr/","hasWebsite":true,"hasHoraires":true,"url":"https://lannuaire.service-public.gouv.fr/pays-de-la-loire/loire-atlantique/de1db1d0-85d2-417f-9acf-36a675a6250e"}
{"nom":"La Baule-Escoublac","nomNormalise":"labauleescoublac","typeCollectivite":"Commune","region":"Pays de la Loire","departement":"Loire-Atlantique","departementCode":"44","adresse":{"street":"7 avenue Olivier-Guichard","postalCode":"44500","city":"La Baule-Escoublac","country":"France"},"contacts":{"email":"accueil@mairie-labaule.fr","telephone":"0251757575"},"horaires":"Du Lundi au Vendredi : de 08h30 à 12h30 de 13h30 à 17h00\nLe Samedi : de 09h00 à 12h00\n\nAccueil ouvert uniquement pour l'état civil.","latitude":47.29474,"longitude":-2.359763,"website":"http://www.labaule.fr/","hasWebsite":true,"hasHoraires":true,"url":"https://lannuaire.service-public.gouv.fr/pays-de-la-loire/loire-atlantique/e26eecfc-18d1-4c95-a1fb-6c877793f490"}
{"nom":"La Bernerie-en-Retz","nomNormalise":"labernerieenretz","typeCollectivite":"Commune","region":"Pays de la Loire","departement":"Loire-Atlantique","departementCode":"44","adresse":{"street":"16 rue Georges-Clemenceau","postalCode":"44760","city":"La Bernerie-en-Retz","country":"France"},"contacts":{"email":"accueil@mairie-labernerie.fr","telephone":"0240827056"},"horaires":"Le Lundi : de 09h00 à 12h00 de 14h00 à 17h00\nLe Mardi : de 09h00 à 12h00 de 15h00 à 17h00\nLe Mercredi : de 09h00 à 12h00\nDu Jeudi au Vendredi : de 09h00 à 12h00 de 14h00 à 17h00\nLe Samedi : de 09h30 à 12h00\n\nUniquement le 1er samedi du mois","latitude":47.0822,"longitude":-2.03922,"website":"https://mairie-labernerie.fr/","hasWebsite":true,"hasHoraires":true,"url":"https://lannuaire.service-public.gouv.fr/pays-de-la-loire/loire-atlantique/022572a6-e94d-4dbe-b53b-978629a6f5dd"}
{"nom":"La Boissière-du-Doré","nomNormalise":"laboissieredudore","typeCollectivite":"Commune","region":"Pays de la Loire","departement":"Loire-Atlantique","departementCode":"44","adresse":{"street":"8 place de la Mairie","postalCode":"44430","city":"La Boissière-du-Doré","country":"France"},"contacts":{"email":"accueil@mairie-laboissieredudore.fr","telephone":"0240337016"},"horaires":"Le Lundi : de 08h30 à 12h00\nLe Mardi : de 16h00 à 18h30\nDu Jeudi au Vendredi : de 08h30 à 12h00","latitude":47.2318,"longitude":-1.21807,"website":"https://www.mairie-laboissieredudore.fr/","hasWebsite":true,"hasHoraires":true,"url":"https://lannuaire.service-public.gouv.fr/pays-de-la-loire/loire-atlantique/1f44cb4f-953a-40ee-832d-e151d396404a"}
{"nom":"La Chapelle-des-Marais","nomNormalise":"lachapelledesmarais","typeCollectivite":"Commune","region":"Pays de la Loire","departement":"Loire-Atlantique","departementCode":"44","adresse":{"street":"16 rue de la Brière","postalCode":"44410","city":"La Chapelle-des-Marais","country":"France"},"contacts":{"email":"contact@lachapelledesmarais.fr","telephone":"0240532202"},"horaires":"Le Lundi : de 09h00 à 12h00\nDu Mardi au Mercredi : de 09h00 à 12h00 de 14h00 à 17h00\nLe Jeudi : de 09h00 à 12h00\nLe Vendredi : de 09h00 à 12h00 de 14h00 à 16h00\nLe Samedi : de 10h00 à 12h00","latitude":47.4467,"longitude":-2.24249,"website":"http://www.lachapelledesmarais.fr/","hasWebsite":true,"hasHoraires":true,"url":"https://lannuaire.service-public.gouv.fr/pays-de-la-loire/loire-atlantique/b95662e0-1095-471f-8098-b3d4724fc1ee"}
{"nom":"La Chapelle-Glain","nomNormalise":"lachapelleglain","typeCollectivite":"Commune","region":"Pays de la Loire","departement":"Loire-Atlantique","departementCode":"44","adresse":{"street":"4 rue du Flavier","postalCode":"44670","city":"La Chapelle-Glain","country":"France"},"contacts":{"email":"communelachapelleglain@wanadoo.fr","telephone":"0240555223"},"horaires":"Le Lundi : de 09h00 à 12h00\nLe Mardi : de 09h00 à 12h00 de 14h30 à 16h00\nDu Mercredi au Jeudi : de 09h00 à 12h00\nLe Vendredi : de 09h00 à 12h00 de 14h00 à 16h00","latitude":47.6238,"longitude":-1.19775,"website":"http://www.la-chapelle-glain.fr/","hasWebsite":true,"hasHoraires":true,"url":"https://lannuaire.service-public.gouv.fr/pays-de-la-loire/loire-atlantique/8014180d-6264-4f94-930a-1599018ac2f8"}
{"nom":"La Chapelle-Heulin","nomNormalise":"lachapelleheulin","typeCollectivite":"Commune","region":"Pays de la Loire","departement":"Loire-Atlantique","departementCode":"44","adresse":{"street":"27 rue Aristide-Briand","postalCode":"44330","city":"La Chapelle-Heulin","country":"France"},"contacts":{"email":"accueil@mairie-lachapelleheulin.fr","telephone":"0240067405"},"horaires":"Le Lundi : de 08h30 à 12h00 de 17h00 à 19h00\nLe Mardi : de 14h00 à 17h00\nLe Mercredi : de 08h30 à 12h00 de 14h00 à 16h00\nDu Jeudi au Vendredi : de 08h30 à 12h00 de 14h00 à 17h00","latitude":47.175087,"longitude":-1.341476,"website":"https://www.mairie-lachapelleheulin.fr/","hasWebsite":true,"hasHoraires":true,"url":"https://lannuaire.service-public.gouv.fr/pays-de-la-loire/loire-atlantique/21a2171d-2b03-4d66-8a6b-d07f12f83521"}
{"nom":"La Chapelle-Launay","nomNormalise":"lachapellelaunay","typeCollectivite":"Commune","region":"Pays de la Loire","departement":"Loire-Atlantique","departementCode":"44","adresse":{"street":"2 place de l'Église","postalCode":"44260","city":"La Chapelle-Launay","country":"France"},"contacts":{"email":"mairie@lachapellelaunay.fr","telephone":"0240583305"},"horaires":"Le Lundi : de 08h45 à 12h00 de 14h00 à 18h00\nLe Mardi : de 08h45 à 12h00\nLe Mercredi : de 08h45 à 12h00 de 14h00 à 18h00\nLe Jeudi : de 08h45 à 12h00\nLe Vendredi : de 08h45 à 12h00 de 14h00 à 18h00\nLe Samedi : de 08h45 à 12h00","latitude":47.372517,"longitude":-1.971609,"website":"https://www.lachapellelaunay.fr/","hasWebsite":true,"hasHoraires":true,"url":"https://lannuaire.service-public.gouv.fr/pays-de-la-loire/loire-atlantique/f1c170b4-c3d5-4bed-8156-cc6660aac55e"}
{"nom":"La Chapelle-sur-Erdre","nomNormalise":"lachapellesurerdre","typeCollectivite":"Commune","region":"Pays de la Loire","departement":"Loire-Atlantique","departementCode":"44","adresse":{"street":"16 rue Olivier-de-Sesmaisons","postalCode":"44240","city":"La Chapelle-sur-Erdre","country":"France"},"contacts":{"email":"communication@lachapellesurerdre.fr","telephone":"0251818710"},"horaires":"Le Lundi : de 08h30 à 12h30 de 14h00 à 17h30\nLe Mardi : de 08h30 à 12h30\nDu Mercredi au Vendredi : de 08h30 à 12h30 de 14h00 à 17h30\nLe Samedi : de 09h00 à 12h00\n\nAccueil ouvert uniquement pour l'état civil.","latitude":47.299793,"longitude":-1.549985,"website":"https://www.lachapellesurerdre.fr/","hasWebsite":true,"hasHoraires":true,"url":"https://lannuaire.service-public.gouv.fr/pays-de-la-loire/loire-atlantique/0d25eb2f-c58f-409d-8b56-0c3279182aed"}
{"nom":"La Chevallerais","nomNormalise":"lachevallerais","typeCollectivite":"Commune","region":"Pays de la Loire","departement":"Loire-Atlantique","departementCode":"44","adresse":{"street":"14 place de l'Église","postalCode":"44810","city":"La Chevallerais","country":"France"},"contacts":{"email":"mairie@lachevallerais.fr","telephone":"0240791012"},"horaires":"Du Lundi au Vendredi : de 08h30 à 12h30\nLe Samedi : de 09h00 à 12h00\n\nAccueil fermé du 14 juillet au 15 août.","latitude":47.4667,"longitude":-1.67308,"website":"https://www.lachevallerais.fr/","hasWebsite":true,"hasHoraires":true,"url":"https://lannuaire.service-public.gouv.fr/pays-de-la-loire/loire-atlantique/36c97102-2c8a-4227-b26c-44995f95218e"}
{"nom":"La Chevrolière","nomNormalise":"lachevroliere","typeCollectivite":"Commune","region":"Pays de la Loire","departement":"Loire-Atlantique","departementCode":"44","adresse":{"street":"2 place de l'Hôtel-de-Ville","postalCode":"44118","city":"La Chevrolière","country":"France"},"contacts":{"email":"commune@mairie-lachevroliere.fr","telephone":"0240133000"},"horaires":"Du Lundi au Vendredi : de 08h30 à 12h00 de 14h00 à 17h00\n\nAccueil ouvert uniquement de 8h30 à 12h, du 19 juillet au 15 août.\nLe Samedi : de 09h30 à 12h00","latitude":47.092,"longitude":-1.60967,"website":"http://www.mairie-lachevroliere.com/","hasWebsite":true,"hasHoraires":true,"url":"https://lannuaire.service-public.gouv.fr/pays-de-la-loire/loire-atlantique/2bac6df8-0314-466a-814c-bcaf9e43af9d"}
{"nom":"La Grigonnais","nomNormalise":"lagrigonnais","typeCollectivite":"Commune","region":"Pays de la Loire","departement":"Loire-Atlantique","departementCode":"44","adresse":{"street":"3 rue de l'Abbé-Mérel","postalCode":"44170","city":"La Grigonnais","country":"France"},"contacts":{"email":"mairie@lagrigonnais.fr","telephone":"0240513661"},"horaires":"Du Lundi au Mercredi : de 09h00 à 12h30\nLe Vendredi : de 09h00 à 12h30\nLe Samedi : de 09h00 à 12h00","latitude":47.5246,"longitude":-1.66574,"website":"https://www.lagrigonnais.fr/","hasWebsite":true,"hasHoraires":true,"url":"https://lannuaire.service-public.gouv.fr/pays-de-la-loire/loire-atlantique/ae9d76f0-cf5b-4a9c-b3cf-8f213f13f701"}
{"nom":"La Haie-Fouassière","nomNormalise":"lahaiefouassiere","typeCollectivite":"Commune","region":"Pays de la Loire","departement":"Loire-Atlantique","departementCode":"44","adresse":{"street":"6 rue de la Gare","postalCode":"44690","city":"La Haie-Fouassière","country":"France"},"contacts":{"email":"accueil.mairie@la-haye-fouassiere.fr","telephone":"0240548023"},"horaires":"Du Lundi au Mercredi : de 09h00 à 12h30 de 14h00 à 17h00\nLe Vendredi : de 09h00 à 12h30 de 14h00 à 17h00\nLe Samedi : de 09h00 à 12h00","latitude":47.155388,"longitude":-1.39936,"website":"https://www.la-haye-fouassiere.fr/","hasWebsite":true,"hasHoraires":true,"url":"https://lannuaire.service-public.gouv.fr/pays-de-la-loire/loire-atlantique/5ca85176-5ef3-449e-ab12-37c6a1fe9fd2"}
{"nom":"La Limouzinière","nomNormalise":"lalimouziniere","typeCollectivite":"Commune","region":"Pays de la Loire","departement":"Loire-Atlantique","departementCode":"44","adresse":{"street":"10 rue Charles-de-Gaulle","postalCode":"44310","city":"La Limouzinière","country":"France"},"contacts":{"email":"accueil@lalimouziniere.fr","telephone":"0240058282"},"horaires":"Le Lundi : de 08h45 à 12h15 de 15h00 à 17h00\nLe Mardi : de 08h15 à 12h15\nLe Mercredi : de 08h45 à 12h15 de 15h00 à 17h00\nLe Jeudi : de 08h15 à 12h15\nLe Vendredi : de 08h45 à 12h15 de 15h00 à 17h00\nLe Samedi : de 08h45 à 12h15","latitude":46.9913,"longitude":-1.6062,"website":"http://www.mairie-la-limouziniere.com/","hasWebsite":true,"hasHoraires":true,"url":"https://lannuaire.service-public.gouv.fr/pays-de-la-loire/loire-atlantique/58b9f083-a1ab-4c87-997d-a46025063c79"}
{"nom":"La Marne","nomNormalise":"lamarne","typeCollectivite":"Commune","region":"Pays de la Loire","departement":"Loire-Atlantique","departementCode":"44","adresse":{"street":"14 rue de la Mairie","postalCode":"44270","city":"La Marne","country":"France"},"contacts":{"email":"accueil.mairie@la-marne.fr","telephone":"0240262128"},"horaires":"Du Lundi au Mercredi : de 08h30 à 12h30\nLe Jeudi : de 09h00 à 12h30\nLe Vendredi : de 09h00 à 12h30 de 13h30 à 16h15","latitude":46.9948,"longitude":-1.74129,"website":"https://www.la-marne.fr/","hasWebsite":true,"hasHoraires":true,"url":"https://lannuaire.service-public.gouv.fr/pays-de-la-loire/loire-atlantique/080588cb-6434-4a2f-b8e3-f2bc6dd3c9a1"}
{"nom":"La Meilleraye-de-Bretagne","nomNormalise":"lameillerayedebretagne","typeCollectivite":"Commune","region":"Pays de la Loire","departement":"Loire-Atlantique","departementCode":"44","adresse":{"street":"72 rue des Frères-Templé","postalCode":"44520","city":"La Meilleraye-de-Bretagne","country":"France"},"contacts":{"email":"mairie.meilleraye@wanadoo.fr","telephone":"0240552006"},"horaires":"Du Lundi au Vendredi : de 09h00 à 13h00\nAccueil ouvert uniquement sur rendez-vous les après-midi sauf le vendredi.","latitude":47.55818,"longitude":-1.402822,"website":"","hasWebsite":false,"hasHoraires":true,"url":"https://lannuaire.service-public.gouv.fr/pays-de-la-loire/loire-atlantique/0a088776-c7fc-4278-b769-723c068e10e3"}
{"nom":"La Montagne","nomNormalise":"lamontagne","typeCollectivite":"Commune","region":"Pays de la Loire","departement":"Loire-Atlantique","departementCode":"44","adresse":{"street":"Place François-Mitterrand","postalCode":"44620","city":"La Montagne","country":"France"},"contacts":{"email":"mairie@ville-lamontagne.fr","telephone":"0240656468"},"horaires":"Du Lundi au Vendredi : de 09h00 à 12h00 de 14h00 à 17h30\nLe Samedi : de 10h00 à 12h00\n\nAccueil ouvert uniquement pour l'état civil et fermé de mi-juillet à fin août.","latitude":47.19108,"longitude":-1.686556,"website":"https://www.ville-lamontagne.fr/","hasWebsite":true,"hasHoraires":true,"url":"https://lannuaire.service-public.gouv.fr/pays-de-la-loire/loire-atlantique/4af20974-0c30-4bc6-b530-9f4a27879d09"}
{"nom":"La Plaine-sur-Mer","nomNormalise":"laplainesurmer","typeCollectivite":"Commune","region":"Pays de la Loire","departement":"Loire-Atlantique","departementCode":"44","adresse":{"street":"Place du Fort-Gentil","postalCode":"44770","city":"La Plaine-sur-Mer","country":"France"},"contacts":{"email":"contact-mairie@laplainesurmer.fr","telephone":"0240215014"},"horaires":"Du Lundi au Vendredi : de 09h00 à 12h00 de 13h30 à 16h30","latitude":47.137867,"longitude":-2.1910145,"website":"https://www.laplainesurmer.fr/","hasWebsite":true,"hasHoraires":true,"url":"https://lannuaire.service-public.gouv.fr/pays-de-la-loire/loire-atlantique/b7592313-1aaa-4a7f-9a52-a3724ad353b3"}
{"nom":"La Planche","nomNormalise":"laplanche","typeCollectivite":"Commune","region":"Pays de la Loire","departement":"Loire-Atlantique","departementCode":"44","adresse":{"street":"1 place de la Mairie","postalCode":"44140","city":"La Planche","country":"France"},"contacts":{"email":"mairie@laplanche.fr","telephone":"0240319276"},"horaires":"Du Lundi au Mercredi : de 09h00 à 12h30 de 14h30 à 17h30\nLe Jeudi : de 09h00 à 12h30\nLe Vendredi : de 09h00 à 12h30 de 14h30 à 16h30\nLe Samedi : de 10h00 à 12h00","latitude":47.0576,"longitude":-1.48759,"website":"https://laplanche.fr/fr/","hasWebsite":true,"hasHoraires":true,"url":"https://lannuaire.service-public.gouv.fr/pays-de-la-loire/loire-atlantique/19df3218-caea-400c-9857-e1d67c14203a"}
{"nom":"La Regrippière","nomNormalise":"laregrippiere","typeCollectivite":"Commune","region":"Pays de la Loire","departement":"Loire-Atlantique","departementCode":"44","adresse":{"street":"11 place de l'Église","postalCode":"44330","city":"La Regrippière","country":"France"},"contacts":{"email":"contact@mairie-laregrippiere.fr","telephone":"0240336314"},"horaires":"Du Lundi au Samedi : de 09h00 à 12h30","latitude":47.181,"longitude":-1.17644,"website":"https://www.mairie-laregrippiere.fr/","hasWebsite":true,"hasHoraires":true,"url":"https://lannuaire.service-public.gouv.fr/pays-de-la-loire/loire-atlantique/99693b48-d742-4590-a4ff-6d431b0ebcc1"}
{"nom":"La Remaudière","nomNormalise":"laremaudiere","typeCollectivite":"Commune","region":"Pays de la Loire","departement":"Loire-Atlantique","departementCode":"44","adresse":{"street":"22 rue Olivier-de-Clisson","postalCode":"44430","city":"La Remaudière","country":"France"},"contacts":{"email":"secretariat@laremaudiere.fr","telephone":"0240337230"},"horaires":"Le Mardi : de 09h00 à 12h30 de 15h00 à 19h00\nDu Mercredi au Jeudi : de 09h00 à 12h30\nLe Vendredi : de 09h00 à 12h30 de 14h00 à 17h00","latitude":47.236057,"longitude":-1.2441727,"website":"http://www.laremaudiere.fr/","hasWebsite":true,"hasHoraires":true,"url":"https://lannuaire.service-public.gouv.fr/pays-de-la-loire/loire-atlantique/b0132446-05a3-4ff8-a3c2-f26853aacae9"}
{"nom":"La Roche-Blanche","nomNormalise":"larocheblanche","typeCollectivite":"Commune","region":"Pays de la Loire","departement":"Loire-Atlantique","departementCode":"44","adresse":{"street":"171 rue Saint-Michel","postalCode":"44522","city":"La Roche-Blanche","country":"France"},"contacts":{"email":"accueil@larocheblanche.fr","telephone":"0240984112"},"horaires":"Le Lundi : de 14h00 à 18h00\nLe Mardi : de 09h00 à 12h00\nLe Mercredi : de 14h00 à 17h00\nDu Jeudi au Vendredi : de 09h00 à 12h00","latitude":47.442,"longitude":-1.13247,"website":"https://www.larocheblanche.fr/","hasWebsite":true,"hasHoraires":true,"url":"https://lannuaire.service-public.gouv.fr/pays-de-la-loire/loire-atlantique/755e4674-faf3-47c6-8486-55d73c160649"}
{"nom":"La Turballe","nomNormalise":"laturballe","typeCollectivite":"Commune","region":"Pays de la Loire","departement":"Loire-Atlantique","departementCode":"44","adresse":{"street":"10 rue de la Fontaine","postalCode":"44420","city":"La Turballe Cedex","country":"France"},"contacts":{"email":"secretariat.general@laturballe.fr","telephone":"0240118800"},"horaires":"Du Lundi au Vendredi : de 09h00 à 12h00 de 14h00 à 17h00\nLe Samedi : de 09h00 à 12h00","latitude":47.346355,"longitude":-2.5090404,"website":"https://www.laturballe.fr/","hasWebsite":true,"hasHoraires":true,"url":"https://lannuaire.service-public.gouv.fr/pays-de-la-loire/loire-atlantique/6ca97f00-1290-4022-a3d7-c76399eddab8"}
{"nom":"Lavau-sur-Loire","nomNormalise":"lavausurloire","typeCollectivite":"Commune","region":"Pays de la Loire","departement":"Loire-Atlantique","departementCode":"44","adresse":{"street":"1 rue de la Mairie","postalCode":"44260","city":"Lavau-sur-Loire","country":"France"},"contacts":{"email":"accueil@lavau-sur-loire.fr","telephone":"0240561026"},"horaires":"Du Mardi au Mercredi : de 15h00 à 18h00\nLe Vendredi : de 15h00 à 18h00\nLe Samedi : de 09h00 à 12h00\n\nAccueil fermé en juillet-août.","latitude":47.306507,"longitude":-1.9676042,"website":"https://www.lavau-sur-loire.fr/","hasWebsite":true,"hasHoraires":true,"url":"https://lannuaire.service-public.gouv.fr/pays-de-la-loire/loire-atlantique/cc889e15-04bf-445d-b2f8-2301d692f5ee"}
{"nom":"Le Bignon","nomNormalise":"lebignon","typeCollectivite":"Commune","region":"Pays de la Loire","departement":"Loire-Atlantique","departementCode":"44","adresse":{"street":"11 rue du Moulin","postalCode":"44140","city":"Le Bignon","country":"France"},"contacts":{"email":"accueil@mairielebignon.fr","telephone":"0240781212"},"horaires":"Le Lundi : de 08h30 à 12h00 de 13h30 à 17h00\nLe Mardi : de 08h30 à 12h00\nLe Mercredi : de 08h30 à 12h00 de 13h30 à 17h00\nLe Jeudi : de 08h30 à 12h00\nLe Vendredi : de 08h30 à 12h00 de 13h30 à 17h00\nLe Samedi : de 09h00 à 12h00\n\nUniquement semaine impaire.","latitude":47.0981,"longitude":-1.49082,"website":"https://www.mairielebignon.fr/","hasWebsite":true,"hasHoraires":true,"url":"https://lannuaire.service-public.gouv.fr/pays-de-la-loire/loire-atlantique/0204c0d5-f842-4f5c-a9a0-812d4d0ad31c"}
{"nom":"Le Cellier","nomNormalise":"lecellier","typeCollectivite":"Commune","region":"Pays de la Loire","departement":"Loire-Atlantique","departementCode":"44","adresse":{"street":"62 rue de Bel-Air","postalCode":"44850","city":"Le Cellier","country":"France"},"contacts":{"email":"mairie@lecellier.fr","telephone":"0240254018"},"horaires":"Le Lundi : de 14h00 à 17h00\nDu Mardi au Vendredi : de 09h00 à 12h00 de 14h00 à 17h00\nLe Samedi : de 09h30 à 12h30\n\nFermé pendant les vacances scolaires.","latitude":47.325768,"longitude":-1.348493,"website":"https://www.lecellier.fr/","hasWebsite":true,"hasHoraires":true,"url":"https://lannuaire.service-public.gouv.fr/pays-de-la-loire/loire-atlantique/1373e640-f3ed-4d3b-a5dc-89df78bd3142"}
{"nom":"Le Croisic","nomNormalise":"lecroisic","typeCollectivite":"Commune","region":"Pays de la Loire","departement":"Loire-Atlantique","departementCode":"44","adresse":{"street":"5 rue Jules-Ferry","postalCode":"44490","city":"Le Croisic","country":"France"},"contacts":{"email":"mairieducroisic@lecroisic.fr","telephone":"0228567850"},"horaires":"Du Lundi au Jeudi : de 08h30 à 12h00 de 13h15 à 17h30\nLe Vendredi : de 08h30 à 12h00 de 13h15 à 16h00\nLe Samedi : de 09h00 à 12h00","latitude":47.293488,"longitude":-2.5133772,"website":"https://www.lecroisic.fr/","hasWebsite":true,"hasHoraires":true,"url":"https://lannuaire.service-public.gouv.fr/pays-de-la-loire/loire-atlantique/6bbe0700-964b-47a8-9c84-9ef9f4d1b859"}
{"nom":"Le Gâvre","nomNormalise":"legavre","typeCollectivite":"Commune","region":"Pays de la Loire","departement":"Loire-Atlantique","departementCode":"44","adresse":{"street":"20 Grande rue","postalCode":"44130","city":"Le Gâvre","country":"France"},"contacts":{"email":"mairie@legavre.fr","telephone":"0240512618"},"horaires":"Du Lundi au Vendredi : de 08h30 à 12h30\nLe Samedi : de 09h00 à 12h00\n\nAccueil fermé en juillet-août.","latitude":47.52045,"longitude":-1.7484144,"website":"http://www.legavre.fr/","hasWebsite":true,"hasHoraires":true,"url":"https://lannuaire.service-public.gouv.fr/pays-de-la-loire/loire-atlantique/af1afe3a-86f6-447c-8c42-61f9272c7d23"}
{"nom":"Legé","nomNormalise":"lege","typeCollectivite":"Commune","region":"Pays de la Loire","departement":"Loire-Atlantique","departementCode":"44","adresse":{"street":"11 rue de la Chaussée","postalCode":"44650","city":"Legé","country":"France"},"contacts":{"email":"contact@ville-lege44.fr","telephone":"0240263500"},"horaires":"Du Lundi au Mercredi : de 09h00 à 12h30 de 14h00 à 17h30\nLe Jeudi : de 09h00 à 12h30\nLe Vendredi : de 09h00 à 12h30 de 14h00 à 17h30\nLe Samedi : de 09h00 à 12h00\n\nUniquement pour l'état civil.","latitude":46.885185,"longitude":-1.5959537,"website":"https://www.ville-lege44.fr/","hasWebsite":true,"hasHoraires":true,"url":"https://lannuaire.service-public.gouv.fr/pays-de-la-loire/loire-atlantique/0d6e48f1-a798-497b-9a30-fb7cc6ad5058"}
{"nom":"Le Landreau","nomNormalise":"lelandreau","typeCollectivite":"Commune","region":"Pays de la Loire","departement":"Loire-Atlantique","departementCode":"44","adresse":{"street":"Place de l'Hôtel-de-Ville","postalCode":"44430","city":"Le Landreau","country":"France"},"contacts":{"email":"mairie@le-landreau.fr","telephone":"0240064375"},"horaires":"Le Lundi : de 08h30 à 12h00 de 14h00 à 16h30\nLe Mardi : de 08h30 à 12h00\nLe Mercredi : de 08h30 à 12h00 de 14h00 à 16h30\nLe Jeudi : de 08h30 à 12h00\nLe Vendredi : de 08h30 à 12h00 de 14h00 à 16h30","latitude":47.20409,"longitude":-1.304697,"website":"https://www.le-landreau.fr/","hasWebsite":true,"hasHoraires":true,"url":"https://lannuaire.service-public.gouv.fr/pays-de-la-loire/loire-atlantique/c024d882-0b15-4100-bc0b-3623f1177f4c"}
{"nom":"Le Loroux-Bottereau","nomNormalise":"lelorouxbottereau","typeCollectivite":"Commune","region":"Pays de la Loire","departement":"Loire-Atlantique","departementCode":"44","adresse":{"street":"14 place Rosmadec","postalCode":"44430","city":"Le Loroux-Bottereau","country":"France"},"contacts":{"email":"contact@loroux-bottereau.fr","telephone":"0251719100"},"horaires":"Du Lundi au Vendredi : de 09h00 à 12h00 de 13h30 à 17h00\n\nmardi jusqu'à 17h40 (titres d'identités)\nLe Samedi : de 09h30 à 12h00\n\nUniquement pour l'état civil et titres d'identité","latitude":47.236855,"longitude":-1.349069,"website":"https://www.loroux-bottereau.fr/","hasWebsite":true,"hasHoraires":true,"url":"https://lannuaire.service-public.gouv.fr/pays-de-la-loire/loire-atlantique/7ae1dc00-4fc0-46e5-9207-3c505005cb6b"}
{"nom":"Le Pallet","nomNormalise":"lepallet","typeCollectivite":"Commune","region":"Pays de la Loire","departement":"Loire-Atlantique","departementCode":"44","adresse":{"street":"26 rue Saint-Vincent","postalCode":"44330","city":"Le Pallet","country":"France"},"contacts":{"email":"contact@mairie-lepallet.fr","telephone":"0240804024"},"horaires":"Du Lundi au Mardi : de 08h30 à 12h30\nLe Mercredi : de 08h30 à 12h30 de 13h30 à 17h00\nLe Jeudi : de 08h30 à 12h30\nLe Vendredi : de 08h30 à 12h30 de 13h30 à 17h00\nLe Samedi : de 09h00 à 12h00\n\nAccueil ouvert uniquement pour l'état civil.Accueil fermé en juillet-août.","latitude":47.140087,"longitude":-1.3380809,"website":"http://www.lepallet.fr/","hasWebsite":true,"hasHoraires":true,"url":"https://lannuaire.service-public.gouv.fr/pays-de-la-loire/loire-atlantique/58931a21-b708-45fa-b8c9-252c65e3244b"}
{"nom":"Le Pellerin","nomNormalise":"lepellerin","typeCollectivite":"Commune","region":"Pays de la Loire","departement":"Loire-Atlantique","departementCode":"44","adresse":{"street":"1 place de la Mairie","postalCode":"44640","city":"Le Pellerin","country":"France"},"contacts":{"email":"accueil@ville-lepellerin.fr","telephone":"0240045600"},"horaires":"Du Lundi au Vendredi : de 09h00 à 12h00 de 14h00 à 17h30","latitude":47.201923,"longitude":-1.754514,"website":"https://ville-lepellerin.fr/","hasWebsite":true,"hasHoraires":true,"url":"https://lannuaire.service-public.gouv.fr/pays-de-la-loire/loire-atlantique/9e998904-60a5-4e93-9fa1-ee6da4eb657c"}
{"nom":"Le Pin","nomNormalise":"lepin","typeCollectivite":"Commune","region":"Pays de la Loire","departement":"Loire-Atlantique","departementCode":"44","adresse":{"street":"11 rue du Sapin","postalCode":"44540","city":"Le Pin","country":"France"},"contacts":{"email":"mairielepin@orange.fr","telephone":"0240970254"},"horaires":"Du Lundi au Vendredi : de 09h00 à 12h00\n\nAccueil ouvert le mercredi, uniquement les semaines paires.\nLe Samedi : de 09h00 à 12h00\n\nAccueil ouvert le samedi, uniquement les semaines impaires.","latitude":47.589066,"longitude":-1.1535563,"website":"https://lepin.fr/","hasWebsite":true,"hasHoraires":true,"url":"https://lannuaire.service-public.gouv.fr/pays-de-la-loire/loire-atlantique/014f1e93-7bc0-4e3e-9ea8-4b945a960470"}
{"nom":"Le Pouliguen","nomNormalise":"lepouliguen","typeCollectivite":"Commune","region":"Pays de la Loire","departement":"Loire-Atlantique","departementCode":"44","adresse":{"street":"17 rue Jules-Benoît","postalCode":"44510","city":"Le Pouliguen","country":"France"},"contacts":{"email":"accueil@mairie-lepouliguen.fr","telephone":"0240150808"},"horaires":"Du Lundi au Vendredi : de 09h00 à 11h45 de 13h30 à 17h00\nLe Samedi : de 09h00 à 11h45\n\nUn samedi sur deux","latitude":47.26967,"longitude":-2.4245653,"website":"https://www.lepouliguen.fr/","hasWebsite":true,"hasHoraires":true,"url":"https://lannuaire.service-public.gouv.fr/pays-de-la-loire/loire-atlantique/2285213d-7d96-4f78-b76f-41ddfe0dea0d"}
{"nom":"Les Moutiers-en-Retz","nomNormalise":"lesmoutiersenretz","typeCollectivite":"Commune","region":"Pays de la Loire","departement":"Loire-Atlantique","departementCode":"44","adresse":{"street":"15 place de l'Église-Madame","postalCode":"44760","city":"Les Moutiers-en-Retz","country":"France"},"contacts":{"email":"accueil@mairie-lesmoutiersenretz.fr","telephone":"0240827205"},"horaires":"Le Lundi : de 14h00 à 16h30\nDu Mardi au Mercredi : de 09h00 à 12h00 de 14h00 à 16h30\nLe Jeudi : de 09h00 à 12h00 de 14h00 à 18h00\nLe Vendredi : de 09h00 à 12h00 de 14h00 à 16h30","latitude":47.06301,"longitude":-2.0003827,"website":"https://www.mairie-lesmoutiersenretz.fr/","hasWebsite":true,"hasHoraires":true,"url":"https://lannuaire.service-public.gouv.fr/pays-de-la-loire/loire-atlantique/93727b8f-c139-4b2b-a6a3-315da4ce3300"}
{"nom":"Les Sorinières","nomNormalise":"lessorinieres","typeCollectivite":"Commune","region":"Pays de la Loire","departement":"Loire-Atlantique","departementCode":"44","adresse":{"street":"49 rue Georges-Clemenceau","postalCode":"44840","city":"Les Sorinières","country":"France"},"contacts":{"email":"mairie@ville-sorinieres.fr","telephone":"0240130000"},"horaires":"Le Lundi : de 08h30 à 12h00 de 13h30 à 17h30\nLe Mardi : de 08h30 à 12h00\nDu Mercredi au Vendredi : de 08h30 à 12h00 de 13h30 à 17h30","latitude":47.148285,"longitude":-1.531011,"website":"http://www.ville-sorinieres.fr/","hasWebsite":true,"hasHoraires":true,"url":"https://lannuaire.service-public.gouv.fr/pays-de-la-loire/loire-atlantique/3fd7aefe-6e62-479c-a712-f28ce75eb6a2"}
{"nom":"Les Touches","nomNormalise":"lestouches","typeCollectivite":"Commune","region":"Pays de la Loire","departement":"Loire-Atlantique","departementCode":"44","adresse":{"street":"1 place Julienne David","postalCode":"44390","city":"Les Touches","country":"France"},"contacts":{"email":"accueil.mairie@les-touches.fr","telephone":"0240724380"},"horaires":"Le Lundi : de 09h00 à 12h30 de 14h00 à 17h00\nDu Mardi au Vendredi : de 09h00 à 12h30\nLe Samedi : de 09h00 à 12h00","latitude":47.441757,"longitude":-1.431789,"website":"https://www.lestouches.fr/","hasWebsite":true,"hasHoraires":true,"url":"https://lannuaire.service-public.gouv.fr/pays-de-la-loire/loire-atlantique/983ce16d-f94c-424d-bc62-ebb5f956a1e8"}
{"nom":"Le Temple-de-Bretagne","nomNormalise":"letempledebretagne","typeCollectivite":"Commune","region":"Pays de la Loire","departement":"Loire-Atlantique","departementCode":"44","adresse":{"street":"24 rue Georges-Bonnet","postalCode":"44360","city":"Le Temple-de-Bretagne","country":"France"},"contacts":{"email":"contact@letempledebretagne.fr","telephone":"0240570287"},"horaires":"Du Lundi au Samedi : de 09h00 à 12h00\n\nAccueil fermé le samedi, du 14 juillet au 15 août.","latitude":47.33025,"longitude":-1.7922693,"website":"http://www.letempledebretagne.fr/","hasWebsite":true,"hasHoraires":true,"url":"https://lannuaire.service-public.gouv.fr/pays-de-la-loire/loire-atlantique/d8ab3b21-4b03-4cdf-8fca-3f79e5e02df7"}
{"nom":"Ligné","nomNormalise":"ligne","typeCollectivite":"Commune","region":"Pays de la Loire","departement":"Loire-Atlantique","departementCode":"44","adresse":{"street":"3 place de la Perretterie","postalCode":"44850","city":"Ligné","country":"France"},"contacts":{"email":"mairie@ligne.fr","telephone":"0240770008"},"horaires":"Du Lundi au Mardi : de 09h00 à 12h00 de 13h30 à 17h00\nLe Mercredi : de 09h00 à 12h00\nLe Jeudi : de 09h00 à 12h00 de 13h30 à 17h00\nLe Vendredi : de 09h00 à 12h00 de 13h30 à 17h00\nLe Samedi : de 09h00 à 12h00","latitude":47.41177,"longitude":-1.375837,"website":"https://www.ligne.fr/","hasWebsite":true,"hasHoraires":true,"url":"https://lannuaire.service-public.gouv.fr/pays-de-la-loire/loire-atlantique/26d59cbd-e21c-4d12-ad5d-1cc4896c40e7"}
{"nom":"Loireauxence","nomNormalise":"loireauxence","typeCollectivite":"Commune","region":"Pays de la Loire","departement":"Loire-Atlantique","departementCode":"44","adresse":{"street":"Varades","postalCode":"44370","city":"Loire-Aux-Ence","country":"France"},"contacts":{"email":"mairie@loireauxence.fr","telephone":"0240983303"},"horaires":"Le Lundi : de 09h00 à 12h00 de 13h30 à 17h00\nLe Mercredi : de 09h00 à 12h00 de 13h30 à 17h00\nLe Vendredi : de 09h00 à 12h00 de 13h30 à 17h00\nLe Samedi : de 09h00 à 12h00\n\n(du 15 au 31 de chaque mois)","latitude":47.385895,"longitude":-1.032294,"website":"https://www.loireauxence.fr/","hasWebsite":true,"hasHoraires":true,"url":"https://lannuaire.service-public.gouv.fr/pays-de-la-loire/loire-atlantique/1052503d-b46a-4842-b7dc-aa09693cbd15"}
{"nom":"Louisfert","nomNormalise":"louisfert","typeCollectivite":"Commune","region":"Pays de la Loire","departement":"Loire-Atlantique","departementCode":"44","adresse":{"street":"1 bis rue Espérance","postalCode":"44110","city":"Louisfert","country":"France"},"contacts":{"email":"commune.louisfert@wanadoo.fr","telephone":"0240812672"},"horaires":"Le Lundi : de 08h00 à 12h00\nLe Mardi : de 08h00 à 12h00\nLe Mercredi : de 08h00 à 12h00 de 14h00 à 17h00\nDu Jeudi au Vendredi : de 08h00 à 12h00","latitude":47.6738,"longitude":-1.43806,"website":"https://www.louisfert.fr/bienvenue-sur-le-site-de-la-commune-de-louisfert/","hasWebsite":true,"hasHoraires":true,"url":"https://lannuaire.service-public.gouv.fr/pays-de-la-loire/loire-atlantique/060c0722-e7d9-444f-97f6-d8330be069ed"}
{"nom":"Lusanger","nomNormalise":"lusanger","typeCollectivite":"Commune","region":"Pays de la Loire","departement":"Loire-Atlantique","departementCode":"44","adresse":{"street":"20 place de l'Église","postalCode":"44590","city":"Lusanger","country":"France"},"contacts":{"email":"info@mairie-lusanger.fr","telephone":"0240078308"},"horaires":"Le Lundi : de 08h45 à 12h30 de 14h00 à 16h00\nDu Mardi au Jeudi : de 08h45 à 12h30\nLe Vendredi : de 08h45 à 12h30 de 14h00 à 16h00","latitude":47.6807,"longitude":-1.58797,"website":"http://www.mairie-lusanger.fr/","hasWebsite":true,"hasHoraires":true,"url":"https://lannuaire.service-public.gouv.fr/pays-de-la-loire/loire-atlantique/4796610f-caa8-422a-a6a7-5d3368b2a6b4"}
{"nom":"Machecoul-Saint-Même","nomNormalise":"machecoulsaintmeme","typeCollectivite":"Commune","region":"Pays de la Loire","departement":"Loire-Atlantique","departementCode":"44","adresse":{"street":"5 place de l'Auditoire","postalCode":"44270","city":"Machecoul-Saint-Même","country":"France"},"contacts":{"email":"info@machecoul.fr","telephone":"0240023550"},"horaires":"Le Lundi : de 09h00 à 12h00 de 14h00 à 17h00\nLe Mardi : de 09h00 à 12h00\nDu Mercredi au Vendredi : de 09h00 à 12h00 de 14h00 à 17h00\nLe Samedi : de 09h00 à 12h00\n\nsauf juillet et août","latitude":46.992405,"longitude":-1.817394,"website":"https://www.machecoul-saint-meme.fr/","hasWebsite":true,"hasHoraires":true,"url":"https://lannuaire.service-public.gouv.fr/pays-de-la-loire/loire-atlantique/5881dae6-2d4e-4134-a471-05ffe339f4bf"}
{"nom":"Maisdon-sur-Sèvre","nomNormalise":"maisdonsursevre","typeCollectivite":"Commune","region":"Pays de la Loire","departement":"Loire-Atlantique","departementCode":"44","adresse":{"street":"20 rue de la Mairie","postalCode":"44690","city":"Maisdon-sur-Sèvre","country":"France"},"contacts":{"email":"mairie@maisdon-sur-sevre.fr","telephone":"0240066257"},"horaires":"Le Lundi : de 09h00 à 12h30 de 13h30 à 16h00\nLe Mardi : de 09h00 à 12h30\nDu Mercredi au Jeudi : de 09h00 à 12h30 de 13h30 à 16h00\nLe Vendredi : de 09h00 à 12h30","latitude":47.0983,"longitude":-1.38512,"website":"https://www.maisdon-sur-sevre.fr/","hasWebsite":true,"hasHoraires":true,"url":"https://lannuaire.service-public.gouv.fr/pays-de-la-loire/loire-atlantique/53e5ddec-917c-465c-9231-71c92ba59064"}
{"nom":"Malville","nomNormalise":"malville","typeCollectivite":"Commune","region":"Pays de la Loire","departement":"Loire-Atlantique","departementCode":"44","adresse":{"street":"Rue de la Merlerie","postalCode":"44260","city":"Malville","country":"France"},"contacts":{"email":"secretariat@malville.fr","telephone":"0240564261"},"horaires":"Du Lundi au Vendredi : de 09h00 à 12h00 de 14h00 à 17h00","latitude":47.3517,"longitude":-1.85889,"website":"http://www.malville.fr/","hasWebsite":true,"hasHoraires":true,"url":"https://lannuaire.service-public.gouv.fr/pays-de-la-loire/loire-atlantique/20fe5f8a-d4c0-4519-bde5-6cef314fe77b"}
{"nom":"Marsac-sur-Don","nomNormalise":"marsacsurdon","typeCollectivite":"Commune","region":"Pays de la Loire","departement":"Loire-Atlantique","departementCode":"44","adresse":{"street":"1 rue Pierre-Perchais","postalCode":"44170","city":"Marsac-sur-Don","country":"France"},"contacts":{"email":"info@mairie-marsacsurdon.fr","telephone":"0240875477"},"horaires":"Du Lundi au Vendredi : de 09h00 à 12h30","latitude":47.5986,"longitude":-1.67948,"website":"http://www.mairie-marsacsurdon.fr/","hasWebsite":true,"hasHoraires":true,"url":"https://lannuaire.service-public.gouv.fr/pays-de-la-loire/loire-atlantique/09ef3d3e-222e-4070-974d-3554ef4824d8"}
{"nom":"Massérac","nomNormalise":"masserac","typeCollectivite":"Commune","region":"Pays de la Loire","departement":"Loire-Atlantique","departementCode":"44","adresse":{"street":"3 rue Saint-Benoît","postalCode":"44290","city":"Massérac","country":"France"},"contacts":{"email":"accueil@masserac.bzh","telephone":"0240872418"},"horaires":"Du Lundi au Vendredi : de 09h00 à 12h00\nLe Samedi : de 09h00 à 11h00","latitude":47.67247,"longitude":-1.913307,"website":"https://masserac.bzh/","hasWebsite":true,"hasHoraires":true,"url":"https://lannuaire.service-public.gouv.fr/pays-de-la-loire/loire-atlantique/1372c718-0c95-408e-8ec3-d9703a768cd3"}
{"nom":"Mairie déléguée - Maumusson","nomNormalise":"mairiedelegueemaumusson","typeCollectivite":"Commune","region":"Pays de la Loire","departement":"Loire-Atlantique","departementCode":"44","adresse":{"street":"Maumusson","postalCode":"44540","city":"Vallons-de-l'Erdre","country":"France"},"contacts":{"email":"contact@vallonsdelerdre.fr","telephone":"0285293300"},"horaires":"Du Lundi au Vendredi : de 09h00 à 12h15\nLe Samedi : de 09h15 à 12h00\n\nAccueil ouvert les semaines impaires.","latitude":47.4816,"longitude":-1.10659,"website":"https://www.vallonsdelerdre.fr/","hasWebsite":true,"hasHoraires":true,"url":"https://lannuaire.service-public.gouv.fr/pays-de-la-loire/loire-atlantique/febb6322-1142-457c-b3e5-93c8bb6fb7b3"}
{"nom":"Mauves-sur-Loire","nomNormalise":"mauvessurloire","typeCollectivite":"Commune","region":"Pays de la Loire","departement":"Loire-Atlantique","departementCode":"44","adresse":{"street":"7 rue du Carteron","postalCode":"44470","city":"Mauves-sur-Loire","country":"France"},"contacts":{"email":"mairie.mauves@mauvessurloire.fr","telephone":"0240255036"},"horaires":"Du Lundi au Mercredi : de 09h00 à 12h00\nDu Jeudi au Vendredi : de 09h00 à 12h00 de 13h30 à 17h00\nLe Samedi : de 09h00 à 12h00\n\nUniquement le 1er samedi du mois.","latitude":47.29736,"longitude":-1.392853,"website":"https://www.mauvessurloire.fr/","hasWebsite":true,"hasHoraires":true,"url":"https://lannuaire.service-public.gouv.fr/pays-de-la-loire/loire-atlantique/5ae1b44f-2742-44b4-b8bf-cf1aa1302dfd"}
{"nom":"Mésanger","nomNormalise":"mesanger","typeCollectivite":"Commune","region":"Pays de la Loire","departement":"Loire-Atlantique","departementCode":"44","adresse":{"street":"230 rue de la Vieille-Cour","postalCode":"44522","city":"Mésanger","country":"France"},"contacts":{"email":"contact@mairiemesanger.fr","telephone":"0240967522"},"horaires":"Du Lundi au Mercredi : de 09h00 à 12h00 de 14h00 à 17h00\nLe Jeudi : de 09h00 à 12h00\nLe Vendredi : de 09h00 à 12h00 de 14h00 à 17h00\nLe Samedi : de 09h00 à 12h00\n\nAccueil ouvert uniquement pour l'état civil.","latitude":47.431534,"longitude":-1.2283669,"website":"https://www.mesanger.fr/","hasWebsite":true,"hasHoraires":true,"url":"https://lannuaire.service-public.gouv.fr/pays-de-la-loire/loire-atlantique/32c8fc2c-abe7-4284-bf38-fec0e92e85e3"}
{"nom":"Mesquer","nomNormalise":"mesquer","typeCollectivite":"Commune","region":"Pays de la Loire","departement":"Loire-Atlantique","departementCode":"44","adresse":{"street":"Place de l'Hôtel","postalCode":"44420","city":"Mesquer","country":"France"},"contacts":{"email":"mairie@mesquerquimiac.fr","telephone":"0240425115"},"horaires":"Du Lundi au Mardi : de 09h00 à 12h00 de 13h30 à 17h00\nLe Mercredi : de 09h00 à 12h00\nDu Jeudi au Vendredi : de 09h00 à 12h00 de 13h30 à 17h00\nLe Samedi : de 09h00 à 12h00","latitude":47.399403,"longitude":-2.460424,"website":"https://www.mesquer-quimiac.fr/","hasWebsite":true,"hasHoraires":true,"url":"https://lannuaire.service-public.gouv.fr/pays-de-la-loire/loire-atlantique/80acb467-db20-431c-a1a5-ade85ff01617"}
{"nom":"Missillac","nomNormalise":"missillac","typeCollectivite":"Commune","region":"Pays de la Loire","departement":"Loire-Atlantique","departementCode":"44","adresse":{"street":"6 rue de la Fontaine-Saint-Jean","postalCode":"44780","city":"Missillac","country":"France"},"contacts":{"email":"mairie@missillac.fr","telephone":"0240883109"},"horaires":"Le Lundi : de 08h30 à 12h00\nDu Mardi au Jeudi : de 08h30 à 12h00 de 13h30 à 16h30\nLe Vendredi : de 08h30 à 12h00\nLe Samedi : de 09h00 à 12h00\n\nAccueil ouvert uniquement pour l'état civil.","latitude":47.47987,"longitude":-2.1584997,"website":"https://www.missillac.fr/","hasWebsite":true,"hasHoraires":true,"url":"https://lannuaire.service-public.gouv.fr/pays-de-la-loire/loire-atlantique/43a6c3a5-81a9-43f3-ac13-c69fadcdf42f"}
{"nom":"Moisdon-la-Rivière","nomNormalise":"moisdonlariviere","typeCollectivite":"Commune","region":"Pays de la Loire","departement":"Loire-Atlantique","departementCode":"44","adresse":{"street":"4 rue du Camp","postalCode":"44520","city":"Moisdon-la-Rivière","country":"France"},"contacts":{"email":"mairie.moisdon@wanadoo.fr","telephone":"0240076107"},"horaires":"Du Lundi au Vendredi : de 08h45 à 12h00","latitude":47.6187,"longitude":-1.37399,"website":"https://www.moisdon-la-riviere.fr/","hasWebsite":true,"hasHoraires":true,"url":"https://lannuaire.service-public.gouv.fr/pays-de-la-loire/loire-atlantique/e5ad6cae-8bb8-4f9b-a5a3-9d508dc35e39"}
{"nom":"Monnières","nomNormalise":"monnieres","typeCollectivite":"Commune","region":"Pays de la Loire","departement":"Loire-Atlantique","departementCode":"44","adresse":{"street":"4 rue de la Poste","postalCode":"44690","city":"Monnières","country":"France"},"contacts":{"email":"accueil@mairie-monnieres.com","telephone":"0240546064"},"horaires":"Du Lundi au Mardi : de 09h00 à 12h15\nLe Mercredi : de 09h00 à 12h15 de 14h00 à 18h00\nLe Vendredi : de 14h00 à 16h30","latitude":47.13186,"longitude":-1.354489,"website":"https://www.mairie-monnieres.fr/","hasWebsite":true,"hasHoraires":true,"url":"https://lannuaire.service-public.gouv.fr/pays-de-la-loire/loire-atlantique/af0296fe-44b4-4b68-a4f6-9ea2f89e6678"}
{"nom":"Montbert","nomNormalise":"montbert","typeCollectivite":"Commune","region":"Pays de la Loire","departement":"Loire-Atlantique","departementCode":"44","adresse":{"street":"Rue de la Mairie","postalCode":"44140","city":"Montbert","country":"France"},"contacts":{"email":"contact@montbert.fr","telephone":"0240267152"},"horaires":"Le Lundi : de 08h30 à 12h00\nDu Mardi au Mercredi : de 08h30 à 12h00 de 13h30 à 17h00\nLe Jeudi : de 08h30 à 12h00\nLe Vendredi : de 08h30 à 12h00 de 13h30 à 17h00\nLe Samedi : de 09h00 à 12h00\n\nsemaines impaires uniquement","latitude":47.0576,"longitude":-1.48759,"website":"https://www.montbert.fr/","hasWebsite":true,"hasHoraires":true,"url":"https://lannuaire.service-public.gouv.fr/pays-de-la-loire/loire-atlantique/158f5b8c-5b42-40fe-8b5d-0c1c7b2232b4"}
{"nom":"Montoir-de-Bretagne","nomNormalise":"montoirdebretagne","typeCollectivite":"Commune","region":"Pays de la Loire","departement":"Loire-Atlantique","departementCode":"44","adresse":{"street":"65 rue Jean-Jaurès","postalCode":"44550","city":"Montoir-de-Bretagne","country":"France"},"contacts":{"email":"","telephone":"0240454500"},"horaires":"Du Lundi au Vendredi : de 08h30 à 12h00 de 14h00 à 17h30","latitude":47.3266,"longitude":-2.14998,"website":"https://www.montoirdebretagne.fr/","hasWebsite":true,"hasHoraires":true,"url":"https://lannuaire.service-public.gouv.fr/pays-de-la-loire/loire-atlantique/60f3da43-2685-455b-b6d2-d793e1dd9cde"}
{"nom":"Montrelais","nomNormalise":"montrelais","typeCollectivite":"Commune","region":"Pays de la Loire","departement":"Loire-Atlantique","departementCode":"44","adresse":{"street":"19 rue de l'Abbaye","postalCode":"44370","city":"Montrelais","country":"France"},"contacts":{"email":"mairie@montrelais.fr","telephone":"0240834588"},"horaires":"Du Mardi au Vendredi : de 08h30 à 12h00\nLe Samedi : de 09h00 à 12h00\n\nLes semaines paires uniquement, fermé en juillet-août.","latitude":47.3838,"longitude":-0.965355,"website":"https://montrelais.fr/","hasWebsite":true,"hasHoraires":true,"url":"https://lannuaire.service-public.gouv.fr/pays-de-la-loire/loire-atlantique/b6c73d7b-51aa-4f39-8c30-c9ca1aa4f733"}
{"nom":"Mouais","nomNormalise":"mouais","typeCollectivite":"Commune","region":"Pays de la Loire","departement":"Loire-Atlantique","departementCode":"44","adresse":{"street":"5 rue de la Mairie","postalCode":"44590","city":"Mouais","country":"France"},"contacts":{"email":"mairie.mouais@wanadoo.fr","telephone":"0240077341"},"horaires":"Du Lundi au Mardi : de 09h00 à 12h00\nDu Jeudi au Vendredi : de 09h00 à 12h00","latitude":47.6962,"longitude":-1.64499,"website":"http://www.mouais.fr/","hasWebsite":true,"hasHoraires":true,"url":"https://lannuaire.service-public.gouv.fr/pays-de-la-loire/loire-atlantique/009576aa-94f8-4863-aea4-f5f622269a03"}
{"nom":"Mouzeil","nomNormalise":"mouzeil","typeCollectivite":"Commune","region":"Pays de la Loire","departement":"Loire-Atlantique","departementCode":"44","adresse":{"street":"1 ruelle du Château","postalCode":"44850","city":"Mouzeil","country":"France"},"contacts":{"email":"mairie@mouzeil.fr","telephone":"0240972361"},"horaires":"Le Lundi : de 08h30 à 12h00\nLe Mardi : de 08h30 à 12h00 de 13h30 à 16h30\nLe Mercredi : de 08h30 à 12h00\nLe Jeudi : de 08h30 à 12h00 de 13h30 à 16h30\nDu Vendredi au Samedi : de 08h30 à 12h00","latitude":47.403,"longitude":-1.29625,"website":"https://www.mouzeil.fr/","hasWebsite":true,"hasHoraires":true,"url":"https://lannuaire.service-public.gouv.fr/pays-de-la-loire/loire-atlantique/5dc3bf16-5f0c-44d1-97c7-6b82e4f241f1"}
{"nom":"Mouzillon","nomNormalise":"mouzillon","typeCollectivite":"Commune","region":"Pays de la Loire","departement":"Loire-Atlantique","departementCode":"44","adresse":{"street":"47 rue Clément-Guilbaud","postalCode":"44330","city":"Mouzillon","country":"France"},"contacts":{"email":"accueil@mairie-mouzillon.fr","telephone":"0240339326"},"horaires":"Le Lundi : de 14h00 à 17h00\nLe Mardi : de 09h00 à 12h30\nLe Mercredi : de 09h00 à 12h30 de 14h00 à 17h00\nDu Jeudi au Vendredi : de 14h00 à 17h00\nLe Samedi : de 09h00 à 12h00\n\nAccueil fermé entre le 14 juillet et le 15 août.","latitude":47.14026,"longitude":-1.281538,"website":"https://mairie-mouzillon.fr/","hasWebsite":true,"hasHoraires":true,"url":"https://lannuaire.service-public.gouv.fr/pays-de-la-loire/loire-atlantique/0c15b4bd-41e3-4ccb-b098-9142ec9df8cd"}
{"nom":"Nantes","nomNormalise":"nantes","typeCollectivite":"Commune","region":"Pays de la Loire","departement":"Loire-Atlantique","departementCode":"44","adresse":{"street":"29 rue de Strasbourg","postalCode":"44000","city":"Nantes","country":"France"},"contacts":{"email":"contact@mairie-nantes.fr","telephone":"0240419000"},"horaires":"Le Lundi : de 08h30 à 18h00\nDu Mardi au Vendredi : de 09h00 à 17h30\nLe Samedi : de 09h00 à 11h45","latitude":47.21863,"longitude":-1.553765,"website":"https://metropole.nantes.fr/","hasWebsite":true,"hasHoraires":true,"url":"https://lannuaire.service-public.gouv.fr/pays-de-la-loire/loire-atlantique/f7505b85-2cf2-4eb4-aeef-ccc21b1d99fd"}
{"nom":"Nort-sur-Erdre","nomNormalise":"nortsurerdre","typeCollectivite":"Commune","region":"Pays de la Loire","departement":"Loire-Atlantique","departementCode":"44","adresse":{"street":"30 rue Aristide-Briand","postalCode":"44390","city":"Nort-sur-Erdre","country":"France"},"contacts":{"email":"accueil@nort-sur-erdre.fr","telephone":"0251120070"},"horaires":"Du Lundi au Mardi : de 08h30 à 12h00 de 13h30 à 17h30\nLe Mercredi : de 08h30 à 12h00\nLe Jeudi : de 08h30 à 12h00 de 13h30 à 17h30\nLe Vendredi : de 08h30 à 12h00 de 13h30 à 17h00\nLe Samedi : de 08h30 à 12h00","latitude":47.43977,"longitude":-1.501217,"website":"https://www.nort-sur-erdre.fr/","hasWebsite":true,"hasHoraires":true,"url":"https://lannuaire.service-public.gouv.fr/pays-de-la-loire/loire-atlantique/3fde4cce-b020-4f70-a8a7-e95c060883e0"}
{"nom":"Notre-Dame-des-Landes","nomNormalise":"notredamedeslandes","typeCollectivite":"Commune","region":"Pays de la Loire","departement":"Loire-Atlantique","departementCode":"44","adresse":{"street":"13 rue Pierre-Civel","postalCode":"44130","city":"Notre-Dame-des-Landes","country":"France"},"contacts":{"email":"contact@notre-dame-des-landes.fr","telephone":"0240572214"},"horaires":"Du Lundi au Mardi : de 09h00 à 12h30 de 14h00 à 16h00\nDu Mercredi au Jeudi : de 09h00 à 12h30\nLe Vendredi : de 09h00 à 12h30 de 14h00 à 16h00\nLe Samedi : de 09h00 à 12h00\n\nAccueil ouvert uniquement les semaines impaires.","latitude":47.380516,"longitude":-1.711395,"website":"https://www.notre-dame-des-landes.fr/","hasWebsite":true,"hasHoraires":true,"url":"https://lannuaire.service-public.gouv.fr/pays-de-la-loire/loire-atlantique/fd2ef0b3-7fa8-404a-827b-e1035c515181"}
{"nom":"Noyal-sur-Brutz","nomNormalise":"noyalsurbrutz","typeCollectivite":"Commune","region":"Pays de la Loire","departement":"Loire-Atlantique","departementCode":"44","adresse":{"street":"1 rue de la Mairie","postalCode":"44110","city":"Noyal-sur-Brutz","country":"France"},"contacts":{"email":"mairie@noyalsurbrutz.fr","telephone":"0240811623"},"horaires":"Le Lundi : de 08h00 à 12h00 de 13h30 à 17h00\nDu Jeudi au Vendredi : de 08h00 à 12h00 de 13h30 à 17h00","latitude":47.775837,"longitude":-1.346778,"website":"https://noyalsurbrutz.fr/","hasWebsite":true,"hasHoraires":true,"url":"https://lannuaire.service-public.gouv.fr/pays-de-la-loire/loire-atlantique/4ad9e511-8c3c-48c0-a558-f3eb32682a3a"}
{"nom":"Nozay","nomNormalise":"nozay","typeCollectivite":"Commune","region":"Pays de la Loire","departement":"Loire-Atlantique","departementCode":"44","adresse":{"street":"11 rue Alexis-Letourneau","postalCode":"44170","city":"Nozay","country":"France"},"contacts":{"email":"mairie@nozay44.fr","telephone":"0240797979"},"horaires":"Du Lundi au Mardi : de 08h30 à 12h30 de 14h00 à 17h30\nLe Mercredi : de 08h30 à 12h30\nLe Jeudi : de 08h30 à 12h30 de 14h00 à 17h30\nLe Vendredi : de 08h30 à 12h30 de 14h00 à 17h00\nLe Samedi : de 09h00 à 12h00","latitude":47.5645,"longitude":-1.62594,"website":"https://www.nozay44.fr/","hasWebsite":true,"hasHoraires":true,"url":"https://lannuaire.service-public.gouv.fr/pays-de-la-loire/loire-atlantique/4ea312c6-6ffe-4a2b-b5d7-18fef1c3884e"}
{"nom":"Orvault","nomNormalise":"orvault","typeCollectivite":"Commune","region":"Pays de la Loire","departement":"Loire-Atlantique","departementCode":"44","adresse":{"street":"9 rue Marcel-Deniau","postalCode":"44700","city":"Orvault","country":"France"},"contacts":{"email":"contact@mairie-orvault.fr","telephone":"0251783100"},"horaires":"Le Lundi : de 08h30 à 12h30 de 13h30 à 17h30\nLe Mardi : de 10h30 à 12h30 de 13h30 à 17h30\nDu Mercredi au Vendredi : de 08h30 à 12h30 de 13h30 à 17h30\nLe Samedi : de 08h30 à 12h15\n\nEtat-civil uniquement.","latitude":47.270626,"longitude":-1.6242301,"website":"https://www.orvault.fr/","hasWebsite":true,"hasHoraires":true,"url":"https://lannuaire.service-public.gouv.fr/pays-de-la-loire/loire-atlantique/ae5e56b7-5a0a-404e-a13d-6b8bfa073b95"}
{"nom":"Oudon","nomNormalise":"oudon","typeCollectivite":"Commune","region":"Pays de la Loire","departement":"Loire-Atlantique","departementCode":"44","adresse":{"street":"150 rue d'Anjou","postalCode":"44521","city":"Oudon","country":"France"},"contacts":{"email":"accueil@oudon.fr","telephone":"0240836017"},"horaires":"Le Lundi : de 14h00 à 17h00\nDu Mardi au Vendredi : de 09h00 à 12h00 de 14h00 à 17h00\nLe Samedi : de 09h00 à 12h00\n\nAccueil à l'agence postale.","latitude":47.3476,"longitude":-1.28418,"website":"https://www.oudon.fr/","hasWebsite":true,"hasHoraires":true,"url":"https://lannuaire.service-public.gouv.fr/pays-de-la-loire/loire-atlantique/94aa7392-2072-4937-b62e-a16485e84cd8"}
{"nom":"Paimboeuf","nomNormalise":"paimboeuf","typeCollectivite":"Commune","region":"Pays de la Loire","departement":"Loire-Atlantique","departementCode":"44","adresse":{"street":"1 quai Éole","postalCode":"44560","city":"Paimboeuf","country":"France"},"contacts":{"email":"mairie@paimboeuf.fr","telephone":"0240275050"},"horaires":"Le Lundi : de 09h00 à 12h00 de 14h00 à 16h00\nLe Mardi : de 09h00 à 12h00 de 15h00 à 18h00\nLe Mercredi : de 09h00 à 12h00\n\nservice état-civil et CCAS sur rdv l'après-midi\nDu Jeudi au Vendredi : de 09h00 à 12h00 de 14h00 à 16h00\nLe Samedi : de 09h00 à 12h00\n\nAccueil ouvert uniquement les semaines impaires.","latitude":47.28907,"longitude":-2.036315,"website":"https://www.paimboeuf.fr/","hasWebsite":true,"hasHoraires":true,"url":"https://lannuaire.service-public.gouv.fr/pays-de-la-loire/loire-atlantique/bed08ca9-2aee-4cd7-b3ac-62ce07be91f6"}
{"nom":"Pannecé","nomNormalise":"pannece","typeCollectivite":"Commune","region":"Pays de la Loire","departement":"Loire-Atlantique","departementCode":"44","adresse":{"street":"234 rue du Stade","postalCode":"44440","city":"Pannecé","country":"France"},"contacts":{"email":"compa@pannece.fr","telephone":"0240972107"},"horaires":"Du Lundi au Mardi : de 09h00 à 12h00\nDu Jeudi au Vendredi : de 09h00 à 12h00\nLe Samedi : de 10h00 à 12h00\n\nAccueil fermé en juillet-août.","latitude":47.48604,"longitude":-1.237946,"website":"https://www.pannece.fr/","hasWebsite":true,"hasHoraires":true,"url":"https://lannuaire.service-public.gouv.fr/pays-de-la-loire/loire-atlantique/ec868066-6db8-4ce6-bac0-d9ac341b6277"}
{"nom":"Paulx","nomNormalise":"paulx","typeCollectivite":"Commune","region":"Pays de la Loire","departement":"Loire-Atlantique","departementCode":"44","adresse":{"street":"47 Grand'rue","postalCode":"44270","city":"Paulx","country":"France"},"contacts":{"email":"mairiedepaulx@wanadoo.fr","telephone":"0240260218"},"horaires":"Du Lundi au Samedi : de 09h00 à 12h00","latitude":46.96271,"longitude":-1.7535864,"website":"https://www.paulx.fr/","hasWebsite":true,"hasHoraires":true,"url":"https://lannuaire.service-public.gouv.fr/pays-de-la-loire/loire-atlantique/470ff358-e1c4-476d-8b46-cbe247fc5ae1"}
{"nom":"Petit-Auverné","nomNormalise":"petitauverne","typeCollectivite":"Commune","region":"Pays de la Loire","departement":"Loire-Atlantique","departementCode":"44","adresse":{"street":"8 rue de la Mairie","postalCode":"44670","city":"Petit-Auverné","country":"France"},"contacts":{"email":"mairie.petit-auverne@orange.fr","telephone":"0240555003"},"horaires":"Le Lundi : de 08h30 à 12h45 de 13h30 à 17h00\nLe Mercredi : de 08h45 à 12h00\nLe Jeudi : de 13h30 à 18h00","latitude":47.610546,"longitude":-1.2908835,"website":"http://www.petitauverne.fr/","hasWebsite":true,"hasHoraires":true,"url":"https://lannuaire.service-public.gouv.fr/pays-de-la-loire/loire-atlantique/a1145409-f141-44f2-a632-80ab58780c11"}
{"nom":"Petit-Mars","nomNormalise":"petitmars","typeCollectivite":"Commune","region":"Pays de la Loire","departement":"Loire-Atlantique","departementCode":"44","adresse":{"street":"22 boulevard Saint-Laurent","postalCode":"44390","city":"Petit-Mars","country":"France"},"contacts":{"email":"mairie@petitmars.fr","telephone":"0240727716"},"horaires":"Le Lundi : de 09h00 à 12h00 de 14h00 à 17h00\nLe Mardi : de 09h00 à 12h00\nDu Mercredi au Jeudi : de 09h00 à 12h00 de 14h00 à 17h00\nDu Vendredi au Samedi : de 09h00 à 12h00","latitude":47.39598,"longitude":-1.456065,"website":"https://www.petitmars.fr/","hasWebsite":true,"hasHoraires":true,"url":"https://lannuaire.service-public.gouv.fr/pays-de-la-loire/loire-atlantique/ff8228f8-b517-4950-a9a3-0b3a8c8e957c"}
{"nom":"Pierric","nomNormalise":"pierric","typeCollectivite":"Commune","region":"Pays de la Loire","departement":"Loire-Atlantique","departementCode":"44","adresse":{"street":"1 place de la Mairie","postalCode":"44290","city":"Pierric","country":"France"},"contacts":{"email":"contact@mairiepierric.fr","telephone":"0240079208"},"horaires":"Du Lundi au Samedi : de 09h00 à 12h00\n\nAccueil ouvert l'après-midi uniquement sur rendez-vous.","latitude":47.687504,"longitude":-1.7358924,"website":"https://www.mairiepierric.fr/","hasWebsite":true,"hasHoraires":true,"url":"https://lannuaire.service-public.gouv.fr/pays-de-la-loire/loire-atlantique/46dfcb8d-673a-4d5d-8e9a-30737ec6bd42"}
{"nom":"Piriac-sur-Mer","nomNormalise":"piriacsurmer","typeCollectivite":"Commune","region":"Pays de la Loire","departement":"Loire-Atlantique","departementCode":"44","adresse":{"street":"3 rue du Calvaire","postalCode":"44420","city":"Piriac-sur-Mer","country":"France"},"contacts":{"email":"mairie@piriac-sur-mer.fr","telephone":"0240235019"},"horaires":"Du Lundi au Vendredi : de 09h00 à 12h30 de 13h30 à 17h00\nLe Samedi : de 09h00 à 12h00","latitude":47.37928,"longitude":-2.5462267,"website":"https://www.piriac-sur-mer.fr/","hasWebsite":true,"hasHoraires":true,"url":"https://lannuaire.service-public.gouv.fr/pays-de-la-loire/loire-atlantique/098af9d3-7822-4735-bbc2-82d0bcf214f4"}
{"nom":"Plessé","nomNormalise":"plesse","typeCollectivite":"Commune","region":"Pays de la Loire","departement":"Loire-Atlantique","departementCode":"44","adresse":{"street":"1 rue Jules-Verne","postalCode":"44630","city":"Plessé","country":"France"},"contacts":{"email":"contact@mairie-plesse.fr","telephone":"0240796014"},"horaires":"Du Lundi au Vendredi : de 09h00 à 12h00 de 14h00 à 17h00\nLe Mardi : de 09h00 à 12h00\nLe Samedi : de 09h00 à 12h00","latitude":47.542374,"longitude":-1.884544,"website":"https://www.commune-de-plesse.com/","hasWebsite":true,"hasHoraires":true,"url":"https://lannuaire.service-public.gouv.fr/pays-de-la-loire/loire-atlantique/3fca0280-0042-4000-92cf-59fc9d8cedd9"}
{"nom":"Pontchâteau","nomNormalise":"pontchateau","typeCollectivite":"Commune","region":"Pays de la Loire","departement":"Loire-Atlantique","departementCode":"44","adresse":{"street":"Place Dominique-David","postalCode":"44160","city":"Pontchâteau","country":"France"},"contacts":{"email":"secretariat.general@pontchateau.fr","telephone":"0240016300"},"horaires":"Le Lundi : de 08h30 à 12h30\nLe Mardi : de 08h30 à 12h30 de 13h30 à 18h30\nLe Mercredi : de 08h30 à 12h30 de 13h30 à 17h00\nLe Jeudi : de 08h30 à 12h30\nLe Vendredi : de 08h30 à 12h30 de 13h30 à 17h00\nLe Samedi : de 10h00 à 12h00\n\nAccueil fermé le samedi en juillet et en août service accueil état-civil\nLe standart téléphonique est fermé LUNDI et JEUDI après-midi","latitude":47.436928,"longitude":-2.089536,"website":"https://www.pontchateau.fr/","hasWebsite":true,"hasHoraires":true,"url":"https://lannuaire.service-public.gouv.fr/pays-de-la-loire/loire-atlantique/d5fc89dc-6576-49fc-9745-c77e6ac0b027"}
{"nom":"Pont-Saint-Martin","nomNormalise":"pontsaintmartin","typeCollectivite":"Commune","region":"Pays de la Loire","departement":"Loire-Atlantique","departementCode":"44","adresse":{"street":"14 rue de la Mairie","postalCode":"44860","city":"Pont-Saint-Martin","country":"France"},"contacts":{"email":"contact@mairie-pontsaintmartin.fr","telephone":"0240268023"},"horaires":"Du Lundi au Mercredi : de 08h45 à 12h15 de 13h45 à 17h00\nLe Jeudi : de 08h45 à 12h15\nLe Vendredi : de 08h45 à 12h15 de 13h45 à 16h15\nLe Samedi : de 09h00 à 12h00\n\nAccueil ouvert pour l'état civil uniquement.","latitude":47.12389,"longitude":-1.582968,"website":"http://www.mairie-pontsaintmartin.fr/","hasWebsite":true,"hasHoraires":true,"url":"https://lannuaire.service-public.gouv.fr/pays-de-la-loire/loire-atlantique/b5920cce-1ece-46b9-bb83-c310c8936e4a"}
{"nom":"Pornic","nomNormalise":"pornic","typeCollectivite":"Commune","region":"Pays de la Loire","departement":"Loire-Atlantique","departementCode":"44","adresse":{"street":"1 place de l'Hôtel de Ville","postalCode":"44210","city":"Pornic","country":"France"},"contacts":{"email":"contact@pornic.fr","telephone":"0240823111"},"horaires":"Du Lundi au Vendredi : de 09h00 à 12h00 de 14h00 à 17h00\nService État Civil & Formalités Administratives Lundi, mardi, mercredi et vendredi : 9h à 12h et de 14h à 17h Jeudi : 9h à 12h et de 15h30 à 19h Samedi : 9h à 12h","latitude":47.116676,"longitude":-2.106548,"website":"https://www.pornic.fr/","hasWebsite":true,"hasHoraires":true,"url":"https://lannuaire.service-public.gouv.fr/pays-de-la-loire/loire-atlantique/6c480c31-dfad-46c9-a0db-239fbff59dde"}
{"nom":"Pornichet","nomNormalise":"pornichet","typeCollectivite":"Commune","region":"Pays de la Loire","departement":"Loire-Atlantique","departementCode":"44","adresse":{"street":"Hôtel de Ville","postalCode":"44380","city":"Pornichet","country":"France"},"contacts":{"email":"mairie@mairie-pornichet.fr","telephone":"0240115555"},"horaires":"Le Lundi : de 08h30 à 12h00 de 13h30 à 17h30\nLe Mardi : de 08h30 à 12h00 de 14h00 à 17h30\nDu Mercredi au Vendredi : de 08h30 à 12h00 de 13h30 à 17h30\nLe Samedi : de 09h00 à 12h00","latitude":47.263653,"longitude":-2.340044,"website":"https://www.ville-pornichet.fr/","hasWebsite":true,"hasHoraires":true,"url":"https://lannuaire.service-public.gouv.fr/pays-de-la-loire/loire-atlantique/9d3b6d61-7e73-4e40-84ac-3dcea20c3e58"}
{"nom":"Port-Saint-Père","nomNormalise":"portsaintpere","typeCollectivite":"Commune","region":"Pays de la Loire","departement":"Loire-Atlantique","departementCode":"44","adresse":{"street":"13 rue de Pornic","postalCode":"44710","city":"Port-Saint-Père","country":"France"},"contacts":{"email":"mairie@port-saint-pere.fr","telephone":"0240315013"},"horaires":"Du Lundi au Mercredi : de 09h00 à 12h00 de 14h00 à 17h00\nLe Jeudi : de 09h00 à 12h00\nLe Vendredi : de 09h00 à 12h00 de 14h00 à 17h00\nLe Samedi : de 09h00 à 12h00\n\nAccueil fermé pendant les vacances scolaires.","latitude":47.13344,"longitude":-1.7493639,"website":"http://www.mairie-port-saint-pere.fr/","hasWebsite":true,"hasHoraires":true,"url":"https://lannuaire.service-public.gouv.fr/pays-de-la-loire/loire-atlantique/1d8425c0-2da8-4654-b27d-abe61e50e8c4"}
{"nom":"Pouillé-les-Côteaux","nomNormalise":"pouillelescoteaux","typeCollectivite":"Commune","region":"Pays de la Loire","departement":"Loire-Atlantique","departementCode":"44","adresse":{"street":"176 rue de la Mairie","postalCode":"44522","city":"Pouillé-les-Côteaux","country":"France"},"contacts":{"email":"accueil@pouillelescoteaux.fr","telephone":"0240984956"},"horaires":"Le Lundi : de 09h00 à 12h00 de 14h00 à 19h00\nDu Mardi au Vendredi : de 09h00 à 12h00","latitude":47.455757,"longitude":-1.162985,"website":"https://pouillelescoteaux.fr/","hasWebsite":true,"hasHoraires":true,"url":"https://lannuaire.service-public.gouv.fr/pays-de-la-loire/loire-atlantique/a6c7bae7-5cf9-4a05-ad17-9320a94920ae"}
{"nom":"Préfailles","nomNormalise":"prefailles","typeCollectivite":"Commune","region":"Pays de la Loire","departement":"Loire-Atlantique","departementCode":"44","adresse":{"street":"17 Grand'Rue","postalCode":"44770","city":"Préfailles","country":"France"},"contacts":{"email":"mairie@prefailles.fr","telephone":"0240216037"},"horaires":"Le Lundi : de 09h00 à 12h00\nDu Mardi au Mercredi : de 09h00 à 12h00 de 14h00 à 17h00\nLe Jeudi : de 09h00 à 12h00\nLe Vendredi : de 09h00 à 12h00 de 14h00 à 17h00\nLe Samedi : de 09h00 à 12h00","latitude":47.128754,"longitude":-2.21712,"website":"https://www.prefailles.fr/","hasWebsite":true,"hasHoraires":true,"url":"https://lannuaire.service-public.gouv.fr/pays-de-la-loire/loire-atlantique/0bd7bd21-bfe6-45f2-ab05-6b49501fc760"}
{"nom":"Prinquiau","nomNormalise":"prinquiau","typeCollectivite":"Commune","region":"Pays de la Loire","departement":"Loire-Atlantique","departementCode":"44","adresse":{"street":"2 rue de la Gagnerie","postalCode":"44260","city":"Prinquiau","country":"France"},"contacts":{"email":"contact@mairie-prinquiau.fr","telephone":"0240566290"},"horaires":"Du Lundi au Mercredi : de 08h30 à 12h00 de 13h30 à 17h30\nLe Jeudi : de 08h30 à 12h00\nLe Vendredi : de 08h30 à 12h00 de 13h30 à 17h30","latitude":47.362583,"longitude":-2.0142517,"website":"https://www.mairie-prinquiau.fr/","hasWebsite":true,"hasHoraires":true,"url":"https://lannuaire.service-public.gouv.fr/pays-de-la-loire/loire-atlantique/dd463c81-1292-4c9b-a2b7-17ad2138472d"}
{"nom":"Puceul","nomNormalise":"puceul","typeCollectivite":"Commune","region":"Pays de la Loire","departement":"Loire-Atlantique","departementCode":"44","adresse":{"street":"16 rue de la Mairie","postalCode":"44390","city":"Puceul","country":"France"},"contacts":{"email":"mairie@puceul.fr","telephone":"0240513554"},"horaires":"Du Lundi au Vendredi : de 08h30 à 12h30","latitude":47.52115,"longitude":-1.6196913,"website":"https://www.puceul.fr/","hasWebsite":true,"hasHoraires":true,"url":"https://lannuaire.service-public.gouv.fr/pays-de-la-loire/loire-atlantique/6cab553b-742a-4357-a521-7e3193fb239f"}
{"nom":"Quilly","nomNormalise":"quilly","typeCollectivite":"Commune","region":"Pays de la Loire","departement":"Loire-Atlantique","departementCode":"44","adresse":{"street":"10 rue de la Mairie","postalCode":"44750","city":"Quilly","country":"France"},"contacts":{"email":"contact@mairiedequilly.com","telephone":"0240918383"},"horaires":"Du Lundi au Jeudi : de 08h30 à 12h00\nLe Vendredi : de 08h30 à 12h00 de 13h30 à 16h30\nLe Samedi : de 08h30 à 12h00\n\nAccueil fermé le samedi en juillet-août.","latitude":47.460213,"longitude":-1.9515209,"website":"https://www.quilly.fr/","hasWebsite":true,"hasHoraires":true,"url":"https://lannuaire.service-public.gouv.fr/pays-de-la-loire/loire-atlantique/bfd15629-8ad1-4cb2-98f2-5df467d9481f"}
{"nom":"Remouillé","nomNormalise":"remouille","typeCollectivite":"Commune","region":"Pays de la Loire","departement":"Loire-Atlantique","departementCode":"44","adresse":{"street":"1 rue de l'Hôtel-de-Ville","postalCode":"44140","city":"Remouillé","country":"France"},"contacts":{"email":"mairie@remouille.fr","telephone":"0240066214"},"horaires":"Le Lundi : de 09h00 à 12h15\nLe Mardi : de 09h00 à 12h15 de 16h00 à 19h00\nDu Mercredi au Vendredi : de 09h00 à 12h15\nSur rendez-vous en dehors de ces horaires.","latitude":47.0565,"longitude":-1.37813,"website":"https://www.remouille.fr/","hasWebsite":true,"hasHoraires":true,"url":"https://lannuaire.service-public.gouv.fr/pays-de-la-loire/loire-atlantique/ed36c9bd-a391-4802-b050-a96a5c65cbad"}
{"nom":"Rezé","nomNormalise":"reze","typeCollectivite":"Commune","region":"Pays de la Loire","departement":"Loire-Atlantique","departementCode":"44","adresse":{"street":"Place Jean-Baptiste-Daviais","postalCode":"44403","city":"Rezé Cedex","country":"France"},"contacts":{"email":"administration@mairie-reze.fr","telephone":"0240844300"},"horaires":"Du Lundi au Vendredi : de 08h30 à 12h30 de 13h30 à 17h30\nLe Samedi : de 09h00 à 12h00","latitude":47.1912,"longitude":-1.56958,"website":"https://www.reze.fr/","hasWebsite":true,"hasHoraires":true,"url":"https://lannuaire.service-public.gouv.fr/pays-de-la-loire/loire-atlantique/3a3f3e29-cc57-4b28-b73d-63b6e84b3117"}
{"nom":"Riaillé","nomNormalise":"riaille","typeCollectivite":"Commune","region":"Pays de la Loire","departement":"Loire-Atlantique","departementCode":"44","adresse":{"street":"170 rue du Cèdre","postalCode":"44440","city":"Riaillé","country":"France"},"contacts":{"email":"mairie@riaille.fr","telephone":"0240978025"},"horaires":"Du Lundi au Jeudi : de 08h30 à 12h30\nLe Vendredi : de 08h30 à 12h30 de 13h30 à 16h30","latitude":47.51748,"longitude":-1.293415,"website":"https://www.riaille.fr/","hasWebsite":true,"hasHoraires":true,"url":"https://lannuaire.service-public.gouv.fr/pays-de-la-loire/loire-atlantique/dec66133-e654-48a6-bddb-d58449ee2fa9"}
{"nom":"Rouans","nomNormalise":"rouans","typeCollectivite":"Commune","region":"Pays de la Loire","departement":"Loire-Atlantique","departementCode":"44","adresse":{"street":"Place de la Poste","postalCode":"44640","city":"Rouans","country":"France"},"contacts":{"email":"accueil@rouans.fr","telephone":"0240642427"},"horaires":"Le Lundi : de 14h00 à 17h00\nDu Mardi au Vendredi : de 09h00 à 12h00 de 14h00 à 17h00\nLe Samedi : de 09h00 à 12h00\n\nAccueil fermé du 10 juillet au 21 août.","latitude":47.18576,"longitude":-1.859353,"website":"http://www.rouans.fr/","hasWebsite":true,"hasHoraires":true,"url":"https://lannuaire.service-public.gouv.fr/pays-de-la-loire/loire-atlantique/68192aae-829a-4043-b41f-32e44682f7e9"}
{"nom":"Rougé","nomNormalise":"rouge","typeCollectivite":"Commune","region":"Pays de la Loire","departement":"Loire-Atlantique","departementCode":"44","adresse":{"street":"1 rue de la Gare","postalCode":"44660","city":"Rougé","country":"France"},"contacts":{"email":"accueil@mairie-rouge.fr","telephone":"0240288520"},"horaires":"Le Lundi : de 08h30 à 12h30\nLe Mardi : de 08h30 à 12h30 de 14h00 à 16h30\nLe Mercredi : de 08h30 à 12h30\nDu Jeudi au Vendredi : de 08h30 à 12h30 de 14h00 à 16h30","latitude":47.783,"longitude":-1.45661,"website":"http://www.mairie-rouge.fr/","hasWebsite":true,"hasHoraires":true,"url":"https://lannuaire.service-public.gouv.fr/pays-de-la-loire/loire-atlantique/5d3ef054-ca00-4bfb-bce1-de7b64dc9ac6"}
{"nom":"Saffré","nomNormalise":"saffre","typeCollectivite":"Commune","region":"Pays de la Loire","departement":"Loire-Atlantique","departementCode":"44","adresse":{"street":"1 cour du Séquoia","postalCode":"44390","city":"Saffré","country":"France"},"contacts":{"email":"mairie@saffre.fr","telephone":"0240772318"},"horaires":"Du Lundi au Vendredi : de 08h30 à 12h30\nLe Samedi : de 09h00 à 12h00\n\nAccueil fermé le samedi en juillet et en août.","latitude":47.50156,"longitude":-1.578744,"website":"http://www.saffre.fr/","hasWebsite":true,"hasHoraires":true,"url":"https://lannuaire.service-public.gouv.fr/pays-de-la-loire/loire-atlantique/f2cbaf62-885a-4bf0-b204-1d95e8b597cd"}
{"nom":"Saint-Aignan-Grandlieu","nomNormalise":"saintaignangrandlieu","typeCollectivite":"Commune","region":"Pays de la Loire","departement":"Loire-Atlantique","departementCode":"44","adresse":{"street":"1 place Millénia","postalCode":"44860","city":"Saint-Aignan-Grandlieu","country":"France"},"contacts":{"email":"contact@sagl.fr","telephone":"0240264444"},"horaires":"Du Lundi au Mercredi : de 09h00 à 13h00 de 14h00 à 17h30\nLe Jeudi : de 09h00 à 13h00\nLe Vendredi : de 09h00 à 13h00 de 14h00 à 17h30","latitude":47.124134,"longitude":-1.630217,"website":"https://www.saint-aignan-grandlieu.fr/","hasWebsite":true,"hasHoraires":true,"url":"https://lannuaire.service-public.gouv.fr/pays-de-la-loire/loire-atlantique/59b65b1b-fed2-4419-a79a-c1b70b928d36"}
{"nom":"Saint-André-des-Eaux","nomNormalise":"saintandredeseaux","typeCollectivite":"Commune","region":"Pays de la Loire","departement":"Loire-Atlantique","departementCode":"44","adresse":{"street":"5 place de la Mairie","postalCode":"44117","city":"Saint-André-des-Eaux","country":"France"},"contacts":{"email":"secretariat@ville-st-andre-des-eaux.fr","telephone":"0251106262"},"horaires":"Le Lundi : de 09h00 à 12h00\nLe Mardi : de 09h00 à 12h00 de 14h00 à 17h00\nLe Mercredi : de 09h00 à 12h00\nLe Jeudi : de 09h00 à 12h00 de 14h00 à 17h00\nLe Vendredi : de 09h00 à 12h00 de 14h00 à 16h00\nLe Samedi : de 09h00 à 12h00\n\nAccueil ouvert uniquement les 1er et 3e samedis du mois pour l'urbanisme.","latitude":47.313362,"longitude":-2.3105593,"website":"https://www.saint-andre-des-eaux.fr/","hasWebsite":true,"hasHoraires":true,"url":"https://lannuaire.service-public.gouv.fr/pays-de-la-loire/loire-atlantique/a3873aff-1d7d-4239-825c-f9a5496a04a7"}
{"nom":"Saint-Aubin-des-Châteaux","nomNormalise":"saintaubindeschateaux","typeCollectivite":"Commune","region":"Pays de la Loire","departement":"Loire-Atlantique","departementCode":"44","adresse":{"street":"2 place de l'Église","postalCode":"44110","city":"Saint-Aubin-des-Châteaux","country":"France"},"contacts":{"email":"mairie@saint-aubin-des-chateaux.fr","telephone":"0240284713"},"horaires":"Du Lundi au Jeudi : de 08h30 à 12h30\nLe Vendredi : de 08h30 à 12h30 de 14h00 à 17h30\n\nAccueil ouvert uniquement de 8h30 à 12h30 du lundi au vendredi pendant les vacances scolaires.","latitude":47.7191,"longitude":-1.48521,"website":"https://www.saint-aubin-des-chateaux.fr/","hasWebsite":true,"hasHoraires":true,"url":"https://lannuaire.service-public.gouv.fr/pays-de-la-loire/loire-atlantique/da04cd9f-311b-43ae-ba21-05ad48dfe3e9"}
{"nom":"Saint-Brevin-les-Pins","nomNormalise":"saintbrevinlespins","typeCollectivite":"Commune","region":"Pays de la Loire","departement":"Loire-Atlantique","departementCode":"44","adresse":{"street":"1 place de l'Hôtel-de-Ville","postalCode":"44250","city":"Saint-Brevin-les-Pins","country":"France"},"contacts":{"email":"secretariat@saint-brevin.fr","telephone":"0240644444"},"horaires":"Du Lundi au Vendredi : de 08h30 à 12h00 de 13h30 à 17h00\nLe Samedi : de 09h00 à 12h00\nL'accueil des services urbanisme et techniques est fermé au public le mardi.","latitude":47.2474,"longitude":-2.16737,"website":"https://www.saint-brevin.fr/","hasWebsite":true,"hasHoraires":true,"url":"https://lannuaire.service-public.gouv.fr/pays-de-la-loire/loire-atlantique/1cffc215-eb0e-44c8-a0db-3709d48bff35"}
{"nom":"Saint-Colomban","nomNormalise":"saintcolomban","typeCollectivite":"Commune","region":"Pays de la Loire","departement":"Loire-Atlantique","departementCode":"44","adresse":{"street":"30 rue de l'Hôtel-de-Ville","postalCode":"44310","city":"Saint-Colomban","country":"France"},"contacts":{"email":"mairie@st-colomban.fr","telephone":"0240058928"},"horaires":"Le Lundi : de 09h00 à 12h00 de 14h30 à 17h00\nLe Mardi : de 09h00 à 12h00\nLe Mercredi : de 09h00 à 12h00 de 14h30 à 17h00\nLe Jeudi : de 09h00 à 12h00\nLe Vendredi : de 09h00 à 12h00 de 14h30 à 17h00\nLe Samedi : de 09h00 à 12h00","latitude":47.0109,"longitude":-1.58244,"website":"https://www.st-colomban.fr/","hasWebsite":true,"hasHoraires":true,"url":"https://lannuaire.service-public.gouv.fr/pays-de-la-loire/loire-atlantique/1708cb85-22f7-4243-979d-2842b8739e1b"}
{"nom":"Sainte-Anne-sur-Brivet","nomNormalise":"sainteannesurbrivet","typeCollectivite":"Commune","region":"Pays de la Loire","departement":"Loire-Atlantique","departementCode":"44","adresse":{"street":"6 rue de l'Étang","postalCode":"44160","city":"Sainte-Anne-sur-Brivet","country":"France"},"contacts":{"email":"contact@sasbrivet.fr","telephone":"0240881409"},"horaires":"Du Lundi au Mercredi : de 09h00 à 12h00 de 14h00 à 17h00\nLe Jeudi : de 09h00 à 12h00\nLe Vendredi : de 09h00 à 12h00 de 14h00 à 16h30\nLe Samedi : de 09h00 à 12h00","latitude":47.4579,"longitude":-2.00518,"website":"https://www.sainte-anne-sur-brivet.fr/","hasWebsite":true,"hasHoraires":true,"url":"https://lannuaire.service-public.gouv.fr/pays-de-la-loire/loire-atlantique/2c847122-3f38-4604-a11f-0b881bf4a5b7"}
{"nom":"Sainte-Luce-sur-Loire","nomNormalise":"saintelucesurloire","typeCollectivite":"Commune","region":"Pays de la Loire","departement":"Loire-Atlantique","departementCode":"44","adresse":{"street":"Esplanade Pierre-Brasselet","postalCode":"44980","city":"Sainte-Luce-sur-Loire","country":"France"},"contacts":{"email":"contact@sainte-luce-loire.com","telephone":"0240681600"},"horaires":"Le Lundi : de 08h30 à 12h15 de 13h30 à 17h30\nLe Samedi : de 09h00 à 12h00\n\nAccueil ouvert uniquement pour passeport CNI .","latitude":47.249493,"longitude":-1.487331,"website":"https://www.sainte-luce-loire.com/","hasWebsite":true,"hasHoraires":true,"url":"https://lannuaire.service-public.gouv.fr/pays-de-la-loire/loire-atlantique/ad6a3a2b-f7ff-45f8-9c0c-c30cb32ea296"}
{"nom":"Sainte-Pazanne","nomNormalise":"saintepazanne","typeCollectivite":"Commune","region":"Pays de la Loire","departement":"Loire-Atlantique","departementCode":"44","adresse":{"street":"10 rue de l'Hôtel-de-Ville","postalCode":"44680","city":"Sainte-Pazanne","country":"France"},"contacts":{"email":"mairie@sainte-pazanne.com","telephone":"0240024374"},"horaires":"Du Lundi au Vendredi : de 09h00 à 12h00 de 15h00 à 17h30\nLe Samedi : de 09h00 à 12h00\n\nAccueil ouvert pour l'état civil uniquement.","latitude":47.1009,"longitude":-1.81289,"website":"http://www.sainte-pazanne.fr/","hasWebsite":true,"hasHoraires":true,"url":"https://lannuaire.service-public.gouv.fr/pays-de-la-loire/loire-atlantique/531f7b4f-d663-4fb4-b100-cc9cd83e2b19"}
{"nom":"Sainte-Reine-de-Bretagne","nomNormalise":"saintereinedebretagne","typeCollectivite":"Commune","region":"Pays de la Loire","departement":"Loire-Atlantique","departementCode":"44","adresse":{"street":"23 rue René-Guy-Cadou","postalCode":"44160","city":"Sainte-Reine-de-Bretagne","country":"France"},"contacts":{"email":"mairie@sainte-reine-de-bretagne.fr","telephone":"0240011022"},"horaires":"Du Lundi au Vendredi : de 08h30 à 12h30 de 13h30 à 15h00\nLe Samedi : de 09h00 à 12h00","latitude":47.444,"longitude":-2.19141,"website":"https://www.sainte-reine-de-bretagne.fr/","hasWebsite":true,"hasHoraires":true,"url":"https://lannuaire.service-public.gouv.fr/pays-de-la-loire/loire-atlantique/2828a055-59b3-4054-983e-b17bd85ee6d9"}
{"nom":"Saint-Étienne-de-Mer-Morte","nomNormalise":"saintetiennedemermorte","typeCollectivite":"Commune","region":"Pays de la Loire","departement":"Loire-Atlantique","departementCode":"44","adresse":{"street":"6 rue de Nantes","postalCode":"44270","city":"Saint-Étienne-de-Mer-Morte","country":"France"},"contacts":{"email":"mairie@saintetiennedemermorte.fr","telephone":"0240311206"},"horaires":"Du Lundi au Samedi : de 09h00 à 12h00","latitude":46.92983,"longitude":-1.7428992,"website":"https://www.saintetiennedemermorte.fr/","hasWebsite":true,"hasHoraires":true,"url":"https://lannuaire.service-public.gouv.fr/pays-de-la-loire/loire-atlantique/b6499062-c0cd-419f-89d9-f8c18cd638ee"}
{"nom":"Saint-Étienne-de-Montluc","nomNormalise":"saintetiennedemontluc","typeCollectivite":"Commune","region":"Pays de la Loire","departement":"Loire-Atlantique","departementCode":"44","adresse":{"street":"2 place de la Mairie","postalCode":"44360","city":"Saint-Étienne-de-Montluc","country":"France"},"contacts":{"email":"mairie@st-etienne-montluc.net","telephone":"0240868026"},"horaires":"Du Lundi au Vendredi : de 08h30 à 12h00 de 13h30 à 17h30","latitude":47.274544,"longitude":-1.7811434,"website":"http://www.st-etienne-montluc.net/","hasWebsite":true,"hasHoraires":true,"url":"https://lannuaire.service-public.gouv.fr/pays-de-la-loire/loire-atlantique/c2ae8774-f781-4bf0-8b5d-b4c33fd3ba00"}
{"nom":"Saint-Fiacre-sur-Maine","nomNormalise":"saintfiacresurmaine","typeCollectivite":"Commune","region":"Pays de la Loire","departement":"Loire-Atlantique","departementCode":"44","adresse":{"street":"8 rue d'Échichens","postalCode":"44690","city":"Saint-Fiacre-sur-Maine","country":"France"},"contacts":{"email":"accueil@saint-fiacre-sur-maine.fr","telephone":"0240548112"},"horaires":"Du Lundi au Mardi : de 08h30 à 12h30\nLe Mercredi : de 08h30 à 12h30 de 14h00 à 17h00\nDu Jeudi au Vendredi : de 08h30 à 12h30\nLe Samedi : de 09h00 à 12h00\n\nDeux Samedis par mois : de 09h00 à 12h00 Accueil fermé en juillet-août.","latitude":47.14298,"longitude":-1.416376,"website":"http://www.saint-fiacre-sur-maine.fr/","hasWebsite":true,"hasHoraires":true,"url":"https://lannuaire.service-public.gouv.fr/pays-de-la-loire/loire-atlantique/f0b8229a-a12d-4689-a04b-a972e1b34552"}
{"nom":"Saint-Gildas-des-Bois","nomNormalise":"saintgildasdesbois","typeCollectivite":"Commune","region":"Pays de la Loire","departement":"Loire-Atlantique","departementCode":"44","adresse":{"street":"10 rue du Docteur-Praux","postalCode":"44530","city":"Saint-Gildas-des-Bois","country":"France"},"contacts":{"email":"mairie@saintgildasdesbois.fr","telephone":"0240015454"},"horaires":"Du Lundi au Vendredi : de 09h00 à 12h30 de 14h00 à 17h00\nLe Samedi : de 09h00 à 12h00","latitude":47.5166,"longitude":-2.03794,"website":"http://www.saintgildasdesbois.fr/","hasWebsite":true,"hasHoraires":true,"url":"https://lannuaire.service-public.gouv.fr/pays-de-la-loire/loire-atlantique/95056f13-87be-466e-b311-a0cbacf7d112"}
{"nom":"Saint-Herblain","nomNormalise":"saintherblain","typeCollectivite":"Commune","region":"Pays de la Loire","departement":"Loire-Atlantique","departementCode":"44","adresse":{"street":"2 rue de l'Hôtel-de-Ville","postalCode":"44800","city":"Saint-Herblain","country":"France"},"contacts":{"email":"contact@saint-herblain.fr","telephone":"0228252000"},"horaires":"Du Lundi au Mercredi : de 08h30 à 12h30 de 13h30 à 17h30\nLe Jeudi : de 13h30 à 17h30\nLe Vendredi : de 08h30 à 12h30 de 13h30 à 17h30\nLe Samedi : de 09h00 à 12h00","latitude":47.210953,"longitude":-1.648744,"website":"https://www.saint-herblain.fr/","hasWebsite":true,"hasHoraires":true,"url":"https://lannuaire.service-public.gouv.fr/pays-de-la-loire/loire-atlantique/3dfaaf7f-2595-4138-b1a7-f7a57f58cec8"}
{"nom":"Mairie déléguée de Saint-Herblon","nomNormalise":"mairiedelegueedesaintherblon","typeCollectivite":"Commune","region":"Pays de la Loire","departement":"Loire-Atlantique","departementCode":"44","adresse":{"street":"Saint-Herblon","postalCode":"44150","city":"Vair-sur-Loire","country":"France"},"contacts":{"email":"mairie@vairsurloire.fr","telephone":"0240980223"},"horaires":"Du Lundi au Mardi : de 14h00 à 17h30\nDu Jeudi au Vendredi : de 14h00 à 17h30\nLe Samedi : de 09h30 à 12h00","latitude":47.40691,"longitude":-1.0946419,"website":"https://vairsurloire.fr/","hasWebsite":true,"hasHoraires":true,"url":"https://lannuaire.service-public.gouv.fr/pays-de-la-loire/loire-atlantique/02eb5293-b3c7-41bb-beae-f613dc4abbe8"}
{"nom":"Saint-Hilaire-de-Chaléons","nomNormalise":"sainthilairedechaleons","typeCollectivite":"Commune","region":"Pays de la Loire","departement":"Loire-Atlantique","departementCode":"44","adresse":{"street":"20 rue de la Mairie","postalCode":"44680","city":"Saint-Hilaire-de-Chaléons","country":"France"},"contacts":{"email":"mairie@shc44.fr","telephone":"0240317040"},"horaires":"Du Lundi au Mardi : de 09h00 à 12h00 de 14h00 à 16h30\nLe Mercredi : de 09h00 à 12h00\nDu Jeudi au Vendredi : de 09h00 à 12h00 de 14h00 à 16h30\nLe Samedi : de 10h00 à 12h00","latitude":47.1029,"longitude":-1.86315,"website":"https://www.saint-hilaire-de-chaleons.fr/","hasWebsite":true,"hasHoraires":true,"url":"https://lannuaire.service-public.gouv.fr/pays-de-la-loire/loire-atlantique/4a8046db-53d8-4ce8-accf-bcdb0e3cfd20"}
{"nom":"Saint-Hilaire-de-Clisson","nomNormalise":"sainthilairedeclisson","typeCollectivite":"Commune","region":"Pays de la Loire","departement":"Loire-Atlantique","departementCode":"44","adresse":{"street":"1 place de l'Église","postalCode":"44190","city":"Saint-Hilaire-de-Clisson","country":"France"},"contacts":{"email":"accueil@mairieshdc44.fr","telephone":"0240360779"},"horaires":"Le Mardi : de 09h00 à 12h30 de 14h00 à 17h00\nLe Mercredi : de 09h00 à 12h30\nLe Jeudi : de 09h00 à 12h30 de 16h00 à 19h00\nLe Vendredi : de 09h00 à 12h30 de 14h00 à 17h00\nHoraires d'été du 1er juillet au 31 août du mardi au vendredi 9h à 12h30","latitude":47.061787,"longitude":-1.3072101,"website":"https://www.sainthilairedeclisson.fr/","hasWebsite":true,"hasHoraires":true,"url":"https://lannuaire.service-public.gouv.fr/pays-de-la-loire/loire-atlantique/f1b003b3-eba3-4cdb-8b79-6f39308fd893"}
{"nom":"Saint-Jean-de-Boiseau","nomNormalise":"saintjeandeboiseau","typeCollectivite":"Commune","region":"Pays de la Loire","departement":"Loire-Atlantique","departementCode":"44","adresse":{"street":"Avenue du 11-Novembre","postalCode":"44640","city":"Saint-Jean-de-Boiseau","country":"France"},"contacts":{"email":"accueil@saintjeandeboiseau.fr","telephone":"0240656100"},"horaires":"Le Lundi : de 08h30 à 12h00 de 13h30 à 17h30\nLe Mardi : de 08h30 à 12h00 de 15h00 à 17h30\nLe Mercredi : de 08h30 à 12h00 de 13h30 à 17h30\nLe Jeudi : de 08h30 à 12h00 de 13h30 à 19h00\n\nEn juillet-août l'accueil ferme à 17h30.\nLe Vendredi : de 08h30 à 12h00 de 15h00 à 17h30","latitude":47.194565,"longitude":-1.724828,"website":"https://www.saint-jean-de-boiseau.fr/","hasWebsite":true,"hasHoraires":true,"url":"https://lannuaire.service-public.gouv.fr/pays-de-la-loire/loire-atlantique/4d0d1017-557b-4698-8a9e-41904f8558ab"}
{"nom":"Saint-Joachim","nomNormalise":"saintjoachim","typeCollectivite":"Commune","region":"Pays de la Loire","departement":"Loire-Atlantique","departementCode":"44","adresse":{"street":"64 rue Joliot-Curie","postalCode":"44720","city":"Saint-Joachim","country":"France"},"contacts":{"email":"commune@saint-joachim.fr","telephone":"0240884231"},"horaires":"Le Lundi : de 13h15 à 17h00\nLe Mardi : de 09h00 à 12h15\nLe Mercredi : de 09h00 à 12h15 de 13h15 à 17h00\nLe Jeudi : de 09h00 à 12h15\nLe Vendredi : de 09h00 à 12h15 de 13h15 à 17h00\nLe Samedi : de 09h00 à 11h45","latitude":47.38221,"longitude":-2.200227,"website":"https://www.saint-joachim.fr/","hasWebsite":true,"hasHoraires":true,"url":"https://lannuaire.service-public.gouv.fr/pays-de-la-loire/loire-atlantique/e4ba4df5-b235-488d-a52b-d8496e57ad17"}
{"nom":"Saint-Julien-de-Concelles","nomNormalise":"saintjuliendeconcelles","typeCollectivite":"Commune","region":"Pays de la Loire","departement":"Loire-Atlantique","departementCode":"44","adresse":{"street":"4 rue des Heurthauds","postalCode":"44450","city":"Saint-Julien-de-Concelles","country":"France"},"contacts":{"email":"accueil@saintjuliendeconcelles.fr","telephone":"0240541040"},"horaires":"Du Lundi au Mercredi : de 09h00 à 12h30 de 14h00 à 17h00\nLe Jeudi : de 09h00 à 12h30\nLe Vendredi : de 09h00 à 12h30 de 14h00 à 17h00\nLe Samedi : de 09h00 à 12h00\n\nAccueil fermé du 15 juillet au 15 août.","latitude":47.253395,"longitude":-1.385981,"website":"https://saintjuliendeconcelles.fr/","hasWebsite":true,"hasHoraires":true,"url":"https://lannuaire.service-public.gouv.fr/pays-de-la-loire/loire-atlantique/4e4710ff-5503-44fa-99b5-97a85250f750"}
{"nom":"Saint-Julien-de-Vouvantes","nomNormalise":"saintjuliendevouvantes","typeCollectivite":"Commune","region":"Pays de la Loire","departement":"Loire-Atlantique","departementCode":"44","adresse":{"street":"48 rue de la Libération","postalCode":"44670","city":"Saint-Julien-de-Vouvantes","country":"France"},"contacts":{"email":"contact-mairie@stjuliendevouvantes.fr","telephone":"0240555277"},"horaires":"Du Lundi au Vendredi : de 09h00 à 12h00","latitude":47.6419,"longitude":-1.24012,"website":"https://stjuliendevouvantes.fr/","hasWebsite":true,"hasHoraires":true,"url":"https://lannuaire.service-public.gouv.fr/pays-de-la-loire/loire-atlantique/74395e7c-8723-4c1e-bfa0-b29ce5704cd1"}
{"nom":"Saint-Léger-les-Vignes","nomNormalise":"saintlegerlesvignes","typeCollectivite":"Commune","region":"Pays de la Loire","departement":"Loire-Atlantique","departementCode":"44","adresse":{"street":"Le Haut-Moulin","postalCode":"44710","city":"Saint-Léger-les-Vignes","country":"France"},"contacts":{"email":"accueil@sllv44.fr","telephone":"0240315032"},"horaires":"Du Lundi au Vendredi : de 08h30 à 12h30\nLe Samedi : de 09h00 à 12h00\n\n2 Samedis par mois (hors vacances scolaires)* :","latitude":47.136585,"longitude":-1.7265356,"website":"https://www.mairie-saintlegerlesvignes.fr/","hasWebsite":true,"hasHoraires":true,"url":"https://lannuaire.service-public.gouv.fr/pays-de-la-loire/loire-atlantique/f38559e8-6bc3-42ad-815e-fa24f2226953"}
{"nom":"Saint-Lumine-de-Clisson","nomNormalise":"saintluminedeclisson","typeCollectivite":"Commune","region":"Pays de la Loire","departement":"Loire-Atlantique","departementCode":"44","adresse":{"street":"2 route de Clisson","postalCode":"44190","city":"Saint-Lumine-de-Clisson","country":"France"},"contacts":{"email":"accueil@saintluminedeclisson.com","telephone":"0240547638"},"horaires":"Du Lundi au Mercredi : de 08h30 à 12h00\nLe Jeudi : de 16h00 à 19h30\nLe Vendredi : de 08h30 à 12h00","latitude":47.0905,"longitude":-1.28807,"website":"https://saintluminedeclisson.fr/fr/","hasWebsite":true,"hasHoraires":true,"url":"https://lannuaire.service-public.gouv.fr/pays-de-la-loire/loire-atlantique/ea3be4f1-b722-4926-9a39-84f1edd73a9e"}
{"nom":"Saint-Lumine-de-Coutais","nomNormalise":"saintluminedecoutais","typeCollectivite":"Commune","region":"Pays de la Loire","departement":"Loire-Atlantique","departementCode":"44","adresse":{"street":"10 rue de Verdun","postalCode":"44310","city":"Saint-Lumine-de-Coutais","country":"France"},"contacts":{"email":"contact@stluminedecoutais.fr","telephone":"0240029025"},"horaires":"Du Lundi au Vendredi : de 08h30 à 12h00 de 14h00 à 17h00\nLe Samedi : de 09h30 à 12h00","latitude":47.056545,"longitude":-1.725535,"website":"https://www.stluminedecoutais.fr/","hasWebsite":true,"hasHoraires":true,"url":"https://lannuaire.service-public.gouv.fr/pays-de-la-loire/loire-atlantique/67d58064-da5c-45c1-8536-38caec1fb4e7"}
{"nom":"Saint-Lyphard","nomNormalise":"saintlyphard","typeCollectivite":"Commune","region":"Pays de la Loire","departement":"Loire-Atlantique","departementCode":"44","adresse":{"street":"1 rue de Kerio","postalCode":"44410","city":"Saint-Lyphard","country":"France"},"contacts":{"email":"ville@mairie-saint-lyphard.fr","telephone":"0240914108"},"horaires":"Le Lundi : de 09h00 à 12h00 de 14h00 à 18h00\nDu Mardi au Mercredi : de 09h00 à 12h00 de 14h00 à 17h00\nLe Jeudi : de 09h00 à 12h00\nLe Vendredi : de 09h00 à 12h00 de 14h00 à 17h00","latitude":47.3991,"longitude":-2.31112,"website":"https://www.mairie-saintlyphard.fr/","hasWebsite":true,"hasHoraires":true,"url":"https://lannuaire.service-public.gouv.fr/pays-de-la-loire/loire-atlantique/ca3d0b25-3ff7-4816-b916-9d7204b9096c"}
{"nom":"Saint-Malo-de-Guersac","nomNormalise":"saintmalodeguersac","typeCollectivite":"Commune","region":"Pays de la Loire","departement":"Loire-Atlantique","departementCode":"44","adresse":{"street":"12 rue Aristide-Briand","postalCode":"44550","city":"Saint-Malo-de-Guersac","country":"France"},"contacts":{"email":"mairie@saintmalodeguersac.fr","telephone":"0240911694"},"horaires":"Du Lundi au Mercredi : de 09h00 à 12h00 de 14h00 à 17h00\nLe Jeudi : de 14h00 à 17h00\nLe Vendredi : de 09h00 à 12h00 de 14h00 à 17h00\nLe Samedi : de 09h00 à 12h00","latitude":47.3513,"longitude":-2.17868,"website":"https://www.saintmalodeguersac.fr/","hasWebsite":true,"hasHoraires":true,"url":"https://lannuaire.service-public.gouv.fr/pays-de-la-loire/loire-atlantique/096a2ca4-b470-4ee3-995a-6cfde623ded1"}
{"nom":"Saint-Mars-de-Coutais","nomNormalise":"saintmarsdecoutais","typeCollectivite":"Commune","region":"Pays de la Loire","departement":"Loire-Atlantique","departementCode":"44","adresse":{"street":"14 rue Saint-Médard","postalCode":"44680","city":"Saint-Mars-de-Coutais","country":"France"},"contacts":{"email":"accueil@saintmarsdecoutais.fr","telephone":"0240315053"},"horaires":"Le Lundi : de 09h00 à 12h30 de 14h00 à 17h30\nLe Mardi : de 09h00 à 12h30\nLe Mercredi : de 09h00 à 12h30 de 14h00 à 17h30\nLe Jeudi : de 14h00 à 18h30\nLe Vendredi : de 09h00 à 12h00 de 14h00 à 17h30","latitude":47.112,"longitude":-1.73107,"website":"https://www.saintmarsdecoutais.fr/","hasWebsite":true,"hasHoraires":true,"url":"https://lannuaire.service-public.gouv.fr/pays-de-la-loire/loire-atlantique/8d9b13b9-56f7-4114-83ad-c6e62429cfb2"}
{"nom":"Saint-Mars-du-Désert","nomNormalise":"saintmarsdudesert","typeCollectivite":"Commune","region":"Pays de la Loire","departement":"Loire-Atlantique","departementCode":"44","adresse":{"street":"1 rue de la Mairie","postalCode":"44850","city":"Saint-Mars-du-Désert","country":"France"},"contacts":{"email":"mairie@saintmarsdudesert.fr","telephone":"0240774409"},"horaires":"Du Lundi au Jeudi : de 09h00 à 12h00 de 13h30 à 17h30\nLe Vendredi : de 09h00 à 12h00 de 13h30 à 17h00\nLe Samedi : de 09h00 à 12h00\n\nUniquement Etat-Civil - Accueil fermé en juillet-août et pendant les vacances scolaires.","latitude":47.36618,"longitude":-1.405043,"website":"https://www.saint-mars-du-desert.fr/","hasWebsite":true,"hasHoraires":true,"url":"https://lannuaire.service-public.gouv.fr/pays-de-la-loire/loire-atlantique/856720ec-6e04-4d6b-814d-e1df6288a1d0"}
{"nom":"Mairie déléguée - Saint-Mars-la-Jaille","nomNormalise":"mairiedelegueesaintmarslajaille","typeCollectivite":"Commune","region":"Pays de la Loire","departement":"Loire-Atlantique","departementCode":"44","adresse":{"street":"18 avenue Charles-Henri de Cossé Brissac","postalCode":"44540","city":"Vallons-de-l'Erdre","country":"France"},"contacts":{"email":"contact@vallonsdelerdre.fr","telephone":"0285293300"},"horaires":"Du Lundi au Mardi : de 09h00 à 12h15 de 14h00 à 17h00\nLe Mercredi : de 09h00 à 12h15\n\nPasseports et cartes nationales d’identité uniquement sur rendez-vous.\nDu Jeudi au Vendredi : de 09h00 à 12h15 de 14h00 à 17h00\nLe Samedi : de 09h00 à 12h00","latitude":47.526714,"longitude":-1.1849597,"website":"https://www.vallonsdelerdre.fr/","hasWebsite":true,"hasHoraires":true,"url":"https://lannuaire.service-public.gouv.fr/pays-de-la-loire/loire-atlantique/bb082c3a-b52b-4a8b-ba27-eb19244a72aa"}
{"nom":"Saint-Michel-Chef-Chef","nomNormalise":"saintmichelchefchef","typeCollectivite":"Commune","region":"Pays de la Loire","departement":"Loire-Atlantique","departementCode":"44","adresse":{"street":"17 rue du Chevecier","postalCode":"44730","city":"Saint-Michel-Chef-Chef","country":"France"},"contacts":{"email":"mairie@stmichelchefchef.fr","telephone":"0240649999"},"horaires":"Du Lundi au Vendredi : de 09h00 à 12h30 de 13h30 à 16h30\nLe Samedi : de 10h00 à 12h00\n\nFormalités administratives uniquement","latitude":47.1822,"longitude":-2.14759,"website":"https://www.stmichelchefchef.fr/","hasWebsite":true,"hasHoraires":true,"url":"https://lannuaire.service-public.gouv.fr/pays-de-la-loire/loire-atlantique/93e3ca08-c42b-4f52-9c57-d524d7001bc9"}
{"nom":"Saint-Molf","nomNormalise":"saintmolf","typeCollectivite":"Commune","region":"Pays de la Loire","departement":"Loire-Atlantique","departementCode":"44","adresse":{"street":"1 rue des Épis","postalCode":"44350","city":"Saint-Molf","country":"France"},"contacts":{"email":"accueil@saintmolf.fr","telephone":"0240625077"},"horaires":"Du Lundi au Mardi : de 09h00 à 12h00 de 13h30 à 16h30\nLe Mercredi : de 09h00 à 12h00\nDu Jeudi au Vendredi : de 09h00 à 12h00 de 13h30 à 16h30\nLe Samedi : de 09h00 à 12h00","latitude":47.391968,"longitude":-2.4228458,"website":"http://www.mairie-saint-molf.fr/","hasWebsite":true,"hasHoraires":true,"url":"https://lannuaire.service-public.gouv.fr/pays-de-la-loire/loire-atlantique/f8d4b634-583a-494a-bcb2-1216407aab87"}
{"nom":"Saint-Nazaire","nomNormalise":"saintnazaire","typeCollectivite":"Commune","region":"Pays de la Loire","departement":"Loire-Atlantique","departementCode":"44","adresse":{"street":"Place François-Blancho","postalCode":"44600","city":"Saint-Nazaire","country":"France"},"contacts":{"email":"contact@saintnazaire.fr","telephone":"0240004000"},"horaires":"Le Lundi : de 08h30 à 12h00 de 13h30 à 17h30\nLe Mardi : de 08h30 à 17h30\n\nJournée continue.\nDu Mercredi au Vendredi : de 08h30 à 12h00 de 13h30 à 17h30\nLe Samedi : de 09h00 à 12h00","latitude":47.274204,"longitude":-2.2141504,"website":"https://www.saintnazaire.fr/","hasWebsite":true,"hasHoraires":true,"url":"https://lannuaire.service-public.gouv.fr/pays-de-la-loire/loire-atlantique/3a6763ad-dac7-426d-a95f-2adc3410c724"}
{"nom":"Saint-Nicolas-de-Redon","nomNormalise":"saintnicolasderedon","typeCollectivite":"Commune","region":"Pays de la Loire","departement":"Loire-Atlantique","departementCode":"44","adresse":{"street":"26 rue de Nantes","postalCode":"44460","city":"Saint-Nicolas-de-Redon","country":"France"},"contacts":{"email":"contact@saintnicolasderedon.fr","telephone":"0299711304"},"horaires":"Le Lundi : de 08h30 à 12h30\nDu Mardi au Mercredi : de 08h30 à 12h30 de 13h30 à 17h30\nLe Jeudi : de 08h30 à 12h30\nLe Vendredi : de 08h30 à 12h30 de 13h30 à 16h30","latitude":47.642635,"longitude":-2.0686033,"website":"http://www.saintnicolasderedon.fr/","hasWebsite":true,"hasHoraires":true,"url":"https://lannuaire.service-public.gouv.fr/pays-de-la-loire/loire-atlantique/702e38a7-ecf3-4883-8fc7-ce62f45d065c"}
{"nom":"Saint-Père-en-Retz","nomNormalise":"saintpereenretz","typeCollectivite":"Commune","region":"Pays de la Loire","departement":"Loire-Atlantique","departementCode":"44","adresse":{"street":"Place de la Mairie","postalCode":"44320","city":"Saint-Père-en-Retz","country":"France"},"contacts":{"email":"mairie@saintpereenretz.fr","telephone":"0240217029"},"horaires":"Du Lundi au Vendredi : de 09h00 à 12h00 de 14h00 à 17h00\nLe Samedi : de 09h00 à 12h00\n\nAccueil ouvert uniquement pour les passeports et fermé les derniers samedis du mois.","latitude":47.2074,"longitude":-2.04432,"website":"http://www.saintpereenretz.fr/","hasWebsite":true,"hasHoraires":true,"url":"https://lannuaire.service-public.gouv.fr/pays-de-la-loire/loire-atlantique/e114e575-d284-4775-8522-7e10c555458b"}
{"nom":"Saint-Philbert-de-Grand-Lieu","nomNormalise":"saintphilbertdegrandlieu","typeCollectivite":"Commune","region":"Pays de la Loire","departement":"Loire-Atlantique","departementCode":"44","adresse":{"street":"24 rue de l'Hôtel-de-Ville","postalCode":"44310","city":"Saint-Philbert-de-Grand-Lieu","country":"France"},"contacts":{"email":"contact@stphilbert.fr","telephone":"0240788822"},"horaires":"Le Lundi : de 14h00 à 17h00\nDu Mardi au Vendredi : de 09h00 à 12h30 de 14h00 à 17h00\nLe Samedi : de 09h00 à 12h00","latitude":47.03763,"longitude":-1.642085,"website":"https://www.stphilbert.fr/","hasWebsite":true,"hasHoraires":true,"url":"https://lannuaire.service-public.gouv.fr/pays-de-la-loire/loire-atlantique/bc5201d8-7cdc-4210-9c50-70a9696c0942"}
{"nom":"Saint-Sébastien-sur-Loire","nomNormalise":"saintsebastiensurloire","typeCollectivite":"Commune","region":"Pays de la Loire","departement":"Loire-Atlantique","departementCode":"44","adresse":{"street":"Place Marcellin-Verbe","postalCode":"44230","city":"Saint-Sébastien-sur-Loire","country":"France"},"contacts":{"email":"communication@saintsebastien.fr","telephone":"0240808500"},"horaires":"Du Lundi au Mercredi : de 08h30 à 12h00 de 13h30 à 17h30\nLe Jeudi : de 13h30 à 17h30\nLe Vendredi : de 08h30 à 12h00 de 13h30 à 17h30\nLe Samedi : de 09h00 à 12h00","latitude":47.2072,"longitude":-1.504118,"website":"https://www.saintsebastien.fr/","hasWebsite":true,"hasHoraires":true,"url":"https://lannuaire.service-public.gouv.fr/pays-de-la-loire/loire-atlantique/d7bfae3e-c913-4295-bcfe-7bc77693f6f4"}
{"nom":"Mairie déléguée - Saint-Sulpice-des-Landes","nomNormalise":"mairiedelegueesaintsulpicedeslandes","typeCollectivite":"Commune","region":"Pays de la Loire","departement":"Loire-Atlantique","departementCode":"44","adresse":{"street":"18 avenue Charles-Henri de Cossé Brissac","postalCode":"44540","city":"Vallons-de-l'Erdre","country":"France"},"contacts":{"email":"contact@vallonsdelerdre.fr","telephone":"0285293300"},"horaires":"Du Lundi au Vendredi : de 14h00 à 17h15","latitude":47.526714,"longitude":-1.1849597,"website":"https://www.vallonsdelerdre.fr/","hasWebsite":true,"hasHoraires":true,"url":"https://lannuaire.service-public.gouv.fr/pays-de-la-loire/loire-atlantique/f4b683d5-811b-4fd1-8466-128b95e24ca5"}
{"nom":"Saint-Viaud","nomNormalise":"saintviaud","typeCollectivite":"Commune","region":"Pays de la Loire","departement":"Loire-Atlantique","departementCode":"44","adresse":{"street":"Place Jollan-de-Clerville","postalCode":"44320","city":"Saint-Viaud","country":"France"},"contacts":{"email":"accueil@saint-viaud.fr","telephone":"0240275314"},"horaires":"Le Lundi : de 14h00 à 17h00\nLe Mardi : de 09h00 à 12h00 de 14h00 à 17h00\nLe Mercredi : de 09h00 à 12h00\nLe Jeudi : de 09h00 à 12h00 de 14h00 à 17h00\nLe Vendredi : de 09h00 à 12h00 de 14h00 à 16h30\nLe Samedi : de 09h00 à 12h00","latitude":47.2563,"longitude":-2.01884,"website":"https://www.saint-viaud.fr/","hasWebsite":true,"hasHoraires":true,"url":"https://lannuaire.service-public.gouv.fr/pays-de-la-loire/loire-atlantique/bef2b3a4-ad48-4d93-b857-49f9d7daad42"}
{"nom":"Saint-Vincent-des-Landes","nomNormalise":"saintvincentdeslandes","typeCollectivite":"Commune","region":"Pays de la Loire","departement":"Loire-Atlantique","departementCode":"44","adresse":{"street":"17 rue de la Mairie","postalCode":"44590","city":"Saint-Vincent-des-Landes","country":"France"},"contacts":{"email":"info@mairie-stvincentdeslandes.fr","telephone":"0240553829"},"horaires":"Du Lundi au Mardi : de 09h00 à 12h30 de 14h30 à 17h30\nLe Mercredi : de 09h00 à 12h30\nDu Jeudi au Vendredi : de 09h00 à 12h30 de 14h30 à 17h30","latitude":47.6553,"longitude":-1.49736,"website":"http://www.mairie-stvincentdeslandes.fr/","hasWebsite":true,"hasHoraires":true,"url":"https://lannuaire.service-public.gouv.fr/pays-de-la-loire/loire-atlantique/a1c0a919-8fc0-4668-b8a3-68aef6c0a94d"}
{"nom":"Sautron","nomNormalise":"sautron","typeCollectivite":"Commune","region":"Pays de la Loire","departement":"Loire-Atlantique","departementCode":"44","adresse":{"street":"14 rue de la Vallée","postalCode":"44880","city":"Sautron","country":"France"},"contacts":{"email":"mairie@sautron.fr","telephone":"0251778686"},"horaires":"Du Lundi au Mercredi : de 08h30 à 12h30 de 13h30 à 17h15\nLe Vendredi : de 08h30 à 12h30 de 13h30 à 17h15\n\nAccueil ouvert en juillet-août du lundi au vendredi de 8h30 à 12h et de 13h30 à 17h.","latitude":47.264454,"longitude":-1.673297,"website":"https://www.sautron.fr/","hasWebsite":true,"hasHoraires":true,"url":"https://lannuaire.service-public.gouv.fr/pays-de-la-loire/loire-atlantique/e4fab6da-3cd5-45e8-8088-c19ecfb400e7"}
{"nom":"Savenay","nomNormalise":"savenay","typeCollectivite":"Commune","region":"Pays de la Loire","departement":"Loire-Atlantique","departementCode":"44","adresse":{"street":"2 rue du Parc-des-Sports","postalCode":"44260","city":"Savenay","country":"France"},"contacts":{"email":"mairie@ville-savenay.fr","telephone":"0240583939"},"horaires":"Le Lundi : de 08h30 à 12h00 de 13h30 à 17h00\nLe Mardi : de 08h30 à 12h00\nDu Mercredi au Vendredi : de 08h30 à 12h00 de 13h30 à 17h00\nLe Samedi : de 09h00 à 12h00\n\nAccueil ouvert le samedi uniquement pour l'état civil, le service urbanisme reçoit sur rendez-vous.","latitude":47.3582,"longitude":-1.94626,"website":"https://www.ville-savenay.fr/","hasWebsite":true,"hasHoraires":true,"url":"https://lannuaire.service-public.gouv.fr/pays-de-la-loire/loire-atlantique/ecd258c6-6499-4359-ad64-602f2a0e732a"}
{"nom":"Sévérac","nomNormalise":"severac","typeCollectivite":"Commune","region":"Pays de la Loire","departement":"Loire-Atlantique","departementCode":"44","adresse":{"street":"31 rue des Landes-du-Bourg","postalCode":"44530","city":"Sévérac","country":"France"},"contacts":{"email":"mairie-severac@orange.fr","telephone":"0240887156"},"horaires":"Du Lundi au Samedi : de 09h00 à 12h00\n\nfermé mardi et jeudi","latitude":47.54709,"longitude":-2.078575,"website":"https://www.mairie-severac.fr/","hasWebsite":true,"hasHoraires":true,"url":"https://lannuaire.service-public.gouv.fr/pays-de-la-loire/loire-atlantique/40be82aa-af08-477f-8b31-9358743dd45f"}
{"nom":"Sion-les-Mines","nomNormalise":"sionlesmines","typeCollectivite":"Commune","region":"Pays de la Loire","departement":"Loire-Atlantique","departementCode":"44","adresse":{"street":"20 rue de Châteaubriant","postalCode":"44590","city":"Sion-les-Mines","country":"France"},"contacts":{"email":"accueil@mairie-sionlesmines.fr","telephone":"0240289521"},"horaires":"Du Lundi au Mardi : de 09h00 à 12h30\nLe Jeudi : de 09h00 à 12h30\nLe Vendredi : de 09h00 à 12h30 de 13h30 à 17h00","latitude":47.734436,"longitude":-1.589181,"website":"http://www.mairie-sionlesmines.fr/","hasWebsite":true,"hasHoraires":true,"url":"https://lannuaire.service-public.gouv.fr/pays-de-la-loire/loire-atlantique/df4ab779-81f2-4cee-ae34-6bb1014b1ae3"}
{"nom":"Soudan","nomNormalise":"soudan","typeCollectivite":"Commune","region":"Pays de la Loire","departement":"Loire-Atlantique","departementCode":"44","adresse":{"street":"3 place Jeanne-d'Arc","postalCode":"44110","city":"Soudan","country":"France"},"contacts":{"email":"mairie.soudan@wanadoo.fr","telephone":"0240286216"},"horaires":"Du Lundi au Jeudi : de 09h00 à 12h00\nLe Vendredi : de 09h00 à 12h00 de 14h00 à 16h00\nLe Samedi : de 09h00 à 12h00\n\nAccueil fermé le samedi en période estivale, se renseigner auprès de la mairie.","latitude":47.737152,"longitude":-1.3059725,"website":"http://www.communedesoudan44110.fr/","hasWebsite":true,"hasHoraires":true,"url":"https://lannuaire.service-public.gouv.fr/pays-de-la-loire/loire-atlantique/52a07cea-31ba-4ddf-a0ee-9a69e55d2e1f"}
{"nom":"Soulvache","nomNormalise":"soulvache","typeCollectivite":"Commune","region":"Pays de la Loire","departement":"Loire-Atlantique","departementCode":"44","adresse":{"street":"3 rue de la Mairie","postalCode":"44660","city":"Soulvache","country":"France"},"contacts":{"email":"mairie@soulvache.fr","telephone":"0240288052"},"horaires":"Du Lundi au Mardi : de 09h00 à 12h00 de 14h00 à 16h00\nLe Mercredi : de 09h00 à 12h00\nDu Jeudi au Vendredi : de 09h00 à 12h00 de 14h00 à 16h00","latitude":47.795506,"longitude":-1.4155397,"website":"","hasWebsite":false,"hasHoraires":true,"url":"https://lannuaire.service-public.gouv.fr/pays-de-la-loire/loire-atlantique/a7b7b0db-fdc0-4b1c-8694-09f12e84b409"}
{"nom":"Sucé-sur-Erdre","nomNormalise":"sucesurerdre","typeCollectivite":"Commune","region":"Pays de la Loire","departement":"Loire-Atlantique","departementCode":"44","adresse":{"street":"25 rue de la Mairie","postalCode":"44240","city":"Sucé-sur-Erdre","country":"France"},"contacts":{"email":"contact@suce-sur-erdre.fr","telephone":"0240777020"},"horaires":"Le Lundi : de 14h00 à 17h30\nDu Mardi au Jeudi : de 09h00 à 12h30 de 14h00 à 17h30\nLe Vendredi : de 09h00 à 12h30 de 14h00 à 19h30","latitude":47.34038,"longitude":-1.526366,"website":"https://suce-sur-erdre.fr/","hasWebsite":true,"hasHoraires":true,"url":"https://lannuaire.service-public.gouv.fr/pays-de-la-loire/loire-atlantique/5921f6d7-4dcc-496c-80fe-021f6b79698a"}
{"nom":"Teillé","nomNormalise":"teille","typeCollectivite":"Commune","region":"Pays de la Loire","departement":"Loire-Atlantique","departementCode":"44","adresse":{"street":"10 impasse des Jardins","postalCode":"44440","city":"Teillé","country":"France"},"contacts":{"email":"mairie@teille44.fr","telephone":"0240972315"},"horaires":"Du Lundi au Jeudi : de 09h00 à 12h00\nLe Vendredi : de 09h00 à 12h00 de 14h00 à 16h30\nLe Samedi : de 09h00 à 11h30\n\nAccueil fermé le samedi en juillet-août.","latitude":47.461468,"longitude":-1.281398,"website":"https://www.teille44.fr/","hasWebsite":true,"hasHoraires":true,"url":"https://lannuaire.service-public.gouv.fr/pays-de-la-loire/loire-atlantique/5ee7c640-5ab5-4ddf-ab28-e6a466b23b09"}
{"nom":"Thouaré-sur-Loire","nomNormalise":"thouaresurloire","typeCollectivite":"Commune","region":"Pays de la Loire","departement":"Loire-Atlantique","departementCode":"44","adresse":{"street":"6 rue des Mauves","postalCode":"44470","city":"Thouaré-sur-Loire","country":"France"},"contacts":{"email":"contact@mairie-thouare.fr","telephone":"0240680970"},"horaires":"Le Lundi : de 09h00 à 12h15 de 14h00 à 17h00\nLe Mardi : de 09h00 à 12h15\nDu Mercredi au Vendredi : de 09h00 à 12h15 de 14h00 à 17h00\nLe Samedi : de 09h00 à 11h45","latitude":47.26768,"longitude":-1.4392312,"website":"http://www.thouare.fr/","hasWebsite":true,"hasHoraires":true,"url":"https://lannuaire.service-public.gouv.fr/pays-de-la-loire/loire-atlantique/00d09a69-0c1e-4a56-9bdc-f8f9a02ceec9"}
{"nom":"Touvois","nomNormalise":"touvois","typeCollectivite":"Commune","region":"Pays de la Loire","departement":"Loire-Atlantique","departementCode":"44","adresse":{"street":"18 rue de Nantes","postalCode":"44650","city":"Touvois","country":"France"},"contacts":{"email":"info@touvois.fr","telephone":"0240316405"},"horaires":"Le Lundi : de 09h00 à 12h00 de 14h00 à 17h00\nLe Mardi : de 09h00 à 12h00\nLe Mercredi : de 09h00 à 12h00 de 14h00 à 17h00\nLe Jeudi : de 14h00 à 17h00\nLe Vendredi : de 09h00 à 12h00 de 14h00 à 17h00\nLe Samedi : de 09h00 à 12h00\n\nAccueil ouvert uniquement les 2e et 4e samedis du mois et fermé en juillet-août.","latitude":46.948,"longitude":-1.72515,"website":"http://www.touvois.fr/","hasWebsite":true,"hasHoraires":true,"url":"https://lannuaire.service-public.gouv.fr/pays-de-la-loire/loire-atlantique/b0c9c162-fcc0-46a1-8dc4-366fa25ff5e1"}
{"nom":"Treffieux","nomNormalise":"treffieux","typeCollectivite":"Commune","region":"Pays de la Loire","departement":"Loire-Atlantique","departementCode":"44","adresse":{"street":"14 rue de la Libération","postalCode":"44170","city":"Treffieux","country":"France"},"contacts":{"email":"mairie@treffieux.fr","telephone":"0240514819"},"horaires":"Du Lundi au Mardi : de 09h00 à 12h30\nLe Jeudi : de 09h00 à 12h30\nLe Vendredi : de 09h00 à 13h30","latitude":47.62098,"longitude":-1.536826,"website":"https://www.treffieux.fr/","hasWebsite":true,"hasHoraires":true,"url":"https://lannuaire.service-public.gouv.fr/pays-de-la-loire/loire-atlantique/f81a3e78-3418-425f-ba62-45122105611b"}
{"nom":"Treillières","nomNormalise":"treillieres","typeCollectivite":"Commune","region":"Pays de la Loire","departement":"Loire-Atlantique","departementCode":"44","adresse":{"street":"57 rue de la Mairie","postalCode":"44119","city":"Treillières","country":"France"},"contacts":{"email":"mairie@treillieres.fr","telephone":"0240946416"},"horaires":"Du Lundi au Mercredi : de 08h30 à 12h30 de 14h00 à 17h30\nLe Jeudi : de 08h30 à 12h30\nLe Vendredi : de 08h30 à 12h30 de 14h00 à 17h30\nLe Samedi : de 09h00 à 12h00\n\nFermé du 10 juillet au 28 août.","latitude":47.329613,"longitude":-1.620933,"website":"https://www.treillieres.fr/","hasWebsite":true,"hasHoraires":true,"url":"https://lannuaire.service-public.gouv.fr/pays-de-la-loire/loire-atlantique/36203410-a3ad-4714-bc32-c804904f4a21"}
{"nom":"Trignac","nomNormalise":"trignac","typeCollectivite":"Commune","region":"Pays de la Loire","departement":"Loire-Atlantique","departementCode":"44","adresse":{"street":"11 place de la Mairie","postalCode":"44570","city":"Trignac","country":"France"},"contacts":{"email":"contact@mairie-trignac.fr","telephone":"0240458225"},"horaires":"Du Lundi au Vendredi : de 08h30 à 12h00 de 13h30 à 17h00","latitude":47.317574,"longitude":-2.188476,"website":"https://www.mairie-trignac.fr/","hasWebsite":true,"hasHoraires":true,"url":"https://lannuaire.service-public.gouv.fr/pays-de-la-loire/loire-atlantique/172263f4-9a61-46e4-b21f-acc944945b6b"}
{"nom":"Vair-sur-Loire","nomNormalise":"vairsurloire","typeCollectivite":"Commune","region":"Pays de la Loire","departement":"Loire-Atlantique","departementCode":"44","adresse":{"street":"4 rue Boule-d'Or","postalCode":"44150","city":"Vair-sur-Loire","country":"France"},"contacts":{"email":"mairie@vairsurloire.fr","telephone":"0240980223"},"horaires":"Du Lundi au Mardi : de 09h00 à 12h00 de 14h00 à 17h30\nLe Mercredi : de 09h00 à 12h00\nLe Jeudi : de 14h00 à 17h30\nLe Vendredi : de 09h00 à 12h00 de 14h00 à 17h30\nLe Samedi : de 09h30 à 12h00","latitude":47.40691,"longitude":-1.0946419,"website":"https://vairsurloire.fr/","hasWebsite":true,"hasHoraires":true,"url":"https://lannuaire.service-public.gouv.fr/pays-de-la-loire/loire-atlantique/1bedf2e1-c878-45db-93c4-7f4f86e473db"}
{"nom":"Vallet","nomNormalise":"vallet","typeCollectivite":"Commune","region":"Pays de la Loire","departement":"Loire-Atlantique","departementCode":"44","adresse":{"street":"9 rue François-Luneau","postalCode":"44330","city":"Vallet","country":"France"},"contacts":{"email":"accueil@vallet.fr","telephone":"0240339200"},"horaires":"Du Lundi au Vendredi : de 09h00 à 12h30 de 13h30 à 17h30\nLe Samedi : de 09h00 à 11h30","latitude":47.16176,"longitude":-1.2662282,"website":"https://www.vallet.fr/","hasWebsite":true,"hasHoraires":true,"url":"https://lannuaire.service-public.gouv.fr/pays-de-la-loire/loire-atlantique/73c1a85d-1e97-41b7-a8d8-ba90de9170a1"}
{"nom":"Vallons-de-l'Erdre","nomNormalise":"vallonsdelerdre","typeCollectivite":"Commune","region":"Pays de la Loire","departement":"Loire-Atlantique","departementCode":"44","adresse":{"street":"(secteur de Saint-Mars-la-Jaille)","postalCode":"44540","city":"Vallons-de-l'Erdre","country":"France"},"contacts":{"email":"contact@vallonsdelerdre.fr","telephone":"0285293300"},"horaires":"Du Lundi au Mardi : de 09h00 à 12h15 de 14h00 à 17h00\nLe Mercredi : de 09h00 à 12h15\nDu Jeudi au Vendredi : de 09h00 à 12h15 de 14h00 à 17h00\nLe Samedi : de 09h00 à 12h00","latitude":47.52422,"longitude":-1.1862133,"website":"https://www.vallonsdelerdre.fr/","hasWebsite":true,"hasHoraires":true,"url":"https://lannuaire.service-public.gouv.fr/pays-de-la-loire/loire-atlantique/717f6887-e8c1-42f4-bbb2-43b57ab57c35"}
{"nom":"Vay","nomNormalise":"vay","typeCollectivite":"Commune","region":"Pays de la Loire","departement":"Loire-Atlantique","departementCode":"44","adresse":{"street":"5 rue Principale","postalCode":"44170","city":"Vay","country":"France"},"contacts":{"email":"mairie@vay.fr","telephone":"0240794718"},"horaires":"Du Lundi au Mardi : de 08h30 à 12h30\nLe Mercredi : de 08h30 à 12h30 de 14h00 à 17h00\nDu Jeudi au Vendredi : de 08h30 à 12h30\nLe Samedi : de 08h30 à 11h30","latitude":47.554234,"longitude":-1.7027535,"website":"http://www.vay.fr/","hasWebsite":true,"hasHoraires":true,"url":"https://lannuaire.service-public.gouv.fr/pays-de-la-loire/loire-atlantique/7438cbe2-497b-41ab-92b3-1b6480b8cda7"}
{"nom":"Vertou","nomNormalise":"vertou","typeCollectivite":"Commune","region":"Pays de la Loire","departement":"Loire-Atlantique","departementCode":"44","adresse":{"street":"2 place Saint-Martin","postalCode":"44123","city":"Vertou","country":"France"},"contacts":{"email":"ecrire@mairie-vertou.fr","telephone":"0240344300"},"horaires":"Le Lundi : de 13h30 à 17h30\nDu Mardi au Jeudi : de 09h00 à 12h30 de 13h30 à 17h30\nLe Vendredi : de 09h00 à 12h30 de 13h30 à 17h00\nLe Samedi : de 09h00 à 12h00","latitude":47.167946,"longitude":-1.473317,"website":"https://vertou.fr/","hasWebsite":true,"hasHoraires":true,"url":"https://lannuaire.service-public.gouv.fr/pays-de-la-loire/loire-atlantique/b4d36b1b-2076-46b9-b31d-ff284861f720"}
{"nom":"Vieillevigne","nomNormalise":"vieillevigne","typeCollectivite":"Commune","region":"Pays de la Loire","departement":"Loire-Atlantique","departementCode":"44","adresse":{"street":"1 place de la Mairie","postalCode":"44116","city":"Vieillevigne","country":"France"},"contacts":{"email":"accueil@vieillevigne44.com","telephone":"0240265021"},"horaires":"Le Lundi : de 09h00 à 12h00\nDu Mardi au Mercredi : de 09h00 à 12h00 de 14h00 à 17h00\nLe Jeudi : de 09h00 à 12h00\nLe Vendredi : de 09h00 à 12h00 de 14h00 à 17h00\nLe Samedi : de 10h00 à 12h00","latitude":46.971794,"longitude":-1.434853,"website":"https://www.vieillevigne44.com/","hasWebsite":true,"hasHoraires":true,"url":"https://lannuaire.service-public.gouv.fr/pays-de-la-loire/loire-atlantique/3410ec81-a9d4-436b-b0c3-4550699a7841"}
{"nom":"Vigneux-de-Bretagne","nomNormalise":"vigneuxdebretagne","typeCollectivite":"Commune","region":"Pays de la Loire","departement":"Loire-Atlantique","departementCode":"44","adresse":{"street":"9 rue G.H.-de-la-Villemarqué","postalCode":"44360","city":"Vigneux-de-Bretagne","country":"France"},"contacts":{"email":"contact@vigneuxdebretagne.fr","telephone":"0240573950"},"horaires":"Du Lundi au Vendredi : de 09h00 à 12h15 de 14h00 à 17h15","latitude":47.326797,"longitude":-1.735713,"website":"https://www.vigneux-de-bretagne.fr/","hasWebsite":true,"hasHoraires":true,"url":"https://lannuaire.service-public.gouv.fr/pays-de-la-loire/loire-atlantique/e6b37e84-1e19-4c7c-8d1f-4d8c1aa4a494"}
{"nom":"Villeneuve-en-Retz","nomNormalise":"villeneuveenretz","typeCollectivite":"Commune","region":"Pays de la Loire","departement":"Loire-Atlantique","departementCode":"44","adresse":{"street":"Bourgneuf-en-Retz","postalCode":"44580","city":"Villeneuve-en-Retz","country":"France"},"contacts":{"email":"mairie.villeneuve@villeneuvenretz.fr","telephone":"0240214007"},"horaires":"Du Lundi au Mercredi : de 08h45 à 12h30 de 13h30 à 17h00\nLe Jeudi : de 08h45 à 12h30\nLe Vendredi : de 08h45 à 12h30 de 13h30 à 17h00","latitude":47.04489,"longitude":-1.93991,"website":"https://villeneuvenretz.fr/","hasWebsite":true,"hasHoraires":true,"url":"https://lannuaire.service-public.gouv.fr/pays-de-la-loire/loire-atlantique/2c5c0a02-b178-4a66-abd9-c4ea04bbe228"}
{"nom":"Villepot","nomNormalise":"villepot","typeCollectivite":"Commune","region":"Pays de la Loire","departement":"Loire-Atlantique","departementCode":"44","adresse":{"street":"18 place de l'Église","postalCode":"44110","city":"Villepot","country":"France"},"contacts":{"email":"mairie.villepot@wanadoo.fr","telephone":"0240286620"},"horaires":"Du Lundi au Samedi : de 09h00 à 12h00","latitude":47.774826,"longitude":-1.2786262,"website":"http://www.villepot.fr/","hasWebsite":true,"hasHoraires":true,"url":"https://lannuaire.service-public.gouv.fr/pays-de-la-loire/loire-atlantique/d448bf08-3a52-45b9-bd45-ced62b250f3c"}
{"nom":"Mairie déléguée - Vritz","nomNormalise":"mairiedelegueevritz","typeCollectivite":"Commune","region":"Pays de la Loire","departement":"Loire-Atlantique","departementCode":"44","adresse":{"street":"Place de l'Église-Vritz","postalCode":"44540","city":"Vallons-de-l'Erdre","country":"France"},"contacts":{"email":"contact@vallonsdelerdre.fr","telephone":"0285293300"},"horaires":"Du Lundi au Vendredi : de 09h00 à 12h15","latitude":47.588978,"longitude":-1.1538656,"website":"https://www.vallonsdelerdre.fr/","hasWebsite":true,"hasHoraires":true,"url":"https://lannuaire.service-public.gouv.fr/pays-de-la-loire/loire-atlantique/ee43ada0-336a-43aa-ac15-a02a754c8af9"}
{"nom":"Vue","nomNormalise":"vue","typeCollectivite":"Commune","region":"Pays de la Loire","departement":"Loire-Atlantique","departementCode":"44","adresse":{"street":"3 place Sainte-Anne","postalCode":"44640","city":"Vue","country":"France"},"contacts":{"email":"accueil@mairie-vue.fr","telephone":"0240642834"},"horaires":"Le Lundi : de 09h00 à 12h00 de 14h00 à 17h00\nDu Mardi au Samedi : de 09h00 à 12h00\n\nAccueil fermé le samedi en juillet-août.","latitude":47.200104,"longitude":-1.8779045,"website":"https://mairie-vue.fr/","hasWebsite":true,"hasHoraires":true,"url":"https://lannuaire.service-public.gouv.fr/pays-de-la-loire/loire-atlantique/9f4eb576-b429-46c6-be11-1f5d2686f260"}
