{"nom":"Albaret-le-Comtal","nomNormalise":"albaretlecomtal","typeCollectivite":"Commune","region":"Occitanie","departement":"Lozère","departementCode":"48","adresse":{"street":"Le Village","postalCode":"48310","city":"Albaret-le-Comtal","country":"France"},"contacts":{"email":"commune-d-albaret-le-comtal@orange.fr","telephone":"0466316209"},"horaires":"Le Mardi : de 10h00 à 12h00\nLe Vendredi : de 10h00 à 12h00","latitude":44.8756,"longitude":3.12742,"website":"","hasWebsite":false,"hasHoraires":true,"url":"https://lannuaire.service-public.gouv.fr/occitanie/lozere/10442294-e581-47f0-b311-3099f9e0e4b8"}
{"nom":"Albaret-Sainte-Marie","nomNormalise":"albaretsaintemarie","typeCollectivite":"Commune","region":"Occitanie","departement":"Lozère","departementCode":"48","adresse":{"street":"La Garde","postalCode":"48200","city":"Albaret-Sainte-Marie","country":"France"},"contacts":{"email":"asm48200@gmail.com","telephone":"0466319283"},"horaires":"Du Lundi au Samedi : de 09h00 à 12h00","latitude":44.8819,"longitude":3.24646,"website":"https://www.albaret-ste-marie.fr/","hasWebsite":true,"hasHoraires":true,"url":"https://lannuaire.service-public.gouv.fr/occitanie/lozere/bdc1f5f0-e734-4c88-9a06-ad4ca365cd4a"}
{"nom":"Allenc","nomNormalise":"allenc","typeCollectivite":"Commune","region":"Occitanie","departement":"Lozère","departementCode":"48","adresse":{"street":"Le Village","postalCode":"48190","city":"Allenc","country":"France"},"contacts":{"email":"allenc.mairie@wanadoo.fr","telephone":"0466476679"},"horaires":"Du Lundi au Mardi : de 09h00 à 12h00 de 13h00 à 17h00\nLe Mercredi : de 09h00 à 12h00","latitude":44.54176,"longitude":3.661809,"website":"http://www.allenc.fr/","hasWebsite":true,"hasHoraires":true,"url":"https://lannuaire.service-public.gouv.fr/occitanie/lozere/1455cf73-b3fe-41fd-944c-747691aaa8b1"}
{"nom":"Altier","nomNormalise":"altier","typeCollectivite":"Commune","region":"Occitanie","departement":"Lozère","departementCode":"48","adresse":{"street":"Village","postalCode":"48800","city":"Altier","country":"France"},"contacts":{"email":"commune-altier@orange.fr","telephone":"0466468161"},"horaires":"Le Lundi : de 08h00 à 12h00 de 13h30 à 17h30\nLe Mardi : de 08h00 à 12h00\nLe Jeudi : de 08h00 à 12h00 de 13h30 à 17h30\nLe Vendredi : de 08h00 à 12h00","latitude":44.47333,"longitude":3.858628,"website":"https://www.altier48.fr/","hasWebsite":true,"hasHoraires":true,"url":"https://lannuaire.service-public.gouv.fr/occitanie/lozere/197d9b4f-06c4-4b5b-a561-bb960cd64530"}
{"nom":"Antrenas","nomNormalise":"antrenas","typeCollectivite":"Commune","region":"Occitanie","departement":"Lozère","departementCode":"48","adresse":{"street":"Le Village","postalCode":"48100","city":"Antrenas","country":"France"},"contacts":{"email":"mairie.antrenas@wanadoo.fr","telephone":"0466321845"},"horaires":"Le Mardi : de 08h30 à 12h30 de 13h30 à 17h00\nLe Jeudi : de 08h30 à 12h30 de 13h30 à 17h00\nLe Vendredi : de 12h30 à 15h30","latitude":44.58098,"longitude":3.266554,"website":"","hasWebsite":false,"hasHoraires":true,"url":"https://lannuaire.service-public.gouv.fr/occitanie/lozere/c06289c5-0b21-49b7-a277-76b360404c91"}
{"nom":"Arzenc-d'Apcher","nomNormalise":"arzencdapcher","typeCollectivite":"Commune","region":"Occitanie","departement":"Lozère","departementCode":"48","adresse":{"street":"Le Village","postalCode":"48310","city":"Arzenc-d'Apcher","country":"France"},"contacts":{"email":"mairie@ville-arzencdapcher.fr","telephone":"0466453146"},"horaires":"Le Mercredi : de 09h00 à 18h00","latitude":44.85509,"longitude":3.09789,"website":"","hasWebsite":false,"hasHoraires":true,"url":"https://lannuaire.service-public.gouv.fr/occitanie/lozere/bfb027a8-9525-4cc6-b095-5a061bb601b8"}
{"nom":"Arzenc-de-Randon","nomNormalise":"arzencderandon","typeCollectivite":"Commune","region":"Occitanie","departement":"Lozère","departementCode":"48","adresse":{"street":"7 rue de l'Église","postalCode":"48170","city":"Arzenc-de-Randon","country":"France"},"contacts":{"email":"mairie.arzenc.de.randon@wanadoo.fr","telephone":"0466479491"},"horaires":"Le Lundi : de 09h30 à 12h30\nLe Mercredi : de 09h30 à 12h30\nLe Vendredi : de 09h30 à 12h30","latitude":44.66248,"longitude":3.632617,"website":"","hasWebsite":false,"hasHoraires":true,"url":"https://lannuaire.service-public.gouv.fr/occitanie/lozere/95db43f1-5ea5-4d01-9bfb-03b6cb7e4d13"}
{"nom":"Auroux","nomNormalise":"auroux","typeCollectivite":"Commune","region":"Occitanie","departement":"Lozère","departementCode":"48","adresse":{"street":"Place du Village","postalCode":"48600","city":"Auroux","country":"France"},"contacts":{"email":"mairie@auroux.fr","telephone":"0466695517"},"horaires":"Du Lundi au Mardi : de 09h00 à 12h00 de 13h30 à 16h30\nDu Jeudi au Vendredi : de 09h00 à 12h00 de 13h30 à 16h30","latitude":44.753418,"longitude":3.726259,"website":"http://www.auroux.fr/","hasWebsite":true,"hasHoraires":true,"url":"https://lannuaire.service-public.gouv.fr/occitanie/lozere/b7401e8b-0416-4305-b2d4-dacbe6fc7b33"}
{"nom":"Badaroux","nomNormalise":"badaroux","typeCollectivite":"Commune","region":"Occitanie","departement":"Lozère","departementCode":"48","adresse":{"street":"2 rue de l'Égalité","postalCode":"48000","city":"Badaroux","country":"France"},"contacts":{"email":"badaroux3@wanadoo.fr","telephone":"0466477132"},"horaires":"Du Lundi au Vendredi : de 08h30 à 12h00 de 13h00 à 17h30","latitude":44.53626,"longitude":3.550353,"website":"http://www.badaroux.fr/","hasWebsite":true,"hasHoraires":true,"url":"https://lannuaire.service-public.gouv.fr/occitanie/lozere/25677f67-1621-4d21-936d-901621099b52"}
{"nom":"Mairie déléguée - Bagnols-les-Bains","nomNormalise":"mairiedelegueebagnolslesbains","typeCollectivite":"Commune","region":"Occitanie","departement":"Lozère","departementCode":"48","adresse":{"street":"Bagnols-les-Bains","postalCode":"48190","city":"Mont Lozère et Goulet","country":"France"},"contacts":{"email":"mairie@montlozeregoulet.fr","telephone":"0466476479"},"horaires":"Le Lundi : de 09h00 à 12h00\nLe Mercredi : de 09h00 à 12h00","latitude":44.506886,"longitude":3.6638663,"website":"https://www.xn--mont-lozre-et-goulet-w1b.fr/","hasWebsite":true,"hasHoraires":true,"url":"https://lannuaire.service-public.gouv.fr/occitanie/lozere/dae3fc9a-d5d5-4143-9973-a21187df00f7"}
{"nom":"Balsièges","nomNormalise":"balsieges","typeCollectivite":"Commune","region":"Occitanie","departement":"Lozère","departementCode":"48","adresse":{"street":"94 route de Florac","postalCode":"48000","city":"Balsièges","country":"France"},"contacts":{"email":"mairie.balsieges@orange.fr","telephone":"0466470566"},"horaires":"Le Mardi : de 09h00 à 12h00\nDu Mercredi au Jeudi : de 09h00 à 12h00 de 14h00 à 16h30","latitude":44.482006,"longitude":3.456726,"website":"https://balsieges.fr/","hasWebsite":true,"hasHoraires":true,"url":"https://lannuaire.service-public.gouv.fr/occitanie/lozere/2f8dd0c3-f211-4700-b7ee-e909c0bc6006"}
{"nom":"Banassac-Canilhac","nomNormalise":"banassaccanilhac","typeCollectivite":"Commune","region":"Occitanie","departement":"Lozère","departementCode":"48","adresse":{"street":"4 place de l'Église-Saint-Médard","postalCode":"48500","city":"Banassac-Canilhac","country":"France"},"contacts":{"email":"mairie.banassac-canilhac@orange.fr","telephone":"0466328210"},"horaires":"Du Lundi au Mercredi : de 08h00 à 12h00 de 14h00 à 18h00\nLe Vendredi : de 08h00 à 12h00 de 14h00 à 17h00","latitude":44.434788,"longitude":3.20147,"website":"https://www.banassac-canilhac.fr/","hasWebsite":true,"hasHoraires":true,"url":"https://lannuaire.service-public.gouv.fr/occitanie/lozere/87744e35-e418-487d-a9b6-5b8af18bfda3"}
{"nom":"Barjac","nomNormalise":"barjac","typeCollectivite":"Commune","region":"Occitanie","departement":"Lozère","departementCode":"48","adresse":{"street":"1 place de la Mairie","postalCode":"48000","city":"Barjac","country":"France"},"contacts":{"email":"mairie-de-barjac48@wanadoo.fr","telephone":"0466470104"},"horaires":"Du Lundi au Vendredi : de 08h30 à 12h00","latitude":44.5047,"longitude":3.41142,"website":"","hasWebsite":false,"hasHoraires":true,"url":"https://lannuaire.service-public.gouv.fr/occitanie/lozere/e4af38ec-3329-4b73-bfa3-dea47a545420"}
{"nom":"Barre-des-Cévennes","nomNormalise":"barredescevennes","typeCollectivite":"Commune","region":"Occitanie","departement":"Lozère","departementCode":"48","adresse":{"street":"29 Grande-Rue","postalCode":"48400","city":"Barre-des-Cévennes","country":"France"},"contacts":{"email":"contact@barredescevennes.fr","telephone":"0466450507"},"horaires":"Du Lundi au Mardi : de 08h00 à 12h00\nLe Jeudi : de 08h00 à 12h00","latitude":44.24472,"longitude":3.653531,"website":"https://www.barredescevennes.fr/","hasWebsite":true,"hasHoraires":true,"url":"https://lannuaire.service-public.gouv.fr/occitanie/lozere/886eb588-9351-4fac-8009-f01e1d7d9186"}
{"nom":"Bassurels","nomNormalise":"bassurels","typeCollectivite":"Commune","region":"Occitanie","departement":"Lozère","departementCode":"48","adresse":{"street":"Le Village","postalCode":"48400","city":"Bassurels","country":"France"},"contacts":{"email":"mairiebassurels@orange.fr","telephone":"0466603256"},"horaires":"Le Mardi : de 10h00 à 17h00\nLe Jeudi : de 10h00 à 17h00\n\nEn juillet et aout le lundi et vendredi de 10h00 à 17h00","latitude":44.179173,"longitude":3.624848,"website":"https://www.mairie-bassurels.fr/","hasWebsite":true,"hasHoraires":true,"url":"https://lannuaire.service-public.gouv.fr/occitanie/lozere/0c2c4fc0-05da-413f-88bc-7ea625e1f776"}
{"nom":"Bédouès-Cocurès","nomNormalise":"bedouescocures","typeCollectivite":"Commune","region":"Occitanie","departement":"Lozère","departementCode":"48","adresse":{"street":"Place de la Croix","postalCode":"48400","city":"Bédouès-Cocurès","country":"France"},"contacts":{"email":"mairie.bedoues-cocures@orange.fr","telephone":"0466452349"},"horaires":"Le Lundi : de 13h45 à 16h45\nLe Mardi : de 08h30 à 12h30 de 13h00 à 17h30\nLe Mercredi : de 08h30 à 11h30\nLe Jeudi : de 13h00 à 16h45\nLe Vendredi : de 08h45 à 12h15 de 13h30 à 16h30","latitude":44.348392,"longitude":3.621586,"website":"http://www.bedoues-cocures.fr/","hasWebsite":true,"hasHoraires":true,"url":"https://lannuaire.service-public.gouv.fr/occitanie/lozere/e61f8d1c-d5fd-49f9-b74f-df1bf8a172bd"}
{"nom":"Bel-Air-Val-d'Ance","nomNormalise":"belairvaldance","typeCollectivite":"Commune","region":"Occitanie","departement":"Lozère","departementCode":"48","adresse":{"street":"11 place des Chirac","postalCode":"48600","city":"Bel-Air-Val-d'Ance","country":"France"},"contacts":{"email":"mairie.belairvaldance@gmail.com","telephone":"0466696984"},"horaires":"Du Mardi au Vendredi : de 09h00 à 12h00","latitude":44.853065,"longitude":3.659961,"website":"https://www.belairvaldance.com/","hasWebsite":true,"hasHoraires":true,"url":"https://lannuaire.service-public.gouv.fr/occitanie/lozere/6e6d10a3-b7e1-4219-b8e7-b2c28dbb8351"}
{"nom":"Mairie déléguée - Belvezet","nomNormalise":"mairiedelegueebelvezet","typeCollectivite":"Commune","region":"Occitanie","departement":"Lozère","departementCode":"48","adresse":{"street":"Belvezet","postalCode":"48170","city":"Mont Lozère et Goulet","country":"France"},"contacts":{"email":"mairie@montlozeregoulet.fr","telephone":"0466479750"},"horaires":"Le Lundi : de 14h00 à 17h00\nLe Mercredi : de 09h00 à 12h00","latitude":44.563313,"longitude":3.74394,"website":"https://www.xn--mont-lozre-et-goulet-w1b.fr/","hasWebsite":true,"hasHoraires":true,"url":"https://lannuaire.service-public.gouv.fr/occitanie/lozere/b1273b73-e528-4a9d-babc-029afd3f7471"}
{"nom":"Blavignac","nomNormalise":"blavignac","typeCollectivite":"Commune","region":"Occitanie","departement":"Lozère","departementCode":"48","adresse":{"street":"1 place de la mairie","postalCode":"48200","city":"Blavignac","country":"France"},"contacts":{"email":"mairieblavignac@wanadoo.fr","telephone":"0466319297"},"horaires":"Le Lundi : de 09h00 à 12h00 de 13h00 à 17h00\nLe Mercredi : de 09h00 à 12h00 de 13h00 à 17h00","latitude":44.8847,"longitude":3.286087,"website":"","hasWebsite":false,"hasHoraires":true,"url":"https://lannuaire.service-public.gouv.fr/occitanie/lozere/9520f969-4156-42e2-9aff-d9de74d6843c"}
{"nom":"Bourgs-sur-Colagne","nomNormalise":"bourgssurcolagne","typeCollectivite":"Commune","region":"Occitanie","departement":"Lozère","departementCode":"48","adresse":{"street":"Le Monastier","postalCode":"48100","city":"Bourgs-sur-Colagne","country":"France"},"contacts":{"email":"mairie@bourgssurcolagne.fr","telephone":"0466327217"},"horaires":"Du Lundi au Jeudi : de 10h00 à 12h00 de 14h00 à 16h00\nDu Vendredi au Samedi : de 10h00 à 12h00","latitude":44.513428,"longitude":3.253101,"website":"http://www.bourgssurcolagne.fr/","hasWebsite":true,"hasHoraires":true,"url":"https://lannuaire.service-public.gouv.fr/occitanie/lozere/5672342d-1a94-4ab2-86e4-d9e963143505"}
{"nom":"Brenoux","nomNormalise":"brenoux","typeCollectivite":"Commune","region":"Occitanie","departement":"Lozère","departementCode":"48","adresse":{"street":"2 place de l'Église","postalCode":"48000","city":"Brenoux","country":"France"},"contacts":{"email":"mairie@brenoux.fr","telephone":"0466480634"},"horaires":"Du Lundi au Mardi : de 08h30 à 12h00\nLe Mercredi : de 08h30 à 12h00 de 13h30 à 17h30\nLe Jeudi : de 08h30 à 12h00","latitude":44.48353,"longitude":3.5334187,"website":"https://www.brenoux.fr/","hasWebsite":true,"hasHoraires":true,"url":"https://lannuaire.service-public.gouv.fr/occitanie/lozere/fbc6bc7e-cc8c-418e-9f1a-e0e4993cb4de"}
{"nom":"Brion","nomNormalise":"brion","typeCollectivite":"Commune","region":"Occitanie","departement":"Lozère","departementCode":"48","adresse":{"street":"Le Bourg","postalCode":"48310","city":"Brion","country":"France"},"contacts":{"email":"commune-de-brion0978@orange.fr","telephone":"0466316665"},"horaires":"Le Mercredi : de 14h00 à 16h30\nLe Vendredi : de 14h00 à 16h30","latitude":44.7535,"longitude":3.09299,"website":"","hasWebsite":false,"hasHoraires":true,"url":"https://lannuaire.service-public.gouv.fr/occitanie/lozere/836c0de5-1131-40ff-a3b3-3133b186dca4"}
{"nom":"Cans-et-Cévennes","nomNormalise":"cansetcevennes","typeCollectivite":"Commune","region":"Occitanie","departement":"Lozère","departementCode":"48","adresse":{"street":"Village","postalCode":"48400","city":"Saint-Laurent-de-Trèves","country":"France"},"contacts":{"email":"mairie.cc@orange.fr","telephone":"0466450194"},"horaires":"Le Mardi : de 09h00 à 12h00 de 14h00 à 17h00\nLe Mercredi : de 09h00 à 12h00\nLe Vendredi : de 09h00 à 12h00","latitude":44.30151,"longitude":3.663124,"website":"","hasWebsite":false,"hasHoraires":true,"url":"https://lannuaire.service-public.gouv.fr/occitanie/lozere/87f6e6ed-d97f-44a2-be90-fe8d50a7696c"}
{"nom":"Cassagnas","nomNormalise":"cassagnas","typeCollectivite":"Commune","region":"Occitanie","departement":"Lozère","departementCode":"48","adresse":{"street":"Le Village","postalCode":"48400","city":"Cassagnas","country":"France"},"contacts":{"email":"mairie-cassagnas@wanadoo.fr","telephone":"0466450656"},"horaires":"Le Lundi : de 08h00 à 12h00\nLe Jeudi : de 08h00 à 12h00","latitude":44.271038,"longitude":3.746149,"website":"http://www.cassagnas.fr/","hasWebsite":true,"hasHoraires":true,"url":"https://lannuaire.service-public.gouv.fr/occitanie/lozere/91cb6a66-cc97-47f5-a400-2e7052155f7b"}
{"nom":"Chadenet","nomNormalise":"chadenet","typeCollectivite":"Commune","region":"Occitanie","departement":"Lozère","departementCode":"48","adresse":{"street":"Village","postalCode":"48190","city":"Chadenet","country":"France"},"contacts":{"email":"mairie.chadenet@wanadoo.fr","telephone":"0466476141"},"horaires":"Le Mercredi : de 13h00 à 15h00\nLe Vendredi : de 09h00 à 12h00 de 13h00 à 17h00","latitude":44.516426,"longitude":3.636685,"website":"","hasWebsite":false,"hasHoraires":true,"url":"https://lannuaire.service-public.gouv.fr/occitanie/lozere/e51b5852-84d3-4106-bc9c-1b7c23134676"}
{"nom":"Chanac","nomNormalise":"chanac","typeCollectivite":"Commune","region":"Occitanie","departement":"Lozère","departementCode":"48","adresse":{"street":"9 place de la Bascule","postalCode":"48230","city":"Chanac","country":"France"},"contacts":{"email":"mairie@chanac.fr","telephone":"0466482021"},"horaires":"Du Lundi au Mardi : de 08h30 à 12h00 de 13h30 à 17h45\nLe Mercredi : de 13h30 à 17h45\nLe Jeudi : de 08h30 à 12h00\nLe Vendredi : de 08h30 à 12h00 de 13h30 à 17h45","latitude":44.466175,"longitude":3.343515,"website":"https://www.chanac.fr/","hasWebsite":true,"hasHoraires":true,"url":"https://lannuaire.service-public.gouv.fr/occitanie/lozere/b581ad58-4a75-4769-9f0a-2149bb78515e"}
{"nom":"Mairie déléguée - Chasseradès","nomNormalise":"mairiedelegueechasserades","typeCollectivite":"Commune","region":"Occitanie","departement":"Lozère","departementCode":"48","adresse":{"street":"Chasseradès","postalCode":"48250","city":"Mont Lozère et Goulet","country":"France"},"contacts":{"email":"mairie@montlozeregoulet.fr","telephone":"0466460116"},"horaires":"Le Lundi : de 09h00 à 12h00 de 14h00 à 16h00\nLe Jeudi : de 09h00 à 12h00 de 14h00 à 16h00","latitude":44.551445,"longitude":3.825623,"website":"https://www.xn--mont-lozre-et-goulet-w1b.fr/","hasWebsite":true,"hasHoraires":true,"url":"https://lannuaire.service-public.gouv.fr/occitanie/lozere/29613257-9d21-4aab-b678-d467417fd0d7"}
{"nom":"Chastanier","nomNormalise":"chastanier","typeCollectivite":"Commune","region":"Occitanie","departement":"Lozère","departementCode":"48","adresse":{"street":"Le Bourg","postalCode":"48300","city":"Chastanier","country":"France"},"contacts":{"email":"chastanier.mairie@orange.fr","telephone":"0466695070"},"horaires":"Le Mercredi : de 09h00 à 12h00","latitude":44.72473,"longitude":3.754818,"website":"","hasWebsite":false,"hasHoraires":true,"url":"https://lannuaire.service-public.gouv.fr/occitanie/lozere/68a7df00-227c-4692-b39e-37ab18e7dad1"}
{"nom":"Chastel-Nouvel","nomNormalise":"chastelnouvel","typeCollectivite":"Commune","region":"Occitanie","departement":"Lozère","departementCode":"48","adresse":{"street":"10 rue Principale","postalCode":"48000","city":"Chastel-Nouvel","country":"France"},"contacts":{"email":"mairie@chastel-nouvel.fr","telephone":"0466490433"},"horaires":"Du Lundi au Mardi : de 08h00 à 12h00 de 13h30 à 17h00\nLe Mercredi : de 08h00 à 12h00 de 13h30 à 18h30\nLe Jeudi : de 13h30 à 17h00\nLe Vendredi : de 08h00 à 12h00 de 13h30 à 17h00","latitude":44.558456,"longitude":3.501403,"website":"https://www.chastel-nouvel.fr/","hasWebsite":true,"hasHoraires":true,"url":"https://lannuaire.service-public.gouv.fr/occitanie/lozere/19c4c88c-be67-4cfa-9b87-644f16a539b6"}
{"nom":"Châteauneuf-de-Randon","nomNormalise":"chateauneufderandon","typeCollectivite":"Commune","region":"Occitanie","departement":"Lozère","departementCode":"48","adresse":{"street":"1 place Duguesclin","postalCode":"48170","city":"Châteauneuf-de-Randon","country":"France"},"contacts":{"email":"mairie.chateauneuf@wanadoo.fr","telephone":"0466479143"},"horaires":"Du Lundi au Vendredi : de 08h00 à 12h00","latitude":44.640823,"longitude":3.6755617,"website":"","hasWebsite":false,"hasHoraires":true,"url":"https://lannuaire.service-public.gouv.fr/occitanie/lozere/e70f8e14-c9cf-46be-b446-def118666a99"}
{"nom":"Chauchailles","nomNormalise":"chauchailles","typeCollectivite":"Commune","region":"Occitanie","departement":"Lozère","departementCode":"48","adresse":{"street":"Le Bourg","postalCode":"48310","city":"Chauchailles","country":"France"},"contacts":{"email":"commune.chauchailles@orange.fr","telephone":"0466316351"},"horaires":"Le Lundi : de 14h00 à 17h00\nLe Vendredi : de 10h30 à 12h00","latitude":44.795235,"longitude":3.083278,"website":"","hasWebsite":false,"hasHoraires":true,"url":"https://lannuaire.service-public.gouv.fr/occitanie/lozere/97a1fcbc-eb06-4c44-8ddf-daca596d77f4"}
{"nom":"Chaudeyrac","nomNormalise":"chaudeyrac","typeCollectivite":"Commune","region":"Occitanie","departement":"Lozère","departementCode":"48","adresse":{"street":"19 rue Hubert Libourel","postalCode":"48170","city":"Chaudeyrac","country":"France"},"contacts":{"email":"mairie.chaudeyrac@wanadoo.fr","telephone":"0466479107"},"horaires":"Le Lundi : de 14h00 à 17h30\nLe Mardi : de 08h30 à 12h30 de 14h00 à 17h30\nLe Jeudi : de 08h30 à 12h30 de 14h00 à 17h30","latitude":44.659588,"longitude":3.758069,"website":"https://chaudeyrac.fr/","hasWebsite":true,"hasHoraires":true,"url":"https://lannuaire.service-public.gouv.fr/occitanie/lozere/473059bd-a63a-4c04-ab33-5eaa88648f9a"}
{"nom":"Chaulhac","nomNormalise":"chaulhac","typeCollectivite":"Commune","region":"Occitanie","departement":"Lozère","departementCode":"48","adresse":{"street":"Le Village","postalCode":"48140","city":"Chaulhac","country":"France"},"contacts":{"email":"mairie.chaulhac@wanadoo.fr","telephone":"0466319163"},"horaires":"Le Jeudi : de 18h00 à 19h30","latitude":44.922737,"longitude":3.257061,"website":"https://www.chaulhac.fr/","hasWebsite":true,"hasHoraires":true,"url":"https://lannuaire.service-public.gouv.fr/occitanie/lozere/890e82b4-5907-460c-8229-1fb9217af6da"}
{"nom":"Cheylard-l'Évêque","nomNormalise":"cheylardleveque","typeCollectivite":"Commune","region":"Occitanie","departement":"Lozère","departementCode":"48","adresse":{"street":"Le Bourg","postalCode":"48300","city":"Cheylard-l'Évêque","country":"France"},"contacts":{"email":"mairie.cheylard.48@free.fr","telephone":"0466690314"},"horaires":"Le Lundi : de 13h45 à 17h45\nLe Jeudi : de 13h45 à 17h45","latitude":44.64379,"longitude":3.799958,"website":"","hasWebsite":false,"hasHoraires":true,"url":"https://lannuaire.service-public.gouv.fr/occitanie/lozere/2e53f47c-44fe-4c4f-9780-d610a45e4c18"}
{"nom":"Cubières","nomNormalise":"cubieres","typeCollectivite":"Commune","region":"Occitanie","departement":"Lozère","departementCode":"48","adresse":{"street":"Le Village","postalCode":"48190","city":"Cubières","country":"France"},"contacts":{"email":"mairie.cubieres@orange.fr","telephone":"0466486680"},"horaires":"Du Mardi au Jeudi : de 10h00 à 12h00 de 14h00 à 17h00","latitude":44.47322,"longitude":3.77161,"website":"http://www.cubieres.fr/","hasWebsite":true,"hasHoraires":true,"url":"https://lannuaire.service-public.gouv.fr/occitanie/lozere/401cafa1-d42a-4ecd-9f63-038d6bdf32f3"}
{"nom":"Cubierettes","nomNormalise":"cubierettes","typeCollectivite":"Commune","region":"Occitanie","departement":"Lozère","departementCode":"48","adresse":{"street":"Cubierettes","postalCode":"48190","city":"Cubierettes","country":"France"},"contacts":{"email":"commune-de-cubierettes@orange.fr","telephone":"0466486162"},"horaires":"Le Samedi : de 14h00 à 16h00","latitude":44.460358,"longitude":3.784598,"website":"","hasWebsite":false,"hasHoraires":true,"url":"https://lannuaire.service-public.gouv.fr/occitanie/lozere/932e3ce9-ecb4-4a53-924d-00a2b7b9d343"}
{"nom":"Cultures","nomNormalise":"cultures","typeCollectivite":"Commune","region":"Occitanie","departement":"Lozère","departementCode":"48","adresse":{"street":"1 place de la mairie","postalCode":"48230","city":"Cultures","country":"France"},"contacts":{"email":"communedecultures@orange.fr","telephone":"0466482575"},"horaires":"Le Lundi : de 13h30 à 17h30\nLe Vendredi : de 13h30 à 17h30\n\nPendant la crise sanitaire accueil ouvert les lundis et vendredis de 13h à 17h.","latitude":44.492764,"longitude":3.378165,"website":"","hasWebsite":false,"hasHoraires":true,"url":"https://lannuaire.service-public.gouv.fr/occitanie/lozere/47be6d46-1e18-4ba2-a6aa-09c019d8b47b"}
{"nom":"Esclanèdes","nomNormalise":"esclanedes","typeCollectivite":"Commune","region":"Occitanie","departement":"Lozère","departementCode":"48","adresse":{"street":"Le Bruel","postalCode":"48230","city":"Esclanèdes","country":"France"},"contacts":{"email":"mairie.esclanedes@wanadoo.fr","telephone":"0466482524"},"horaires":"Le Mardi : de 09h00 à 12h00 de 14h00 à 17h00\nLe Jeudi : de 09h00 à 12h00 de 14h00 à 17h00\nLe Samedi : de 10h00 à 12h00","latitude":44.482475,"longitude":3.358885,"website":"http://www.esclanedes.fr/","hasWebsite":true,"hasHoraires":true,"url":"https://lannuaire.service-public.gouv.fr/occitanie/lozere/528d8f98-ea97-40a2-9032-e205126fb1e1"}
{"nom":"Mairie déléguée - Fau-de-Peyre","nomNormalise":"mairiedelegueefaudepeyre","typeCollectivite":"Commune","region":"Occitanie","departement":"Lozère","departementCode":"48","adresse":{"street":"Fau-de-Peyre","postalCode":"48130","city":"Peyre en Aubrac","country":"France"},"contacts":{"email":"mairie.faudepeyre@peyreenaubrac.fr","telephone":"0466311107"},"horaires":"Le Jeudi : de 10h00 à 12h00","latitude":44.748276,"longitude":3.222545,"website":"https://peyreenaubrac.fr/","hasWebsite":true,"hasHoraires":true,"url":"https://lannuaire.service-public.gouv.fr/occitanie/lozere/f3e158bd-1642-48d9-a437-51c2b12e98f3"}
{"nom":"Florac-Trois-Rivières","nomNormalise":"floractroisrivieres","typeCollectivite":"Commune","region":"Occitanie","departement":"Lozère","departementCode":"48","adresse":{"street":"Florac","postalCode":"48400","city":"Florac-Trois-Rivières","country":"France"},"contacts":{"email":"mairie@floractroisrivieres48.fr","telephone":"0466450053"},"horaires":"Le Lundi : de 08h30 à 12h00\nDu Mardi au Vendredi : de 08h30 à 12h00 de 14h00 à 17h30","latitude":44.323917,"longitude":3.5940242,"website":"https://www.floractroisrivieres.fr/","hasWebsite":true,"hasHoraires":true,"url":"https://lannuaire.service-public.gouv.fr/occitanie/lozere/31143b03-ec9a-4c1f-93c5-d309da87f879"}
{"nom":"Fontans","nomNormalise":"fontans","typeCollectivite":"Commune","region":"Occitanie","departement":"Lozère","departementCode":"48","adresse":{"street":"Le Bourg","postalCode":"48700","city":"Fontans","country":"France"},"contacts":{"email":"communedefontans@orange.fr","telephone":"0466483100"},"horaires":"Le Mardi : de 09h00 à 12h00 de 14h00 à 17h00\nLe Vendredi : de 09h00 à 12h00","latitude":44.739227,"longitude":3.386647,"website":"","hasWebsite":false,"hasHoraires":true,"url":"https://lannuaire.service-public.gouv.fr/occitanie/lozere/eb8fcaf3-073e-430e-ba31-dad45735f323"}
{"nom":"Fournels","nomNormalise":"fournels","typeCollectivite":"Commune","region":"Occitanie","departement":"Lozère","departementCode":"48","adresse":{"street":"Place de la Mairie","postalCode":"48310","city":"Fournels","country":"France"},"contacts":{"email":"mairie@fournels48.fr","telephone":"0466316015"},"horaires":"Le Lundi : de 10h00 à 12h00\nLe Mardi : de 10h00 à 12h00 de 14h00 à 16h00\nLe Mercredi : de 10h00 à 12h00\nLe Vendredi : de 10h00 à 12h00 de 14h00 à 16h00","latitude":44.817017,"longitude":3.121306,"website":"","hasWebsite":false,"hasHoraires":true,"url":"https://lannuaire.service-public.gouv.fr/occitanie/lozere/b58a814d-ca52-4d7f-bc84-8c3506689307"}
{"nom":"Fraissinet-de-Fourques","nomNormalise":"fraissinetdefourques","typeCollectivite":"Commune","region":"Occitanie","departement":"Lozère","departementCode":"48","adresse":{"street":"Village","postalCode":"48400","city":"Fraissinet-de-Fourques","country":"France"},"contacts":{"email":"commune-de-fraissinet6@orange.fr","telephone":"0466440151"},"horaires":"Le Lundi : de 14h30 à 15h30","latitude":44.215115,"longitude":3.539035,"website":"","hasWebsite":false,"hasHoraires":true,"url":"https://lannuaire.service-public.gouv.fr/occitanie/lozere/8c036b36-775f-4dae-9867-c38bcb784261"}
{"nom":"Gabriac","nomNormalise":"gabriac","typeCollectivite":"Commune","region":"Occitanie","departement":"Lozère","departementCode":"48","adresse":{"street":"Le Village","postalCode":"48110","city":"Gabriac","country":"France"},"contacts":{"email":"mairie.gabriac@wanadoo.fr","telephone":"0466447108"},"horaires":"Le Mardi : de 08h45 à 12h15 de 12h45 à 16h45\nLe Vendredi : de 08h45 à 12h15 de 12h45 à 16h45","latitude":44.17855,"longitude":3.72348,"website":"","hasWebsite":false,"hasHoraires":true,"url":"https://lannuaire.service-public.gouv.fr/occitanie/lozere/2f86f988-e8a7-4df0-9c7e-720dfad206b3"}
{"nom":"Gabrias","nomNormalise":"gabrias","typeCollectivite":"Commune","region":"Occitanie","departement":"Lozère","departementCode":"48","adresse":{"street":"Goudard","postalCode":"48100","city":"Gabrias","country":"France"},"contacts":{"email":"gabrias.mairie@wanadoo.fr","telephone":"0466321493"},"horaires":"Le Lundi : de 08h30 à 12h00\nLe Vendredi : de 08h30 à 12h00","latitude":44.544796,"longitude":3.372998,"website":"http://www.gabrias.fr/","hasWebsite":true,"hasHoraires":true,"url":"https://lannuaire.service-public.gouv.fr/occitanie/lozere/a005ae93-86f4-45bc-9826-dca1955516d2"}
{"nom":"Gatuzières","nomNormalise":"gatuzieres","typeCollectivite":"Commune","region":"Occitanie","departement":"Lozère","departementCode":"48","adresse":{"street":"Village","postalCode":"48150","city":"Gatuzières","country":"France"},"contacts":{"email":"mairie@meyrueis.fr","telephone":"0466456264"},"horaires":"Du Lundi au Vendredi : de 09h00 à 12h30 de 13h30 à 16h30","latitude":44.198444,"longitude":3.489571,"website":"https://www.meyrueis.fr/","hasWebsite":true,"hasHoraires":true,"url":"https://lannuaire.service-public.gouv.fr/occitanie/lozere/01d31061-47f3-4b20-8aee-4ea4e6bc859e"}
{"nom":"Gorges du Tarn Causses","nomNormalise":"gorgesdutarncausses","typeCollectivite":"Commune","region":"Occitanie","departement":"Lozère","departementCode":"48","adresse":{"street":"Sainte-Enimie","postalCode":"48210","city":"Gorges du Tarn Causses","country":"France"},"contacts":{"email":"mairie-gtc@orange.fr","telephone":"0466485009"},"horaires":"Du Lundi au Mardi : de 08h30 à 12h00 de 13h30 à 17h00\nLe Mercredi : de 09h00 à 12h00\nLe Jeudi : de 09h00 à 12h00 de 13h30 à 17h00\nLe Vendredi : de 09h00 à 12h00","latitude":44.36669,"longitude":3.410413,"website":"https://www.gorgesdutarn-causses.fr/","hasWebsite":true,"hasHoraires":true,"url":"https://lannuaire.service-public.gouv.fr/occitanie/lozere/c894f9f5-868b-40d3-8a66-ea3f42fad0ce"}
{"nom":"Grandrieu","nomNormalise":"grandrieu","typeCollectivite":"Commune","region":"Occitanie","departement":"Lozère","departementCode":"48","adresse":{"street":"43 avenue Principale","postalCode":"48600","city":"Grandrieu","country":"France"},"contacts":{"email":"mairie.grandrieu@wanadoo.fr","telephone":"0466463026"},"horaires":"Du Lundi au Vendredi : de 08h30 à 12h00","latitude":44.7841,"longitude":3.63389,"website":"","hasWebsite":false,"hasHoraires":true,"url":"https://lannuaire.service-public.gouv.fr/occitanie/lozere/f976611d-0416-4f7f-b1d6-4725dc1e7c55"}
{"nom":"Grandvals","nomNormalise":"grandvals","typeCollectivite":"Commune","region":"Occitanie","departement":"Lozère","departementCode":"48","adresse":{"street":"Le Village","postalCode":"48260","city":"Grandvals","country":"France"},"contacts":{"email":"commune-de-grandvals@orange.fr","telephone":"0466325243"},"horaires":"Le Mardi : de 14h00 à 16h00\nLe Jeudi : de 14h00 à 16h00","latitude":44.74003,"longitude":3.03703,"website":"","hasWebsite":false,"hasHoraires":true,"url":"https://lannuaire.service-public.gouv.fr/occitanie/lozere/dad217be-929d-4acc-96f2-be42d8b9e5f9"}
{"nom":"Grèzes","nomNormalise":"grezes","typeCollectivite":"Commune","region":"Occitanie","departement":"Lozère","departementCode":"48","adresse":{"street":"Le Village","postalCode":"48100","city":"Grèzes","country":"France"},"contacts":{"email":"mairie.grezes@gmail.com","telephone":"0961314422"},"horaires":"Le Lundi : de 08h30 à 12h30 de 13h30 à 16h30\nLe Mercredi : de 08h30 à 12h30 de 13h30 à 16h30\nLe Vendredi : de 08h30 à 11h30","latitude":44.512455,"longitude":3.336881,"website":"","hasWebsite":false,"hasHoraires":true,"url":"https://lannuaire.service-public.gouv.fr/occitanie/lozere/312d7ff5-654c-436d-9dcb-25e51a5f5375"}
{"nom":"Hures-la-Parade","nomNormalise":"hureslaparade","typeCollectivite":"Commune","region":"Occitanie","departement":"Lozère","departementCode":"48","adresse":{"street":"La Parade","postalCode":"48150","city":"Hures-la-Parade","country":"France"},"contacts":{"email":"mairie.hureslaparade@wanadoo.fr","telephone":"0466456138"},"horaires":"Le Lundi : de 14h00 à 17h00","latitude":44.24475,"longitude":3.352648,"website":"","hasWebsite":false,"hasHoraires":true,"url":"https://lannuaire.service-public.gouv.fr/occitanie/lozere/3d13b5d8-2733-4fdb-b1a4-c578834ef4d0"}
{"nom":"Ispagnac","nomNormalise":"ispagnac","typeCollectivite":"Commune","region":"Occitanie","departement":"Lozère","departementCode":"48","adresse":{"street":"Place Jules-Laget","postalCode":"48320","city":"Ispagnac","country":"France"},"contacts":{"email":"mairie@ispagnac.fr","telephone":"0466442050"},"horaires":"Du Lundi au Mardi : de 08h30 à 12h00\nDu Mercredi au Jeudi : de 08h30 à 12h00 de 13h30 à 17h30\nLe Vendredi : de 08h30 à 12h00 de 13h30 à 17h00","latitude":44.3705,"longitude":3.535,"website":"https://www.ispagnac.fr/","hasWebsite":true,"hasHoraires":true,"url":"https://lannuaire.service-public.gouv.fr/occitanie/lozere/4d5d996c-0eef-41f0-b3bc-a90075a61317"}
{"nom":"Mairie déléguée - Javols","nomNormalise":"mairiedelegueejavols","typeCollectivite":"Commune","region":"Occitanie","departement":"Lozère","departementCode":"48","adresse":{"street":"Javols","postalCode":"48130","city":"Peyre en Aubrac","country":"France"},"contacts":{"email":"secretariat@mairie-javols.fr","telephone":"0466428406"},"horaires":"Le Mardi : de 10h00 à 12h00\nLe Jeudi : de 10h00 à 12h00","latitude":44.69387,"longitude":3.342674,"website":"https://peyreenaubrac.fr/","hasWebsite":true,"hasHoraires":true,"url":"https://lannuaire.service-public.gouv.fr/occitanie/lozere/279796b3-e88f-48b2-bbe8-19b60b8ecba3"}
{"nom":"Julianges","nomNormalise":"julianges","typeCollectivite":"Commune","region":"Occitanie","departement":"Lozère","departementCode":"48","adresse":{"street":"Le Village","postalCode":"48140","city":"Julianges","country":"France"},"contacts":{"email":"communejulianges@orange.fr","telephone":"0466317744"},"horaires":"Le Mardi : de 09h00 à 12h00 de 13h00 à 17h00\nLe Jeudi : de 09h00 à 12h00","latitude":44.9302,"longitude":3.307422,"website":"","hasWebsite":false,"hasHoraires":true,"url":"https://lannuaire.service-public.gouv.fr/occitanie/lozere/3d74030c-6e74-45e9-a5f6-5f02506aa5ae"}
{"nom":"La Bastide-Puylaurent","nomNormalise":"labastidepuylaurent","typeCollectivite":"Commune","region":"Occitanie","departement":"Lozère","departementCode":"48","adresse":{"street":"Le Village","postalCode":"48250","city":"La Bastide-Puylaurent","country":"France"},"contacts":{"email":"mairie.labastide@wanadoo.fr","telephone":"0466460059"},"horaires":"Du Lundi au Vendredi : de 09h00 à 12h00 de 14h00 à 16h00","latitude":44.59051,"longitude":3.905629,"website":"http://www.bastide-puylaurent.fr/","hasWebsite":true,"hasHoraires":true,"url":"https://lannuaire.service-public.gouv.fr/occitanie/lozere/f826f844-b28a-4521-918c-de3444b3b861"}
{"nom":"La Canourgue","nomNormalise":"lacanourgue","typeCollectivite":"Commune","region":"Occitanie","departement":"Lozère","departementCode":"48","adresse":{"street":"1 place du Pré-Commun","postalCode":"48500","city":"La Canourgue","country":"France"},"contacts":{"email":"mairie@la-canourgue.com","telephone":"0466328147"},"horaires":"Du Lundi au Samedi : de 08h30 à 12h30","latitude":44.4308,"longitude":3.21545,"website":"https://www.la-canourgue.com/","hasWebsite":true,"hasHoraires":true,"url":"https://lannuaire.service-public.gouv.fr/occitanie/lozere/6093f529-5887-4403-b398-74ac68b16b53"}
{"nom":"Mairie déléguée - Lachamp","nomNormalise":"mairiedelegueelachamp","typeCollectivite":"Commune","region":"Occitanie","departement":"Lozère","departementCode":"48","adresse":{"street":"Lachamp","postalCode":"48100","city":"Lachamp-Ribennes","country":"France"},"contacts":{"email":"mairielachamp48@wanadoo.fr","telephone":"0466473248"},"horaires":"Le Mardi : de 08h30 à 12h00 de 13h00 à 17h00\nLe Mercredi : de 08h30 à 13h00","latitude":44.61143,"longitude":3.371284,"website":"http://www.lachamp48.fr/","hasWebsite":true,"hasHoraires":true,"url":"https://lannuaire.service-public.gouv.fr/occitanie/lozere/81a869ee-a299-4705-832e-54823581b1fd"}
{"nom":"Lachamp-Ribennes","nomNormalise":"lachampribennes","typeCollectivite":"Commune","region":"Occitanie","departement":"Lozère","departementCode":"48","adresse":{"street":"Ribennes","postalCode":"48700","city":"Lachamp-Ribennes","country":"France"},"contacts":{"email":"lachamp-ribennes@orange.fr","telephone":"0466473609"},"horaires":"Le Lundi : de 08h00 à 12h00 de 14h00 à 17h00\nLe Mardi : de 08h00 à 12h00\nLe Jeudi : de 09h00 à 12h00 de 14h00 à 16h00","latitude":44.63865,"longitude":3.395103,"website":"","hasWebsite":false,"hasHoraires":true,"url":"https://lannuaire.service-public.gouv.fr/occitanie/lozere/c632cd28-a958-434b-b252-46af10ad003c"}
{"nom":"Mairie déléguée - La Chaze-de-Peyre","nomNormalise":"mairiedelegueelachazedepeyre","typeCollectivite":"Commune","region":"Occitanie","departement":"Lozère","departementCode":"48","adresse":{"street":"Chaze-de-Peyre","postalCode":"48130","city":"Peyre en Aubrac","country":"France"},"contacts":{"email":"","telephone":"0466428880"},"horaires":"Le Lundi : de 15h45 à 17h15\nLe Jeudi : de 15h45 à 17h15","latitude":44.7288,"longitude":3.257,"website":"https://lachazedepeyre.fr/","hasWebsite":true,"hasHoraires":true,"url":"https://lannuaire.service-public.gouv.fr/occitanie/lozere/47986191-1cb1-4690-90d2-ea74f3854afc"}
{"nom":"La Fage-Montivernoux","nomNormalise":"lafagemontivernoux","typeCollectivite":"Commune","region":"Occitanie","departement":"Lozère","departementCode":"48","adresse":{"street":"Fage-Montivernoux","postalCode":"48310","city":"La Fage-Montivernoux","country":"France"},"contacts":{"email":"mairie.fage@wanadoo.fr","telephone":"0466316889"},"horaires":"Le Jeudi : de 14h00 à 16h00\nLe Dimanche : de 10h00 à 12h00","latitude":44.757652,"longitude":3.152984,"website":"","hasWebsite":false,"hasHoraires":true,"url":"https://lannuaire.service-public.gouv.fr/occitanie/lozere/532fb53a-f0f0-4cb4-9759-54822fa37be3"}
{"nom":"La Fage-Saint-Julien","nomNormalise":"lafagesaintjulien","typeCollectivite":"Commune","region":"Occitanie","departement":"Lozère","departementCode":"48","adresse":{"street":"Fage-Saint-Julien","postalCode":"48200","city":"La Fage-Saint-Julien","country":"France"},"contacts":{"email":"contact@lafagesaintjulien.fr","telephone":"0466312283"},"horaires":"Le Lundi : de 09h00 à 12h00 de 14h00 à 16h00\nLe Jeudi : de 09h00 à 12h00 de 14h00 à 16h00","latitude":44.7998,"longitude":3.19193,"website":"","hasWebsite":false,"hasHoraires":true,"url":"https://lannuaire.service-public.gouv.fr/occitanie/lozere/6cd8d481-c35d-4e7f-8fee-2db87c3010d7"}
{"nom":"Lajo","nomNormalise":"lajo","typeCollectivite":"Commune","region":"Occitanie","departement":"Lozère","departementCode":"48","adresse":{"street":"Le Village","postalCode":"48120","city":"Lajo","country":"France"},"contacts":{"email":"mairielajo@orange.fr","telephone":"0466315391"},"horaires":"Le Lundi : de 08h30 à 12h00\nLe Jeudi : de 13h30 à 17h30","latitude":44.83714,"longitude":3.426913,"website":"","hasWebsite":false,"hasHoraires":true,"url":"https://lannuaire.service-public.gouv.fr/occitanie/lozere/933589dc-0c37-42be-b7ae-d8ce41221b86"}
{"nom":"La Malène","nomNormalise":"lamalene","typeCollectivite":"Commune","region":"Occitanie","departement":"Lozère","departementCode":"48","adresse":{"street":"Le Village","postalCode":"48210","city":"La Malène","country":"France"},"contacts":{"email":"lamalenemairie@gmail.com","telephone":"0466485116"},"horaires":"Du Lundi au Vendredi : de 08h30 à 12h00 de 13h30 à 16h30","latitude":44.301376,"longitude":3.320253,"website":"http://www.lamalene.fr/","hasWebsite":true,"hasHoraires":true,"url":"https://lannuaire.service-public.gouv.fr/occitanie/lozere/5daa4eb8-1b3c-484d-9436-5402b27b2742"}
{"nom":"Langogne","nomNormalise":"langogne","typeCollectivite":"Commune","region":"Occitanie","departement":"Lozère","departementCode":"48","adresse":{"street":"Boulevard des Capucins","postalCode":"48300","city":"Langogne","country":"France"},"contacts":{"email":"contact@mairie-Langogne.fr","telephone":"0466691033"},"horaires":"Du Lundi au Vendredi : de 08h00 à 12h00 de 13h30 à 17h00\nLe Samedi : de 09h00 à 12h00","latitude":44.7269,"longitude":3.85456,"website":"","hasWebsite":false,"hasHoraires":true,"url":"https://lannuaire.service-public.gouv.fr/occitanie/lozere/52ec8b63-67e6-4a06-8030-cf4e5ad4841b"}
{"nom":"Lanuéjols","nomNormalise":"lanuejols","typeCollectivite":"Commune","region":"Occitanie","departement":"Lozère","departementCode":"48","adresse":{"street":"4 place Adrien-Vitrolles","postalCode":"48000","city":"Lanuéjols","country":"France"},"contacts":{"email":"village.lanuejols@wanadoo.fr","telephone":"0466480082"},"horaires":"Du Lundi au Mardi : de 08h30 à 12h30\nLe Mercredi : de 08h30 à 12h30 de 13h30 à 17h00\nLe Jeudi : de 08h30 à 12h30","latitude":44.500732,"longitude":3.571598,"website":"https://www.lanuejols-lozere.fr/","hasWebsite":true,"hasHoraires":true,"url":"https://lannuaire.service-public.gouv.fr/occitanie/lozere/08007160-5214-4a3a-911c-348df8091f4e"}
{"nom":"La Panouse","nomNormalise":"lapanouse","typeCollectivite":"Commune","region":"Occitanie","departement":"Lozère","departementCode":"48","adresse":{"street":"Le Village","postalCode":"48600","city":"La Panouse","country":"France"},"contacts":{"email":"mairie.lapanouse@wanadoo.fr","telephone":"0466464146"},"horaires":"Le Mercredi : de 08h00 à 12h00\nLe Vendredi : de 10h00 à 12h00","latitude":44.72917,"longitude":3.588808,"website":"","hasWebsite":false,"hasHoraires":true,"url":"https://lannuaire.service-public.gouv.fr/occitanie/lozere/76019c9c-c40d-49f8-88e4-7bdf1c7c1a41"}
{"nom":"La Tieule","nomNormalise":"latieule","typeCollectivite":"Commune","region":"Occitanie","departement":"Lozère","departementCode":"48","adresse":{"street":"1 Place de la Mairie","postalCode":"48500","city":"La Tieule","country":"France"},"contacts":{"email":"commune.latieule@orange.fr","telephone":"0466488588"},"horaires":"Le Mardi : de 09h00 à 12h00\nLe Vendredi : de 14h00 à 17h00","latitude":44.38386,"longitude":3.155336,"website":"","hasWebsite":false,"hasHoraires":true,"url":"https://lannuaire.service-public.gouv.fr/occitanie/lozere/344b5e8b-0691-4703-bf20-1e3f58dedee7"}
{"nom":"Laubert","nomNormalise":"laubert","typeCollectivite":"Commune","region":"Occitanie","departement":"Lozère","departementCode":"48","adresse":{"street":"Le Village","postalCode":"48170","city":"Laubert","country":"France"},"contacts":{"email":"mairielaubert@orange.fr","telephone":"0466477137"},"horaires":"Le Lundi : de 09h00 à 12h00 de 14h00 à 16h00\nLe Vendredi : de 09h00 à 12h00 de 14h00 à 16h00","latitude":44.584496,"longitude":3.640258,"website":"","hasWebsite":false,"hasHoraires":true,"url":"https://lannuaire.service-public.gouv.fr/occitanie/lozere/fe0063d9-2bcd-44de-ac53-c69f662ec9ba"}
{"nom":"Mairie déléguée - Laval-Atger","nomNormalise":"mairiedelegueelavalatger","typeCollectivite":"Commune","region":"Occitanie","departement":"Lozère","departementCode":"48","adresse":{"street":"Laval-Atger","postalCode":"48600","city":"Saint-Bonnet-Laval","country":"France"},"contacts":{"email":"mairie.stbonnetlaval@gmail.com","telephone":"0466464171"},"horaires":"Le Mercredi : de 17h00 à 18h30","latitude":44.808826,"longitude":3.694838,"website":"https://www.saint-bonnet-laval.fr/","hasWebsite":true,"hasHoraires":true,"url":"https://lannuaire.service-public.gouv.fr/occitanie/lozere/b227ff7f-b9ac-4e98-9ada-387a05b89e5b"}
{"nom":"Laval-du-Tarn","nomNormalise":"lavaldutarn","typeCollectivite":"Commune","region":"Occitanie","departement":"Lozère","departementCode":"48","adresse":{"street":"Le Village","postalCode":"48500","city":"Laval-du-Tarn","country":"France"},"contacts":{"email":"communelavaldutarn@orange.fr","telephone":"0466485572"},"horaires":"Le Mardi : de 09h00 à 12h00 de 13h00 à 17h00\nLe Jeudi : de 09h00 à 12h00 de 13h00 à 17h00","latitude":44.35353,"longitude":3.352358,"website":"","hasWebsite":false,"hasHoraires":true,"url":"https://lannuaire.service-public.gouv.fr/occitanie/lozere/b3d9acc6-85b6-4297-9243-44b23cbb3921"}
{"nom":"Mairie déléguée - Le Bleymard","nomNormalise":"mairiedelegueelebleymard","typeCollectivite":"Commune","region":"Occitanie","departement":"Lozère","departementCode":"48","adresse":{"street":"Le Bleymard","postalCode":"48190","city":"Mont Lozère et Goulet","country":"France"},"contacts":{"email":"mairie@montlozeregoulet.fr","telephone":"0466311383"},"horaires":"Du Lundi au Mardi : de 08h30 à 12h00 de 13h30 à 17h00\nLe Jeudi : de 08h30 à 12h00 de 13h30 à 17h00\nLe Vendredi : de 08h30 à 12h00 de 13h30 à 16h00","latitude":44.485855,"longitude":3.7334943,"website":"https://www.xn--mont-lozre-et-goulet-w1b.fr/","hasWebsite":true,"hasHoraires":true,"url":"https://lannuaire.service-public.gouv.fr/occitanie/lozere/ffd629ca-071a-4041-81d5-44fa2590dc0e"}
{"nom":"Le Born","nomNormalise":"leborn","typeCollectivite":"Commune","region":"Occitanie","departement":"Lozère","departementCode":"48","adresse":{"street":"172 Rue Victorin-Galière","postalCode":"48000","city":"Le Born","country":"France"},"contacts":{"email":"mairieleborn48@orange.fr","telephone":"0466477045"},"horaires":"Le Mardi : de 08h30 à 12h00 de 14h00 à 16h00\nLe Jeudi : de 08h30 à 12h00 de 14h00 à 16h00","latitude":44.55911,"longitude":3.561346,"website":"","hasWebsite":false,"hasHoraires":true,"url":"https://lannuaire.service-public.gouv.fr/occitanie/lozere/841dcaad-736f-40e7-8ef7-df3eb3ed877b"}
{"nom":"Le Buisson","nomNormalise":"lebuisson","typeCollectivite":"Commune","region":"Occitanie","departement":"Lozère","departementCode":"48","adresse":{"street":"203 route du Buisson","postalCode":"48100","city":"Le Buisson","country":"France"},"contacts":{"email":"mairie.le.buisson@orange.fr","telephone":"0466320925"},"horaires":"Du Lundi au Vendredi : de 08h30 à 12h30","latitude":44.62731,"longitude":3.235044,"website":"","hasWebsite":false,"hasHoraires":true,"url":"https://lannuaire.service-public.gouv.fr/occitanie/lozere/f8331a00-91d8-4cfc-8985-4d59de9f29f9"}
{"nom":"Le Collet-de-Dèze","nomNormalise":"lecolletdedeze","typeCollectivite":"Commune","region":"Occitanie","departement":"Lozère","departementCode":"48","adresse":{"street":"12 route de sauveplane","postalCode":"48160","city":"Le Collet-de-Dèze","country":"France"},"contacts":{"email":"mairie-du-collet-de-deze@orange.fr","telephone":"0466455014"},"horaires":"Du Lundi au Mardi : de 09h00 à 12h00 de 14h00 à 17h00\nLe Mercredi : de 09h00 à 12h00\nDu Jeudi au Vendredi : de 09h00 à 12h00 de 14h00 à 17h00","latitude":44.245476,"longitude":3.92309,"website":"https://www.le-collet-de-deze.fr/","hasWebsite":true,"hasHoraires":true,"url":"https://lannuaire.service-public.gouv.fr/occitanie/lozere/ac1dbef2-6007-43b8-ade9-1a6f448abcac"}
{"nom":"Le Malzieu-Forain","nomNormalise":"lemalzieuforain","typeCollectivite":"Commune","region":"Occitanie","departement":"Lozère","departementCode":"48","adresse":{"street":"34 Boulevard Robert-de-Flers","postalCode":"48140","city":"Le Malzieu-Ville","country":"France"},"contacts":{"email":"mairie.malzieuforain@wanadoo.fr","telephone":"0466317041"},"horaires":"Le Lundi : de 08h00 à 12h00 de 13h30 à 17h30\nLe Jeudi : de 08h00 à 12h00 de 13h30 à 17h30","latitude":44.856354,"longitude":3.3306484,"website":"https://www.lemalzieuforain.fr/","hasWebsite":true,"hasHoraires":true,"url":"https://lannuaire.service-public.gouv.fr/occitanie/lozere/0af86a09-fb2d-4b01-9c05-aac624e0d34b"}
{"nom":"Le Malzieu-Ville","nomNormalise":"lemalzieuville","typeCollectivite":"Commune","region":"Occitanie","departement":"Lozère","departementCode":"48","adresse":{"street":"305 boulevard Général-Brun-de-Villeret","postalCode":"48140","city":"Le Malzieu-Ville","country":"France"},"contacts":{"email":"secretariat@lemalzieu.fr","telephone":"0466317025"},"horaires":"Le Mardi : de 13h30 à 15h00\nLe Mercredi : de 10h00 à 12h00\nLe Vendredi : de 10h00 à 12h00\nLe Samedi : de 09h00 à 12h00","latitude":44.85201,"longitude":3.3301167,"website":"http://le-malzieu-ville.fr/","hasWebsite":true,"hasHoraires":true,"url":"https://lannuaire.service-public.gouv.fr/occitanie/lozere/563b6946-1fb1-4b93-8220-521ef2db2ca5"}
{"nom":"Le Pompidou","nomNormalise":"lepompidou","typeCollectivite":"Commune","region":"Occitanie","departement":"Lozère","departementCode":"48","adresse":{"street":"Le Château","postalCode":"48110","city":"Le Pompidou","country":"France"},"contacts":{"email":"mairiepompidou@wanadoo.fr","telephone":"0466603200"},"horaires":"Le Lundi : de 09h00 à 12h00 de 14h00 à 17h00\nLe Jeudi : de 09h00 à 12h00 de 14h00 à 17h00","latitude":44.19495,"longitude":3.654859,"website":"http://www.lepompidou.fr/","hasWebsite":true,"hasHoraires":true,"url":"https://lannuaire.service-public.gouv.fr/occitanie/lozere/30ced330-22e7-4e5c-a63d-a30e89917411"}
{"nom":"Le Rozier","nomNormalise":"lerozier","typeCollectivite":"Commune","region":"Occitanie","departement":"Lozère","departementCode":"48","adresse":{"street":"Le Rozier","postalCode":"48150","city":"Le Rozier","country":"France"},"contacts":{"email":"mairie@lerozier.fr","telephone":"0565626464"},"horaires":"Le Mardi : de 15h30 à 17h30","latitude":44.191643,"longitude":3.206943,"website":"https://www.la-mairie.com/rozier","hasWebsite":true,"hasHoraires":true,"url":"https://lannuaire.service-public.gouv.fr/occitanie/lozere/9e4a1ff7-34aa-426c-b516-e22f5126e749"}
{"nom":"Les Bessons","nomNormalise":"lesbessons","typeCollectivite":"Commune","region":"Occitanie","departement":"Lozère","departementCode":"48","adresse":{"street":"445 rue de la Tourre","postalCode":"48200","city":"Les Bessons","country":"France"},"contacts":{"email":"mairie.les.bessons@wanadoo.fr","telephone":"0466311610"},"horaires":"Le Lundi : de 13h00 à 17h30\nLe Jeudi : de 13h00 à 17h30\nLe Vendredi : de 08h30 à 11h30","latitude":44.77386,"longitude":3.252649,"website":"","hasWebsite":false,"hasHoraires":true,"url":"https://lannuaire.service-public.gouv.fr/occitanie/lozere/18b8c56a-2f58-4bde-bd54-af8069f120cd"}
{"nom":"Les Bondons","nomNormalise":"lesbondons","typeCollectivite":"Commune","region":"Occitanie","departement":"Lozère","departementCode":"48","adresse":{"street":"Le Village","postalCode":"48400","city":"Les Bondons","country":"France"},"contacts":{"email":"mairielesbondons@orange.fr","telephone":"0466450964"},"horaires":"Du Mercredi au Jeudi : de 09h00 à 12h00 de 14h00 à 16h00","latitude":44.38625,"longitude":3.618957,"website":"","hasWebsite":false,"hasHoraires":true,"url":"https://lannuaire.service-public.gouv.fr/occitanie/lozere/1720cc49-c696-42f1-8936-43e72b3b95e3"}
{"nom":"Les Hermaux","nomNormalise":"leshermaux","typeCollectivite":"Commune","region":"Occitanie","departement":"Lozère","departementCode":"48","adresse":{"street":"Le Village","postalCode":"48340","city":"Les Hermaux","country":"France"},"contacts":{"email":"commune-les-hermaux@orange.fr","telephone":"0466326944"},"horaires":"Le Mardi : de 09h00 à 12h00 de 14h00 à 16h00\nLe Jeudi : de 09h00 à 12h00 de 14h00 à 16h00","latitude":44.51529,"longitude":3.130537,"website":"https://www.les-hermaux.fr/","hasWebsite":true,"hasHoraires":true,"url":"https://lannuaire.service-public.gouv.fr/occitanie/lozere/cc3df238-1890-462f-8a9d-6ad4788531e8"}
{"nom":"Les Laubies","nomNormalise":"leslaubies","typeCollectivite":"Commune","region":"Occitanie","departement":"Lozère","departementCode":"48","adresse":{"street":"Le Village","postalCode":"48700","city":"Les Laubies","country":"France"},"contacts":{"email":"mairie.leslaubies@wanadoo.fr","telephone":"0466473182"},"horaires":"Le Mardi : de 08h30 à 12h00\nDu Jeudi au Vendredi : de 08h30 à 12h00\nLe Vendredi : de 08h00 à 12h00","latitude":44.687267,"longitude":3.432121,"website":"https://www.les-laubies.fr/","hasWebsite":true,"hasHoraires":true,"url":"https://lannuaire.service-public.gouv.fr/occitanie/lozere/08c4a51b-2c00-4cd6-8a32-93ecfb19e2f2"}
{"nom":"Les Monts-Verts","nomNormalise":"lesmontsverts","typeCollectivite":"Commune","region":"Occitanie","departement":"Lozère","departementCode":"48","adresse":{"street":"Le Bacon","postalCode":"48200","city":"Les Monts-Verts","country":"France"},"contacts":{"email":"monts-verts.commune@wanadoo.fr","telephone":"0466319304"},"horaires":"Le Mardi : de 08h00 à 12h00 de 13h00 à 17h00\nLe Jeudi : de 08h00 à 12h00 de 13h00 à 17h00","latitude":44.8577,"longitude":3.20453,"website":"https://lesmontsverts.wixsite.com/mairie","hasWebsite":true,"hasHoraires":true,"url":"https://lannuaire.service-public.gouv.fr/occitanie/lozere/7ee738a9-f39d-4577-9fcd-4c30f501f847"}
{"nom":"Les Salces","nomNormalise":"lessalces","typeCollectivite":"Commune","region":"Occitanie","departement":"Lozère","departementCode":"48","adresse":{"street":"Le Village","postalCode":"48100","city":"Les Salces","country":"France"},"contacts":{"email":"commune-les-salces@orange.fr","telephone":"0466326924"},"horaires":"Le Mardi : de 08h30 à 12h30 de 13h30 à 16h30\nLe Jeudi : de 08h30 à 12h30 de 13h30 à 16h30\nLe Vendredi : de 08h30 à 12h30 de 13h30 à 16h30","latitude":44.53386,"longitude":3.161906,"website":"https://www.les-salces.fr/","hasWebsite":true,"hasHoraires":true,"url":"https://lannuaire.service-public.gouv.fr/occitanie/lozere/df30c311-7e7d-4e1e-aa69-563d7fea5206"}
{"nom":"Les Salelles","nomNormalise":"lessalelles","typeCollectivite":"Commune","region":"Occitanie","departement":"Lozère","departementCode":"48","adresse":{"street":"91 rue des Fontaines","postalCode":"48230","city":"Les Salelles","country":"France"},"contacts":{"email":"mairiedessalelles@gmail.com","telephone":"0466482161"},"horaires":"Le Lundi : de 09h00 à 12h00\nLe Vendredi : de 09h00 à 12h00","latitude":44.481354,"longitude":3.279906,"website":"https://www.les-salelles-lozere.fr/","hasWebsite":true,"hasHoraires":true,"url":"https://lannuaire.service-public.gouv.fr/occitanie/lozere/d9c123d0-166c-4c8e-8a3f-c29f392c4a5f"}
{"nom":"Luc","nomNormalise":"luc","typeCollectivite":"Commune","region":"Occitanie","departement":"Lozère","departementCode":"48","adresse":{"street":"Le Village","postalCode":"48250","city":"Luc","country":"France"},"contacts":{"email":"mairie.luc48@wanadoo.fr","telephone":"0466466007"},"horaires":"Du Lundi au Mardi : de 14h00 à 17h00\nDu Jeudi au Vendredi : de 14h00 à 17h00","latitude":44.650154,"longitude":3.891261,"website":"http://www.luc48.fr/","hasWebsite":true,"hasHoraires":true,"url":"https://lannuaire.service-public.gouv.fr/occitanie/lozere/afc3d001-d6c1-4a06-a181-2b84eb1aeeb5"}
{"nom":"Marchastel","nomNormalise":"marchastel","typeCollectivite":"Commune","region":"Occitanie","departement":"Lozère","departementCode":"48","adresse":{"street":"Le Bourg","postalCode":"48260","city":"Marchastel","country":"France"},"contacts":{"email":"mairie.marchastel@wanadoo.fr","telephone":"0466325361"},"horaires":"Le Mardi : de 14h00 à 17h00","latitude":44.650867,"longitude":3.106386,"website":"http://www.marchastel.com/","hasWebsite":true,"hasHoraires":true,"url":"https://lannuaire.service-public.gouv.fr/occitanie/lozere/e92d9546-ed6b-42e7-a02b-d8d1ad380a75"}
{"nom":"Marvejols","nomNormalise":"marvejols","typeCollectivite":"Commune","region":"Occitanie","departement":"Lozère","departementCode":"48","adresse":{"street":"9 avenue Savorgnan-de-Brazza","postalCode":"48100","city":"Marvejols","country":"France"},"contacts":{"email":"contact@ville-marvejols.fr","telephone":"0466320045"},"horaires":"Du Lundi au Vendredi : de 08h00 à 12h00 de 13h30 à 17h00","latitude":44.5504,"longitude":3.28952,"website":"http://www.ville-marvejols.fr/","hasWebsite":true,"hasHoraires":true,"url":"https://lannuaire.service-public.gouv.fr/occitanie/lozere/19a8bd93-0f4e-4bd5-8b37-bc8d2b742180"}
{"nom":"Mas-Saint-Chély","nomNormalise":"massaintchely","typeCollectivite":"Commune","region":"Occitanie","departement":"Lozère","departementCode":"48","adresse":{"street":"Village","postalCode":"48210","city":"Mas-Saint-Chély","country":"France"},"contacts":{"email":"contact@massaintchely.com","telephone":"0466485231"},"horaires":"Le Mardi : de 09h00 à 12h00\nLe Vendredi : de 09h00 à 12h00","latitude":44.329952,"longitude":3.3993752,"website":"http://massaintchely.com/","hasWebsite":true,"hasHoraires":true,"url":"https://lannuaire.service-public.gouv.fr/occitanie/lozere/d0e6b5d1-65d4-4d6e-84a4-e67a9a81b07d"}
{"nom":"Massegros-Causses-Gorges","nomNormalise":"massegroscaussesgorges","typeCollectivite":"Commune","region":"Occitanie","departement":"Lozère","departementCode":"48","adresse":{"street":"Le Massegros","postalCode":"48500","city":"Massegros-Causses-Gorges","country":"France"},"contacts":{"email":"contact@massegros-causses-gorges.fr","telephone":"0466488011"},"horaires":"Du Lundi au Mardi : de 08h30 à 12h30 de 13h30 à 17h00\nLe Mercredi : de 08h30 à 12h30\nDu Jeudi au Vendredi : de 08h30 à 12h30 de 13h30 à 17h00","latitude":44.30978,"longitude":3.173889,"website":"","hasWebsite":false,"hasHoraires":true,"url":"https://lannuaire.service-public.gouv.fr/occitanie/lozere/53b5c2e8-31e2-4898-8dfe-5129ddceaffe"}
{"nom":"Mende","nomNormalise":"mende","typeCollectivite":"Commune","region":"Occitanie","departement":"Lozère","departementCode":"48","adresse":{"street":"1 place du Général-de-Gaulle","postalCode":"48000","city":"Mende","country":"France"},"contacts":{"email":"contact@mende.fr","telephone":"0466494000"},"horaires":"Du Lundi au Vendredi : de 08h00 à 12h00 de 13h30 à 17h00","latitude":44.51782,"longitude":3.501172,"website":"https://mende.fr/","hasWebsite":true,"hasHoraires":true,"url":"https://lannuaire.service-public.gouv.fr/occitanie/lozere/f4922cb7-34aa-4014-8f92-9c9a6afae291"}
{"nom":"Meyrueis","nomNormalise":"meyrueis","typeCollectivite":"Commune","region":"Occitanie","departement":"Lozère","departementCode":"48","adresse":{"street":"Rue des Apiès","postalCode":"48150","city":"Meyrueis","country":"France"},"contacts":{"email":"mairie@meyrueis.fr","telephone":"0466456264"},"horaires":"Du Lundi au Vendredi : de 09h00 à 12h00","latitude":44.1805,"longitude":3.42928,"website":"https://www.meyrueis.fr/","hasWebsite":true,"hasHoraires":true,"url":"https://lannuaire.service-public.gouv.fr/occitanie/lozere/3f74e905-ad39-4314-8544-f0a2b84f97d5"}
{"nom":"Moissac-Vallée-Française","nomNormalise":"moissacvalleefrancaise","typeCollectivite":"Commune","region":"Occitanie","departement":"Lozère","departementCode":"48","adresse":{"street":"Le Village","postalCode":"48110","city":"Moissac-Vallée-Française","country":"France"},"contacts":{"email":"mairie.moissac.v.f@wanadoo.fr","telephone":"0466447131"},"horaires":"Le Mercredi : de 09h00 à 12h00\nLe Jeudi : de 09h00 à 12h45 de 13h30 à 17h00","latitude":44.165558,"longitude":3.768076,"website":"http://moissac-vallee.fr/","hasWebsite":true,"hasHoraires":true,"url":"https://lannuaire.service-public.gouv.fr/occitanie/lozere/103fa8a2-54fb-4017-bc08-8239fd84cd38"}
{"nom":"Molezon","nomNormalise":"molezon","typeCollectivite":"Commune","region":"Occitanie","departement":"Lozère","departementCode":"48","adresse":{"street":"Biasses","postalCode":"48110","city":"Molezon","country":"France"},"contacts":{"email":"secretariat.molezon@orange.fr","telephone":"0466452879"},"horaires":"Le Lundi : de 09h30 à 12h30 de 13h00 à 18h00\nLe Jeudi : de 09h30 à 12h30 de 13h00 à 18h00","latitude":44.2079,"longitude":3.682,"website":"","hasWebsite":false,"hasHoraires":true,"url":"https://lannuaire.service-public.gouv.fr/occitanie/lozere/a9313ede-70ba-433c-acf9-1ff74cbdcb11"}
{"nom":"Montbel","nomNormalise":"montbel","typeCollectivite":"Commune","region":"Occitanie","departement":"Lozère","departementCode":"48","adresse":{"street":"150 rue du Passadou","postalCode":"48170","city":"Montbel","country":"France"},"contacts":{"email":"mairie-montbel@orange.fr","telephone":"0466479615"},"horaires":"Le Mardi : de 09h00 à 17h00\nLe Vendredi : de 09h00 à 17h00","latitude":44.592014,"longitude":3.715681,"website":"","hasWebsite":false,"hasHoraires":true,"url":"https://lannuaire.service-public.gouv.fr/occitanie/lozere/abd1dddd-0c7b-40ca-b187-376744b95c6b"}
{"nom":"Mairie déléguée - Montbrun","nomNormalise":"mairiedelegueemontbrun","typeCollectivite":"Commune","region":"Occitanie","departement":"Lozère","departementCode":"48","adresse":{"street":"Montbrun","postalCode":"48210","city":"Gorges du Tarn Causses","country":"France"},"contacts":{"email":"montbrun.mairie@wanadoo.fr","telephone":"0466485521"},"horaires":"Le Mercredi : de 08h30 à 12h30 de 13h30 à 16h30","latitude":44.33702,"longitude":3.504067,"website":"http://www.gorgesdutarn-causses.fr/","hasWebsite":true,"hasHoraires":true,"url":"https://lannuaire.service-public.gouv.fr/occitanie/lozere/d9a377c9-05f5-4c8a-aa59-c8a9e746b3fb"}
{"nom":"Mont Lozère et Goulet","nomNormalise":"montlozereetgoulet","typeCollectivite":"Commune","region":"Occitanie","departement":"Lozère","departementCode":"48","adresse":{"street":"Quartier la Remise","postalCode":"48190","city":"Mont Lozère et Goulet","country":"France"},"contacts":{"email":"mairie@montlozeregoulet.fr","telephone":"0466311383"},"horaires":"Du Lundi au Mardi : de 08h30 à 12h00 de 13h30 à 17h00\nDu Jeudi au Vendredi : de 08h30 à 12h00 de 13h30 à 17h00","latitude":44.4864,"longitude":3.73564,"website":"https://www.xn--mont-lozre-et-goulet-w1b.fr/","hasWebsite":true,"hasHoraires":true,"url":"https://lannuaire.service-public.gouv.fr/occitanie/lozere/105dfffb-70e5-41d9-996d-4cd3c4434907"}
{"nom":"Montrodat","nomNormalise":"montrodat","typeCollectivite":"Commune","region":"Occitanie","departement":"Lozère","departementCode":"48","adresse":{"street":"16 rue des Manjo-Prunos","postalCode":"48100","city":"Montrodat","country":"France"},"contacts":{"email":"mairie.montrodat@wanadoo.fr","telephone":"0466321068"},"horaires":"Du Lundi au Vendredi : de 08h30 à 12h00 de 13h30 à 17h00","latitude":44.5522,"longitude":3.32939,"website":"https://www.montrodat.fr/","hasWebsite":true,"hasHoraires":true,"url":"https://lannuaire.service-public.gouv.fr/occitanie/lozere/2d454d2f-8596-44e7-b32d-25ec62354b8d"}
{"nom":"Monts-de-Randon","nomNormalise":"montsderandon","typeCollectivite":"Commune","region":"Occitanie","departement":"Lozère","departementCode":"48","adresse":{"street":"Rue de Salassous","postalCode":"48700","city":"Monts-de-Randon","country":"France"},"contacts":{"email":"montsderandon@orange.fr","telephone":"0466473331"},"horaires":"Du Lundi au Vendredi : de 08h30 à 12h00 de 13h30 à 17h00","latitude":44.632168,"longitude":3.4788332,"website":"https://www.montsderandon.fr/","hasWebsite":true,"hasHoraires":true,"url":"https://lannuaire.service-public.gouv.fr/occitanie/lozere/57ffbbb9-f2e6-4ff0-b56f-ea8c8e4c8fd3"}
{"nom":"Nasbinals","nomNormalise":"nasbinals","typeCollectivite":"Commune","region":"Occitanie","departement":"Lozère","departementCode":"48","adresse":{"street":"12 Rue Principale","postalCode":"48260","city":"Nasbinals","country":"France"},"contacts":{"email":"mairie@communedenasbinals.fr","telephone":"0466325017"},"horaires":"Du Lundi au Vendredi : de 08h30 à 12h00 de 14h00 à 17h30","latitude":44.66214,"longitude":3.046554,"website":"https://www.nasbinals.fr/","hasWebsite":true,"hasHoraires":true,"url":"https://lannuaire.service-public.gouv.fr/occitanie/lozere/26c471e2-0666-48f0-9abe-9ef810ece54a"}
{"nom":"Naussac-Fontanes","nomNormalise":"naussacfontanes","typeCollectivite":"Commune","region":"Occitanie","departement":"Lozère","departementCode":"48","adresse":{"street":"Rue de l'Église","postalCode":"48300","city":"Naussac-Fontanes","country":"France"},"contacts":{"email":"naussac-fontanes.mairie@orange.fr","telephone":"0466691659"},"horaires":"Le Lundi : de 08h00 à 12h00 de 14h00 à 18h00\nLe Jeudi : de 08h00 à 12h00 de 14h00 à 18h00\n(permanence sur Fontanes 14h-16h)","latitude":44.726963,"longitude":3.8391151,"website":"http://www.naussacfontanes.fr/","hasWebsite":true,"hasHoraires":true,"url":"https://lannuaire.service-public.gouv.fr/occitanie/lozere/88457e0e-bf73-4a00-a372-bae3c70bfff3"}
{"nom":"Noalhac","nomNormalise":"noalhac","typeCollectivite":"Commune","region":"Occitanie","departement":"Lozère","departementCode":"48","adresse":{"street":"Le Bourg","postalCode":"48310","city":"Noalhac","country":"France"},"contacts":{"email":"mairie.noalhac@orange.fr","telephone":"0466316864"},"horaires":"Le Jeudi : de 10h00 à 12h00","latitude":44.811592,"longitude":3.108077,"website":"","hasWebsite":false,"hasHoraires":true,"url":"https://lannuaire.service-public.gouv.fr/occitanie/lozere/ea114236-2cdf-4cb5-9ce1-210309e96d2e"}
{"nom":"Palhers","nomNormalise":"palhers","typeCollectivite":"Commune","region":"Occitanie","departement":"Lozère","departementCode":"48","adresse":{"street":"Rue du Val-Jordane","postalCode":"48100","city":"Palhers","country":"France"},"contacts":{"email":"palhers.mairie@orange.fr","telephone":"0466323117"},"horaires":"Le Mardi : de 09h00 à 12h00 de 13h30 à 17h30\nLe Jeudi : de 09h00 à 12h00 de 13h30 à 17h30","latitude":44.51973,"longitude":3.29951,"website":"http://www.palhers.fr/","hasWebsite":true,"hasHoraires":true,"url":"https://lannuaire.service-public.gouv.fr/occitanie/lozere/d621ccd8-acb8-4c4c-8084-edb1fd96d1df"}
{"nom":"Paulhac-en-Margeride","nomNormalise":"paulhacenmargeride","typeCollectivite":"Commune","region":"Occitanie","departement":"Lozère","departementCode":"48","adresse":{"street":"Le Village","postalCode":"48140","city":"Paulhac-en-Margeride","country":"France"},"contacts":{"email":"com-paulhac-margeride@orange.fr","telephone":"0466317587"},"horaires":"Le Jeudi : de 14h00 à 17h00\nLe Vendredi : de 09h00 à 12h00","latitude":44.9468,"longitude":3.38106,"website":"","hasWebsite":false,"hasHoraires":true,"url":"https://lannuaire.service-public.gouv.fr/occitanie/lozere/485c74bb-e32a-4fb0-971b-954ccaec0a5a"}
{"nom":"Pelouse","nomNormalise":"pelouse","typeCollectivite":"Commune","region":"Occitanie","departement":"Lozère","departementCode":"48","adresse":{"street":"35 Rue Sagnelongue","postalCode":"48000","city":"Pelouse","country":"France"},"contacts":{"email":"mairie.pelouse@orange.fr","telephone":"0466477092"},"horaires":"Le Lundi : de 13h30 à 17h00\nLe Vendredi : de 13h30 à 17h00","latitude":44.56816,"longitude":3.617014,"website":"","hasWebsite":false,"hasHoraires":true,"url":"https://lannuaire.service-public.gouv.fr/occitanie/lozere/74713a32-dee7-4ec7-81e3-627a49448566"}
{"nom":"Peyre-en-Aubrac","nomNormalise":"peyreenaubrac","typeCollectivite":"Commune","region":"Occitanie","departement":"Lozère","departementCode":"48","adresse":{"street":"Aumont-Aubrac","postalCode":"48130","city":"Peyre en Aubrac","country":"France"},"contacts":{"email":"mairie@peyreenaubrac.fr","telephone":"0466428470"},"horaires":"Du Lundi au Jeudi : de 09h00 à 12h00 de 14h00 à 17h00\nLe Vendredi : de 09h00 à 12h00 de 14h00 à 16h30","latitude":44.708374,"longitude":3.282606,"website":"https://peyreenaubrac.fr/","hasWebsite":true,"hasHoraires":true,"url":"https://lannuaire.service-public.gouv.fr/occitanie/lozere/679c34d7-4219-4e0a-bad0-198f4aa8bb36"}
{"nom":"Pied-de-Borne","nomNormalise":"pieddeborne","typeCollectivite":"Commune","region":"Occitanie","departement":"Lozère","departementCode":"48","adresse":{"street":"90 route des aydons","postalCode":"48800","city":"Pied-de-Borne","country":"France"},"contacts":{"email":"mairie.pieddeborne@wanadoo.fr","telephone":"0466698223"},"horaires":"Du Lundi au Mardi : de 07h30 à 12h00 de 13h30 à 17h00\nLe Mercredi : de 07h30 à 11h30\nLe Jeudi : de 07h30 à 12h00 de 13h30 à 17h00\nLe Vendredi : de 07h30 à 12h00 de 13h30 à 16h00","latitude":44.475204,"longitude":3.985122,"website":"","hasWebsite":false,"hasHoraires":true,"url":"https://lannuaire.service-public.gouv.fr/occitanie/lozere/aa997c0d-a438-4539-a41e-46215806f6f6"}
{"nom":"Pierrefiche","nomNormalise":"pierrefiche","typeCollectivite":"Commune","region":"Occitanie","departement":"Lozère","departementCode":"48","adresse":{"street":"Le Bourg","postalCode":"48300","city":"Pierrefiche","country":"France"},"contacts":{"email":"secretariat.pierrefiche@orange.fr","telephone":"0466695157"},"horaires":"Le Mardi : de 09h00 à 12h00\nLe Jeudi : de 09h00 à 12h00","latitude":44.6663,"longitude":3.70373,"website":"","hasWebsite":false,"hasHoraires":true,"url":"https://lannuaire.service-public.gouv.fr/occitanie/lozere/5e3ad837-46a5-457c-a763-0b32c16086c3"}
{"nom":"Pont de Montvert - Sud Mont Lozère","nomNormalise":"pontdemontvertsudmontlozere","typeCollectivite":"Commune","region":"Occitanie","departement":"Lozère","departementCode":"48","adresse":{"street":"Le Pont-de-Montvert","postalCode":"48220","city":"Pont de Monvert Sud Mont Lozère","country":"France"},"contacts":{"email":"accueil@pdmsml.fr","telephone":"0434090610"},"horaires":"Le Mercredi : de 09h00 à 12h00 de 14h00 à 17h00\nDu Jeudi au Vendredi : de 09h00 à 12h00","latitude":44.36318,"longitude":3.745267,"website":"https://www.pontdemontvert-sudmontlozere.fr/","hasWebsite":true,"hasHoraires":true,"url":"https://lannuaire.service-public.gouv.fr/occitanie/lozere/dcfc38b2-59c8-4373-b76a-858053a90399"}
{"nom":"Pourcharesses","nomNormalise":"pourcharesses","typeCollectivite":"Commune","region":"Occitanie","departement":"Lozère","departementCode":"48","adresse":{"street":"15 rue de l'Église","postalCode":"48800","city":"Villefort","country":"France"},"contacts":{"email":"mairie.pourcharesses@orange.fr","telephone":"0466468908"},"horaires":"Le Mardi : de 14h00 à 17h00\nDu Jeudi au Vendredi : de 08h30 à 12h00","latitude":44.4387,"longitude":3.93303,"website":"","hasWebsite":false,"hasHoraires":true,"url":"https://lannuaire.service-public.gouv.fr/occitanie/lozere/a348223b-0563-4d82-9699-b1f343627214"}
{"nom":"Prévenchères","nomNormalise":"prevencheres","typeCollectivite":"Commune","region":"Occitanie","departement":"Lozère","departementCode":"48","adresse":{"street":"3 place de l'Église","postalCode":"48800","city":"Prévenchères","country":"France"},"contacts":{"email":"mairie@prevencheres.fr","telephone":"0466460158"},"horaires":"Du Mardi au Vendredi : de 09h00 à 12h00 de 14h00 à 17h00","latitude":44.424484,"longitude":3.919669,"website":"http://www.prevencheres.fr/","hasWebsite":true,"hasHoraires":true,"url":"https://lannuaire.service-public.gouv.fr/occitanie/lozere/311a0e6c-4f7c-4d7f-baf9-509dae3fd69b"}
{"nom":"Mairie déléguée - Prinsuéjols","nomNormalise":"mairiedelegueeprinsuejols","typeCollectivite":"Commune","region":"Occitanie","departement":"Lozère","departementCode":"48","adresse":{"street":"Village Malbouzon","postalCode":"48100","city":"Prinsuéjols-Malbouzon","country":"France"},"contacts":{"email":"mairie.prinsuejolsmalbouzon@orange.fr","telephone":"0466325320"},"horaires":"Le Lundi : de 09h00 à 12h30 de 13h30 à 17h00\nLe Jeudi : de 09h00 à 12h30 de 13h30 à 17h00","latitude":44.678745,"longitude":3.168713,"website":"","hasWebsite":false,"hasHoraires":true,"url":"https://lannuaire.service-public.gouv.fr/occitanie/lozere/dd8a4f07-0e01-4549-bc54-9050c5073916"}
{"nom":"Prinsuéjols-Malbouzon","nomNormalise":"prinsuejolsmalbouzon","typeCollectivite":"Commune","region":"Occitanie","departement":"Lozère","departementCode":"48","adresse":{"street":"village de Malbouzon","postalCode":"48100","city":"Prinsuéjols-Malbouzon","country":"France"},"contacts":{"email":"mairie.prinsuejolsmalbouzon@orange.fr","telephone":"0466325320"},"horaires":"Le Lundi : de 09h00 à 12h30 de 13h30 à 17h00\nLe Jeudi : de 09h00 à 12h30 de 13h30 à 17h00","latitude":44.5229,"longitude":3.2665,"website":"","hasWebsite":false,"hasHoraires":true,"url":"https://lannuaire.service-public.gouv.fr/occitanie/lozere/051e883c-2ef7-4784-b163-5c3c280ba1be"}
{"nom":"Prunières","nomNormalise":"prunieres","typeCollectivite":"Commune","region":"Occitanie","departement":"Lozère","departementCode":"48","adresse":{"street":"Le Bourg","postalCode":"48200","city":"Prunières","country":"France"},"contacts":{"email":"mairie.prunieres@wanadoo.fr","telephone":"0466310877"},"horaires":"Le Mardi : de 13h30 à 17h30\nLe Vendredi : de 13h30 à 17h30","latitude":44.826664,"longitude":3.342207,"website":"http://www.prunieres-apcher.fr/","hasWebsite":true,"hasHoraires":true,"url":"https://lannuaire.service-public.gouv.fr/occitanie/lozere/7ebeadfd-3206-4fbc-a5b8-aae2f04e5675"}
{"nom":"Mairie déléguée - Quézac","nomNormalise":"mairiedelegueequezac","typeCollectivite":"Commune","region":"Occitanie","departement":"Lozère","departementCode":"48","adresse":{"street":"Quézac","postalCode":"48320","city":"Gorges du Tarn Causses","country":"France"},"contacts":{"email":"mairie.quezac@wanadoo.fr","telephone":"0466442126"},"horaires":"Du Lundi au Mardi : de 08h00 à 12h00 de 13h30 à 17h00\nLe Jeudi : de 08h00 à 12h00\nLe Vendredi : de 08h00 à 12h00 de 13h30 à 17h00","latitude":44.371384,"longitude":3.524454,"website":"https://www.gorgesdutarn-causses.fr/","hasWebsite":true,"hasHoraires":true,"url":"https://lannuaire.service-public.gouv.fr/occitanie/lozere/251ae230-8b26-4012-82a1-d5da81685f6e"}
{"nom":"Recoules-d'Aubrac","nomNormalise":"recoulesdaubrac","typeCollectivite":"Commune","region":"Occitanie","departement":"Lozère","departementCode":"48","adresse":{"street":"Place de la Mairie","postalCode":"48260","city":"Recoules-d'Aubrac","country":"France"},"contacts":{"email":"mairie.recoules.aubrac@orange.fr","telephone":"0466325214"},"horaires":"Le Mardi : de 14h00 à 16h00\nLe Jeudi : de 14h00 à 16h00","latitude":44.692356,"longitude":3.024565,"website":"","hasWebsite":false,"hasHoraires":true,"url":"https://lannuaire.service-public.gouv.fr/occitanie/lozere/853af5a7-8b48-413b-b054-f72f73d9122d"}
{"nom":"Recoules-de-Fumas","nomNormalise":"recoulesdefumas","typeCollectivite":"Commune","region":"Occitanie","departement":"Lozère","departementCode":"48","adresse":{"street":"2 route du Pont-du-Sucre","postalCode":"48100","city":"Recoules-de-Fumas","country":"France"},"contacts":{"email":"commune-recoules-de-fumas@orange.fr","telephone":"0466429134"},"horaires":"Le Lundi : de 08h30 à 12h30 de 13h30 à 16h30\nLe Mercredi : de 08h30 à 12h30 de 13h30 à 16h30","latitude":44.64666,"longitude":3.335488,"website":"https://www.recoules-de-fumas.fr/","hasWebsite":true,"hasHoraires":true,"url":"https://lannuaire.service-public.gouv.fr/occitanie/lozere/cc732f40-9e06-4174-ae89-631b7a3dc0bd"}
{"nom":"Rimeize","nomNormalise":"rimeize","typeCollectivite":"Commune","region":"Occitanie","departement":"Lozère","departementCode":"48","adresse":{"street":"6 avenue de la Mairie","postalCode":"48200","city":"Rimeize","country":"France"},"contacts":{"email":"mairie.rimeize@wanadoo.fr","telephone":"0466310820"},"horaires":"Le Lundi : de 09h00 à 12h00 de 13h30 à 17h00\nLe Mardi : de 08h00 à 12h00 de 13h30 à 17h00\nDu Jeudi au Vendredi : de 08h00 à 12h00 de 13h30 à 17h00\nLe Samedi : de 09h00 à 12h00","latitude":44.76632,"longitude":3.324912,"website":"https://www.rimeize.fr/","hasWebsite":true,"hasHoraires":true,"url":"https://lannuaire.service-public.gouv.fr/occitanie/lozere/232089a5-5b14-4c4a-ba51-8cb06068f34f"}
{"nom":"Rocles","nomNormalise":"rocles","typeCollectivite":"Commune","region":"Occitanie","departement":"Lozère","departementCode":"48","adresse":{"street":"Le Village","postalCode":"48300","city":"Rocles","country":"France"},"contacts":{"email":"mairie-rocles@wanadoo.fr","telephone":"0466695044"},"horaires":"Du Lundi au Vendredi : de 08h00 à 12h00","latitude":44.713776,"longitude":3.781326,"website":"","hasWebsite":false,"hasHoraires":true,"url":"https://lannuaire.service-public.gouv.fr/occitanie/lozere/279bad4e-bfc5-4a99-8184-cd259f1d8f8f"}
{"nom":"Rousses","nomNormalise":"rousses","typeCollectivite":"Commune","region":"Occitanie","departement":"Lozère","departementCode":"48","adresse":{"street":"Le Village","postalCode":"48400","city":"Rousses","country":"France"},"contacts":{"email":"communederousses@wanadoo.fr","telephone":"0466440874"},"horaires":"Le Mercredi : de 09h30 à 12h30 de 14h00 à 17h30\nLe Vendredi : de 09h30 à 12h30 de 14h00 à 16h00\n\nSecrétariat ouvert le mercredi de 9h30 à 12h30 et de 14h à 17h30 pour Juillet et Août","latitude":44.20622,"longitude":3.593121,"website":"https://communederousses.fr/","hasWebsite":true,"hasHoraires":true,"url":"https://lannuaire.service-public.gouv.fr/occitanie/lozere/9a70ecb3-e049-4bde-ac78-10e7b0cf15f6"}
{"nom":"Saint-Alban-sur-Limagnole","nomNormalise":"saintalbansurlimagnole","typeCollectivite":"Commune","region":"Occitanie","departement":"Lozère","departementCode":"48","adresse":{"street":"Place du Breuil","postalCode":"48120","city":"Saint-Alban-sur-Limagnole","country":"France"},"contacts":{"email":"mairie.stalban48@orange.fr","telephone":"0466315029"},"horaires":"Du Lundi au Mardi : de 09h00 à 12h00 de 14h00 à 17h00\nDu Jeudi au Vendredi : de 09h00 à 12h00 de 14h00 à 17h00\nLe Samedi : de 09h00 à 12h00","latitude":44.7816,"longitude":3.38645,"website":"https://www.stalbansurlimagnole.fr/","hasWebsite":true,"hasHoraires":true,"url":"https://lannuaire.service-public.gouv.fr/occitanie/lozere/ba9cd685-80da-45ef-ac82-23f4e990c342"}
{"nom":"Saint-André-Capcèze","nomNormalise":"saintandrecapceze","typeCollectivite":"Commune","region":"Occitanie","departement":"Lozère","departementCode":"48","adresse":{"street":"Le Village","postalCode":"48800","city":"Saint-André-Capcèze","country":"France"},"contacts":{"email":"mairie.standrecapceze@wanadoo.fr","telephone":"0466468625"},"horaires":"Le Mardi : de 10h30 à 12h00\nLe Jeudi : de 15h30 à 16h30","latitude":44.416504,"longitude":3.948765,"website":"","hasWebsite":false,"hasHoraires":true,"url":"https://lannuaire.service-public.gouv.fr/occitanie/lozere/7c89e7c4-1039-4b42-b0ab-709369060194"}
{"nom":"Saint-André-de-Lancize","nomNormalise":"saintandredelancize","typeCollectivite":"Commune","region":"Occitanie","departement":"Lozère","departementCode":"48","adresse":{"street":"Le Village","postalCode":"48240","city":"Saint-André-de-Lancize","country":"France"},"contacts":{"email":"mairie@st-andredelancize.net","telephone":"0466459097"},"horaires":"Le Lundi : de 14h00 à 17h30\nLe Jeudi : de 14h00 à 17h30","latitude":44.2766,"longitude":3.83973,"website":"","hasWebsite":false,"hasHoraires":true,"url":"https://lannuaire.service-public.gouv.fr/occitanie/lozere/9284b6eb-5b8b-4198-a834-ccd43fcb987a"}
{"nom":"Saint-Bauzile","nomNormalise":"saintbauzile","typeCollectivite":"Commune","region":"Occitanie","departement":"Lozère","departementCode":"48","adresse":{"street":"226 route du Causse","postalCode":"48000","city":"Saint-Bauzile","country":"France"},"contacts":{"email":"mairiedestbauzile@wanadoo.fr","telephone":"0466470045"},"horaires":"Du Lundi au Jeudi : de 08h30 à 12h00 de 13h30 à 17h00\nLe Vendredi : de 08h30 à 12h30 de 14h00 à 16h30","latitude":44.48192,"longitude":3.503033,"website":"https://www.saint-bauzile.fr/","hasWebsite":true,"hasHoraires":true,"url":"https://lannuaire.service-public.gouv.fr/occitanie/lozere/8c16f1a7-d9c1-4a5a-82b5-5b75d0b8ae7e"}
{"nom":"Saint-Bonnet-de-Chirac","nomNormalise":"saintbonnetdechirac","typeCollectivite":"Commune","region":"Occitanie","departement":"Lozère","departementCode":"48","adresse":{"street":"Les Bories","postalCode":"48100","city":"Saint-Bonnet-de-Chirac","country":"France"},"contacts":{"email":"mairiestbonnetdechirac@orange.fr","telephone":"0466327955"},"horaires":"Le Mardi : de 14h00 à 16h00","latitude":44.5088,"longitude":3.27851,"website":"","hasWebsite":false,"hasHoraires":true,"url":"https://lannuaire.service-public.gouv.fr/occitanie/lozere/652b8aee-8530-49a5-a6bf-18470e30e96e"}
{"nom":"Saint-Bonnet-Laval","nomNormalise":"saintbonnetlaval","typeCollectivite":"Commune","region":"Occitanie","departement":"Lozère","departementCode":"48","adresse":{"street":"Le Village","postalCode":"48600","city":"Saint-Bonnet-Laval","country":"France"},"contacts":{"email":"mairie.stbonnetlaval@gmail.com","telephone":"0466464152"},"horaires":"Du Mardi au Mercredi : de 08h00 à 12h00 de 13h00 à 17h00\n\nSaint Bonnet de Montauroux\nLe Vendredi : de 08h00 à 12h00 de 13h00 à 17h00","latitude":44.81612,"longitude":3.71856,"website":"https://www.saint-bonnet-laval.fr/","hasWebsite":true,"hasHoraires":true,"url":"https://lannuaire.service-public.gouv.fr/occitanie/lozere/58076556-6dad-43fa-8ba3-aaf8c187f856"}
{"nom":"Saint-Chély-d'Apcher","nomNormalise":"saintchelydapcher","typeCollectivite":"Commune","region":"Occitanie","departement":"Lozère","departementCode":"48","adresse":{"street":"67 rue Théophile-Roussel","postalCode":"48200","city":"Saint-Chély-d'Apcher","country":"France"},"contacts":{"email":"mairie@stchelydapcher.fr","telephone":"0466310067"},"horaires":"Du Lundi au Jeudi : de 08h30 à 12h00 de 13h30 à 17h30\nLe Vendredi : de 08h30 à 12h00 de 13h30 à 17h00","latitude":44.802773,"longitude":3.275655,"website":"https://www.stchelydapcher.fr/","hasWebsite":true,"hasHoraires":true,"url":"https://lannuaire.service-public.gouv.fr/occitanie/lozere/713e1489-26a0-4731-b101-6bff27604cf6"}
{"nom":"Saint-Denis-en-Margeride","nomNormalise":"saintdenisenmargeride","typeCollectivite":"Commune","region":"Occitanie","departement":"Lozère","departementCode":"48","adresse":{"street":"73 rue du Barry","postalCode":"48700","city":"Saint-Denis-en-Margeride","country":"France"},"contacts":{"email":"mairiestdenismargeride@orange.fr","telephone":"0466473866"},"horaires":"Du Lundi au Mardi : de 09h00 à 12h00","latitude":44.735916,"longitude":3.471144,"website":"","hasWebsite":false,"hasHoraires":true,"url":"https://lannuaire.service-public.gouv.fr/occitanie/lozere/bf0487a6-062f-4522-8ae9-04f540bc0641"}
{"nom":"Mairie déléguée - Sainte-Colombe-de-Peyre","nomNormalise":"mairiedelegueesaintecolombedepeyre","typeCollectivite":"Commune","region":"Occitanie","departement":"Lozère","departementCode":"48","adresse":{"street":"Sainte-Colombe-de-Peyre","postalCode":"48130","city":"Peyre en Aubrac","country":"France"},"contacts":{"email":"mairie.stecolombepeyre@orange.fr","telephone":"0466428308"},"horaires":"Le Lundi : de 14h00 à 15h30\nLe Jeudi : de 14h00 à 15h30","latitude":44.69056,"longitude":3.239612,"website":"https://peyreenaubrac.fr/","hasWebsite":true,"hasHoraires":true,"url":"https://lannuaire.service-public.gouv.fr/occitanie/lozere/0f8faf53-bf80-4d92-9e7b-50328c3eb858"}
{"nom":"Sainte-Croix-Vallée-Française","nomNormalise":"saintecroixvalleefrancaise","typeCollectivite":"Commune","region":"Occitanie","departement":"Lozère","departementCode":"48","adresse":{"street":"Le Village","postalCode":"48110","city":"Sainte-Croix-Vallée-Française","country":"France"},"contacts":{"email":"sainte-croix-vf.mairie@wanadoo.fr","telephone":"0466447050"},"horaires":"Du Lundi au Mardi : de 10h00 à 12h00 de 16h00 à 17h30\nDu Jeudi au Vendredi : de 10h00 à 12h00","latitude":44.18041,"longitude":3.740514,"website":"","hasWebsite":false,"hasHoraires":true,"url":"https://lannuaire.service-public.gouv.fr/occitanie/lozere/147d0e08-197e-449e-85ba-b986b1828f60"}
{"nom":"Sainte Eulalie","nomNormalise":"sainteeulalie","typeCollectivite":"Commune","region":"Occitanie","departement":"Lozère","departementCode":"48","adresse":{"street":"Village","postalCode":"48120","city":"Sainte-Eulalie","country":"France"},"contacts":{"email":"commune-ste-eulalie@orange.fr","telephone":"0466315758"},"horaires":"Le Mardi : de 14h00 à 16h00\nLe Jeudi : de 08h00 à 12h00","latitude":44.791172,"longitude":3.46601,"website":"","hasWebsite":false,"hasHoraires":true,"url":"https://lannuaire.service-public.gouv.fr/occitanie/lozere/35988a16-3114-4d64-9230-0a3aa2a207f7"}
{"nom":"Sainte-Hélène","nomNormalise":"saintehelene","typeCollectivite":"Commune","region":"Occitanie","departement":"Lozère","departementCode":"48","adresse":{"street":"Le Village","postalCode":"48190","city":"Sainte-Hélène","country":"France"},"contacts":{"email":"mairie.saintehelene@wanadoo.fr","telephone":"0466476106"},"horaires":"Le Jeudi : de 10h00 à 12h00","latitude":44.519222,"longitude":3.603143,"website":"","hasWebsite":false,"hasHoraires":true,"url":"https://lannuaire.service-public.gouv.fr/occitanie/lozere/03945fa3-83f8-403b-81aa-0dcacec123c2"}
{"nom":"Saint-Étienne-du-Valdonnez","nomNormalise":"saintetienneduvaldonnez","typeCollectivite":"Commune","region":"Occitanie","departement":"Lozère","departementCode":"48","adresse":{"street":"Place de la Mairie","postalCode":"48000","city":"Saint-Étienne-du-Valdonnez","country":"France"},"contacts":{"email":"mairie.valdonnez@orange.fr","telephone":"0466480166"},"horaires":"Le Lundi : de 09h00 à 12h00 de 13h30 à 17h00\nLe Mercredi : de 13h30 à 17h00\nLe Jeudi : de 13h30 à 17h00\nLe Vendredi : de 09h00 à 12h00 de 13h30 à 17h00","latitude":44.455322,"longitude":3.561383,"website":"http://www.saint-etienne-du-valdonnez.fr/","hasWebsite":true,"hasHoraires":true,"url":"https://lannuaire.service-public.gouv.fr/occitanie/lozere/b63f0050-0c8f-4d3f-807a-8a54cc89975b"}
{"nom":"Saint-Étienne-Vallée-Française","nomNormalise":"saintetiennevalleefrancaise","typeCollectivite":"Commune","region":"Occitanie","departement":"Lozère","departementCode":"48","adresse":{"street":"Les Prats","postalCode":"48330","city":"Saint-Étienne-Vallée-Française","country":"France"},"contacts":{"email":"mairie.stevf@wanadoo.fr","telephone":"0466457002"},"horaires":"Du Lundi au Mardi : de 09h00 à 12h00\nDu Jeudi au Vendredi : de 09h00 à 12h00","latitude":44.16601,"longitude":3.840406,"website":"","hasWebsite":false,"hasHoraires":true,"url":"https://lannuaire.service-public.gouv.fr/occitanie/lozere/0b0636a8-bb14-4bbb-bf1b-4b9a1e23dcee"}
{"nom":"Saint-Flour-de-Mercoire","nomNormalise":"saintflourdemercoire","typeCollectivite":"Commune","region":"Occitanie","departement":"Lozère","departementCode":"48","adresse":{"street":"Le Village","postalCode":"48300","city":"Saint-Flour-de-Mercoire","country":"France"},"contacts":{"email":"mairie.st.flour.mercoire@wanadoo.fr","telephone":"0466690171"},"horaires":"Le Mardi : de 08h00 à 12h00 de 13h30 à 16h30\nLe Vendredi : de 08h00 à 12h00","latitude":44.69586,"longitude":3.825703,"website":"","hasWebsite":false,"hasHoraires":true,"url":"https://lannuaire.service-public.gouv.fr/occitanie/lozere/f0fd1b7b-0446-483f-ad3c-482b1c09459f"}
{"nom":"Saint-Frézal-d'Albuges","nomNormalise":"saintfrezaldalbuges","typeCollectivite":"Commune","region":"Occitanie","departement":"Lozère","departementCode":"48","adresse":{"street":"Chazeaux","postalCode":"48170","city":"Saint-Frézal-d'Albuges","country":"France"},"contacts":{"email":"mairie.stfrezaldalbuges@wanadoo.fr","telephone":"0466479536"},"horaires":"Le Jeudi : de 08h00 à 17h00","latitude":44.56841,"longitude":3.755446,"website":"","hasWebsite":false,"hasHoraires":true,"url":"https://lannuaire.service-public.gouv.fr/occitanie/lozere/918c074b-aea0-44f2-8fbd-78012dce79c3"}
{"nom":"Saint-Gal","nomNormalise":"saintgal","typeCollectivite":"Commune","region":"Occitanie","departement":"Lozère","departementCode":"48","adresse":{"street":"Le Village","postalCode":"48700","city":"Saint-Gal","country":"France"},"contacts":{"email":"communedestgal@orange.fr","telephone":"0466473657"},"horaires":"Le Lundi : de 09h00 à 12h00 de 13h00 à 19h00\nLe Jeudi : de 09h00 à 12h00","latitude":44.669544,"longitude":3.424547,"website":"","hasWebsite":false,"hasHoraires":true,"url":"https://lannuaire.service-public.gouv.fr/occitanie/lozere/6493db4b-7a67-4e98-a4cc-8e6664ce6d12"}
{"nom":"Saint-Germain-de-Calberte","nomNormalise":"saintgermaindecalberte","typeCollectivite":"Commune","region":"Occitanie","departement":"Lozère","departementCode":"48","adresse":{"street":"Le Village","postalCode":"48370","city":"Saint-Germain-de-Calberte","country":"France"},"contacts":{"email":"mairie@st-germain.net","telephone":"0466459006"},"horaires":"Le Lundi : de 09h00 à 12h30\nDu Mardi au Mercredi : de 09h30 à 12h30 de 14h00 à 17h30\nLe Vendredi : de 09h30 à 12h30 de 14h00 à 17h30","latitude":44.2766,"longitude":3.83973,"website":"","hasWebsite":false,"hasHoraires":true,"url":"https://lannuaire.service-public.gouv.fr/occitanie/lozere/a4af73ac-6cdd-4b23-b6e8-5966f0ae9a3a"}
{"nom":"Saint-Germain-du-Teil","nomNormalise":"saintgermainduteil","typeCollectivite":"Commune","region":"Occitanie","departement":"Lozère","departementCode":"48","adresse":{"street":"8 place de Layral","postalCode":"48340","city":"Saint-Germain-du-Teil","country":"France"},"contacts":{"email":"mairiestgermainduteil@wanadoo.fr","telephone":"0466326016"},"horaires":"Le Lundi : de 08h00 à 12h00\nLe Mardi : de 08h00 à 12h00 de 13h30 à 17h30\nLe Mercredi : de 08h00 à 12h00\nLe Jeudi : de 08h00 à 12h00 de 13h30 à 17h30\nLe Vendredi : de 08h00 à 12h00 de 13h30 à 16h30","latitude":44.479683,"longitude":3.1710227,"website":"https://stgermainduteil.fr/","hasWebsite":true,"hasHoraires":true,"url":"https://lannuaire.service-public.gouv.fr/occitanie/lozere/2242c7a0-8e11-4835-9bae-bda607be9a27"}
{"nom":"Saint-Hilaire-de-Lavit","nomNormalise":"sainthilairedelavit","typeCollectivite":"Commune","region":"Occitanie","departement":"Lozère","departementCode":"48","adresse":{"street":"Village","postalCode":"48160","city":"Saint-Hilaire-de-Lavit","country":"France"},"contacts":{"email":"mairie.sthilairedelavit@wanadoo.fr","telephone":"0466455063"},"horaires":"Le Mardi : de 14h00 à 16h30\nLe Vendredi : de 14h00 à 16h30","latitude":44.254448,"longitude":3.865119,"website":"","hasWebsite":false,"hasHoraires":true,"url":"https://lannuaire.service-public.gouv.fr/occitanie/lozere/42e050c7-295f-4e20-a78e-1616eb4ec5b5"}
{"nom":"Saint-Jean-la-Fouillouse","nomNormalise":"saintjeanlafouillouse","typeCollectivite":"Commune","region":"Occitanie","departement":"Lozère","departementCode":"48","adresse":{"street":"Le Village","postalCode":"48170","city":"Saint-Jean-la-Fouillouse","country":"France"},"contacts":{"email":"secretariat-st-jean-fouillouse@orange.fr","telephone":"0466695529"},"horaires":"Le Mardi : de 13h00 à 17h00\nLe Vendredi : de 09h00 à 12h00","latitude":44.7,"longitude":3.69053,"website":"","hasWebsite":false,"hasHoraires":true,"url":"https://lannuaire.service-public.gouv.fr/occitanie/lozere/e3e5f8f3-6dd6-422c-9c0e-2d167849a0c8"}
{"nom":"Saint-Juéry","nomNormalise":"saintjuery","typeCollectivite":"Commune","region":"Occitanie","departement":"Lozère","departementCode":"48","adresse":{"street":"Le Village","postalCode":"48310","city":"Saint-Juéry","country":"France"},"contacts":{"email":"mairiesaintjuery@orange.fr","telephone":"0466312058"},"horaires":"Le Mardi : de 09h00 à 13h00","latitude":44.827522,"longitude":3.085957,"website":"","hasWebsite":false,"hasHoraires":true,"url":"https://lannuaire.service-public.gouv.fr/occitanie/lozere/58fc631a-19c4-49c3-a96d-9192c9fd8ea1"}
{"nom":"Saint-Julien-des-Points","nomNormalise":"saintjuliendespoints","typeCollectivite":"Commune","region":"Occitanie","departement":"Lozère","departementCode":"48","adresse":{"street":"La Lèche","postalCode":"48160","city":"Saint-Julien-des-Points","country":"France"},"contacts":{"email":"saint-julien-des-points@wanadoo.fr","telephone":"0466455302"},"horaires":"Le Lundi : de 09h00 à 13h00\nLe Vendredi : de 09h00 à 13h00","latitude":44.2549,"longitude":3.96493,"website":"","hasWebsite":false,"hasHoraires":true,"url":"https://lannuaire.service-public.gouv.fr/occitanie/lozere/b6f153fc-f1ae-41b1-8ea9-2008b2277a69"}
{"nom":"Mairie déléguée - Saint-Julien-du-Tournel","nomNormalise":"mairiedelegueesaintjuliendutournel","typeCollectivite":"Commune","region":"Occitanie","departement":"Lozère","departementCode":"48","adresse":{"street":"Saint-Julien-du-Tournel","postalCode":"48190","city":"Mont Lozère et Goulet","country":"France"},"contacts":{"email":"st-julien.du.tournel@wanadoo.fr","telephone":"0466476712"},"horaires":"Du Lundi au Mardi : de 09h00 à 12h00 de 12h30 à 16h45\nLe Jeudi : de 09h00 à 12h00 de 12h30 à 16h45","latitude":44.50099,"longitude":3.684404,"website":"http://www.bleymard-montlozere.com/commune/stjuliendutournel.html","hasWebsite":true,"hasHoraires":true,"url":"https://lannuaire.service-public.gouv.fr/occitanie/lozere/e966c400-5c68-4f06-ad8e-593dd50b5678"}
{"nom":"Saint-Laurent-de-Muret","nomNormalise":"saintlaurentdemuret","typeCollectivite":"Commune","region":"Occitanie","departement":"Lozère","departementCode":"48","adresse":{"street":"Le Bourg","postalCode":"48100","city":"Saint-Laurent-de-Muret","country":"France"},"contacts":{"email":"mairie.st.laurent.le.muret@wanadoo.fr","telephone":"0466322040"},"horaires":"Le Mardi : de 09h00 à 11h30\nLe Mercredi : de 14h00 à 17h00\nLe Jeudi : de 14h00 à 19h00","latitude":44.602013,"longitude":3.207575,"website":"http://www.mairiestlaurentlem.wixsite.com/saintlaurentdemuret","hasWebsite":true,"hasHoraires":true,"url":"https://lannuaire.service-public.gouv.fr/occitanie/lozere/130d727e-1c38-41c6-bde8-82652dfd1158"}
{"nom":"Saint-Laurent-de-Veyrès","nomNormalise":"saintlaurentdeveyres","typeCollectivite":"Commune","region":"Occitanie","departement":"Lozère","departementCode":"48","adresse":{"street":"Village","postalCode":"48310","city":"Saint-Laurent-de-Veyrès","country":"France"},"contacts":{"email":"mairie.st.laurent.de.veyres@wanadoo.fr","telephone":"0466316856"},"horaires":"Le Lundi : de 14h00 à 17h00","latitude":44.77266,"longitude":3.133173,"website":"","hasWebsite":false,"hasHoraires":true,"url":"https://lannuaire.service-public.gouv.fr/occitanie/lozere/5ecc7304-e333-4e10-8500-0ec00ac3142c"}
{"nom":"Saint-Léger-de-Peyre","nomNormalise":"saintlegerdepeyre","typeCollectivite":"Commune","region":"Occitanie","departement":"Lozère","departementCode":"48","adresse":{"street":"Le Village","postalCode":"48100","city":"Saint-Léger-de-Peyre","country":"France"},"contacts":{"email":"commune.stlegerdepeyre@wanadoo.fr","telephone":"0466321306"},"horaires":"Du Lundi au Mardi : de 08h30 à 12h00","latitude":44.593803,"longitude":3.302648,"website":"","hasWebsite":false,"hasHoraires":true,"url":"https://lannuaire.service-public.gouv.fr/occitanie/lozere/ef8e1af1-ab3c-414c-8486-d3916cbc46a2"}
{"nom":"Saint-Léger-du-Malzieu","nomNormalise":"saintlegerdumalzieu","typeCollectivite":"Commune","region":"Occitanie","departement":"Lozère","departementCode":"48","adresse":{"street":"Le Village","postalCode":"48140","city":"Saint-Léger-du-Malzieu","country":"France"},"contacts":{"email":"mairie.stlegerdumalzieu@wanadoo.fr","telephone":"0466317775"},"horaires":"Le Mardi : de 09h00 à 12h00 de 14h00 à 16h00\nLe Vendredi : de 13h30 à 17h30","latitude":44.88849,"longitude":3.31341,"website":"","hasWebsite":false,"hasHoraires":true,"url":"https://lannuaire.service-public.gouv.fr/occitanie/lozere/c6b6500d-0939-4149-b702-b3de1ed30508"}
{"nom":"Saint-Martin-de-Boubaux","nomNormalise":"saintmartindeboubaux","typeCollectivite":"Commune","region":"Occitanie","departement":"Lozère","departementCode":"48","adresse":{"street":"Le Village","postalCode":"48160","city":"Saint-Martin-de-Boubaux","country":"France"},"contacts":{"email":"mairie-st-martin-boubaux@wanadoo.fr","telephone":"0466455597"},"horaires":"Le Mardi : de 09h00 à 12h00 de 14h00 à 18h00\nLe Vendredi : de 08h00 à 12h00 de 14h00 à 18h00","latitude":44.200214,"longitude":3.922162,"website":"https://saintmartindeboubaux.fr/","hasWebsite":true,"hasHoraires":true,"url":"https://lannuaire.service-public.gouv.fr/occitanie/lozere/25ac42ec-7704-4dd0-ae45-e149564e0282"}
{"nom":"Saint-Martin-de-Lansuscle","nomNormalise":"saintmartindelansuscle","typeCollectivite":"Commune","region":"Occitanie","departement":"Lozère","departementCode":"48","adresse":{"street":"Le Village","postalCode":"48110","city":"Saint-Martin-de-Lansuscle","country":"France"},"contacts":{"email":"stmartinmairie@wanadoo.fr","telephone":"0466459284"},"horaires":"Du Mardi au Jeudi : de 09h00 à 12h00","latitude":44.216774,"longitude":3.753235,"website":"","hasWebsite":false,"hasHoraires":true,"url":"https://lannuaire.service-public.gouv.fr/occitanie/lozere/7e62e030-2d78-45f7-80b2-146b7c6ac018"}
{"nom":"Saint-Michel-de-Dèze","nomNormalise":"saintmicheldedeze","typeCollectivite":"Commune","region":"Occitanie","departement":"Lozère","departementCode":"48","adresse":{"street":"Le Village","postalCode":"48160","city":"Saint-Michel-de-Dèze","country":"France"},"contacts":{"email":"mairie.stmicheldedeze@orange.fr","telephone":"0466455183"},"horaires":"Le Mardi : de 10h00 à 12h00\nLe Jeudi : de 14h00 à 16h00","latitude":44.238914,"longitude":3.891047,"website":"http://www.stmicheldedeze.fr/","hasWebsite":true,"hasHoraires":true,"url":"https://lannuaire.service-public.gouv.fr/occitanie/lozere/9229d386-02b8-40bc-a637-ede82c2cf186"}
{"nom":"Saint-Paul-le-Froid","nomNormalise":"saintpaullefroid","typeCollectivite":"Commune","region":"Occitanie","departement":"Lozère","departementCode":"48","adresse":{"street":"Chayla d'Ance","postalCode":"48600","city":"Saint-Paul-le-Froid","country":"France"},"contacts":{"email":"mairiestpaullefroid@orange.fr","telephone":"0466464033"},"horaires":"Le Lundi : de 09h00 à 16h30","latitude":44.791264,"longitude":3.572143,"website":"","hasWebsite":false,"hasHoraires":true,"url":"https://lannuaire.service-public.gouv.fr/occitanie/lozere/e481e102-1f6f-40a8-92bb-2e3e817cded4"}
{"nom":"Saint-Pierre-de-Nogaret","nomNormalise":"saintpierredenogaret","typeCollectivite":"Commune","region":"Occitanie","departement":"Lozère","departementCode":"48","adresse":{"street":"Nogardel","postalCode":"48340","city":"Saint-Pierre-de-Nogaret","country":"France"},"contacts":{"email":"mairie.st-pierre-nogaret.48@wanadoo.fr","telephone":"0466326408"},"horaires":"Le Mardi : de 13h30 à 17h30\nLe Jeudi : de 08h30 à 12h00","latitude":44.46229,"longitude":3.1364992,"website":"","hasWebsite":false,"hasHoraires":true,"url":"https://lannuaire.service-public.gouv.fr/occitanie/lozere/fd88fe69-3ba7-4aa5-8c90-197df87b4ee0"}
{"nom":"Saint-Pierre-des-Tripiers","nomNormalise":"saintpierredestripiers","typeCollectivite":"Commune","region":"Occitanie","departement":"Lozère","departementCode":"48","adresse":{"street":"Le Truel","postalCode":"48150","city":"Saint-Pierre-des-Tripiers","country":"France"},"contacts":{"email":"mairie.saintpierredestripiers@orange.fr","telephone":"0565626677"},"horaires":"Le Vendredi : de 15h00 à 17h00","latitude":44.19978,"longitude":3.25849,"website":"","hasWebsite":false,"hasHoraires":true,"url":"https://lannuaire.service-public.gouv.fr/occitanie/lozere/9cd86d5b-7ef9-4643-8c0b-ef3448d1a9b7"}
{"nom":"Saint-Pierre-le-Vieux","nomNormalise":"saintpierrelevieux","typeCollectivite":"Commune","region":"Occitanie","departement":"Lozère","departementCode":"48","adresse":{"street":"Vareilles","postalCode":"48200","city":"Saint-Pierre-le-Vieux","country":"France"},"contacts":{"email":"mairiestpierrelevieux@wanadoo.fr","telephone":"0466318008"},"horaires":"Le Lundi : de 09h00 à 12h00\nLe Mercredi : de 13h30 à 18h00\nLe Vendredi : de 09h00 à 12h00","latitude":44.847664,"longitude":3.308826,"website":"http://saint-pierrelevieux48200.blogspot.com/","hasWebsite":true,"hasHoraires":true,"url":"https://lannuaire.service-public.gouv.fr/occitanie/lozere/6f801727-2726-4891-b541-c15abf88a110"}
{"nom":"Saint-Privat-de-Fau","nomNormalise":"saintprivatdefau","typeCollectivite":"Commune","region":"Occitanie","departement":"Lozère","departementCode":"48","adresse":{"street":"Le Bourg","postalCode":"48140","city":"Saint-Privat-du-Fau","country":"France"},"contacts":{"email":"communestprivatdufau@orange.fr","telephone":"0466318155"},"horaires":"Le Lundi : de 08h45 à 11h45\nLe Jeudi : de 13h45 à 16h45","latitude":44.91693,"longitude":3.341451,"website":"","hasWebsite":false,"hasHoraires":true,"url":"https://lannuaire.service-public.gouv.fr/occitanie/lozere/9b808754-adba-45ef-be1a-d9da3020f86f"}
{"nom":"Saint-Privat-de-Vallongue","nomNormalise":"saintprivatdevallongue","typeCollectivite":"Commune","region":"Occitanie","departement":"Lozère","departementCode":"48","adresse":{"street":"La Combe","postalCode":"48240","city":"Saint-Privat-de-Vallongue","country":"France"},"contacts":{"email":"mairie@stprivatdevallongue.fr","telephone":"0466455113"},"horaires":"Du Lundi au Vendredi : de 09h00 à 12h00","latitude":44.27828,"longitude":3.83646,"website":"https://stprivatdevallongue.fr/","hasWebsite":true,"hasHoraires":true,"url":"https://lannuaire.service-public.gouv.fr/occitanie/lozere/bdba43a6-591e-4034-a5cf-4aa90c15fee9"}
{"nom":"Saint-Saturnin","nomNormalise":"saintsaturnin","typeCollectivite":"Commune","region":"Occitanie","departement":"Lozère","departementCode":"48","adresse":{"street":"Le Village","postalCode":"48500","city":"Saint-Saturnin","country":"France"},"contacts":{"email":"commune-de-st-saturnin@orange.fr","telephone":"0466329320"},"horaires":"Le Vendredi : de 10h00 à 12h00 de 14h00 à 16h00","latitude":44.411682,"longitude":3.188662,"website":"https://www.saint-saturnin.lozere.sitew.com/","hasWebsite":true,"hasHoraires":true,"url":"https://lannuaire.service-public.gouv.fr/occitanie/lozere/4f25e0fe-0f16-4abb-a3e4-338a380a7f1c"}
{"nom":"Saint-Sauveur-de-Ginestoux","nomNormalise":"saintsauveurdeginestoux","typeCollectivite":"Commune","region":"Occitanie","departement":"Lozère","departementCode":"48","adresse":{"street":"10 route de Saint Sauveur","postalCode":"48170","city":"Saint-Sauveur-de-Ginestoux","country":"France"},"contacts":{"email":"mairie.st.sauveur.de.gtx@wanadoo.fr","telephone":"0466479192"},"horaires":"Le Mardi : de 09h00 à 12h00 de 13h00 à 16h30","latitude":44.70546,"longitude":3.60706,"website":"","hasWebsite":false,"hasHoraires":true,"url":"https://lannuaire.service-public.gouv.fr/occitanie/lozere/c678901a-4955-4527-b1af-482f3ba593d3"}
{"nom":"Mairie déléguée - Saint-Sauveur-de-Peyre","nomNormalise":"mairiedelegueesaintsauveurdepeyre","typeCollectivite":"Commune","region":"Occitanie","departement":"Lozère","departementCode":"48","adresse":{"street":"Saint-Sauveur-de-Peyre","postalCode":"48130","city":"Peyre en Aubrac","country":"France"},"contacts":{"email":"mairie.stsauveurdepeyre@orange.fr","telephone":"0466428514"},"horaires":"Le Mercredi : de 10h00 à 12h00","latitude":44.65888,"longitude":3.287693,"website":"https://www.saintsauveurdepeyre.fr/","hasWebsite":true,"hasHoraires":true,"url":"https://lannuaire.service-public.gouv.fr/occitanie/lozere/8d837f0f-488f-49da-9890-5a883fb0d535"}
{"nom":"Mairie déléguée - Saint-Symphorien","nomNormalise":"mairiedelegueesaintsymphorien","typeCollectivite":"Commune","region":"Occitanie","departement":"Lozère","departementCode":"48","adresse":{"street":"Saint-Symphorien","postalCode":"48600","city":"Bel-Air-Val-d'Ance","country":"France"},"contacts":{"email":"mairie.belairvaldance@gmail.com","telephone":"0466463308"},"horaires":"Du Jeudi au Vendredi : de 14h00 à 16h00","latitude":44.839348,"longitude":3.625658,"website":"https://belairvaldance.com/","hasWebsite":true,"hasHoraires":true,"url":"https://lannuaire.service-public.gouv.fr/occitanie/lozere/2aeffd87-6b71-4b63-8495-83df081adc67"}
{"nom":"Serverette","nomNormalise":"serverette","typeCollectivite":"Commune","region":"Occitanie","departement":"Lozère","departementCode":"48","adresse":{"street":"Route Principale","postalCode":"48700","city":"Serverette","country":"France"},"contacts":{"email":"mairie.serverette@gmail.com","telephone":"0466483036"},"horaires":"Le Lundi : de 10h00 à 12h00\nLe Mardi : de 15h00 à 17h00","latitude":44.7049,"longitude":3.386029,"website":"http://www.serverette.fr/","hasWebsite":true,"hasHoraires":true,"url":"https://lannuaire.service-public.gouv.fr/occitanie/lozere/61a10b8e-f0a8-4d1f-92c2-730fee6c7fea"}
{"nom":"Termes","nomNormalise":"termes","typeCollectivite":"Commune","region":"Occitanie","departement":"Lozère","departementCode":"48","adresse":{"street":"Le Village","postalCode":"48310","city":"Termes","country":"France"},"contacts":{"email":"mairie.termes.48@orange.fr","telephone":"0466316252"},"horaires":"Le Mercredi : de 09h00 à 12h00\nLe Vendredi : de 09h00 à 12h00","latitude":44.81169,"longitude":3.166533,"website":"","hasWebsite":false,"hasHoraires":true,"url":"https://lannuaire.service-public.gouv.fr/occitanie/lozere/72679f7a-9c8e-480f-b438-c69d1e7fd78e"}
{"nom":"Trélans","nomNormalise":"trelans","typeCollectivite":"Commune","region":"Occitanie","departement":"Lozère","departementCode":"48","adresse":{"street":"Le Village","postalCode":"48340","city":"Trélans","country":"France"},"contacts":{"email":"commune-de-trelans@orange.fr","telephone":"0466326124"},"horaires":"Le Lundi : de 09h00 à 17h30\nLe Jeudi : de 09h00 à 12h00","latitude":44.49927,"longitude":3.092235,"website":"","hasWebsite":false,"hasHoraires":true,"url":"https://lannuaire.service-public.gouv.fr/occitanie/lozere/59006616-f9d1-45b1-9962-c0c2a64848de"}
{"nom":"Vebron","nomNormalise":"vebron","typeCollectivite":"Commune","region":"Occitanie","departement":"Lozère","departementCode":"48","adresse":{"street":"Le Village","postalCode":"48400","city":"Vebron","country":"France"},"contacts":{"email":"mairie.vebron@wanadoo.fr","telephone":"0466440018"},"horaires":"Le Lundi : de 09h00 à 12h30 de 14h00 à 17h00\nLe Mardi : de 08h30 à 12h30 de 14h00 à 17h00\nLe Mercredi : de 08h30 à 12h00","latitude":44.23914,"longitude":3.578578,"website":"https://www.mairievebron.fr/","hasWebsite":true,"hasHoraires":true,"url":"https://lannuaire.service-public.gouv.fr/occitanie/lozere/f3ecd4fe-89b2-4986-8ffd-87363df42d14"}
{"nom":"Ventalon-en-Cévennes","nomNormalise":"ventalonencevennes","typeCollectivite":"Commune","region":"Occitanie","departement":"Lozère","departementCode":"48","adresse":{"street":"Le Géripon","postalCode":"48240","city":"Ventalon-en-Cévennes","country":"France"},"contacts":{"email":"mairie.ventalon@gmail.com","telephone":"0466455615"},"horaires":"Les lundis, mardis et jeudis sur rendez-vous.","latitude":44.2853,"longitude":3.85529,"website":"https://ventalon.fr/","hasWebsite":true,"hasHoraires":true,"url":"https://lannuaire.service-public.gouv.fr/occitanie/lozere/b7f7fdcc-9801-468e-930f-dc0ad2317b27"}
{"nom":"Vialas","nomNormalise":"vialas","typeCollectivite":"Commune","region":"Occitanie","departement":"Lozère","departementCode":"48","adresse":{"street":"134 rue Basse","postalCode":"48220","city":"Vialas","country":"France"},"contacts":{"email":"contact@mairievialas.fr","telephone":"0466410005"},"horaires":"Du Lundi au Vendredi : de 08h30 à 12h00","latitude":44.334137,"longitude":3.8968644,"website":"https://mairievialas.fr/","hasWebsite":true,"hasHoraires":true,"url":"https://lannuaire.service-public.gouv.fr/occitanie/lozere/9685689b-7353-44b7-8671-21f8821ae1b4"}
{"nom":"Villefort","nomNormalise":"villefort","typeCollectivite":"Commune","region":"Occitanie","departement":"Lozère","departementCode":"48","adresse":{"street":"19 rue de l'Église","postalCode":"48800","city":"Villefort","country":"France"},"contacts":{"email":"contact@mairievillefort.com","telephone":"0466468026"},"horaires":"Du Lundi au Vendredi : de 09h00 à 12h00 de 13h30 à 17h00","latitude":44.438442,"longitude":3.932879,"website":"https://www.mairievillefort.com/","hasWebsite":true,"hasHoraires":true,"url":"https://lannuaire.service-public.gouv.fr/occitanie/lozere/cc7d3e35-bb78-46b1-851d-34ea8155a0db"}
