{"nom":"Allonnes","nomNormalise":"allonnes","typeCollectivite":"Commune","region":"Pays de la Loire","departement":"Maine-et-Loire","departementCode":"49","adresse":{"street":"135 rue Albert-Pottier","postalCode":"49650","city":"Allonnes","country":"France"},"contacts":{"email":"mairie@allonnes-49.fr","telephone":"0241520030"},"horaires":"Du Lundi au Jeudi : de 09h00 à 12h00 de 14h00 à 17h30\nLe Vendredi : de 09h00 à 12h00 de 14h00 à 16h00","latitude":47.2939,"longitude":0.021634,"website":"https://www.allonnes-49.fr/","hasWebsite":true,"hasHoraires":true,"url":"https://lannuaire.service-public.gouv.fr/pays-de-la-loire/maine-et-loire/ef1f30b4-f14c-4298-89b1-4731f113fcd2"}
{"nom":"Mairie déléguée - Andard","nomNormalise":"mairiedelegueeandard","typeCollectivite":"Commune","region":"Pays de la Loire","departement":"Maine-et-Loire","departementCode":"49","adresse":{"street":"Andard","postalCode":"49800","city":"Loire-Authion","country":"France"},"contacts":{"email":"contact@loire-authion.fr","telephone":"0252211000"},"horaires":"Le Lundi : de 09h00 à 12h15\nDu Mardi au Vendredi : de 09h00 à 12h15 de 14h00 à 17h15\nLe Samedi : de 09h00 à 12h00","latitude":47.457214,"longitude":-0.398518,"website":"https://www.loire-authion.fr/","hasWebsite":true,"hasHoraires":true,"url":"https://lannuaire.service-public.gouv.fr/pays-de-la-loire/maine-et-loire/7c4074ca-ae4a-49c2-98d2-d0d075e0b80e"}
{"nom":"Angers","nomNormalise":"angers","typeCollectivite":"Commune","region":"Pays de la Loire","departement":"Maine-et-Loire","departementCode":"49","adresse":{"street":"Boulevard de la Résistance-et-de-la-Déportation","postalCode":"49100","city":"Angers","country":"France"},"contacts":{"email":"mairie.angers@ville.angers.fr","telephone":"0241054000"},"horaires":"Du Lundi au Mercredi : de 09h00 à 13h00 de 14h00 à 17h30\nLe Jeudi : de 10h00 à 13h00 de 14h00 à 17h30\nLe Vendredi : de 09h00 à 13h00 de 14h00 à 17h30\nLe Samedi : de 09h30 à 12h30\n\nAccueil ouvert uniquement pour les déclarations de naissance, décès et toutes démarches administratives.","latitude":47.471092,"longitude":-0.547307,"website":"https://www.angers.fr/","hasWebsite":true,"hasHoraires":true,"url":"https://lannuaire.service-public.gouv.fr/pays-de-la-loire/maine-et-loire/1a83af8c-ddf9-47da-bab0-36f3a462dd5b"}
{"nom":"Angrie","nomNormalise":"angrie","typeCollectivite":"Commune","region":"Pays de la Loire","departement":"Maine-et-Loire","departementCode":"49","adresse":{"street":"17 rue Bellevue","postalCode":"49440","city":"Angrie","country":"France"},"contacts":{"email":"contact@angrie.fr","telephone":"0241920005"},"horaires":"Du Lundi au Mardi : de 09h00 à 12h30\nLe Vendredi : de 14h00 à 17h30\nLe Samedi : de 09h00 à 12h00\n\nAccueil ouvert les semaines paires.","latitude":47.5648,"longitude":-0.992945,"website":"https://www.sic-candeen.fr/contacts/marie-angrie/","hasWebsite":true,"hasHoraires":true,"url":"https://lannuaire.service-public.gouv.fr/pays-de-la-loire/maine-et-loire/7b3b77b3-177e-4853-bd53-6beba8def5ca"}
{"nom":"Mairie Annexe - Saint-Jean-de-Linières","nomNormalise":"mairieannexesaintjeandelinieres","typeCollectivite":"Commune","region":"Pays de la Loire","departement":"Maine-et-Loire","departementCode":"49","adresse":{"street":"Saint-Jean-de-Linières","postalCode":"49070","city":"Saint-Léger-de-Linières","country":"France"},"contacts":{"email":"mairie@saint-leger-de-linieres.fr","telephone":"0241395536"},"horaires":"Le Mardi : de 09h00 à 12h00 de 14h00 à 18h00\nLe Mercredi : de 14h00 à 18h00\nLe Vendredi : de 09h00 à 12h00\n3ème samedi du mois de 9h à 12h (fermé durant les vacances scolaires).","latitude":47.457973,"longitude":-0.658668,"website":"https://www.saint-leger-de-linieres.fr/","hasWebsite":true,"hasHoraires":true,"url":"https://lannuaire.service-public.gouv.fr/pays-de-la-loire/maine-et-loire/c42b10fb-5549-44f5-802c-d17ac1e4ae65"}
{"nom":"Antoigné","nomNormalise":"antoigne","typeCollectivite":"Commune","region":"Pays de la Loire","departement":"Maine-et-Loire","departementCode":"49","adresse":{"street":"4 rue des Écoles","postalCode":"49260","city":"Antoigné","country":"France"},"contacts":{"email":"mairie.antoigne.49@wanadoo.fr","telephone":"0241509006"},"horaires":"Le Lundi : de 16h00 à 19h00\nLe Jeudi : de 14h00 à 17h00\nLe Vendredi : de 09h00 à 12h30","latitude":47.0843,"longitude":-0.112669,"website":"","hasWebsite":false,"hasHoraires":true,"url":"https://lannuaire.service-public.gouv.fr/pays-de-la-loire/maine-et-loire/d97b799f-496b-4e68-992f-df4caca00727"}
{"nom":"Armaillé","nomNormalise":"armaille","typeCollectivite":"Commune","region":"Pays de la Loire","departement":"Maine-et-Loire","departementCode":"49","adresse":{"street":"10 rue de la Mairie","postalCode":"49420","city":"Armaillé","country":"France"},"contacts":{"email":"mairie@armaille49.fr","telephone":"0241943241"},"horaires":"Le Mardi : de 09h00 à 12h00\nDu Vendredi au Samedi : de 09h00 à 12h00\n\nAccueil ouvert uniquement le 1er samedi du mois.","latitude":47.6908,"longitude":-1.08336,"website":"https://armaille49.fr/","hasWebsite":true,"hasHoraires":true,"url":"https://lannuaire.service-public.gouv.fr/pays-de-la-loire/maine-et-loire/2a1cfe09-24c9-4018-8e0d-5e469ccbae87"}
{"nom":"Artannes-sur-Thouet","nomNormalise":"artannessurthouet","typeCollectivite":"Commune","region":"Pays de la Loire","departement":"Maine-et-Loire","departementCode":"49","adresse":{"street":"220 rue de Rougeville","postalCode":"49260","city":"Artannes-sur-Thouet","country":"France"},"contacts":{"email":"artannes-sur-thouet@wanadoo.fr","telephone":"0241529191"},"horaires":"Le Lundi : de 09h00 à 12h30 de 13h30 à 18h00\nLe Mardi : de 09h00 à 12h00\nLe Jeudi : de 09h00 à 12h30 de 13h30 à 17h00","latitude":47.1989,"longitude":-0.094093,"website":"http://www.artannes-sur-thouet.fr/","hasWebsite":true,"hasHoraires":true,"url":"https://lannuaire.service-public.gouv.fr/pays-de-la-loire/maine-et-loire/4cfdee4e-a5b4-4322-b9c3-c330f96a0bbe"}
{"nom":"Aubigné-sur-Layon","nomNormalise":"aubignesurlayon","typeCollectivite":"Commune","region":"Pays de la Loire","departement":"Maine-et-Loire","departementCode":"49","adresse":{"street":"30 rue Nationale","postalCode":"49540","city":"Aubigné-sur-Layon","country":"France"},"contacts":{"email":"mairie.aubignesurlayon@wanadoo.fr","telephone":"0241594019"},"horaires":"Le Lundi : de 09h00 à 12h00 de 14h00 à 19h00\nLe Samedi : de 09h00 à 12h00\n\nEn semaine paire uniquement","latitude":47.2118,"longitude":-0.460657,"website":"","hasWebsite":false,"hasHoraires":true,"url":"https://lannuaire.service-public.gouv.fr/pays-de-la-loire/maine-et-loire/9e70f798-d989-4f45-9a74-4f5353ae4edf"}
{"nom":"Mairie déléguée - Auverse","nomNormalise":"mairiedelegueeauverse","typeCollectivite":"Commune","region":"Pays de la Loire","departement":"Maine-et-Loire","departementCode":"49","adresse":{"street":"Auverse","postalCode":"49490","city":"Noyant-Villages","country":"France"},"contacts":{"email":"mairie.auverse@noyant-villages.fr","telephone":"0241822319"},"horaires":"Du Lundi au Jeudi : de 13h30 à 16h30","latitude":47.518047,"longitude":0.0517436,"website":"http://www.noyant-villages.fr/","hasWebsite":true,"hasHoraires":true,"url":"https://lannuaire.service-public.gouv.fr/pays-de-la-loire/maine-et-loire/c924e067-71e2-442d-bc51-237fb7efce48"}
{"nom":"Mairie déléguée - Aviré","nomNormalise":"mairiedelegueeavire","typeCollectivite":"Commune","region":"Pays de la Loire","departement":"Maine-et-Loire","departementCode":"49","adresse":{"street":"Aviré","postalCode":"49500","city":"Segré-en-Anjou Bleu","country":"France"},"contacts":{"email":"avire@segreenanjoubleu.fr","telephone":"0241613035"},"horaires":"Le Lundi : de 13h30 à 17h00\nDu Jeudi au Vendredi : de 08h30 à 12h00\nLe Samedi : de 08h30 à 12h30\n\nAccueil fermé le 1er samedi du mois.","latitude":47.7503,"longitude":-0.797719,"website":"https://www.segreenanjoubleu.fr/","hasWebsite":true,"hasHoraires":true,"url":"https://lannuaire.service-public.gouv.fr/pays-de-la-loire/maine-et-loire/9e30c009-bcf8-4700-b739-5664381bec9d"}
{"nom":"Avrillé","nomNormalise":"avrille","typeCollectivite":"Commune","region":"Pays de la Loire","departement":"Maine-et-Loire","departementCode":"49","adresse":{"street":"1 esplanade de l'Hôtel-de-Ville","postalCode":"49240","city":"Avrillé","country":"France"},"contacts":{"email":"mairie@ville-avrille.fr","telephone":"0241374100"},"horaires":"Du Lundi au Vendredi : de 09h00 à 12h30 de 13h30 à 17h30\nLe Samedi : de 09h00 à 12h00\nOuverture du service d'état civil du lundi au vendredi de 9h à 12h30 et de 14h30 à 17h30.","latitude":47.506832,"longitude":-0.5897386,"website":"https://www.ville-avrille.fr/","hasWebsite":true,"hasHoraires":true,"url":"https://lannuaire.service-public.gouv.fr/pays-de-la-loire/maine-et-loire/003ba948-ebb2-4617-9652-7d407415b762"}
{"nom":"Baracé","nomNormalise":"barace","typeCollectivite":"Commune","region":"Pays de la Loire","departement":"Maine-et-Loire","departementCode":"49","adresse":{"street":"30 rue de la Mairie","postalCode":"49430","city":"Baracé","country":"France"},"contacts":{"email":"","telephone":"0241769366"},"horaires":"Le Mardi : de 09h00 à 12h00\nLe Jeudi : de 09h00 à 12h00\nLe Samedi : de 09h00 à 12h00","latitude":47.64,"longitude":-0.35826,"website":"https://barace49.fr/","hasWebsite":true,"hasHoraires":true,"url":"https://lannuaire.service-public.gouv.fr/pays-de-la-loire/maine-et-loire/8f1330bf-7429-446d-8316-ba6c0a150d5b"}
{"nom":"Baugé-en-Anjou","nomNormalise":"baugeenanjou","typeCollectivite":"Commune","region":"Pays de la Loire","departement":"Maine-et-Loire","departementCode":"49","adresse":{"street":"Place de l'Europe","postalCode":"49150","city":"Baugé-en-Anjou","country":"France"},"contacts":{"email":"mairie@baugeenanjou.fr","telephone":"0241841212"},"horaires":"Le Lundi : de 14h00 à 17h00\nDu Mardi au Vendredi : de 09h00 à 12h30 de 14h00 à 17h00\nLe Samedi : de 09h00 à 12h00","latitude":47.540295,"longitude":-0.1010623,"website":"http://www.baugeenanjou.fr/","hasWebsite":true,"hasHoraires":true,"url":"https://lannuaire.service-public.gouv.fr/pays-de-la-loire/maine-et-loire/0980266f-ab54-4306-a879-71c958e12076"}
{"nom":"Mairie déléguée - Bauné","nomNormalise":"mairiedelegueebaune","typeCollectivite":"Commune","region":"Pays de la Loire","departement":"Maine-et-Loire","departementCode":"49","adresse":{"street":"Bauné","postalCode":"49140","city":"Loire-Authion","country":"France"},"contacts":{"email":"contact@loire-authion.fr","telephone":"0252211000"},"horaires":"","latitude":47.498447,"longitude":-0.318719,"website":"https://www.loire-authion.fr/","hasWebsite":true,"hasHoraires":false,"url":"https://lannuaire.service-public.gouv.fr/pays-de-la-loire/maine-et-loire/b944aff3-be77-424c-941d-44e49113dd64"}
{"nom":"Beaucouzé","nomNormalise":"beaucouze","typeCollectivite":"Commune","region":"Pays de la Loire","departement":"Maine-et-Loire","departementCode":"49","adresse":{"street":"Esplanade de la Liberté","postalCode":"49070","city":"Beaucouzé","country":"France"},"contacts":{"email":"maire@beaucouze.fr","telephone":"0241480053"},"horaires":"Le Lundi : de 08h30 à 12h00 de 13h30 à 17h30\nLe Mardi : de 13h00 à 18h00\nDu Mercredi au Vendredi : de 08h30 à 12h00 de 13h30 à 17h30\nLe Samedi : de 09h00 à 12h00\n\nAccueil le samedi matin uniquement pour l'état civil et les formalités administratives, fermé en juillet-août.","latitude":47.47421,"longitude":-0.631683,"website":"https://www.beaucouze.fr/","hasWebsite":true,"hasHoraires":true,"url":"https://lannuaire.service-public.gouv.fr/pays-de-la-loire/maine-et-loire/f81f0494-83c5-4d78-a66d-9c2b4ba6bfb7"}
{"nom":"Beaufort-en-Anjou","nomNormalise":"beaufortenanjou","typeCollectivite":"Commune","region":"Pays de la Loire","departement":"Maine-et-Loire","departementCode":"49","adresse":{"street":"Beaufort-en-Vallée","postalCode":"49250","city":"Beaufort-en-Anjou","country":"France"},"contacts":{"email":"mairie@beaufortenanjou.fr","telephone":"0241797460"},"horaires":"Le Lundi : de 14h00 à 17h30\nLe Mardi : de 09h00 à 17h30\nDu Mercredi au Vendredi : de 09h00 à 12h30 de 14h00 à 17h30\nLe Samedi : de 09h00 à 12h00","latitude":47.4403,"longitude":-0.21525005,"website":"https://beaufortenanjou.fr/","hasWebsite":true,"hasHoraires":true,"url":"https://lannuaire.service-public.gouv.fr/pays-de-la-loire/maine-et-loire/842757d2-0ae4-401c-b36f-ec95660975d8"}
{"nom":"Beaulieu-sur-Layon","nomNormalise":"beaulieusurlayon","typeCollectivite":"Commune","region":"Pays de la Loire","departement":"Maine-et-Loire","departementCode":"49","adresse":{"street":"4 rue de la Mairie","postalCode":"49750","city":"Beaulieu-sur-Layon","country":"France"},"contacts":{"email":"mairie@beaulieu-sur-layon.fr","telephone":"0241783130"},"horaires":"Du Lundi au Mercredi : de 15h00 à 18h00\nLe Vendredi : de 15h00 à 18h00\nLe Samedi : de 10h00 à 12h00\n\nAccueil fermé le samedi, du 19 juillet au 16 août.","latitude":47.3585,"longitude":-0.551649,"website":"https://www.beaulieu-sur-layon.fr/","hasWebsite":true,"hasHoraires":true,"url":"https://lannuaire.service-public.gouv.fr/pays-de-la-loire/maine-et-loire/c34af4d0-3357-42af-b73a-e43336f6e16a"}
{"nom":"Beaupréau-en-Mauges","nomNormalise":"beaupreauenmauges","typeCollectivite":"Commune","region":"Pays de la Loire","departement":"Maine-et-Loire","departementCode":"49","adresse":{"street":"Rue Robert-Schuman","postalCode":"49602","city":"Beaupréau-en-Mauges Cedex","country":"France"},"contacts":{"email":"accueil@beaupreauenmauges.fr","telephone":"0241717680"},"horaires":"Du Lundi au Vendredi : de 09h00 à 12h30 de 13h30 à 17h00","latitude":47.208942,"longitude":-0.981445,"website":"http://www.beaupreauenmauges.fr/","hasWebsite":true,"hasHoraires":true,"url":"https://lannuaire.service-public.gouv.fr/pays-de-la-loire/maine-et-loire/0be19263-78b1-40d7-9ed5-379bf2d57b53"}
{"nom":"Bécon-les-Granits","nomNormalise":"beconlesgranits","typeCollectivite":"Commune","region":"Pays de la Loire","departement":"Maine-et-Loire","departementCode":"49","adresse":{"street":"10 rue de Cholet","postalCode":"49370","city":"Bécon-les-Granits","country":"France"},"contacts":{"email":"mairie@beconlesgranits.fr","telephone":"0241779008"},"horaires":"Le Lundi : de 09h00 à 12h00 de 14h00 à 17h00\nLe Mardi : de 09h00 à 12h00 de 14h00 à 18h00\nLe Mercredi : de 09h00 à 12h00\nLe Jeudi : de 09h00 à 12h00 de 14h00 à 18h00\nLe Vendredi : de 09h00 à 12h00 de 14h00 à 16h00\nLe Samedi : de 09h00 à 12h00\n\nOuvert le 1er et le 3e samedi du mois. Accueil fermé les samedis en juillet-août.","latitude":47.502213,"longitude":-0.8018087,"website":"https://beconlesgranits.fr/fr/","hasWebsite":true,"hasHoraires":true,"url":"https://lannuaire.service-public.gouv.fr/pays-de-la-loire/maine-et-loire/d21d8115-bc14-4d93-981f-216f1569c464"}
{"nom":"Bégrolles-en-Mauges","nomNormalise":"begrollesenmauges","typeCollectivite":"Commune","region":"Pays de la Loire","departement":"Maine-et-Loire","departementCode":"49","adresse":{"street":"11 rue d'Anjou","postalCode":"49122","city":"Bégrolles-en-Mauges","country":"France"},"contacts":{"email":"mairie-begrolles-en-mauges@orange.fr","telephone":"0241638165"},"horaires":"Le Lundi : de 14h00 à 17h00\nLe Mardi : de 09h00 à 12h00 de 14h00 à 17h00\nLe Mercredi : de 14h00 à 17h00\nLe Jeudi : de 14h00 à 17h00\nLe Samedi : de 09h00 à 12h00","latitude":47.1399,"longitude":-0.934741,"website":"http://www.begrolles-en-mauges.com/","hasWebsite":true,"hasHoraires":true,"url":"https://lannuaire.service-public.gouv.fr/pays-de-la-loire/maine-et-loire/f9b702ce-432e-4bb9-82eb-4de3c3dde8b3"}
{"nom":"Béhuard","nomNormalise":"behuard","typeCollectivite":"Commune","region":"Pays de la Loire","departement":"Maine-et-Loire","departementCode":"49","adresse":{"street":"9 rue du Chevalier-Buhard","postalCode":"49170","city":"Béhuard","country":"France"},"contacts":{"email":"mairie.behuard@wanadoo.fr","telephone":"0241728411"},"horaires":"Le Mardi : de 15h00 à 18h30\nLe Jeudi : de 09h30 à 12h00","latitude":47.37952,"longitude":-0.643504,"website":"https://mairie-behuard.fr/","hasWebsite":true,"hasHoraires":true,"url":"https://lannuaire.service-public.gouv.fr/pays-de-la-loire/maine-et-loire/7e69cecc-5f08-422b-8b86-4754d02507e0"}
{"nom":"Bellevigne-en-Layon","nomNormalise":"bellevigneenlayon","typeCollectivite":"Commune","region":"Pays de la Loire","departement":"Maine-et-Loire","departementCode":"49","adresse":{"street":"4 place de la Mairie","postalCode":"49380","city":"Thouarcé","country":"France"},"contacts":{"email":"mairie@bellevigneenlayon.fr","telephone":"0241541515"},"horaires":"Le Mardi : de 08h30 à 12h30 de 14h00 à 18h00\nDu Mercredi au Samedi : de 08h30 à 12h30","latitude":47.26713,"longitude":-0.503094,"website":"https://www.bellevigneenlayon.fr/","hasWebsite":true,"hasHoraires":true,"url":"https://lannuaire.service-public.gouv.fr/pays-de-la-loire/maine-et-loire/1ab69f74-f5f5-49c1-817a-8eefdda84562"}
{"nom":"Bellevigne-les-Châteaux","nomNormalise":"bellevigneleschateaux","typeCollectivite":"Commune","region":"Pays de la Loire","departement":"Maine-et-Loire","departementCode":"49","adresse":{"street":"Chacé","postalCode":"49400","city":"Bellevigne-les-Châteaux","country":"France"},"contacts":{"email":"mairie@bellevigne-les-chateaux.fr","telephone":"0241529723"},"horaires":"Le Lundi : de 13h30 à 17h00\nDu Mardi au Mercredi : de 08h30 à 12h00\nLe Jeudi : de 13h30 à 17h00\nLe Vendredi : de 08h45 à 12h00\nLe Samedi : de 10h00 à 12h00","latitude":47.213577,"longitude":-0.0743679,"website":"https://www.bellevigneleschateaux.fr/","hasWebsite":true,"hasHoraires":true,"url":"https://lannuaire.service-public.gouv.fr/pays-de-la-loire/maine-et-loire/dde95b47-584e-40b1-8e31-0d45d70057da"}
{"nom":"Blaison-Saint-Sulpice","nomNormalise":"blaisonsaintsulpice","typeCollectivite":"Commune","region":"Pays de la Loire","departement":"Maine-et-Loire","departementCode":"49","adresse":{"street":"Blaison-Gohier","postalCode":"49320","city":"Blaison-Saint-Sulpice","country":"France"},"contacts":{"email":"mairie@blaison-saint-sulpice.fr","telephone":"0241571757"},"horaires":"Le Lundi : de 14h00 à 17h00\nLe Mercredi : de 09h00 à 12h00\nLe Jeudi : de 14h00 à 17h00\nLe Vendredi : de 10h00 à 12h00","latitude":47.3998,"longitude":-0.370953,"website":"https://www.blaison-saint-sulpice.fr/","hasWebsite":true,"hasHoraires":true,"url":"https://lannuaire.service-public.gouv.fr/pays-de-la-loire/maine-et-loire/fb14aca7-105d-44f5-b78d-419249a7e870"}
{"nom":"Blou","nomNormalise":"blou","typeCollectivite":"Commune","region":"Pays de la Loire","departement":"Maine-et-Loire","departementCode":"49","adresse":{"street":"3 place de la Mairie","postalCode":"49160","city":"Blou","country":"France"},"contacts":{"email":"accueil@mairie-blou.fr","telephone":"0241521409"},"horaires":"Du Lundi au Mardi : de 08h30 à 12h30\nLe Mercredi : de 08h30 à 12h30 de 13h30 à 16h30\nDu Jeudi au Vendredi : de 08h30 à 12h30\nLe Samedi : de 09h00 à 12h00\n\nAccueil ouvert uniquement le 2e samedi du mois.","latitude":47.3811,"longitude":-0.110177,"website":"https://www.mairie-blou.fr/","hasWebsite":true,"hasHoraires":true,"url":"https://lannuaire.service-public.gouv.fr/pays-de-la-loire/maine-et-loire/228be65e-082e-4f24-b421-0fa6d933ac59"}
{"nom":"Bouchemaine","nomNormalise":"bouchemaine","typeCollectivite":"Commune","region":"Pays de la Loire","departement":"Maine-et-Loire","departementCode":"49","adresse":{"street":"5 quai de la Noë","postalCode":"49080","city":"Bouchemaine","country":"France"},"contacts":{"email":"contact@ville-bouchemaine.fr","telephone":"0241222000"},"horaires":"Du Lundi au Mardi : de 09h00 à 12h00 de 13h30 à 17h00\nLe Mercredi : de 09h00 à 12h30\nDu Jeudi au Vendredi : de 09h00 à 12h00 de 13h30 à 17h00\nOuvert uniquement de 9h à 12h pendant les vacances scolaires.","latitude":47.4233,"longitude":-0.606659,"website":"https://www.ville-bouchemaine.fr/","hasWebsite":true,"hasHoraires":true,"url":"https://lannuaire.service-public.gouv.fr/pays-de-la-loire/maine-et-loire/d0bc249c-d709-463f-b5bd-036447d8d309"}
{"nom":"Bouillé-Ménard","nomNormalise":"bouillemenard","typeCollectivite":"Commune","region":"Pays de la Loire","departement":"Maine-et-Loire","departementCode":"49","adresse":{"street":"5 rue de la Mairie","postalCode":"49520","city":"Bouillé-Ménard","country":"France"},"contacts":{"email":"secretariat@bouille-menard.fr","telephone":"0241616500"},"horaires":"Le Lundi : de 08h30 à 12h30\nLe Mardi : de 08h30 à 12h30 de 14h00 à 18h00\nLe Jeudi : de 08h30 à 12h30\nLe Vendredi : de 08h30 à 12h30 de 14h00 à 18h00\nLe Samedi : de 08h30 à 12h30\n\nAccueil ouvert uniquement le 1er samedi du mois.","latitude":47.7411,"longitude":-0.969272,"website":"","hasWebsite":false,"hasHoraires":true,"url":"https://lannuaire.service-public.gouv.fr/pays-de-la-loire/maine-et-loire/ad46c8c5-a0bb-469e-957a-6329c202a108"}
{"nom":"Mairie déléguée - Bourg-d'Iré","nomNormalise":"mairiedelegueebourgdire","typeCollectivite":"Commune","region":"Pays de la Loire","departement":"Maine-et-Loire","departementCode":"49","adresse":{"street":"Le Bourg-d'Iré","postalCode":"49520","city":"Segré-en-Anjou Bleu","country":"France"},"contacts":{"email":"lebourgdire@segreenanjoubleu.fr","telephone":"0241615106"},"horaires":"Le Lundi : de 14h00 à 17h15\nLe Mardi : de 09h30 à 12h15 de 13h00 à 17h15\nLe Mercredi : de 14h00 à 17h15\nLe Jeudi : de 09h30 à 12h15 de 13h00 à 17h15\nLe Vendredi : de 09h30 à 12h15 de 13h00 à 17h00\nLe Samedi : de 09h30 à 12h00\n\nUniquement en semaine paire.","latitude":47.680004,"longitude":-0.9679043,"website":"https://www.segreenanjoubleu.fr/","hasWebsite":true,"hasHoraires":true,"url":"https://lannuaire.service-public.gouv.fr/pays-de-la-loire/maine-et-loire/bfda0377-f3a9-4517-b18b-e5bff11998ca"}
{"nom":"Bourg-l'Évêque","nomNormalise":"bourgleveque","typeCollectivite":"Commune","region":"Pays de la Loire","departement":"Maine-et-Loire","departementCode":"49","adresse":{"street":"15 bis rue Ulger","postalCode":"49520","city":"Bourg-l'Évêque","country":"France"},"contacts":{"email":"mairie-bourgleveque@wanadoo.fr","telephone":"0241942481"},"horaires":"Le Lundi : de 09h00 à 12h00 de 13h30 à 17h00\nLe Jeudi : de 09h00 à 12h00\nLe Samedi : de 09h00 à 12h00\n\nAccueil ouvert uniquement le 1er samedi du mois.","latitude":47.73589,"longitude":-1.013546,"website":"https://bourgleveque.canalblog.com/","hasWebsite":true,"hasHoraires":true,"url":"https://lannuaire.service-public.gouv.fr/pays-de-la-loire/maine-et-loire/da53cac1-e112-4661-9f04-d02f74981676"}
{"nom":"Brain-sur-Allonnes","nomNormalise":"brainsurallonnes","typeCollectivite":"Commune","region":"Pays de la Loire","departement":"Maine-et-Loire","departementCode":"49","adresse":{"street":"1 place de la Mairie","postalCode":"49650","city":"Brain-sur-Allonnes","country":"France"},"contacts":{"email":"mairie@brain-sur-allonnes.fr","telephone":"0241520328"},"horaires":"Du Lundi au Samedi : de 08h30 à 12h30","latitude":47.30181,"longitude":0.063855,"website":"http://www.brain-sur-allonnes.fr/","hasWebsite":true,"hasHoraires":true,"url":"https://lannuaire.service-public.gouv.fr/pays-de-la-loire/maine-et-loire/86ec7942-852d-4008-a5c6-60d4a09e0148"}
{"nom":"Mairie déléguée - Brain-sur-l'Authion","nomNormalise":"mairiedelegueebrainsurlauthion","typeCollectivite":"Commune","region":"Pays de la Loire","departement":"Maine-et-Loire","departementCode":"49","adresse":{"street":"Brain-sur-l'Authion","postalCode":"49800","city":"Loire-Authion","country":"France"},"contacts":{"email":"contact@loire-authion.fr","telephone":"0252211000"},"horaires":"","latitude":47.445686,"longitude":-0.411614,"website":"https://www.loire-authion.fr/","hasWebsite":true,"hasHoraires":false,"url":"https://lannuaire.service-public.gouv.fr/pays-de-la-loire/maine-et-loire/b7025615-f392-4efa-a784-12f45daed3e4"}
{"nom":"Mairie déléguée - Breil","nomNormalise":"mairiedelegueebreil","typeCollectivite":"Commune","region":"Pays de la Loire","departement":"Maine-et-Loire","departementCode":"49","adresse":{"street":"Breil","postalCode":"49490","city":"Noyant-Villages","country":"France"},"contacts":{"email":"mairie.breil@noyant-villages.fr","telephone":"0241825518"},"horaires":"Le Mardi : de 14h00 à 18h00\nLe Jeudi : de 14h00 à 18h00","latitude":47.473976,"longitude":0.1586528,"website":"https://www.noyant-villages.fr/ma-mairie/les-communes-deleguees/breil/","hasWebsite":true,"hasHoraires":true,"url":"https://lannuaire.service-public.gouv.fr/pays-de-la-loire/maine-et-loire/b5faf9bd-b769-466a-9c31-fb0f73f5c875"}
{"nom":"Mairie déléguée - Brézé","nomNormalise":"mairiedelegueebreze","typeCollectivite":"Commune","region":"Pays de la Loire","departement":"Maine-et-Loire","departementCode":"49","adresse":{"street":"Brézé","postalCode":"49260","city":"Bellevigne-les-Châteaux","country":"France"},"contacts":{"email":"accueil.breze@bellevigne-les-chateaux.fr","telephone":"0241516207"},"horaires":"Le Lundi : de 12h30 à 17h00\nLe Mardi : de 08h30 à 12h00\nLe Mercredi : de 09h00 à 12h30\nLe Jeudi : de 13h30 à 17h00\nLe Vendredi : de 08h30 à 12h00","latitude":47.1719,"longitude":-0.06431,"website":"https://www.bellevigneleschateaux.fr/","hasWebsite":true,"hasHoraires":true,"url":"https://lannuaire.service-public.gouv.fr/pays-de-la-loire/maine-et-loire/2676ad7b-0502-41eb-943a-d1c3369027fa"}
{"nom":"Mairie déléguée - Brigné","nomNormalise":"mairiedelegueebrigne","typeCollectivite":"Commune","region":"Pays de la Loire","departement":"Maine-et-Loire","departementCode":"49","adresse":{"street":"Brigné","postalCode":"49700","city":"Doué-en-Anjou","country":"France"},"contacts":{"email":"","telephone":"0241594843"},"horaires":"Le Mardi : de 15h00 à 17h30\nLe Vendredi : de 09h00 à 12h00","latitude":47.242912,"longitude":-0.383966,"website":"https://www.doue-en-anjou.fr/","hasWebsite":true,"hasHoraires":true,"url":"https://lannuaire.service-public.gouv.fr/pays-de-la-loire/maine-et-loire/a7cdfa19-8f0a-490c-9a21-c98ba817f9e3"}
{"nom":"Briollay","nomNormalise":"briollay","typeCollectivite":"Commune","region":"Pays de la Loire","departement":"Maine-et-Loire","departementCode":"49","adresse":{"street":"Place O'Kelly","postalCode":"49125","city":"Briollay","country":"France"},"contacts":{"email":"mairie@briollay.fr","telephone":"0241425028"},"horaires":"Le Lundi : de 08h30 à 12h30\nDu Mardi au Jeudi : de 14h00 à 17h00\n\nEn période estivale (jusquau 15 août) la mairie sera fermée au public le mardi toute la journée.\nEn période estivale (jusqu'au 15 août) la mairie sera fermée au public le mardi toute la journée. Le vendredi : de 10 h à 12 h 30 de 14 h à 17 h. Service urbanisme : sur rdv du lundi au mercredi, sans rdv le jeudi, fermé le vendredi. Service état-civil : sur rdv du lundi au jeudi, fermé le vendredi.","latitude":47.56395,"longitude":-0.509477,"website":"https://www.briollay.fr/","hasWebsite":true,"hasHoraires":true,"url":"https://lannuaire.service-public.gouv.fr/pays-de-la-loire/maine-et-loire/7559fea4-654c-4b35-9c26-2a7f51aeb385"}
{"nom":"Brissac Loire Aubance","nomNormalise":"brissacloireaubance","typeCollectivite":"Commune","region":"Pays de la Loire","departement":"Maine-et-Loire","departementCode":"49","adresse":{"street":"Brissac-Quincé","postalCode":"49320","city":"Brissac Loire Aubance","country":"France"},"contacts":{"email":"mairie@brissacloireaubance.fr","telephone":"0241917400"},"horaires":"Le Lundi : de 09h00 à 12h00\nDu Mardi au Mercredi : de 09h00 à 12h00 de 14h00 à 17h00\nLe Jeudi : de 09h00 à 12h00\nLe Vendredi : de 09h00 à 12h00 de 14h00 à 17h00\nLe Samedi : de 09h00 à 12h00","latitude":47.356907,"longitude":-0.448961,"website":"https://www.brissacloireaubance.fr/","hasWebsite":true,"hasHoraires":true,"url":"https://lannuaire.service-public.gouv.fr/pays-de-la-loire/maine-et-loire/39fa6ebb-48da-409f-8594-0b0721f06e99"}
{"nom":"Mairie déléguée - Brissarthe","nomNormalise":"mairiedelegueebrissarthe","typeCollectivite":"Commune","region":"Pays de la Loire","departement":"Maine-et-Loire","departementCode":"49","adresse":{"street":"Brissarthe","postalCode":"49330","city":"Les Hauts-d'Anjou","country":"France"},"contacts":{"email":"mairie.brissarthe@leshautsdanjou.fr","telephone":"0241698817"},"horaires":"Le Lundi : de 15h00 à 18h00\nLe Vendredi : de 09h00 à 12h00\n\nAccueil ouvert le 2e samedi du mois uniquement.\nLe Samedi : de 09h00 à 12h00\n\nAccueil ouvert le 2e samedi du mois uniquement.","latitude":47.700104,"longitude":-0.4516724,"website":"https://leshautsdanjou.fr/","hasWebsite":true,"hasHoraires":true,"url":"https://lannuaire.service-public.gouv.fr/pays-de-la-loire/maine-et-loire/c6f78769-7371-4245-be44-7cb44121523a"}
{"nom":"Brossay","nomNormalise":"brossay","typeCollectivite":"Commune","region":"Pays de la Loire","departement":"Maine-et-Loire","departementCode":"49","adresse":{"street":"19 rue de la Mairie","postalCode":"49700","city":"Brossay","country":"France"},"contacts":{"email":"mairie.brossay@wanadoo.fr","telephone":"0241388846"},"horaires":"Le Mardi : de 14h00 à 16h00\nLe Mercredi : de 14h00 à 17h30\nLe Vendredi : de 09h00 à 12h00","latitude":47.164,"longitude":-0.212503,"website":"http://mairie-brossay.fr/fra","hasWebsite":true,"hasHoraires":true,"url":"https://lannuaire.service-public.gouv.fr/pays-de-la-loire/maine-et-loire/0810df72-dce9-4549-8187-7cc0ffa688ea"}
{"nom":"Candé","nomNormalise":"cande","typeCollectivite":"Commune","region":"Pays de la Loire","departement":"Maine-et-Loire","departementCode":"49","adresse":{"street":"4 rue de l'Hôtel-de-Ville","postalCode":"49440","city":"Candé","country":"France"},"contacts":{"email":"mairie@communedecande.fr","telephone":"0241927336"},"horaires":"Le Lundi : de 14h00 à 17h30\nDu Mardi au Vendredi : de 09h00 à 12h00 de 14h00 à 17h30\nLe Samedi : de 09h00 à 12h00\n\nAccueil ouvert uniquement les semaines paires.","latitude":47.5561,"longitude":-1.04361,"website":"http://www.sic-candeen.fr/","hasWebsite":true,"hasHoraires":true,"url":"https://lannuaire.service-public.gouv.fr/pays-de-la-loire/maine-et-loire/46965890-8ad9-454a-bb88-7af60235111e"}
{"nom":"Cantenay-Épinard","nomNormalise":"cantenayepinard","typeCollectivite":"Commune","region":"Pays de la Loire","departement":"Maine-et-Loire","departementCode":"49","adresse":{"street":"24 rue d'Angers","postalCode":"49460","city":"Cantenay-Épinard","country":"France"},"contacts":{"email":"contact@cantenay-epinard.fr","telephone":"0241321326"},"horaires":"Le Lundi : de 09h00 à 12h30 de 14h00 à 17h00\nLe Mardi : de 09h00 à 12h30 de 14h00 à 18h00\nLe Mercredi : de 09h00 à 12h30 de 14h00 à 17h00\nLe Vendredi : de 09h00 à 12h30 de 14h00 à 17h00","latitude":47.532043,"longitude":-0.5686572,"website":"http://www.cantenay-epinard.fr/","hasWebsite":true,"hasHoraires":true,"url":"https://lannuaire.service-public.gouv.fr/pays-de-la-loire/maine-et-loire/dc54c118-eb6a-4bb3-8a5c-e9a43ebad8f1"}
{"nom":"Carbay","nomNormalise":"carbay","typeCollectivite":"Commune","region":"Pays de la Loire","departement":"Maine-et-Loire","departementCode":"49","adresse":{"street":"4 Rue François-Peltier","postalCode":"49420","city":"Carbay","country":"France"},"contacts":{"email":"mairie.carbay@wanadoo.fr","telephone":"0241924027"},"horaires":"Le Mardi : de 09h00 à 12h30\nLe Jeudi : de 09h00 à 12h30 de 13h00 à 17h30\nLe Vendredi : de 09h00 à 12h30\n\nLe premier samedi du mois de 9h à 12h","latitude":47.73199,"longitude":-1.219012,"website":"https://mairiecarbay.fr/","hasWebsite":true,"hasHoraires":true,"url":"https://lannuaire.service-public.gouv.fr/pays-de-la-loire/maine-et-loire/c4889dba-63c4-4f48-9c76-d2cb17d1a303"}
{"nom":"Cernusson","nomNormalise":"cernusson","typeCollectivite":"Commune","region":"Pays de la Loire","departement":"Maine-et-Loire","departementCode":"49","adresse":{"street":"2 rue Victor-et-Aline-Gelineau","postalCode":"49310","city":"Cernusson","country":"France"},"contacts":{"email":"mairie.cernusson@wanadoo.fr","telephone":"0241758137"},"horaires":"Le Mardi : de 14h00 à 18h30\nLe Vendredi : de 14h00 à 18h30","latitude":47.175735,"longitude":-0.4837996,"website":"","hasWebsite":false,"hasHoraires":true,"url":"https://lannuaire.service-public.gouv.fr/pays-de-la-loire/maine-et-loire/4720c1de-5597-434b-a563-154d77e99a26"}
{"nom":"Challain-la-Potherie","nomNormalise":"challainlapotherie","typeCollectivite":"Commune","region":"Pays de la Loire","departement":"Maine-et-Loire","departementCode":"49","adresse":{"street":"Rue de la Fontaine","postalCode":"49440","city":"Challain-la-Potherie","country":"France"},"contacts":{"email":"mairie.challain@wanadoo.fr","telephone":"0241941264"},"horaires":"Le Lundi : de 09h00 à 12h30\nLe Mardi : de 09h00 à 12h30 de 14h00 à 18h00\nLe Mercredi : de 09h00 à 12h30\nLe Jeudi : de 09h00 à 12h30 de 14h00 à 18h00\nLe Vendredi : de 09h00 à 12h30\nPendant les vacances scolaires : du lundi au vendredi de 9h à 12h30 uniquement.","latitude":47.634617,"longitude":-1.04891,"website":"https://www.challainlapotherie.fr/","hasWebsite":true,"hasHoraires":true,"url":"https://lannuaire.service-public.gouv.fr/pays-de-la-loire/maine-et-loire/f08ab3d7-9e1a-4ad6-a8c2-93d9c694959e"}
{"nom":"Chalonnes-sous-le-Lude","nomNormalise":"chalonnessouslelude","typeCollectivite":"Commune","region":"Pays de la Loire","departement":"Maine-et-Loire","departementCode":"49","adresse":{"street":"Chalonnes-sous-le-Lude","postalCode":"49490","city":"Noyant-Villages","country":"France"},"contacts":{"email":"mairie.chalonnessouslelude@noyant-villages.fr","telephone":"0241821149"},"horaires":"Le Mercredi : de 09h00 à 12h00\nLe Jeudi : de 09h00 à 12h00","latitude":47.5596,"longitude":0.172737,"website":"","hasWebsite":false,"hasHoraires":true,"url":"https://lannuaire.service-public.gouv.fr/pays-de-la-loire/maine-et-loire/702998a0-5e24-4893-b6f3-a4cce6fb1571"}
{"nom":"Chalonnes-sur-Loire","nomNormalise":"chalonnessurloire","typeCollectivite":"Commune","region":"Pays de la Loire","departement":"Maine-et-Loire","departementCode":"49","adresse":{"street":"14 ter place de l'Hôtel-de-Ville","postalCode":"49290","city":"Chalonnes-sur-Loire","country":"France"},"contacts":{"email":"mairie@chalonnes-sur-loire.fr","telephone":"0241741081"},"horaires":"Le Lundi : de 09h00 à 12h00 de 13h30 à 17h30\nLe Mardi : de 09h00 à 12h00\nDu Mercredi au Jeudi : de 09h00 à 12h00 de 13h30 à 17h30\nLe Vendredi : de 09h00 à 12h00 de 13h30 à 17h00\nLe Samedi : de 10h00 à 12h00","latitude":47.35153,"longitude":-0.76214,"website":"https://www.chalonnes-sur-loire.fr/","hasWebsite":true,"hasHoraires":true,"url":"https://lannuaire.service-public.gouv.fr/pays-de-la-loire/maine-et-loire/1d1f105d-388c-4fcc-a59a-538839eba6a1"}
{"nom":"Chambellay","nomNormalise":"chambellay","typeCollectivite":"Commune","region":"Pays de la Loire","departement":"Maine-et-Loire","departementCode":"49","adresse":{"street":"23 Grande rue","postalCode":"49220","city":"Chambellay","country":"France"},"contacts":{"email":"mairie@chambellay.fr","telephone":"0241951054"},"horaires":"Le Lundi : de 14h30 à 18h00\nLe Vendredi : de 14h30 à 18h00\nLe Samedi : de 10h00 à 12h00","latitude":47.6895,"longitude":-0.67898,"website":"https://chambellay.fr/","hasWebsite":true,"hasHoraires":true,"url":"https://lannuaire.service-public.gouv.fr/pays-de-la-loire/maine-et-loire/64c1b3c5-5fc5-49a3-90e7-2108f8010164"}
{"nom":"Mairie déléguée - Champigné","nomNormalise":"mairiedelegueechampigne","typeCollectivite":"Commune","region":"Pays de la Loire","departement":"Maine-et-Loire","departementCode":"49","adresse":{"street":"Champigné","postalCode":"49330","city":"Les Hauts-d'Anjou","country":"France"},"contacts":{"email":"mairie.champigne@leshautsdanjou.fr","telephone":"0241420004"},"horaires":"Le Mardi : de 09h00 à 12h30 de 14h00 à 17h00\nDu Mercredi au Jeudi : de 09h00 à 12h00\nLe Vendredi : de 09h00 à 12h00 de 14h00 à 17h00\nLe Samedi : de 09h00 à 12h00\n\nAccueil ouvert un samedi sur deux en juillet-août.","latitude":47.6739,"longitude":-0.56497,"website":"https://leshautsdanjou.fr/","hasWebsite":true,"hasHoraires":true,"url":"https://lannuaire.service-public.gouv.fr/pays-de-la-loire/maine-et-loire/3a9c2ffb-8035-4226-a5ca-3bb698823c3a"}
{"nom":"Champtocé-sur-Loire","nomNormalise":"champtocesurloire","typeCollectivite":"Commune","region":"Pays de la Loire","departement":"Maine-et-Loire","departementCode":"49","adresse":{"street":"3 place de l'Église","postalCode":"49123","city":"Champtocé-sur-Loire","country":"France"},"contacts":{"email":"mairie@champtoce.fr","telephone":"0241399180"},"horaires":"Le Lundi : de 08h45 à 12h30 de 13h30 à 17h30\nDu Mardi au Jeudi : de 08h45 à 12h30\nLe Vendredi : de 08h45 à 12h30 de 13h30 à 18h00\nAccueil fermé les après-midi en juillet-août.","latitude":47.4116,"longitude":-0.86414,"website":"https://www.champtoce.fr/","hasWebsite":true,"hasHoraires":true,"url":"https://lannuaire.service-public.gouv.fr/pays-de-la-loire/maine-et-loire/c0ef26b7-e281-4077-9f80-7dbe9cfa96d4"}
{"nom":"Chanteloup-les-Bois","nomNormalise":"chantelouplesbois","typeCollectivite":"Commune","region":"Pays de la Loire","departement":"Maine-et-Loire","departementCode":"49","adresse":{"street":"1 route de Vezins","postalCode":"49340","city":"Chanteloup-les-Bois","country":"France"},"contacts":{"email":"mairie.chanteloup.les.bois@wanadoo.fr","telephone":"0241644246"},"horaires":"Le Lundi : de 10h00 à 12h00\nDu Mardi au Jeudi : de 09h00 à 12h00\nLe Vendredi : de 09h00 à 12h00 de 14h00 à 16h00","latitude":47.0957,"longitude":-0.688073,"website":"https://www.chantelouplesbois.fr/","hasWebsite":true,"hasHoraires":true,"url":"https://lannuaire.service-public.gouv.fr/pays-de-la-loire/maine-et-loire/7fc54201-c26b-46de-b7f9-2a0c52991f44"}
{"nom":"Mairie déléguée - Chanzeaux","nomNormalise":"mairiedelegueechanzeaux","typeCollectivite":"Commune","region":"Pays de la Loire","departement":"Maine-et-Loire","departementCode":"49","adresse":{"street":"Chanzeaux","postalCode":"49750","city":"Chemillé-en-Anjou","country":"France"},"contacts":{"email":"mairie.chanzeaux@chemille-en-anjou.fr","telephone":"0241783216"},"horaires":"Du Lundi au Jeudi : de 14h00 à 17h00\nLe Vendredi : de 09h00 à 12h00 de 14h00 à 18h00\n\nPendant les vacances scolaires ouvert l'après-midi de 14h à 17h","latitude":47.264313,"longitude":-0.644773,"website":"https://www.chemille-en-anjou.fr/","hasWebsite":true,"hasHoraires":true,"url":"https://lannuaire.service-public.gouv.fr/pays-de-la-loire/maine-et-loire/cbe1783f-ceca-4af3-8eb6-0c0ad6eafc5b"}
{"nom":"Mairie déléguée - Châtelais","nomNormalise":"mairiedelegueechatelais","typeCollectivite":"Commune","region":"Pays de la Loire","departement":"Maine-et-Loire","departementCode":"49","adresse":{"street":"Châtelais","postalCode":"49520","city":"Segré-en-Anjou Bleu","country":"France"},"contacts":{"email":"chatelais@segreenanjoubleu.fr","telephone":"0241616868"},"horaires":"Le Lundi : de 08h45 à 12h30\nLe Mardi : de 08h45 à 12h30 de 14h00 à 17h30\nDu Mercredi au Vendredi : de 08h45 à 12h30\nLe Samedi : de 08h45 à 12h30\n\nAccueil ouvert les 1er et 3e samedis du mois.\nAccueil fermé les 2e et 4e lundis du mois.","latitude":47.7588,"longitude":-0.9276772,"website":"https://www.segreenanjoubleu.fr/","hasWebsite":true,"hasHoraires":true,"url":"https://lannuaire.service-public.gouv.fr/pays-de-la-loire/maine-et-loire/830510d1-d58b-45a1-b150-d686574de1e1"}
{"nom":"Chaudefonds-sur-Layon","nomNormalise":"chaudefondssurlayon","typeCollectivite":"Commune","region":"Pays de la Loire","departement":"Maine-et-Loire","departementCode":"49","adresse":{"street":"Place du Centre","postalCode":"49290","city":"Chaudefonds-sur-Layon","country":"France"},"contacts":{"email":"mairie@chaudefonds-sur-layon.fr","telephone":"0241780410"},"horaires":"Du Lundi au Mardi : de 09h00 à 12h00\nDu Jeudi au Samedi : de 09h00 à 12h00\n\nAccueil ouvert uniquement les semaines paires le samedi et fermé en juillet-août.","latitude":47.3252,"longitude":-0.706846,"website":"http://www.chaudefonds-sur-layon.fr/","hasWebsite":true,"hasHoraires":true,"url":"https://lannuaire.service-public.gouv.fr/pays-de-la-loire/maine-et-loire/451dc3f6-0490-4040-9dc3-953d81dda091"}
{"nom":"Mairie déléguée - Chavaignes","nomNormalise":"mairiedelegueechavaignes","typeCollectivite":"Commune","region":"Pays de la Loire","departement":"Maine-et-Loire","departementCode":"49","adresse":{"street":"Chavaignes","postalCode":"49490","city":"Noyant-Villages","country":"France"},"contacts":{"email":"mairie.chavaignes@noyant-villages.fr","telephone":"0241822030"},"horaires":"Le Mardi : de 08h00 à 11h00\nLe Vendredi : de 08h00 à 11h00","latitude":47.542187,"longitude":0.0371407,"website":"https://www.noyant-villages.fr/","hasWebsite":true,"hasHoraires":true,"url":"https://lannuaire.service-public.gouv.fr/pays-de-la-loire/maine-et-loire/66aa49dd-3dd8-49e1-beab-350ba4b1776b"}
{"nom":"Mairie déléguée - Chazé-Henry","nomNormalise":"mairiedelegueechazehenry","typeCollectivite":"Commune","region":"Pays de la Loire","departement":"Maine-et-Loire","departementCode":"49","adresse":{"street":"Chazé-Henry","postalCode":"49420","city":"Ombrée d'Anjou","country":"France"},"contacts":{"email":"info.chazehenry@ombreedanjou.fr","telephone":"0241924169"},"horaires":"Le Lundi : de 13h30 à 17h30\nLe Mardi : de 09h00 à 12h30\nLe Mercredi : de 09h00 à 12h30 de 14h00 à 17h30\nLe Jeudi : de 13h30 à 17h30\nLe Vendredi : de 13h30 à 17h00\nLe Samedi : de 09h00 à 12h00\n\nAccueil ouvert uniquement le 4e samedi du mois.","latitude":47.7537,"longitude":-1.11149,"website":"https://www.ombreedanjou.fr/","hasWebsite":true,"hasHoraires":true,"url":"https://lannuaire.service-public.gouv.fr/pays-de-la-loire/maine-et-loire/b8f196a5-5e85-4dd9-b831-eda4c261d005"}
{"nom":"Chazé-sur-Argos","nomNormalise":"chazesurargos","typeCollectivite":"Commune","region":"Pays de la Loire","departement":"Maine-et-Loire","departementCode":"49","adresse":{"street":"7 place Saint-Julien","postalCode":"49500","city":"Chazé-sur-Argos","country":"France"},"contacts":{"email":"mairie.chazesurargos@wanadoo.fr","telephone":"0241614182"},"horaires":"Du Lundi au Vendredi : de 08h00 à 12h30\nLe Samedi : de 09h00 à 11h30\n\nAccueil ouvert les 1er, 3e et 5e samedis du mois.","latitude":47.6172,"longitude":-0.892835,"website":"http://www.sic-candeen.fr/","hasWebsite":true,"hasHoraires":true,"url":"https://lannuaire.service-public.gouv.fr/pays-de-la-loire/maine-et-loire/ff4ac553-63b3-4095-a1cd-ec010cc6351c"}
{"nom":"Cheffes","nomNormalise":"cheffes","typeCollectivite":"Commune","region":"Pays de la Loire","departement":"Maine-et-Loire","departementCode":"49","adresse":{"street":"3 Square René-Goujon","postalCode":"49125","city":"Cheffes","country":"France"},"contacts":{"email":"mairie@cheffes.fr","telephone":"0241426141"},"horaires":"Du Lundi au Mercredi : de 09h00 à 12h30\nLe Vendredi : de 09h00 à 12h30\nLe Samedi : de 09h00 à 12h00\n\nAccueil ouvert uniquement les 1er et 3e samedi du mois, fermé du 15 juillet au 20 août.","latitude":47.62131,"longitude":-0.507197,"website":"http://www.cheffes.fr/","hasWebsite":true,"hasHoraires":true,"url":"https://lannuaire.service-public.gouv.fr/pays-de-la-loire/maine-et-loire/e5735ff8-0e96-433b-91b1-427fcfe3fcb7"}
{"nom":"Chemillé-en-Anjou","nomNormalise":"chemilleenanjou","typeCollectivite":"Commune","region":"Pays de la Loire","departement":"Maine-et-Loire","departementCode":"49","adresse":{"street":"Chemillé","postalCode":"49120","city":"Chemillé-en-Anjou","country":"France"},"contacts":{"email":"accueil.mairie@chemille-en-anjou.fr","telephone":"0241304242"},"horaires":"Du Lundi au Vendredi : de 09h00 à 12h00 de 13h30 à 17h30\nLe Samedi : de 09h00 à 12h00\n\nAccueil fermé en juillet-août.","latitude":47.21506,"longitude":-0.732835,"website":"http://www.chemille-en-anjou.fr/","hasWebsite":true,"hasHoraires":true,"url":"https://lannuaire.service-public.gouv.fr/pays-de-la-loire/maine-et-loire/eecbc7dc-2261-4d65-a11c-22c0af5aa3df"}
{"nom":"Chenillé-Champteussé","nomNormalise":"chenillechampteusse","typeCollectivite":"Commune","region":"Pays de la Loire","departement":"Maine-et-Loire","departementCode":"49","adresse":{"street":"Champteussé-sur-Baconne","postalCode":"49220","city":"Chenillé-Champteussé","country":"France"},"contacts":{"email":"mairie@chenille-champteusse.fr","telephone":"0241951320"},"horaires":"Le Mardi : de 09h00 à 12h00\nLe Jeudi : de 09h00 à 12h00 de 14h00 à 18h00\nLe Samedi : de 09h00 à 11h00\n\nAccueil ouvert uniquement le 1er samedi du mois.","latitude":47.66702,"longitude":-0.6562301,"website":"https://www.chenille-champteusse.fr/","hasWebsite":true,"hasHoraires":true,"url":"https://lannuaire.service-public.gouv.fr/pays-de-la-loire/maine-et-loire/a2151ab2-bf74-46fe-b56b-91187cb8baad"}
{"nom":"Mairie déléguée - Cherré","nomNormalise":"mairiedelegueecherre","typeCollectivite":"Commune","region":"Pays de la Loire","departement":"Maine-et-Loire","departementCode":"49","adresse":{"street":"Cherré","postalCode":"49330","city":"Les Hauts-d'Anjou","country":"France"},"contacts":{"email":"mairie.cherre@leshautsdanjou.fr","telephone":"0241931190"},"horaires":"Le Mardi : de 14h00 à 17h00\nLe Jeudi : de 14h00 à 17h00\nLe Samedi : de 09h00 à 12h00\n\nAccueil ouvert le 2e samedi du mois à partir de septembre 2021.","latitude":47.710335,"longitude":-0.562105,"website":"https://leshautsdanjou.fr/","hasWebsite":true,"hasHoraires":true,"url":"https://lannuaire.service-public.gouv.fr/pays-de-la-loire/maine-et-loire/740979eb-d1e6-4c71-b886-c6f94dfe3f2f"}
{"nom":"Mairie déléguée - Chigné","nomNormalise":"mairiedelegueechigne","typeCollectivite":"Commune","region":"Pays de la Loire","departement":"Maine-et-Loire","departementCode":"49","adresse":{"street":"Chigné","postalCode":"49490","city":"Noyant-Villages","country":"France"},"contacts":{"email":"mairie.chigne@noyant-villages.fr","telephone":"0241821111"},"horaires":"Le Lundi : de 08h30 à 12h30\nLe Jeudi : de 13h30 à 17h30","latitude":47.58352,"longitude":0.08556004,"website":"http://noyant-villages.fr/","hasWebsite":true,"hasHoraires":true,"url":"https://lannuaire.service-public.gouv.fr/pays-de-la-loire/maine-et-loire/a26e0b73-6028-4c6d-853c-ad6002515933"}
{"nom":"Cholet","nomNormalise":"cholet","typeCollectivite":"Commune","region":"Pays de la Loire","departement":"Maine-et-Loire","departementCode":"49","adresse":{"street":"Place Jean-Moulin","postalCode":"49321","city":"Cholet Cedex","country":"France"},"contacts":{"email":"contact@choletagglomeration.fr","telephone":"0244092500"},"horaires":"Du Lundi au Vendredi : de 08h30 à 12h15 de 13h30 à 17h30\nLe Samedi : de 09h00 à 12h00\n\nUniquement pour l'état civil","latitude":46.99519,"longitude":-0.894493,"website":"https://www.cholet.fr/welcome/","hasWebsite":true,"hasHoraires":true,"url":"https://lannuaire.service-public.gouv.fr/pays-de-la-loire/maine-et-loire/1cf05cd5-ace1-4a04-9d1e-1c977780aec7"}
{"nom":"Cizay-la-Madeleine","nomNormalise":"cizaylamadeleine","typeCollectivite":"Commune","region":"Pays de la Loire","departement":"Maine-et-Loire","departementCode":"49","adresse":{"street":"1 place de l'Église","postalCode":"49700","city":"Cizay-la-Madeleine","country":"France"},"contacts":{"email":"mairie@cizay-la-madeleine.fr","telephone":"0241670492"},"horaires":"Le Mardi : de 09h00 à 12h00\nDu Jeudi au Vendredi : de 09h00 à 12h00","latitude":47.188255,"longitude":-0.187148,"website":"https://cizay-la-madeleine.fr/","hasWebsite":true,"hasHoraires":true,"url":"https://lannuaire.service-public.gouv.fr/pays-de-la-loire/maine-et-loire/01210d76-0cc3-4ab2-9179-b6845e60d968"}
{"nom":"Cléré-sur-Layon","nomNormalise":"cleresurlayon","typeCollectivite":"Commune","region":"Pays de la Loire","departement":"Maine-et-Loire","departementCode":"49","adresse":{"street":"29 rue du Layon","postalCode":"49560","city":"Cléré-sur-Layon","country":"France"},"contacts":{"email":"mairiedecleresurlayon@wanadoo.fr","telephone":"0241595314"},"horaires":"Le Lundi : de 08h30 à 12h00 de 14h00 à 17h00\nLe Mardi : de 08h30 à 12h00\nDu Mercredi au Jeudi : de 08h30 à 12h00 de 14h00 à 17h00","latitude":47.09175,"longitude":-0.421342,"website":"","hasWebsite":false,"hasHoraires":true,"url":"https://lannuaire.service-public.gouv.fr/pays-de-la-loire/maine-et-loire/339c4506-56cf-4469-aa76-1ee88b009a9b"}
{"nom":"Mairie déléguée - Combrée","nomNormalise":"mairiedelegueecombree","typeCollectivite":"Commune","region":"Pays de la Loire","departement":"Maine-et-Loire","departementCode":"49","adresse":{"street":"Combrée","postalCode":"49520","city":"Ombrée d'Anjou","country":"France"},"contacts":{"email":"info.combree@ombreedanjou.fr","telephone":"0241942254"},"horaires":"Le Lundi : de 13h30 à 17h30\nDu Mardi au Jeudi : de 09h00 à 12h30 de 13h30 à 17h30\nLe Vendredi : de 09h00 à 12h30 de 13h30 à 17h00\nLe Samedi : de 09h00 à 12h00","latitude":47.7035,"longitude":-1.02978,"website":"https://www.ombreedanjou.fr/","hasWebsite":true,"hasHoraires":true,"url":"https://lannuaire.service-public.gouv.fr/pays-de-la-loire/maine-et-loire/c210fb5d-3ff7-42de-8fe2-5eff74ead535"}
{"nom":"Mairie déléguée - Concourson-sur-Layon","nomNormalise":"mairiedelegueeconcoursonsurlayon","typeCollectivite":"Commune","region":"Pays de la Loire","departement":"Maine-et-Loire","departementCode":"49","adresse":{"street":"Concourson-sur-Layon","postalCode":"49700","city":"Doué-en-Anjou","country":"France"},"contacts":{"email":"mairie.concourson@doue-en-anjou.fr","telephone":"0241591159"},"horaires":"Le Lundi : de 14h00 à 18h00\nLe Jeudi : de 09h00 à 12h30","latitude":47.175,"longitude":-0.337436,"website":"https://www.doue-en-anjou.fr/","hasWebsite":true,"hasHoraires":true,"url":"https://lannuaire.service-public.gouv.fr/pays-de-la-loire/maine-et-loire/c5f72924-9744-4db5-b536-5a8f71dbfe44"}
{"nom":"Mairie déléguée - Contigné","nomNormalise":"mairiedelegueecontigne","typeCollectivite":"Commune","region":"Pays de la Loire","departement":"Maine-et-Loire","departementCode":"49","adresse":{"street":"Contigné","postalCode":"49330","city":"Les Hauts-d'Anjou","country":"France"},"contacts":{"email":"mairie.contigne@leshautsdanjou.fr","telephone":"0241185995"},"horaires":"Du Lundi au Mardi : de 09h00 à 12h00\nLe Vendredi : de 14h00 à 17h00\nLe Samedi : de 09h00 à 12h15\n\nAccueil ouvert uniquement le 1er samedi du mois.","latitude":47.72894,"longitude":-0.518399,"website":"http://leshautsdanjou.fr/","hasWebsite":true,"hasHoraires":true,"url":"https://lannuaire.service-public.gouv.fr/pays-de-la-loire/maine-et-loire/18028370-b4b1-4c07-9ca8-73cee4c79346"}
{"nom":"Mairie déléguée - Corné","nomNormalise":"mairiedelegueecorne","typeCollectivite":"Commune","region":"Pays de la Loire","departement":"Maine-et-Loire","departementCode":"49","adresse":{"street":"Corné","postalCode":"49630","city":"Loire-Authion","country":"France"},"contacts":{"email":"contact@loire-authion.fr","telephone":"0252211000"},"horaires":"","latitude":47.470924,"longitude":-0.349884,"website":"https://www.loire-authion.fr/","hasWebsite":true,"hasHoraires":false,"url":"https://lannuaire.service-public.gouv.fr/pays-de-la-loire/maine-et-loire/1c304d90-d4fd-4272-a34a-324d2de60c9d"}
{"nom":"Cornillé-les-Caves","nomNormalise":"cornillelescaves","typeCollectivite":"Commune","region":"Pays de la Loire","departement":"Maine-et-Loire","departementCode":"49","adresse":{"street":"Cour de la Liberté","postalCode":"49140","city":"Cornillé-les-Caves","country":"France"},"contacts":{"email":"mairie-cornillelescaves@wanadoo.fr","telephone":"0241451077"},"horaires":"Le Mardi : de 09h00 à 12h00\nLe Jeudi : de 09h00 à 12h00","latitude":47.499466,"longitude":-0.3036521,"website":"http://www.cornillelescaves.fr/","hasWebsite":true,"hasHoraires":true,"url":"https://lannuaire.service-public.gouv.fr/pays-de-la-loire/maine-et-loire/01bb3852-1268-4412-8bfb-de207ff29e6c"}
{"nom":"Coron","nomNormalise":"coron","typeCollectivite":"Commune","region":"Pays de la Loire","departement":"Maine-et-Loire","departementCode":"49","adresse":{"street":"2 rue David-d'Angers","postalCode":"49690","city":"Coron","country":"France"},"contacts":{"email":"accueil@mairie-coron.fr","telephone":"0241558189"},"horaires":"Du Lundi au Mardi : de 09h00 à 12h30 de 14h00 à 16h00\nLe Mercredi : de 09h00 à 12h30\nLe Jeudi : de 09h00 à 12h30 de 14h00 à 16h00\nLe Vendredi : de 09h00 à 12h30\nLe Samedi : de 09h00 à 12h00","latitude":47.128254,"longitude":-0.6463126,"website":"http://www.mairie-coron.fr/","hasWebsite":true,"hasHoraires":true,"url":"https://lannuaire.service-public.gouv.fr/pays-de-la-loire/maine-et-loire/c5363c10-b809-418f-818f-cba24ec784f0"}
{"nom":"Corzé","nomNormalise":"corze","typeCollectivite":"Commune","region":"Pays de la Loire","departement":"Maine-et-Loire","departementCode":"49","adresse":{"street":"4 rue du Commerce","postalCode":"49140","city":"Corzé","country":"France"},"contacts":{"email":"mairie@corze.fr","telephone":"0241185630"},"horaires":"Du Lundi au Vendredi : de 09h00 à 12h00 de 14h00 à 17h00\nLe Samedi : de 09h00 à 12h00\nL'après-midi sur rendez-vous uniquement.","latitude":47.5598,"longitude":-0.391804,"website":"https://corze.fr/","hasWebsite":true,"hasHoraires":true,"url":"https://lannuaire.service-public.gouv.fr/pays-de-la-loire/maine-et-loire/89c09204-70e7-4d48-b868-c99b6a393a7b"}
{"nom":"Mairie déléguée - Cossé-d'Anjou","nomNormalise":"mairiedelegueecossedanjou","typeCollectivite":"Commune","region":"Pays de la Loire","departement":"Maine-et-Loire","departementCode":"49","adresse":{"street":"Cossé-d'Anjou","postalCode":"49120","city":"Chemillé-en-Anjou","country":"France"},"contacts":{"email":"mairie.cosse-anjou@chemille-en-anjou.fr","telephone":"0241307479"},"horaires":"Le Lundi : de 14h00 à 17h30\nLe Mercredi : de 09h00 à 12h00\nLe Jeudi : de 14h00 à 17h30\nLe Vendredi : de 14h00 à 18h00","latitude":47.163624,"longitude":-0.6794,"website":"https://www.chemille-en-anjou.fr/listes/cosse-danjou/","hasWebsite":true,"hasHoraires":true,"url":"https://lannuaire.service-public.gouv.fr/pays-de-la-loire/maine-et-loire/a9bd65b2-3f94-4000-b5fe-5f874f6f2af1"}
{"nom":"Courchamps","nomNormalise":"courchamps","typeCollectivite":"Commune","region":"Pays de la Loire","departement":"Maine-et-Loire","departementCode":"49","adresse":{"street":"Place de la Mairie","postalCode":"49260","city":"Courchamps","country":"France"},"contacts":{"email":"mairie.courchamps@wanadoo.fr","telephone":"0241670218"},"horaires":"Le Lundi : de 09h15 à 11h45\nLe Mercredi : de 14h00 à 17h30\nLe Vendredi : de 14h00 à 17h30","latitude":47.2011,"longitude":-0.16675,"website":"https://courchamps.fr/","hasWebsite":true,"hasHoraires":true,"url":"https://lannuaire.service-public.gouv.fr/pays-de-la-loire/maine-et-loire/bb0f0244-bade-42c7-adca-db392be818de"}
{"nom":"Courléon","nomNormalise":"courleon","typeCollectivite":"Commune","region":"Pays de la Loire","departement":"Maine-et-Loire","departementCode":"49","adresse":{"street":"1 place Saint-Jacques","postalCode":"49390","city":"Courléon","country":"France"},"contacts":{"email":"mairie@courleon.fr","telephone":"0241598040"},"horaires":"Du Lundi au Mardi : de 09h00 à 12h00\nLe Mercredi : de 14h00 à 17h00\nLe Jeudi : de 13h30 à 17h00","latitude":47.3898,"longitude":0.142623,"website":"","hasWebsite":false,"hasHoraires":true,"url":"https://lannuaire.service-public.gouv.fr/pays-de-la-loire/maine-et-loire/223b5cd9-21bf-4e9a-85ac-ffc1bde7134e"}
{"nom":"Mairie déléguée - Daumeray","nomNormalise":"mairiedelegueedaumeray","typeCollectivite":"Commune","region":"Pays de la Loire","departement":"Maine-et-Loire","departementCode":"49","adresse":{"street":"Daumeray","postalCode":"49640","city":"Morannes sur Sarthe-Daumeray","country":"France"},"contacts":{"email":"accueil.daumeray@ville-msd.fr","telephone":"0241330372"},"horaires":"Le Mardi : de 14h00 à 17h00\nLe Mercredi : de 09h00 à 12h00\nDu Jeudi au Vendredi : de 14h00 à 17h00\nLe Samedi : de 09h00 à 12h00\n\nFermé pendant les vacances scolaires.","latitude":47.702076,"longitude":-0.362626,"website":"https://morannessursarthe-daumeray.fr/","hasWebsite":true,"hasHoraires":true,"url":"https://lannuaire.service-public.gouv.fr/pays-de-la-loire/maine-et-loire/2298770b-5035-47eb-9baf-15cd036df7ec"}
{"nom":"Denée","nomNormalise":"denee","typeCollectivite":"Commune","region":"Pays de la Loire","departement":"Maine-et-Loire","departementCode":"49","adresse":{"street":"3 rue du 8-Mai-1945","postalCode":"49190","city":"Denée","country":"France"},"contacts":{"email":"contact@mairie-denee.fr","telephone":"0241787218"},"horaires":"Du Lundi au Mercredi : de 09h00 à 12h00\nLe Vendredi : de 09h00 à 12h00 de 14h00 à 18h00","latitude":47.378304,"longitude":-0.607898,"website":"https://mairie-denee.fr/","hasWebsite":true,"hasHoraires":true,"url":"https://lannuaire.service-public.gouv.fr/pays-de-la-loire/maine-et-loire/832a204e-37b9-40a2-a3d4-4eb75a1f69e3"}
{"nom":"Dénezé-sous-Doué","nomNormalise":"denezesousdoue","typeCollectivite":"Commune","region":"Pays de la Loire","departement":"Maine-et-Loire","departementCode":"49","adresse":{"street":"1 rue Principale","postalCode":"49700","city":"Dénezé-sous-Doué","country":"France"},"contacts":{"email":"mairie.deneze-sous-doue@wanadoo.fr","telephone":"0241592162"},"horaires":"Du Lundi au Vendredi : de 09h00 à 13h00 de 13h30 à 16h30","latitude":47.245827,"longitude":-0.275751,"website":"http://deneze-sous-doue.sitew.com/","hasWebsite":true,"hasHoraires":true,"url":"https://lannuaire.service-public.gouv.fr/pays-de-la-loire/maine-et-loire/b5d07c6d-e390-4d12-bd47-99c5b1281801"}
{"nom":"Dénezé-sous-le-Lude","nomNormalise":"denezesouslelude","typeCollectivite":"Commune","region":"Pays de la Loire","departement":"Maine-et-Loire","departementCode":"49","adresse":{"street":"Dénezé-sous-le-Lude","postalCode":"49490","city":"Noyant-Villages","country":"France"},"contacts":{"email":"mairie.denezesouslelude@noyant-villages.fr","telephone":"0241895097"},"horaires":"Le Lundi : de 14h00 à 18h00\nLe Vendredi : de 08h30 à 12h30","latitude":47.5295,"longitude":0.133282,"website":"https://www.noyant-villages.fr/ma-mairie/les-communes-deleguees/deneze-sous-le-lude/","hasWebsite":true,"hasHoraires":true,"url":"https://lannuaire.service-public.gouv.fr/pays-de-la-loire/maine-et-loire/a2d717ff-a6b4-4eb5-acb8-71f2b14623ea"}
{"nom":"Distré","nomNormalise":"distre","typeCollectivite":"Commune","region":"Pays de la Loire","departement":"Maine-et-Loire","departementCode":"49","adresse":{"street":"12 rue de l'Église","postalCode":"49400","city":"Distré","country":"France"},"contacts":{"email":"mairie-sg.distre@orange.fr","telephone":"0241502850"},"horaires":"Du Lundi au Vendredi : de 08h30 à 12h15\nLe Samedi : de 09h00 à 12h15\n\nAccueil fermé les 2e et 4e samedis du mois.","latitude":47.223,"longitude":-0.113897,"website":"https://www.mairie-distre.fr/","hasWebsite":true,"hasHoraires":true,"url":"https://lannuaire.service-public.gouv.fr/pays-de-la-loire/maine-et-loire/cb9cd0c0-19f1-4e70-b739-7425825c9b09"}
{"nom":"Doué-en-Anjou","nomNormalise":"doueenanjou","typeCollectivite":"Commune","region":"Pays de la Loire","departement":"Maine-et-Loire","departementCode":"49","adresse":{"street":"Doué-la-Fontaine","postalCode":"49700","city":"Doué-en-Anjou","country":"France"},"contacts":{"email":"mairie@doue-en-anjou.fr","telephone":"0241831183"},"horaires":"Du Lundi au Jeudi : de 09h00 à 12h30 de 14h00 à 17h30\nLe Vendredi : de 09h00 à 12h30 de 14h00 à 17h00\nLe Samedi : de 09h00 à 12h00\n\nAccueil fermé en juillet-août.","latitude":47.19374,"longitude":-0.2755683,"website":"https://www.doue-en-anjou.fr/","hasWebsite":true,"hasHoraires":true,"url":"https://lannuaire.service-public.gouv.fr/pays-de-la-loire/maine-et-loire/4400ee13-cc75-4e79-bcda-204b20e647b8"}
{"nom":"Durtal","nomNormalise":"durtal","typeCollectivite":"Commune","region":"Pays de la Loire","departement":"Maine-et-Loire","departementCode":"49","adresse":{"street":"3 rue de la Mairie","postalCode":"49430","city":"Durtal","country":"France"},"contacts":{"email":"mairie@ville-durtal.fr","telephone":"0241763024"},"horaires":"Du Lundi au Mercredi : de 08h30 à 12h00 de 13h15 à 17h15\nLe Jeudi : de 08h30 à 12h00\nLe Vendredi : de 08h30 à 12h00 de 13h15 à 17h15","latitude":47.6711,"longitude":-0.243704,"website":"https://www.ville-durtal.fr/","hasWebsite":true,"hasHoraires":true,"url":"https://lannuaire.service-public.gouv.fr/pays-de-la-loire/maine-et-loire/ecce10c4-209d-415e-86b2-bd050bb06764"}
{"nom":"Écouflant","nomNormalise":"ecouflant","typeCollectivite":"Commune","region":"Pays de la Loire","departement":"Maine-et-Loire","departementCode":"49","adresse":{"street":"Place de la Mairie","postalCode":"49000","city":"Écouflant","country":"France"},"contacts":{"email":"mairie@ecouflant.fr","telephone":"0241411000"},"horaires":"Le Lundi : de 09h00 à 12h00 de 14h00 à 17h00\nLe Mardi : de 09h00 à 12h00 de 15h00 à 19h00\nLe Mercredi : de 09h00 à 12h00\nDu Jeudi au Vendredi : de 09h00 à 12h00 de 14h00 à 17h00\nLe Samedi : de 09h00 à 12h00","latitude":47.5283,"longitude":-0.529625,"website":"http://www.ecouflant.fr/","hasWebsite":true,"hasHoraires":true,"url":"https://lannuaire.service-public.gouv.fr/pays-de-la-loire/maine-et-loire/49169dfe-377a-410a-bdba-1f3d6724b5c8"}
{"nom":"Écuillé","nomNormalise":"ecuille","typeCollectivite":"Commune","region":"Pays de la Loire","departement":"Maine-et-Loire","departementCode":"49","adresse":{"street":"2 rue de la Mairie","postalCode":"49460","city":"Écuillé","country":"France"},"contacts":{"email":"contact@ecuille.fr","telephone":"0241933232"},"horaires":"Du Lundi au Mardi : de 08h30 à 12h30\nDu Jeudi au Vendredi : de 08h30 à 12h30\nLe Samedi : de 08h30 à 12h00\n\nLe Samedi (semaine impaire) sauf pendant vacances scolaires : de 08h30 à 12h00\npendant les travaux , accueil à la maison de l'enfance : 14 allée du Verger 49460 Écuillé","latitude":47.615486,"longitude":-0.561629,"website":"https://ecuille.fr/","hasWebsite":true,"hasHoraires":true,"url":"https://lannuaire.service-public.gouv.fr/pays-de-la-loire/maine-et-loire/a7d0fd07-f6e5-4c52-a8ca-1bc3fa90902e"}
{"nom":"Épieds","nomNormalise":"epieds","typeCollectivite":"Commune","region":"Pays de la Loire","departement":"Maine-et-Loire","departementCode":"49","adresse":{"street":"2 rue de la Touche","postalCode":"49260","city":"Épieds","country":"France"},"contacts":{"email":"mairie-epieds@orange.fr","telephone":"0241509500"},"horaires":"Le Lundi : de 09h00 à 12h30 de 14h00 à 17h00\nLe Mercredi : de 09h00 à 12h30\nDu Jeudi au Vendredi : de 09h00 à 12h30 de 14h00 à 17h00","latitude":47.144394,"longitude":-0.0463034,"website":"","hasWebsite":false,"hasHoraires":true,"url":"https://lannuaire.service-public.gouv.fr/pays-de-la-loire/maine-et-loire/130db049-01f3-4928-8b36-ab02319b61a6"}
{"nom":"Erdre-en-Anjou","nomNormalise":"erdreenanjou","typeCollectivite":"Commune","region":"Pays de la Loire","departement":"Maine-et-Loire","departementCode":"49","adresse":{"street":"1 rue de l'Étang","postalCode":"49220","city":"Erdre-en-Anjou","country":"France"},"contacts":{"email":"commune@erdre-en-anjou.fr","telephone":"0241614102"},"horaires":"Le Lundi : de 09h00 à 12h00 de 14h00 à 18h00\nLe Mardi : de 09h00 à 12h00 de 15h30 à 18h00\nLe Mercredi : de 09h00 à 12h00\nLe Jeudi : de 09h00 à 12h00 de 14h00 à 18h00\nDu Vendredi au Samedi : de 09h00 à 12h00","latitude":47.60091,"longitude":-0.8357474,"website":"https://www.erdre-en-anjou.fr/","hasWebsite":true,"hasHoraires":true,"url":"https://lannuaire.service-public.gouv.fr/pays-de-la-loire/maine-et-loire/276a209d-81e1-4c5d-a518-4ecbfe27a52e"}
{"nom":"Étriché","nomNormalise":"etriche","typeCollectivite":"Commune","region":"Pays de la Loire","departement":"Maine-et-Loire","departementCode":"49","adresse":{"street":"1 square de la Mairie","postalCode":"49330","city":"Étriché","country":"France"},"contacts":{"email":"accueil.mairie@etriche49.fr","telephone":"0241426001"},"horaires":"Le Mardi : de 08h30 à 12h00 de 16h00 à 17h30\nLe Mercredi : de 08h30 à 12h00\nLe Vendredi : de 08h30 à 12h00 de 16h00 à 17h30\nLe Samedi : de 09h00 à 12h00","latitude":47.65,"longitude":-0.443321,"website":"https://etriche49.fr/","hasWebsite":true,"hasHoraires":true,"url":"https://lannuaire.service-public.gouv.fr/pays-de-la-loire/maine-et-loire/67e8aa7f-ab20-4598-b190-ce34343b7af5"}
{"nom":"Feneu","nomNormalise":"feneu","typeCollectivite":"Commune","region":"Pays de la Loire","departement":"Maine-et-Loire","departementCode":"49","adresse":{"street":"Place de la Mairie","postalCode":"49460","city":"Feneu","country":"France"},"contacts":{"email":"accueil.mairie@feneu.fr","telephone":"0241272730"},"horaires":"Le Lundi : de 09h00 à 12h00\nLe Mardi : de 09h00 à 12h00 de 14h00 à 17h00\nLe Mercredi : de 09h00 à 12h00\nDu Jeudi au Vendredi : de 09h00 à 12h00 de 14h00 à 17h00\nLe Samedi : de 09h00 à 12h00","latitude":47.5789,"longitude":-0.550075,"website":"http://www.feneu.fr/","hasWebsite":true,"hasHoraires":true,"url":"https://lannuaire.service-public.gouv.fr/pays-de-la-loire/maine-et-loire/85cbc4d5-6408-421e-a98a-17387a8e8ca5"}
{"nom":"Mairie déléguée - Fontaine-Milon","nomNormalise":"mairiedelegueefontainemilon","typeCollectivite":"Commune","region":"Pays de la Loire","departement":"Maine-et-Loire","departementCode":"49","adresse":{"street":"Fontaine-Milon","postalCode":"49140","city":"Mazé-Milon","country":"France"},"contacts":{"email":"info@maze-milon.fr","telephone":"0241806019"},"horaires":"Le Mardi : de 14h00 à 17h00\nLe Jeudi : de 09h00 à 12h00","latitude":47.501984,"longitude":-0.246702,"website":"https://www.maze-milon.fr/","hasWebsite":true,"hasHoraires":true,"url":"https://lannuaire.service-public.gouv.fr/pays-de-la-loire/maine-et-loire/90cced58-eff7-475f-b5d8-2d389a1556c5"}
{"nom":"Fontevraud-l'Abbaye","nomNormalise":"fontevraudlabbaye","typeCollectivite":"Commune","region":"Pays de la Loire","departement":"Maine-et-Loire","departementCode":"49","adresse":{"street":"1 place des Plantagenêts","postalCode":"49590","city":"Fontevraud-l'Abbaye","country":"France"},"contacts":{"email":"mairie@fontevraud-abbaye.fr","telephone":"0241517121"},"horaires":"Du Lundi au Mardi : de 08h30 à 12h00\nLe Mercredi : de 08h30 à 12h00 de 15h00 à 17h00\nDu Jeudi au Vendredi : de 08h30 à 12h00","latitude":47.182,"longitude":0.05023,"website":"http://www.fontevraud-abbaye.fr/","hasWebsite":true,"hasHoraires":true,"url":"https://lannuaire.service-public.gouv.fr/pays-de-la-loire/maine-et-loire/0d3665aa-8ab9-4edc-9c0a-b45a59265c11"}
{"nom":"Mairie déléguée - Forges","nomNormalise":"mairiedelegueeforges","typeCollectivite":"Commune","region":"Pays de la Loire","departement":"Maine-et-Loire","departementCode":"49","adresse":{"street":"Forges","postalCode":"49700","city":"Doué-en-Anjou","country":"France"},"contacts":{"email":"mairie@doue-en-anjou.fr","telephone":"0241597207"},"horaires":"Le Mardi : de 09h00 à 12h30\nLe Mercredi : de 14h00 à 17h00\nLe Vendredi : de 14h00 à 17h00","latitude":47.21709,"longitude":-0.24547577,"website":"https://www.forges49.fr/","hasWebsite":true,"hasHoraires":true,"url":"https://lannuaire.service-public.gouv.fr/pays-de-la-loire/maine-et-loire/3e40b25c-6188-4821-b095-458ade84e6be"}
{"nom":"Mairie déléguée - Gennes","nomNormalise":"mairiedelegueegennes","typeCollectivite":"Commune","region":"Pays de la Loire","departement":"Maine-et-Loire","departementCode":"49","adresse":{"street":"Les Rosiers-sur-Loire","postalCode":"49350","city":"Gennes-Val-de-Loire","country":"France"},"contacts":{"email":"mairie@gennesvaldeloire.fr","telephone":"0241518004"},"horaires":"Du Lundi au Vendredi : de 08h45 à 12h30 de 13h45 à 17h00","latitude":47.34935,"longitude":-0.22464003,"website":"https://www.gennesvaldeloire.fr/","hasWebsite":true,"hasHoraires":true,"url":"https://lannuaire.service-public.gouv.fr/pays-de-la-loire/maine-et-loire/2e83a2ea-ab03-47fc-b8a8-ef69300bca98"}
{"nom":"Gennes-Val-de-Loire","nomNormalise":"gennesvaldeloire","typeCollectivite":"Commune","region":"Pays de la Loire","departement":"Maine-et-Loire","departementCode":"49","adresse":{"street":"Les Rosiers-sur-Loire","postalCode":"49350","city":"Gennes-Val-de-Loire","country":"France"},"contacts":{"email":"mairie@gennesvaldeloire.fr","telephone":"0241518004"},"horaires":"Du Lundi au Vendredi : de 08h45 à 12h30 de 13h45 à 17h00","latitude":47.349346,"longitude":-0.2245296,"website":"https://www.gennesvaldeloire.fr/","hasWebsite":true,"hasHoraires":true,"url":"https://lannuaire.service-public.gouv.fr/pays-de-la-loire/maine-et-loire/439dd090-e8c5-4e5f-8a8e-bbb32e962157"}
{"nom":"Mairie déléguée - Genneteil","nomNormalise":"mairiedelegueegenneteil","typeCollectivite":"Commune","region":"Pays de la Loire","departement":"Maine-et-Loire","departementCode":"49","adresse":{"street":"Genneteil","postalCode":"49490","city":"Noyant-Villages","country":"France"},"contacts":{"email":"mairie.genneteil@noyant-villages.fr","telephone":"0241821085"},"horaires":"Le Mardi : de 13h30 à 17h30\nLe Mercredi : de 08h30 à 12h30\nLe Vendredi : de 08h30 à 12h30","latitude":47.511787,"longitude":0.119331,"website":"http://www.noyant-villages.fr/","hasWebsite":true,"hasHoraires":true,"url":"https://lannuaire.service-public.gouv.fr/pays-de-la-loire/maine-et-loire/605c82df-0c69-421f-98bd-0d295dd0b6a8"}
{"nom":"Grez-Neuville","nomNormalise":"grezneuville","typeCollectivite":"Commune","region":"Pays de la Loire","departement":"Maine-et-Loire","departementCode":"49","adresse":{"street":"1 rue du Port","postalCode":"49220","city":"Grez-Neuville","country":"France"},"contacts":{"email":"accueil@mairie-grez-neuville.fr","telephone":"0241953513"},"horaires":"Le Lundi : de 09h00 à 12h00\nLe Mercredi : de 09h00 à 12h00 de 14h00 à 17h00\nLe Vendredi : de 09h00 à 12h00","latitude":47.602,"longitude":-0.683799,"website":"https://commune-de-grez-neuville.neopse-site.com/fr/","hasWebsite":true,"hasHoraires":true,"url":"https://lannuaire.service-public.gouv.fr/pays-de-la-loire/maine-et-loire/51195868-b183-46a1-a733-6d7824aa85f7"}
{"nom":"Mairie déléguée - Grugé-l'Hôpital","nomNormalise":"mairiedelegueegrugelhopital","typeCollectivite":"Commune","region":"Pays de la Loire","departement":"Maine-et-Loire","departementCode":"49","adresse":{"street":"Grugé-l'Hôpital","postalCode":"49520","city":"Ombrée d'Anjou","country":"France"},"contacts":{"email":"info.grugelhopital@ombreedanjou.fr","telephone":"0241925340"},"horaires":"Du Mercredi au Jeudi : de 09h00 à 12h30\nLe Vendredi : de 13h30 à 17h00","latitude":47.7512,"longitude":1.0394,"website":"https://www.ombreedanjou.fr/","hasWebsite":true,"hasHoraires":true,"url":"https://lannuaire.service-public.gouv.fr/pays-de-la-loire/maine-et-loire/e81b0652-5958-4b38-b8f2-b57753740f64"}
{"nom":"Huillé-Lézigné","nomNormalise":"huillelezigne","typeCollectivite":"Commune","region":"Pays de la Loire","departement":"Maine-et-Loire","departementCode":"49","adresse":{"street":"Lézigné","postalCode":"49430","city":"Huillé-Lézigné","country":"France"},"contacts":{"email":"accueil@huille-lezigne.fr","telephone":"0241769148"},"horaires":"Le Lundi : de 13h30 à 18h00\nLe Mardi : de 15h00 à 18h00\nLe Mercredi : de 09h00 à 12h00\nLe Jeudi : de 15h00 à 18h00\nLe Vendredi : de 13h30 à 16h00","latitude":47.6373,"longitude":-0.2978219,"website":"https://huille-lezigne.fr/","hasWebsite":true,"hasHoraires":true,"url":"https://lannuaire.service-public.gouv.fr/pays-de-la-loire/maine-et-loire/485397b4-66ae-4390-b843-21cae5867398"}
{"nom":"Ingrandes-le-Fresne-sur-Loire","nomNormalise":"ingrandeslefresnesurloire","typeCollectivite":"Commune","region":"Pays de la Loire","departement":"Maine-et-Loire","departementCode":"49","adresse":{"street":"6 rue des Recroits","postalCode":"49123","city":"Ingrandes-le-Fresne-sur-Loire","country":"France"},"contacts":{"email":"mairie@ingrandes-lefresnesurloire.fr","telephone":"0241392021"},"horaires":"Du Lundi au Vendredi : de 09h00 à 12h30\nLe Samedi : de 09h00 à 12h00","latitude":47.4011,"longitude":-0.927792,"website":"http://www.ingrandes-lefresnesurloire.fr/","hasWebsite":true,"hasHoraires":true,"url":"https://lannuaire.service-public.gouv.fr/pays-de-la-loire/maine-et-loire/e8b0a49a-ec8d-4c38-ab57-64bb535aa44d"}
{"nom":"Jarzé-Villages","nomNormalise":"jarzevillages","typeCollectivite":"Commune","region":"Pays de la Loire","departement":"Maine-et-Loire","departementCode":"49","adresse":{"street":"11 rue de la Mairie","postalCode":"49140","city":"Jarzé-Villages","country":"France"},"contacts":{"email":"mairie@jarzevillages.fr","telephone":"0241954003"},"horaires":"Le Lundi : de 08h30 à 12h00\nLe Mardi : de 08h30 à 12h00 de 14h00 à 17h30\nDu Mercredi au Jeudi : de 08h30 à 12h00\nLe Vendredi : de 08h30 à 12h00 de 14h00 à 17h30","latitude":47.55587,"longitude":-0.232946,"website":"https://www.jarzevillages.fr/","hasWebsite":true,"hasHoraires":true,"url":"https://lannuaire.service-public.gouv.fr/pays-de-la-loire/maine-et-loire/17a690e0-121f-473a-8ece-155ad86c13da"}
{"nom":"Juvardeil","nomNormalise":"juvardeil","typeCollectivite":"Commune","region":"Pays de la Loire","departement":"Maine-et-Loire","departementCode":"49","adresse":{"street":"9 place de la Mairie","postalCode":"49330","city":"Juvardeil","country":"France"},"contacts":{"email":"contact@juvardeil.fr","telephone":"0241698880"},"horaires":"Du Lundi au Jeudi : de 08h00 à 12h00 de 14h00 à 17h30\nLe Lundi : de 08h00 à 12h00 de 14h00 à 16h00\nLe Samedi : de 09h00 à 11h00\nAccueil ouvert sur rendez-vous uniquement.","latitude":47.6551,"longitude":-0.498861,"website":"https://juvardeil.fr/","hasWebsite":true,"hasHoraires":true,"url":"https://lannuaire.service-public.gouv.fr/pays-de-la-loire/maine-et-loire/0ca39c89-6b53-4fb2-b39c-eb8254aec71e"}
{"nom":"Mairie déléguée - L'Hôtellerie-de-Flée","nomNormalise":"mairiedelegueelhotelleriedeflee","typeCollectivite":"Commune","region":"Pays de la Loire","departement":"Maine-et-Loire","departementCode":"49","adresse":{"street":"Hôtellerie de Flée","postalCode":"49500","city":"Segré-en-Anjou Bleu","country":"France"},"contacts":{"email":"lhotelleriedeflee@segreenanjoubleu.fr","telephone":"0241616566"},"horaires":"Le Lundi : de 14h00 à 17h00\nDu Mercredi au Jeudi : de 14h00 à 17h00\nLe Vendredi : de 14h00 à 18h00","latitude":47.743584,"longitude":-0.888352,"website":"http://www.segreenanjoubleu.fr/","hasWebsite":true,"hasHoraires":true,"url":"https://lannuaire.service-public.gouv.fr/pays-de-la-loire/maine-et-loire/161aa195-7b4a-4808-8214-cbb9412ca6d6"}
{"nom":"Mairie déléguée - La Bohalle","nomNormalise":"mairiedelegueelabohalle","typeCollectivite":"Commune","region":"Pays de la Loire","departement":"Maine-et-Loire","departementCode":"49","adresse":{"street":"La Bohalle","postalCode":"49800","city":"Loire-Authion","country":"France"},"contacts":{"email":"contact@loire-authion.fr","telephone":"0252211000"},"horaires":"","latitude":47.420727,"longitude":-0.39084,"website":"https://www.loire-authion.fr/","hasWebsite":true,"hasHoraires":false,"url":"https://lannuaire.service-public.gouv.fr/pays-de-la-loire/maine-et-loire/a5f57294-7ea5-4689-9f80-138bc1809cd3"}
{"nom":"La Breille-les-Pins","nomNormalise":"labreillelespins","typeCollectivite":"Commune","region":"Pays de la Loire","departement":"Maine-et-Loire","departementCode":"49","adresse":{"street":"4 rue Saumuroise","postalCode":"49390","city":"La Breille-les-Pins","country":"France"},"contacts":{"email":"mairie.labreillelespins@orange.fr","telephone":"0241520282"},"horaires":"Du Lundi au Mardi : de 08h30 à 12h30\nDu Jeudi au Vendredi : de 08h30 à 12h30\nLe Samedi : de 09h00 à 12h00\n\nAccueil ouvert uniquement sur rendez-vous les 1er et 3e samedis du mois.","latitude":47.339935,"longitude":0.071102,"website":"http://www.labreillelespins.com/","hasWebsite":true,"hasHoraires":true,"url":"https://lannuaire.service-public.gouv.fr/pays-de-la-loire/maine-et-loire/0747595b-bfb5-4271-a9ac-4719e0c4413b"}
{"nom":"Mairie déléguée - La Chapelle-Rousselin","nomNormalise":"mairiedelegueelachapellerousselin","typeCollectivite":"Commune","region":"Pays de la Loire","departement":"Maine-et-Loire","departementCode":"49","adresse":{"street":"La Chapelle-Rousselin","postalCode":"49120","city":"Chemillé-en-Anjou","country":"France"},"contacts":{"email":"mairie.la-chapelle-rousselin@chemille-en-anjou.fr","telephone":"0241306340"},"horaires":"Du Mardi au Mercredi : de 14h00 à 17h00\nLe Jeudi : de 09h00 à 12h00\nLe Vendredi : de 14h00 à 17h00\nLe Samedi : de 09h00 à 12h00\n\nFermé le samedi en juillet-août.","latitude":47.212856,"longitude":-0.795886,"website":"https://www.chemille-en-anjou.fr/","hasWebsite":true,"hasHoraires":true,"url":"https://lannuaire.service-public.gouv.fr/pays-de-la-loire/maine-et-loire/b1092c5a-079e-4e2b-b816-bf9e877e992e"}
{"nom":"La Chapelle-Saint-Laud","nomNormalise":"lachapellesaintlaud","typeCollectivite":"Commune","region":"Pays de la Loire","departement":"Maine-et-Loire","departementCode":"49","adresse":{"street":"Rue Deville","postalCode":"49140","city":"La Chapelle-Saint-Laud","country":"France"},"contacts":{"email":"mairie.chapellestlaud@wanadoo.fr","telephone":"0241769565"},"horaires":"Du Lundi au Mardi : de 13h30 à 17h00\nDu Jeudi au Vendredi : de 13h30 à 17h00","latitude":47.615,"longitude":-0.324521,"website":"http://lachapellesaintlaud.fr/","hasWebsite":true,"hasHoraires":true,"url":"https://lannuaire.service-public.gouv.fr/pays-de-la-loire/maine-et-loire/5c689c1a-73af-4c69-b4e1-6a1d45335dd9"}
{"nom":"Mairie déléguée - La Chapelle-sur-Oudon","nomNormalise":"mairiedelegueelachapellesuroudon","typeCollectivite":"Commune","region":"Pays de la Loire","departement":"Maine-et-Loire","departementCode":"49","adresse":{"street":"Chapelle-sur-Oudon","postalCode":"49500","city":"Segré-en-Anjou Bleu","country":"France"},"contacts":{"email":"lachapellesuroudon@segreenanjoubleu.fr","telephone":"0241922545"},"horaires":"Du Lundi au Mardi : de 13h30 à 17h30\nLe Vendredi : de 14h00 à 17h30","latitude":47.679466,"longitude":-0.827019,"website":"https://www.segreenanjoubleu.fr/","hasWebsite":true,"hasHoraires":true,"url":"https://lannuaire.service-public.gouv.fr/pays-de-la-loire/maine-et-loire/ea279063-17a7-4467-b15c-d8bfef2ff577"}
{"nom":"Mairie déléguée - La Cornuaille","nomNormalise":"mairiedelegueelacornuaille","typeCollectivite":"Commune","region":"Pays de la Loire","departement":"Maine-et-Loire","departementCode":"49","adresse":{"street":"La Cornuaille","postalCode":"49370","city":"Val d'Erdre-Auxence","country":"France"},"contacts":{"email":"lacornuaille@val-erdre-auxence.fr","telephone":"0241920201"},"horaires":"Du Lundi au Mardi : de 14h00 à 16h30\nLe Mercredi : de 09h00 à 12h00\nLe Jeudi : de 14h00 à 16h30\nLe Vendredi : de 09h00 à 12h00 de 14h00 à 16h30","latitude":47.510918,"longitude":-0.983126,"website":"https://www.val-erdre-auxence.fr/","hasWebsite":true,"hasHoraires":true,"url":"https://lannuaire.service-public.gouv.fr/pays-de-la-loire/maine-et-loire/5b2fffdc-bafe-4b52-94ac-45c923d7490a"}
{"nom":"Mairie déléguée - La Daguenière","nomNormalise":"mairiedelegueeladagueniere","typeCollectivite":"Commune","region":"Pays de la Loire","departement":"Maine-et-Loire","departementCode":"49","adresse":{"street":"La Daguenière","postalCode":"49800","city":"Loire-Authion","country":"France"},"contacts":{"email":"contact@loire-authion.fr","telephone":"0252211000"},"horaires":"","latitude":47.419594,"longitude":-0.435205,"website":"https://www.loire-authion.fr/","hasWebsite":true,"hasHoraires":false,"url":"https://lannuaire.service-public.gouv.fr/pays-de-la-loire/maine-et-loire/d9999782-7684-4e80-bead-82e1083c0a56"}
{"nom":"Mairie déléguée - La Ferrière-de-Flée","nomNormalise":"mairiedelegueelaferrieredeflee","typeCollectivite":"Commune","region":"Pays de la Loire","departement":"Maine-et-Loire","departementCode":"49","adresse":{"street":"Ferrière-de-Flée","postalCode":"49500","city":"Segré-en-Anjou Bleu","country":"France"},"contacts":{"email":"laferrièredeflée@segréenanjoubleu.fr","telephone":"0241921669"},"horaires":"Le Lundi : de 14h15 à 17h30\nLe Jeudi : de 09h30 à 12h30 de 13h30 à 17h30\nLe Samedi : de 09h00 à 12h30\n\nAccueil ouvert le 1er samedi du mois.","latitude":47.73043,"longitude":-0.846413,"website":"https://www.segreenanjoubleu.fr/","hasWebsite":true,"hasHoraires":true,"url":"https://lannuaire.service-public.gouv.fr/pays-de-la-loire/maine-et-loire/4db9426e-7a34-4594-a9c6-b69e037781a3"}
{"nom":"La Jaille-Yvon","nomNormalise":"lajailleyvon","typeCollectivite":"Commune","region":"Pays de la Loire","departement":"Maine-et-Loire","departementCode":"49","adresse":{"street":"27 rue Saint-Loup","postalCode":"49220","city":"La Jaille-Yvon","country":"France"},"contacts":{"email":"mairie@lajailleyvon.fr","telephone":"0241951258"},"horaires":"Le Mardi : de 14h00 à 16h30\nDu Jeudi au Vendredi : de 14h00 à 18h00","latitude":47.72245,"longitude":-0.671203,"website":"https://lajailleyvon.fr/","hasWebsite":true,"hasHoraires":true,"url":"https://lannuaire.service-public.gouv.fr/pays-de-la-loire/maine-et-loire/9591b329-0aab-4111-8c5a-07d3c5c86645"}
{"nom":"Mairie déléguée - La Jumellière","nomNormalise":"mairiedelegueelajumelliere","typeCollectivite":"Commune","region":"Pays de la Loire","departement":"Maine-et-Loire","departementCode":"49","adresse":{"street":"La Jumellière","postalCode":"49120","city":"Chemillé-en-Anjou","country":"France"},"contacts":{"email":"mairie.la-jumelliere@chemille-en-anjou.fr","telephone":"0241643313"},"horaires":"Le Lundi : de 14h00 à 17h00\nLe Mardi : de 09h00 à 12h00\nLe Jeudi : de 09h00 à 12h00\nLe Vendredi : de 14h00 à 17h00\nLe Samedi : de 09h00 à 12h00\n\nOuvert hors vacances scolaires.","latitude":47.28146,"longitude":-0.730831,"website":"https://www.chemille-en-anjou.fr/","hasWebsite":true,"hasHoraires":true,"url":"https://lannuaire.service-public.gouv.fr/pays-de-la-loire/maine-et-loire/aa68640e-e283-496e-829f-c7d532ef93f3"}
{"nom":"La Lande-Chasles","nomNormalise":"lalandechasles","typeCollectivite":"Commune","region":"Pays de la Loire","departement":"Maine-et-Loire","departementCode":"49","adresse":{"street":"1 route de la mairie","postalCode":"49150","city":"La Lande-Chasles","country":"France"},"contacts":{"email":"lalandechasles@free.fr","telephone":"0241827401"},"horaires":"Le Mercredi : de 08h00 à 12h00\nLe Jeudi : de 08h00 à 12h00 de 14h00 à 18h00","latitude":47.47033,"longitude":-0.066359,"website":"http://lalandechasles.free.fr/","hasWebsite":true,"hasHoraires":true,"url":"https://lannuaire.service-public.gouv.fr/pays-de-la-loire/maine-et-loire/78f8be5b-8949-4b2f-ad83-8fcfc3a01244"}
{"nom":"Mairie déléguée - La Meignanne","nomNormalise":"mairiedelegueelameignanne","typeCollectivite":"Commune","region":"Pays de la Loire","departement":"Maine-et-Loire","departementCode":"49","adresse":{"street":"27 rue de la Mairie","postalCode":"49770","city":"Longuenée-en-Anjou","country":"France"},"contacts":{"email":"lameignanne@longuenee-en-anjou.fr","telephone":"0241326813"},"horaires":"Du Lundi au Mardi : de 09h00 à 12h00\nLe Jeudi : de 09h00 à 12h00\nLe Vendredi : de 14h00 à 17h00","latitude":47.51914,"longitude":-0.66976,"website":"","hasWebsite":false,"hasHoraires":true,"url":"https://lannuaire.service-public.gouv.fr/pays-de-la-loire/maine-et-loire/2d4c6f71-964b-467a-87fa-3d914e9e9fff"}
{"nom":"Mairie déléguée - La Membrolle-sur-Longuenée","nomNormalise":"mairiedelegueelamembrollesurlonguenee","typeCollectivite":"Commune","region":"Pays de la Loire","departement":"Maine-et-Loire","departementCode":"49","adresse":{"street":"Place Eric Tabarly","postalCode":"49770","city":"Longuenée-en-Anjou","country":"France"},"contacts":{"email":"mairie@longuenee-en-anjou.fr","telephone":"0241326758"},"horaires":"Le Lundi : de 09h00 à 12h00\nLe Mardi : de 09h00 à 12h00 de 14h00 à 17h30\nDu Mercredi au Jeudi : de 14h00 à 17h30\nLe Vendredi : de 09h00 à 12h00","latitude":47.56082,"longitude":-0.671157,"website":"","hasWebsite":false,"hasHoraires":true,"url":"https://lannuaire.service-public.gouv.fr/pays-de-la-loire/maine-et-loire/b6879988-456b-43a6-b66b-df44ef8f531b"}
{"nom":"La Ménitré","nomNormalise":"lamenitre","typeCollectivite":"Commune","region":"Pays de la Loire","departement":"Maine-et-Loire","departementCode":"49","adresse":{"street":"Place de la Mairie","postalCode":"49250","city":"La Ménitré","country":"France"},"contacts":{"email":"accueil@lamenitre.fr","telephone":"0241456363"},"horaires":"Le Lundi : de 09h00 à 12h00 de 15h00 à 17h30\nLe Mardi : de 09h00 à 12h00\nLe Mercredi : de 09h00 à 12h00 de 15h00 à 17h30\nDu Jeudi au Vendredi : de 09h00 à 12h00\nLe Samedi : de 10h00 à 12h00\n\nAccueil fermé le samedi pendant les vacances scolaires.","latitude":47.401394,"longitude":-0.2698441,"website":"http://www.lamenitre.fr/","hasWebsite":true,"hasHoraires":true,"url":"https://lannuaire.service-public.gouv.fr/pays-de-la-loire/maine-et-loire/0277b310-ff17-4e09-8180-cff8f1f5bd5e"}
{"nom":"La Pellerine","nomNormalise":"lapellerine","typeCollectivite":"Commune","region":"Pays de la Loire","departement":"Maine-et-Loire","departementCode":"49","adresse":{"street":"Impasse scolaire","postalCode":"49490","city":"La Pellerine","country":"France"},"contacts":{"email":"secretariathvlapellerine49@orange.fr","telephone":"0241825727"},"horaires":"Le Lundi : de 14h00 à 17h30\nLe Mercredi : de 14h00 à 17h00\nLe Vendredi : de 09h00 à 12h00","latitude":47.46224,"longitude":0.12334,"website":"","hasWebsite":false,"hasHoraires":true,"url":"https://lannuaire.service-public.gouv.fr/pays-de-la-loire/maine-et-loire/2acbd884-d63b-4d48-9b32-a5c540948d15"}
{"nom":"La Plaine","nomNormalise":"laplaine","typeCollectivite":"Commune","region":"Pays de la Loire","departement":"Maine-et-Loire","departementCode":"49","adresse":{"street":"6 Rue du Bocage","postalCode":"49360","city":"La Plaine","country":"France"},"contacts":{"email":"mairie.la.plaine@wanadoo.fr","telephone":"0241559243"},"horaires":"Du Lundi au Mercredi : de 08h00 à 12h00 de 13h30 à 17h00\nLe Jeudi : de 13h30 à 17h00\nLe Vendredi : de 08h00 à 12h00 de 13h30 à 17h00\nLe Samedi : de 08h00 à 11h00","latitude":47.067,"longitude":-0.635993,"website":"https://mairielaplaine49.fr/","hasWebsite":true,"hasHoraires":true,"url":"https://lannuaire.service-public.gouv.fr/pays-de-la-loire/maine-et-loire/5b5d591f-8b12-48b8-8c8b-dd1ba196b02c"}
{"nom":"La Possonnière","nomNormalise":"lapossonniere","typeCollectivite":"Commune","region":"Pays de la Loire","departement":"Maine-et-Loire","departementCode":"49","adresse":{"street":"31 rue de la Mairie","postalCode":"49170","city":"La Possonnière","country":"France"},"contacts":{"email":"mairie@la-possonniere.fr","telephone":"0241722075"},"horaires":"Le Lundi : de 09h00 à 12h30\nDu Mardi au Mercredi : de 09h00 à 12h30 de 14h00 à 18h00\nLe Jeudi : de 09h00 à 12h30\nLe Vendredi : de 09h00 à 12h30 de 14h00 à 17h00","latitude":47.3747,"longitude":-0.68781,"website":"http://www.la-possonniere.fr/","hasWebsite":true,"hasHoraires":true,"url":"https://lannuaire.service-public.gouv.fr/pays-de-la-loire/maine-et-loire/cd76e2ee-37be-46e9-a8dc-f2b3eb528ac7"}
{"nom":"Mairie déléguée - La Prévière","nomNormalise":"mairiedelegueelapreviere","typeCollectivite":"Commune","region":"Pays de la Loire","departement":"Maine-et-Loire","departementCode":"49","adresse":{"street":"La Prévière","postalCode":"49420","city":"Ombrée d'Anjou","country":"France"},"contacts":{"email":"info.lapreviere@ombreedanjou.fr","telephone":"0241926926"},"horaires":"Le Mardi : de 09h00 à 12h30\nLe Mercredi : de 14h00 à 17h30\nLe Jeudi : de 09h00 à 12h30","latitude":47.717327,"longitude":-1.178876,"website":"https://www.ombreedanjou.fr/","hasWebsite":true,"hasHoraires":true,"url":"https://lannuaire.service-public.gouv.fr/pays-de-la-loire/maine-et-loire/f87be7e6-4df3-4ca4-9b0c-c0e413c2a524"}
{"nom":"La Romagne","nomNormalise":"laromagne","typeCollectivite":"Commune","region":"Pays de la Loire","departement":"Maine-et-Loire","departementCode":"49","adresse":{"street":"17 rue de la Mairie","postalCode":"49740","city":"La Romagne","country":"France"},"contacts":{"email":"mairie@laromagne.fr","telephone":"0241703250"},"horaires":"Le Lundi : de 09h00 à 12h30 de 14h00 à 17h00\nDu Mardi au Jeudi : de 09h00 à 12h30\nLe Vendredi : de 09h00 à 12h30 de 14h00 à 17h00\nLe Samedi : de 09h00 à 12h00","latitude":47.0614,"longitude":-1.02189,"website":"https://www.laromagne.fr/","hasWebsite":true,"hasHoraires":true,"url":"https://lannuaire.service-public.gouv.fr/pays-de-la-loire/maine-et-loire/8b6f205e-9298-4a06-8cdd-c0f730284834"}
{"nom":"Mairie déléguée - La Salle-de-Vihiers","nomNormalise":"mairiedelegueelasalledevihiers","typeCollectivite":"Commune","region":"Pays de la Loire","departement":"Maine-et-Loire","departementCode":"49","adresse":{"street":"La-Salle-de-Vihiers","postalCode":"49310","city":"Chemillé-en-Anjou","country":"France"},"contacts":{"email":"mairie.la-salle-de-vihiers@chemille-en-anjou.fr","telephone":"0241558222"},"horaires":"Le Lundi : de 14h00 à 17h00\nDu Mardi au Mercredi : de 09h00 à 12h00\nLe Vendredi : de 14h00 à 18h00\n\nAccueil ouvert le vendredi de 14h à 17h pendant les congés scolaires.","latitude":47.15568,"longitude":-0.636144,"website":"https://www.chemille-en-anjou.fr/","hasWebsite":true,"hasHoraires":true,"url":"https://lannuaire.service-public.gouv.fr/pays-de-la-loire/maine-et-loire/0be46d0d-e850-4f16-bd38-4b78eed7572a"}
{"nom":"La Séguinière","nomNormalise":"laseguiniere","typeCollectivite":"Commune","region":"Pays de la Loire","departement":"Maine-et-Loire","departementCode":"49","adresse":{"street":"Avenue de l'Abbé-Chauveau","postalCode":"49280","city":"La Séguinière","country":"France"},"contacts":{"email":"accueil@mairie-laseguiniere.fr","telephone":"0241569053"},"horaires":"Le Lundi : de 14h00 à 17h15\nLe Mardi : de 09h00 à 12h15 de 14h00 à 17h15\nLe Mercredi : de 09h00 à 12h15\nDu Jeudi au Vendredi : de 09h00 à 12h15 de 14h00 à 17h15\nLe Samedi : de 09h00 à 12h15","latitude":47.0628,"longitude":-0.938857,"website":"http://www.mairie-laseguiniere.fr/","hasWebsite":true,"hasHoraires":true,"url":"https://lannuaire.service-public.gouv.fr/pays-de-la-loire/maine-et-loire/cea26c6a-eff5-43a2-9d95-fc400a3b0b76"}
{"nom":"Mairie déléguée - Lasse","nomNormalise":"mairiedelegueelasse","typeCollectivite":"Commune","region":"Pays de la Loire","departement":"Maine-et-Loire","departementCode":"49","adresse":{"street":"Lasse","postalCode":"49490","city":"Noyant-Villages","country":"France"},"contacts":{"email":"mairie.lasse@noyant-villages.fr","telephone":"0241822154"},"horaires":"Le Mardi : de 08h45 à 12h45\nLe Jeudi : de 08h30 à 12h30","latitude":47.536587,"longitude":0.011047,"website":"https://www.noyant-villages.fr/","hasWebsite":true,"hasHoraires":true,"url":"https://lannuaire.service-public.gouv.fr/pays-de-la-loire/maine-et-loire/76783a83-b9dd-46f9-9660-8ffacc3a63d9"}
{"nom":"La Tessoualle","nomNormalise":"latessoualle","typeCollectivite":"Commune","region":"Pays de la Loire","departement":"Maine-et-Loire","departementCode":"49","adresse":{"street":"6 rue de l'Hôtel-de-Ville","postalCode":"49280","city":"La Tessoualle","country":"France"},"contacts":{"email":"mairie@latessoualle.com","telephone":"0241563274"},"horaires":"Le Lundi : de 14h00 à 17h30\nDu Mardi au Vendredi : de 09h00 à 12h00 de 14h00 à 17h30\nLe Samedi : de 09h00 à 12h00\n\nLe 1er samedi du mois (sauf en juillet et août).","latitude":47.00501,"longitude":-0.850181,"website":"https://www.latessoualle.com/","hasWebsite":true,"hasHoraires":true,"url":"https://lannuaire.service-public.gouv.fr/pays-de-la-loire/maine-et-loire/9f6b2f16-7782-483d-a9dd-af54d09b6715"}
{"nom":"Mairie déléguée - La Tourlandry","nomNormalise":"mairiedelegueelatourlandry","typeCollectivite":"Commune","region":"Pays de la Loire","departement":"Maine-et-Loire","departementCode":"49","adresse":{"street":"La Tourlandry","postalCode":"49120","city":"Chemillé-en-Anjou","country":"France"},"contacts":{"email":"mairie.la-tourlandry@chemille-en-anjou.fr","telephone":"0241644121"},"horaires":"Le Lundi : de 14h00 à 17h00\nDu Mardi au Samedi : de 09h00 à 12h00","latitude":47.143578,"longitude":-0.698087,"website":"https://www.chemille-en-anjou.fr/","hasWebsite":true,"hasHoraires":true,"url":"https://lannuaire.service-public.gouv.fr/pays-de-la-loire/maine-et-loire/41c3da0d-15b2-4090-ad2d-690ce7f93a34"}
{"nom":"Le Coudray-Macouard","nomNormalise":"lecoudraymacouard","typeCollectivite":"Commune","region":"Pays de la Loire","departement":"Maine-et-Loire","departementCode":"49","adresse":{"street":"1 rue Pazillé","postalCode":"49260","city":"Le Coudray-Macouard","country":"France"},"contacts":{"email":"mairie-de-coudray-macouard@wanadoo.fr","telephone":"0241679810"},"horaires":"Du Lundi au Mardi : de 08h00 à 12h30 de 13h30 à 18h00\nLe Mercredi : de 08h30 à 12h30\nDu Jeudi au Vendredi : de 08h00 à 12h00 de 13h30 à 18h00","latitude":47.195335,"longitude":-0.1203555,"website":"http://www.lecoudraymacouard.fr/","hasWebsite":true,"hasHoraires":true,"url":"https://lannuaire.service-public.gouv.fr/pays-de-la-loire/maine-et-loire/2c84f40f-3b8f-476b-8875-a1379b5ab6d0"}
{"nom":"Le Lion-d'Angers","nomNormalise":"leliondangers","typeCollectivite":"Commune","region":"Pays de la Loire","departement":"Maine-et-Loire","departementCode":"49","adresse":{"street":"Place Charles-de-Gaulle","postalCode":"49220","city":"Le Lion-d'Angers","country":"France"},"contacts":{"email":"mairie@leliondangers.fr","telephone":"0241953016"},"horaires":"Du Lundi au Mercredi : de 09h00 à 12h30 de 14h00 à 17h30\nLe Jeudi : de 09h00 à 12h30\nLe Vendredi : de 09h00 à 12h30 de 14h00 à 17h30\nLe Samedi : de 09h00 à 12h00\n\nAccueil fermé du 17 juillet au 21 août.","latitude":47.62848,"longitude":-0.7139076,"website":"https://www.leliondangers.fr/","hasWebsite":true,"hasHoraires":true,"url":"https://lannuaire.service-public.gouv.fr/pays-de-la-loire/maine-et-loire/9d8751fc-eeb3-45ed-905a-f32b9fe92a57"}
{"nom":"Le May-sur-Èvre","nomNormalise":"lemaysurevre","typeCollectivite":"Commune","region":"Pays de la Loire","departement":"Maine-et-Loire","departementCode":"49","adresse":{"street":"1 rue Saint-Michel","postalCode":"49122","city":"Le May-sur-Èvre","country":"France"},"contacts":{"email":"mairie@lemaysurevre.com","telephone":"0241638020"},"horaires":"Le Lundi : de 08h30 à 12h00 de 15h00 à 17h30\nLe Mardi : de 08h30 à 12h00\nLe Mercredi : de 08h30 à 12h00 de 15h00 à 17h30\nLe Jeudi : de 08h30 à 12h00\nLe Vendredi : de 08h30 à 12h00 de 15h00 à 17h30\nLe Samedi : de 09h00 à 12h00\n\nOuverture uniquement les semaines impaires","latitude":47.138,"longitude":-0.8925269,"website":"https://www.lemaysurevre.com/","hasWebsite":true,"hasHoraires":true,"url":"https://lannuaire.service-public.gouv.fr/pays-de-la-loire/maine-et-loire/cffbd367-6108-41dd-a455-c73ba5fd62ea"}
{"nom":"Le Plessis-Grammoire","nomNormalise":"leplessisgrammoire","typeCollectivite":"Commune","region":"Pays de la Loire","departement":"Maine-et-Loire","departementCode":"49","adresse":{"street":"2 rue de la Mairie","postalCode":"49124","city":"Le Plessis-Grammoire","country":"France"},"contacts":{"email":"accueil@leplessisgrammoire.fr","telephone":"0241767221"},"horaires":"Du Lundi au Vendredi : de 09h00 à 12h00\nLe Samedi : de 09h00 à 12h00\n\nAccueil ouvert uniquement les semaines paires.","latitude":47.4984,"longitude":-0.428811,"website":"https://www.leplessisgrammoire.fr/","hasWebsite":true,"hasHoraires":true,"url":"https://lannuaire.service-public.gouv.fr/pays-de-la-loire/maine-et-loire/728721c6-406e-4e8a-bf74-828186d4510c"}
{"nom":"Mairie déléguée - Le Plessis-Macé","nomNormalise":"mairiedelegueeleplessismace","typeCollectivite":"Commune","region":"Pays de la Loire","departement":"Maine-et-Loire","departementCode":"49","adresse":{"street":"1 rue d'Anjou","postalCode":"49770","city":"Longuenée-en-Anjou","country":"France"},"contacts":{"email":"leplessismace@longuenee-en-anjou.fr","telephone":"0241326794"},"horaires":"Le Mardi : de 14h00 à 17h00\nLe Mercredi : de 09h00 à 12h00\nLe Jeudi : de 14h00 à 17h00","latitude":47.54389,"longitude":-0.67382,"website":"","hasWebsite":false,"hasHoraires":true,"url":"https://lannuaire.service-public.gouv.fr/pays-de-la-loire/maine-et-loire/bf9495eb-f7ed-414c-b2ee-69ee8c697008"}
{"nom":"Le Puy-Notre-Dame","nomNormalise":"lepuynotredame","typeCollectivite":"Commune","region":"Pays de la Loire","departement":"Maine-et-Loire","departementCode":"49","adresse":{"street":"1 rue de la Mairie","postalCode":"49260","city":"Le Puy-Notre-Dame","country":"France"},"contacts":{"email":"mairie@puynotredame.fr","telephone":"0241522634"},"horaires":"Le Lundi : de 09h00 à 12h00 de 14h00 à 17h00\nLe Mardi : de 09h00 à 12h00\nLe Mercredi : de 09h00 à 12h00 de 14h00 à 17h00\nLe Jeudi : de 09h00 à 12h00\nLe Vendredi : de 09h00 à 12h00 de 14h00 à 18h00","latitude":47.1252,"longitude":-0.231482,"website":"http://www.ville-lepuynotredame.fr/","hasWebsite":true,"hasHoraires":true,"url":"https://lannuaire.service-public.gouv.fr/pays-de-la-loire/maine-et-loire/fce19df2-d070-4838-b25b-977879ec882a"}
{"nom":"Les Bois d'Anjou","nomNormalise":"lesboisdanjou","typeCollectivite":"Commune","region":"Pays de la Loire","departement":"Maine-et-Loire","departementCode":"49","adresse":{"street":"11 rue de la Mairie","postalCode":"49250","city":"Les Bois d'Anjou","country":"France"},"contacts":{"email":"accueil.fontaine@boisdanjou.fr","telephone":"0241547395"},"horaires":"Du Lundi au Mercredi : de 14h00 à 17h00\nDu Jeudi au Vendredi : de 08h45 à 11h45","latitude":47.485794,"longitude":-0.1897987,"website":"https://www.boisdanjou.fr/","hasWebsite":true,"hasHoraires":true,"url":"https://lannuaire.service-public.gouv.fr/pays-de-la-loire/maine-et-loire/37c41ad3-38d1-490b-9c3d-b67852611a05"}
{"nom":"Les Cerqueux","nomNormalise":"lescerqueux","typeCollectivite":"Commune","region":"Pays de la Loire","departement":"Maine-et-Loire","departementCode":"49","adresse":{"street":"2-4 rue du Vieux-Logis","postalCode":"49360","city":"Les Cerqueux","country":"France"},"contacts":{"email":"mairie.cerqueux@orange.fr","telephone":"0241559012"},"horaires":"Le Lundi : de 08h00 à 12h15\nLe Mardi : de 08h00 à 12h15 de 15h00 à 16h45\nLe Mercredi : de 08h00 à 12h15\nLe Jeudi : de 08h00 à 12h15 de 15h00 à 16h45\nLe Vendredi : de 08h00 à 12h15 de 15h00 à 16h45\nLe Samedi : de 08h00 à 12h15 de 15h00 à 16h45","latitude":46.9993,"longitude":-0.642678,"website":"https://www.lescerqueux.fr/","hasWebsite":true,"hasHoraires":true,"url":"https://lannuaire.service-public.gouv.fr/pays-de-la-loire/maine-et-loire/375c3524-1f39-421f-9c12-b160eaf7bce2"}
{"nom":"Les Garennes sur Loire","nomNormalise":"lesgarennessurloire","typeCollectivite":"Commune","region":"Pays de la Loire","departement":"Maine-et-Loire","departementCode":"49","adresse":{"street":"Juigné-sur-Loire","postalCode":"49610","city":"Les Garennes sur Loire","country":"France"},"contacts":{"email":"mairie@les-garennes-sur-loire.fr","telephone":"0241919009"},"horaires":"Le Lundi : de 14h00 à 17h30\nDu Mardi au Mercredi : de 09h00 à 12h00\nLe Jeudi : de 14h00 à 17h30\nLe Vendredi : de 09h00 à 12h00 de 14h00 à 17h30\nLe Samedi : de 09h00 à 12h00\n\nLes semaines impaires","latitude":47.407795,"longitude":-0.475866,"website":"https://www.les-garennes-sur-loire.fr/","hasWebsite":true,"hasHoraires":true,"url":"https://lannuaire.service-public.gouv.fr/pays-de-la-loire/maine-et-loire/9c378c87-bf7f-4889-b08a-f42453886318"}
{"nom":"Les Hauts-d'Anjou","nomNormalise":"leshautsdanjou","typeCollectivite":"Commune","region":"Pays de la Loire","departement":"Maine-et-Loire","departementCode":"49","adresse":{"street":"36 rue Henri-Lebasque-Champigné","postalCode":"49330","city":"Les Hauts-d'Anjou","country":"France"},"contacts":{"email":"contact@leshautsdanjou.fr","telephone":"0241420004"},"horaires":"Le Mardi : de 09h00 à 12h00 de 14h00 à 17h00\nDu Mercredi au Jeudi : de 09h00 à 12h00\nLe Vendredi : de 09h00 à 12h00 de 14h00 à 17h00\nLe Samedi : de 09h00 à 12h00\n\nAccueil ouvert un samedi sur deux en juillet-août.","latitude":47.66354,"longitude":-0.567382,"website":"https://leshautsdanjou.fr/","hasWebsite":true,"hasHoraires":true,"url":"https://lannuaire.service-public.gouv.fr/pays-de-la-loire/maine-et-loire/d6a61602-3d36-45bc-8714-da508e393b2a"}
{"nom":"Les Ponts-de-Cé","nomNormalise":"lespontsdece","typeCollectivite":"Commune","region":"Pays de la Loire","departement":"Maine-et-Loire","departementCode":"49","adresse":{"street":"7 rue Charles-de-Gaulle","postalCode":"49130","city":"Les Ponts-de-Cé","country":"France"},"contacts":{"email":"mairie@ville-lespontsdece.fr","telephone":"0241797575"},"horaires":"Le Lundi : de 09h00 à 12h30 de 13h30 à 17h30\nLe Mardi : de 10h30 à 12h30 de 13h30 à 19h00\nDu Mercredi au Vendredi : de 09h00 à 12h30 de 13h30 à 17h30","latitude":47.42467,"longitude":-0.524677,"website":"https://www.lespontsdece.fr/","hasWebsite":true,"hasHoraires":true,"url":"https://lannuaire.service-public.gouv.fr/pays-de-la-loire/maine-et-loire/c96faa68-4c0e-44e9-944a-5fdf5eca8aa5"}
{"nom":"Les Rairies","nomNormalise":"lesrairies","typeCollectivite":"Commune","region":"Pays de la Loire","departement":"Maine-et-Loire","departementCode":"49","adresse":{"street":"14 rue Charles-de-Gaulle","postalCode":"49430","city":"Les Rairies","country":"France"},"contacts":{"email":"accueil@lesrairies-49.fr","telephone":"0241763214"},"horaires":"Du Lundi au Mardi : de 14h00 à 17h30\nDu Jeudi au Vendredi : de 09h00 à 12h00\nLe Samedi : de 09h30 à 12h00\n\nAccueil ouvert un samedi sur deux.","latitude":47.650875,"longitude":-0.206747,"website":"http://www.lesrairies-49.fr/","hasWebsite":true,"hasHoraires":true,"url":"https://lannuaire.service-public.gouv.fr/pays-de-la-loire/maine-et-loire/f9464c65-3091-428f-8db3-a1cba279e402"}
{"nom":"Les Ulmes","nomNormalise":"lesulmes","typeCollectivite":"Commune","region":"Pays de la Loire","departement":"Maine-et-Loire","departementCode":"49","adresse":{"street":"1 rue du Prieuré","postalCode":"49700","city":"Les Ulmes","country":"France"},"contacts":{"email":"mairie.lesulmes49@orange.fr","telephone":"0241670040"},"horaires":"Le Lundi : de 09h00 à 10h00\nDu Mardi au Mercredi : de 14h00 à 16h00\nLe Vendredi : de 09h00 à 12h00","latitude":47.219563,"longitude":-0.1789227,"website":"https://lesulmes.fr/","hasWebsite":true,"hasHoraires":true,"url":"https://lannuaire.service-public.gouv.fr/pays-de-la-loire/maine-et-loire/9d53825c-1fb2-4fa4-8c77-a2284305ecfa"}
{"nom":"Mairie déléguée - Le Tremblay","nomNormalise":"mairiedelegueeletremblay","typeCollectivite":"Commune","region":"Pays de la Loire","departement":"Maine-et-Loire","departementCode":"49","adresse":{"street":"Le Tremblay","postalCode":"49520","city":"Ombrée d'Anjou","country":"France"},"contacts":{"email":"info.letremblay@ombreedanjou.fr","telephone":"0241942234"},"horaires":"Le Mardi : de 09h00 à 12h00\nLe Jeudi : de 09h00 à 12h30\nLe Vendredi : de 09h00 à 12h00","latitude":47.67816,"longitude":-1.016978,"website":"https://www.ombreedanjou.fr/","hasWebsite":true,"hasHoraires":true,"url":"https://lannuaire.service-public.gouv.fr/pays-de-la-loire/maine-et-loire/6520b5e9-afc4-4bb9-aada-ea6494ac8b2f"}
{"nom":"Mairie déléguée - Linières-Bouton","nomNormalise":"mairiedelegueelinieresbouton","typeCollectivite":"Commune","region":"Pays de la Loire","departement":"Maine-et-Loire","departementCode":"49","adresse":{"street":"Bois-Simon","postalCode":"49490","city":"Linières-Bouton","country":"France"},"contacts":{"email":"mairie.linieres-bouton@wanadoo.fr","telephone":"0241825722"},"horaires":"Le Mardi : de 14h00 à 18h00\nLe Vendredi : de 14h00 à 18h00","latitude":47.45968,"longitude":0.0783589,"website":"http://linieres-bouton.org/","hasWebsite":true,"hasHoraires":true,"url":"https://lannuaire.service-public.gouv.fr/pays-de-la-loire/maine-et-loire/4d22fcf7-200f-453f-804e-9ff8cf884d8e"}
{"nom":"Loiré","nomNormalise":"loire","typeCollectivite":"Commune","region":"Pays de la Loire","departement":"Maine-et-Loire","departementCode":"49","adresse":{"street":"6 rue de la Libération","postalCode":"49440","city":"Loiré","country":"France"},"contacts":{"email":"mairie.loire@wanadoo.fr","telephone":"0241941515"},"horaires":"Du Lundi au Mercredi : de 13h30 à 17h00\nLe Jeudi : de 09h00 à 12h00\nLe Vendredi : de 13h30 à 17h00\nLe Samedi : de 09h00 à 11h30\n\nAccueil fermé le 2ème et dernier samedi du mois.","latitude":47.6148,"longitude":-0.9802734,"website":"https://www.sic-candeen.fr/listes/loire/","hasWebsite":true,"hasHoraires":true,"url":"https://lannuaire.service-public.gouv.fr/pays-de-la-loire/maine-et-loire/f5f4d8b7-3364-46b4-b7d2-b2969b137c73"}
{"nom":"Loire-Authion","nomNormalise":"loireauthion","typeCollectivite":"Commune","region":"Pays de la Loire","departement":"Maine-et-Loire","departementCode":"49","adresse":{"street":"Saint-Mathurin-sur-Loire","postalCode":"49250","city":"Loire-Authion","country":"France"},"contacts":{"email":"contact@loire-authion.fr","telephone":"0252211000"},"horaires":"Du Lundi au Vendredi : de 09h00 à 12h00","latitude":47.40874,"longitude":-0.318489,"website":"https://www.loire-authion.fr/","hasWebsite":true,"hasHoraires":true,"url":"https://lannuaire.service-public.gouv.fr/pays-de-la-loire/maine-et-loire/de6ac248-6cc9-471e-baa1-1e1be65e534e"}
{"nom":"Longué-Jumelles","nomNormalise":"longuejumelles","typeCollectivite":"Commune","region":"Pays de la Loire","departement":"Maine-et-Loire","departementCode":"49","adresse":{"street":"1 place de la Mairie","postalCode":"49160","city":"Longué-Jumelles","country":"France"},"contacts":{"email":"contact@ville-longuejumelles.fr","telephone":"0241521070"},"horaires":"Du Lundi au Vendredi : de 08h00 à 12h00 de 14h00 à 18h00","latitude":47.3811,"longitude":-0.110177,"website":"https://www.villedelonguejumelles.fr/","hasWebsite":true,"hasHoraires":true,"url":"https://lannuaire.service-public.gouv.fr/pays-de-la-loire/maine-et-loire/14e23cb3-faac-4847-a3fc-f1e89b8e2610"}
{"nom":"Longuenée-en-Anjou","nomNormalise":"longueneeenanjou","typeCollectivite":"Commune","region":"Pays de la Loire","departement":"Maine-et-Loire","departementCode":"49","adresse":{"street":"La Membrolle-sur-Longuenée","postalCode":"49770","city":"Longuenée-en-Anjou","country":"France"},"contacts":{"email":"mairie@longuenee-en-anjou.fr","telephone":"0241326758"},"horaires":"Le Lundi : de 09h00 à 12h00\nLe Mardi : de 09h00 à 12h00 de 14h00 à 17h30\nDu Mercredi au Jeudi : de 14h00 à 17h30\nLe Vendredi : de 09h00 à 12h00","latitude":47.5209,"longitude":-0.6806619,"website":"http://www.longuenee-en-anjou.fr/","hasWebsite":true,"hasHoraires":true,"url":"https://lannuaire.service-public.gouv.fr/pays-de-la-loire/maine-et-loire/eb60a188-7b29-4ce2-ba91-626e9f5865ee"}
{"nom":"Louresse-Rochemenier","nomNormalise":"louresserochemenier","typeCollectivite":"Commune","region":"Pays de la Loire","departement":"Maine-et-Loire","departementCode":"49","adresse":{"street":"8 rue Principale","postalCode":"49700","city":"Louresse-Rochemenier","country":"France"},"contacts":{"email":"mairie@louresse-rochemenier.fr","telephone":"0241591313"},"horaires":"Du Mardi au Vendredi : de 08h30 à 13h00\nLe Samedi : de 08h30 à 12h30","latitude":47.2392,"longitude":-0.313183,"website":"http://www.louresse-rochemenier.fr/","hasWebsite":true,"hasHoraires":true,"url":"https://lannuaire.service-public.gouv.fr/pays-de-la-loire/maine-et-loire/a037b547-ce39-4199-a523-fdfa248eaf5a"}
{"nom":"Mairie déléguée - Louvaines","nomNormalise":"mairiedelegueelouvaines","typeCollectivite":"Commune","region":"Pays de la Loire","departement":"Maine-et-Loire","departementCode":"49","adresse":{"street":"Louvaines","postalCode":"49500","city":"Segré-en-Anjou Bleu","country":"France"},"contacts":{"email":"louvaines@segreenanjoubleu.fr","telephone":"0241613083"},"horaires":"Le Mardi : de 08h00 à 12h30 de 13h30 à 17h30\nLe Jeudi : de 13h30 à 17h30\nLe Vendredi : de 13h30 à 17h00\nLe Samedi : de 08h00 à 12h00\n\nAccueil ouvert le 1er samedi du mois uniquement.","latitude":47.692654,"longitude":-0.801588,"website":"https://www.segreenanjoubleu.fr/","hasWebsite":true,"hasHoraires":true,"url":"https://lannuaire.service-public.gouv.fr/pays-de-la-loire/maine-et-loire/ebadf681-8fac-4dec-b30e-302d7c28ae6c"}
{"nom":"Lys-Haut-Layon","nomNormalise":"lyshautlayon","typeCollectivite":"Commune","region":"Pays de la Loire","departement":"Maine-et-Loire","departementCode":"49","adresse":{"street":"Vihiers","postalCode":"49310","city":"Lys-Haut-Layon","country":"France"},"contacts":{"email":"mairie@lyshautlayon.fr","telephone":"0241758060"},"horaires":"Le Lundi : de 09h00 à 12h30 de 14h30 à 17h00\nLe Mardi : de 09h00 à 12h30 de 14h30 à 19h00\nDu Mercredi au Jeudi : de 09h00 à 12h30 de 14h30 à 17h00\nLe Vendredi : de 09h00 à 16h00\n\nAccueil fermé les après-midis du lundi au vendredi en août.\nLe Samedi : de 09h00 à 12h00\n\nPermanence pour l'état civil uniquement et fermé en juillet-août.","latitude":47.1451,"longitude":-0.535674,"website":"http://www.lyshautlayon.fr/","hasWebsite":true,"hasHoraires":true,"url":"https://lannuaire.service-public.gouv.fr/pays-de-la-loire/maine-et-loire/74b122df-1b6e-4016-9820-b6078c36efe3"}
{"nom":"Mairie déléguée - Marans","nomNormalise":"mairiedelegueemarans","typeCollectivite":"Commune","region":"Pays de la Loire","departement":"Maine-et-Loire","departementCode":"49","adresse":{"street":"Marans","postalCode":"49500","city":"Segré-en-Anjou Bleu","country":"France"},"contacts":{"email":"marans@segreenanjoubleu.fr","telephone":"0241923196"},"horaires":"Le Lundi : de 09h00 à 12h30\nDu Mardi au Mercredi : de 09h00 à 12h30\n\nSauf le 2è mardi du mois.\nLe Jeudi : de 09h00 à 12h30 de 13h30 à 18h00\nLe Vendredi : de 09h00 à 12h30","latitude":47.638245,"longitude":-0.857903,"website":"https://www.segreenanjoubleu.fr/","hasWebsite":true,"hasHoraires":true,"url":"https://lannuaire.service-public.gouv.fr/pays-de-la-loire/maine-et-loire/bc6b00a3-75c7-4f1e-add6-a5d7ded19ee4"}
{"nom":"Marcé","nomNormalise":"marce","typeCollectivite":"Commune","region":"Pays de la Loire","departement":"Maine-et-Loire","departementCode":"49","adresse":{"street":"2 rue de la Mairie","postalCode":"49140","city":"Marcé","country":"France"},"contacts":{"email":"accueil@villedemarce.fr","telephone":"0241762151"},"horaires":"Du Lundi au Jeudi : de 09h00 à 12h00\nLe Vendredi : de 09h00 à 12h00 de 14h00 à 18h00\nLe Samedi : de 09h00 à 12h00","latitude":47.580067,"longitude":-0.327785,"website":"","hasWebsite":false,"hasHoraires":true,"url":"https://lannuaire.service-public.gouv.fr/pays-de-la-loire/maine-et-loire/76c0041c-bc8e-40a4-866c-489f3579cd1f"}
{"nom":"Mairie déléguée - Marigné","nomNormalise":"mairiedelegueemarigne","typeCollectivite":"Commune","region":"Pays de la Loire","departement":"Maine-et-Loire","departementCode":"49","adresse":{"street":"Marigné","postalCode":"49330","city":"Les Hauts-d'Anjou","country":"France"},"contacts":{"email":"mairie.marigne@leshautsdanjou.fr","telephone":"0241180963"},"horaires":"Du Mardi au Samedi : de 09h00 à 12h00\nAccueil ouvert les 1er et 3e samedis du mois.","latitude":47.72238,"longitude":-0.61638,"website":"https://leshautsdanjou.fr/","hasWebsite":true,"hasHoraires":true,"url":"https://lannuaire.service-public.gouv.fr/pays-de-la-loire/maine-et-loire/eb780f49-a5a4-4044-9a26-0d21ced21d79"}
{"nom":"Mairie déléguée - Martigné-Briand","nomNormalise":"mairiedelegueemartignebriand","typeCollectivite":"Commune","region":"Pays de la Loire","departement":"Maine-et-Loire","departementCode":"49","adresse":{"street":"Martigné-Briand","postalCode":"49540","city":"Terranjou","country":"France"},"contacts":{"email":"accueil-mbriand@terranjou.fr","telephone":"0241594248"},"horaires":"Du Lundi au Mardi : de 09h00 à 12h00\nLe Mercredi : de 09h00 à 12h00 de 13h30 à 17h00\nLe Jeudi : de 09h00 à 12h00\nLe Vendredi : de 09h00 à 12h00 de 13h30 à 17h00\nLe Samedi : de 09h00 à 12h00\n\nLe 1er et 3e samedis du mois.","latitude":47.2335,"longitude":-0.427962,"website":"https://mairie-terranjou.fr/","hasWebsite":true,"hasHoraires":true,"url":"https://lannuaire.service-public.gouv.fr/pays-de-la-loire/maine-et-loire/df5e4d47-c7af-4927-afb9-e5e88902effc"}
{"nom":"Mauges-sur-Loire","nomNormalise":"maugessurloire","typeCollectivite":"Commune","region":"Pays de la Loire","departement":"Maine-et-Loire","departementCode":"49","adresse":{"street":"La Pommeraye","postalCode":"49620","city":"Mauges-sur-Loire","country":"France"},"contacts":{"email":"accueil@mauges-sur-loire.fr","telephone":"0241777811"},"horaires":"Du Lundi au Vendredi : de 09h00 à 12h00 de 15h00 à 18h00\nLe Samedi : de 09h00 à 12h00\n\nAccueil fermé en juillet-août.","latitude":47.361,"longitude":-0.859925,"website":"https://www.mauges-sur-loire.fr/","hasWebsite":true,"hasHoraires":true,"url":"https://lannuaire.service-public.gouv.fr/pays-de-la-loire/maine-et-loire/a02b4272-8071-4db9-9707-1c3bd2e14bd6"}
{"nom":"Maulévrier","nomNormalise":"maulevrier","typeCollectivite":"Commune","region":"Pays de la Loire","departement":"Maine-et-Loire","departementCode":"49","adresse":{"street":"Place de la Mairie","postalCode":"49360","city":"Maulévrier","country":"France"},"contacts":{"email":"mairie@maulevrier.fr","telephone":"0241550029"},"horaires":"Le Lundi : de 09h00 à 12h30 de 13h30 à 17h30\nLe Mardi : de 09h00 à 12h30 de 13h30 à 18h30\nDu Mercredi au Jeudi : de 09h00 à 12h30\nLe Vendredi : de 09h00 à 12h30 de 13h30 à 17h30\nLe Samedi : de 09h00 à 12h00\n\nAccueil ouvert uniquement le 1er samedi du mois.","latitude":47.0073,"longitude":-0.74516,"website":"http://www.maulevrier.fr/","hasWebsite":true,"hasHoraires":true,"url":"https://lannuaire.service-public.gouv.fr/pays-de-la-loire/maine-et-loire/0cb636df-dbc9-4e35-a324-1d105f708b76"}
{"nom":"Mazé-Milon","nomNormalise":"mazemilon","typeCollectivite":"Commune","region":"Pays de la Loire","departement":"Maine-et-Loire","departementCode":"49","adresse":{"street":"Place de l'Église","postalCode":"49630","city":"Mazé-Milon","country":"France"},"contacts":{"email":"info@maze-milon.fr","telephone":"0241806019"},"horaires":"Le Lundi : de 09h00 à 12h00 de 14h00 à 17h00\nLe Mardi : de 09h00 à 12h00\nLe Mercredi : de 09h00 à 12h00 de 14h00 à 17h00\nLe Jeudi : de 14h00 à 17h00\nLe Vendredi : de 09h00 à 12h00 de 14h00 à 17h00\nLe Samedi : de 09h00 à 12h00","latitude":47.45608,"longitude":-0.272481,"website":"https://www.maze-milon.fr/","hasWebsite":true,"hasHoraires":true,"url":"https://lannuaire.service-public.gouv.fr/pays-de-la-loire/maine-et-loire/13d09330-314e-4e94-adcb-70e11482301c"}
{"nom":"Mazières-en-Mauges","nomNormalise":"mazieresenmauges","typeCollectivite":"Commune","region":"Pays de la Loire","departement":"Maine-et-Loire","departementCode":"49","adresse":{"street":"Rue de la Mairie","postalCode":"49280","city":"Mazières-en-Mauges","country":"France"},"contacts":{"email":"mairie@mazieres-en-mauges.fr","telephone":"0241623512"},"horaires":"Du Lundi au Vendredi : de 13h30 à 18h00\nLe Samedi : de 09h30 à 12h00","latitude":47.0476,"longitude":-0.813456,"website":"http://www.mazieres-en-mauges.fr/","hasWebsite":true,"hasHoraires":true,"url":"https://lannuaire.service-public.gouv.fr/pays-de-la-loire/maine-et-loire/1f2d4c13-0a5c-4bd9-b33a-7c001a00ced2"}
{"nom":"Mairie déléguée - Meigné","nomNormalise":"mairiedelegueemeigne","typeCollectivite":"Commune","region":"Pays de la Loire","departement":"Maine-et-Loire","departementCode":"49","adresse":{"street":"Meigné","postalCode":"49700","city":"Doué-en-Anjou","country":"France"},"contacts":{"email":"mairie@doue-en-anjou.fr","telephone":"0241670117"},"horaires":"Le Lundi : de 09h00 à 12h00\nLe Mercredi : de 14h00 à 17h00\nLe Jeudi : de 09h00 à 12h00\nLe Vendredi : de 17h00 à 18h30","latitude":47.2301,"longitude":-0.209481,"website":"","hasWebsite":false,"hasHoraires":true,"url":"https://lannuaire.service-public.gouv.fr/pays-de-la-loire/maine-et-loire/9f3e24be-f865-4109-81da-7bb5c46139d7"}
{"nom":"Mairie déléguée - Meigné-le-Vicomte","nomNormalise":"mairiedelegueemeignelevicomte","typeCollectivite":"Commune","region":"Pays de la Loire","departement":"Maine-et-Loire","departementCode":"49","adresse":{"street":"Meigné-le-Vicomte","postalCode":"49490","city":"Noyant-Villages","country":"France"},"contacts":{"email":"mairie.meignelevicomte@noyant-villages.fr","telephone":"0241895828"},"horaires":"Le Lundi : de 14h00 à 17h00\nLe Mercredi : de 09h00 à 12h00\nLe Jeudi : de 14h00 à 17h00\nLe Vendredi : de 09h00 à 12h00","latitude":47.508102,"longitude":0.190255,"website":"https://www.noyant-villages.fr/","hasWebsite":true,"hasHoraires":true,"url":"https://lannuaire.service-public.gouv.fr/pays-de-la-loire/maine-et-loire/b54a34fb-92c9-4e68-87e4-732f06627070"}
{"nom":"Mairie déléguée - Melay","nomNormalise":"mairiedelegueemelay","typeCollectivite":"Commune","region":"Pays de la Loire","departement":"Maine-et-Loire","departementCode":"49","adresse":{"street":"Melay","postalCode":"49120","city":"Chemillé-en-Anjou","country":"France"},"contacts":{"email":"mairie.melay@chemille-en-anjou.fr","telephone":"0241306367"},"horaires":"Le Lundi : de 09h00 à 12h00 de 14h00 à 17h00\nLe Mardi : de 14h00 à 17h00\nLe Mercredi : de 09h00 à 12h00\nLe Jeudi : de 14h00 à 17h00\nLe Vendredi : de 09h00 à 12h00","latitude":47.182304,"longitude":-0.69679,"website":"http://www.chemille-en-anjou.frlistes/melay","hasWebsite":true,"hasHoraires":true,"url":"https://lannuaire.service-public.gouv.fr/pays-de-la-loire/maine-et-loire/ec796fd8-f30e-485b-bf69-72d0a1e53960"}
{"nom":"Mairie déléguée - Méon","nomNormalise":"mairiedelegueemeon","typeCollectivite":"Commune","region":"Pays de la Loire","departement":"Maine-et-Loire","departementCode":"49","adresse":{"street":"Méon","postalCode":"49490","city":"Noyant-Villages","country":"France"},"contacts":{"email":"mairie.meon@noyant-villages.fr","telephone":"0241895112"},"horaires":"Le Mardi : de 08h30 à 12h30\nLe Vendredi : de 14h00 à 18h00","latitude":47.49479,"longitude":0.119429,"website":"https://www.noyant-villages.fr/","hasWebsite":true,"hasHoraires":true,"url":"https://lannuaire.service-public.gouv.fr/pays-de-la-loire/maine-et-loire/ebf7db5f-7698-4ef2-a06d-3f9fcb16a007"}
{"nom":"Miré","nomNormalise":"mire","typeCollectivite":"Commune","region":"Pays de la Loire","departement":"Maine-et-Loire","departementCode":"49","adresse":{"street":"Rue des Échevins","postalCode":"49330","city":"Miré","country":"France"},"contacts":{"email":"accueil@mairiemire.fr","telephone":"0241328214"},"horaires":"Du Lundi au Mardi : de 09h00 à 12h00\nDu Jeudi au Vendredi : de 09h00 à 12h00\n\nAccueil possible sur rendez-vous les lundis, mardis, jeudis et vendredis de 14h30 à 17h.","latitude":47.7579,"longitude":-0.498163,"website":"https://mairiemire.fr/","hasWebsite":true,"hasHoraires":true,"url":"https://lannuaire.service-public.gouv.fr/pays-de-la-loire/maine-et-loire/efb4f2e9-7826-4789-83c0-c188118b5a15"}
{"nom":"Mairie déléguée - Montfort","nomNormalise":"mairiedelegueemontfort","typeCollectivite":"Commune","region":"Pays de la Loire","departement":"Maine-et-Loire","departementCode":"49","adresse":{"street":"Montfort","postalCode":"49700","city":"Doué-en-Anjou","country":"France"},"contacts":{"email":"mairie@doue-en-anjou.fr","telephone":"0241670388"},"horaires":"Le Mercredi : de 09h00 à 12h30\nLe Vendredi : de 09h00 à 12h30","latitude":47.1968,"longitude":-0.209484,"website":"","hasWebsite":false,"hasHoraires":true,"url":"https://lannuaire.service-public.gouv.fr/pays-de-la-loire/maine-et-loire/edc13846-7d06-4e35-a077-9a1e928c57eb"}
{"nom":"Mairie déléguée - Montguillon","nomNormalise":"mairiedelegueemontguillon","typeCollectivite":"Commune","region":"Pays de la Loire","departement":"Maine-et-Loire","departementCode":"49","adresse":{"street":"Montguillon","postalCode":"49500","city":"Segré-en-Anjou Bleu","country":"France"},"contacts":{"email":"montguillon@segreenanjoubleu.fr","telephone":"0241613172"},"horaires":"Le Vendredi : de 09h30 à 12h30 de 13h30 à 18h00\nLe Samedi : de 09h00 à 12h30\n\nAccueil ouvert uniquement le dernier samedi de chaque mois","latitude":47.753464,"longitude":-0.792186,"website":"https://www.segreenanjoubleu.fr/","hasWebsite":true,"hasHoraires":true,"url":"https://lannuaire.service-public.gouv.fr/pays-de-la-loire/maine-et-loire/2c0d736c-948e-482f-ba8c-dcc19b6a269a"}
{"nom":"Montigné-lès-Rairies","nomNormalise":"montignelesrairies","typeCollectivite":"Commune","region":"Pays de la Loire","departement":"Maine-et-Loire","departementCode":"49","adresse":{"street":"9 rue de la Mairie","postalCode":"49430","city":"Montigné-lès-Rairies","country":"France"},"contacts":{"email":"mairie@montignelesrairies49.fr","telephone":"0241325054"},"horaires":"Le Lundi : de 09h00 à 12h00 de 14h00 à 17h30\nLe Mercredi : de 09h00 à 12h00\nLe Vendredi : de 09h00 à 12h30","latitude":47.6222,"longitude":-0.204873,"website":"http://www.montignelesrairies49.fr/","hasWebsite":true,"hasHoraires":true,"url":"https://lannuaire.service-public.gouv.fr/pays-de-la-loire/maine-et-loire/26d040a7-6797-4ecb-801b-0dad61158812"}
{"nom":"Montilliers","nomNormalise":"montilliers","typeCollectivite":"Commune","region":"Pays de la Loire","departement":"Maine-et-Loire","departementCode":"49","adresse":{"street":"2 place du Comte-Hector","postalCode":"49310","city":"Montilliers","country":"France"},"contacts":{"email":"accueil@mairiemontilliers.fr","telephone":"0241758154"},"horaires":"Du Mardi au Vendredi : de 08h30 à 12h30\nLe Samedi : de 08h30 à 12h00","latitude":47.182346,"longitude":-0.504311,"website":"https://montilliers49.fr/","hasWebsite":true,"hasHoraires":true,"url":"https://lannuaire.service-public.gouv.fr/pays-de-la-loire/maine-et-loire/e739b997-a2ba-45e4-ab03-935cbd1fecdb"}
{"nom":"Montreuil-Bellay","nomNormalise":"montreuilbellay","typeCollectivite":"Commune","region":"Pays de la Loire","departement":"Maine-et-Loire","departementCode":"49","adresse":{"street":"2 place de la Mairie","postalCode":"49260","city":"Montreuil-Bellay","country":"France"},"contacts":{"email":"information@ville-montreuil-bellay.fr","telephone":"0241401760"},"horaires":"Du Lundi au Vendredi : de 09h00 à 12h00 de 14h00 à 18h00","latitude":47.1311,"longitude":-0.1571346,"website":"https://www.ville-montreuil-bellay.fr/","hasWebsite":true,"hasHoraires":true,"url":"https://lannuaire.service-public.gouv.fr/pays-de-la-loire/maine-et-loire/ebcee7cb-6f65-42e7-9502-eff423f1b906"}
{"nom":"Montreuil-Juigné","nomNormalise":"montreuiljuigne","typeCollectivite":"Commune","region":"Pays de la Loire","departement":"Maine-et-Loire","departementCode":"49","adresse":{"street":"Esplanade Jean-Moulin","postalCode":"49460","city":"Montreuil-Juigné","country":"France"},"contacts":{"email":"accueil-mairie@ville-montreuil-juigne.fr","telephone":"0241311040"},"horaires":"Le Lundi : de 08h45 à 12h00 de 14h30 à 17h30\nLe Mardi : de 08h45 à 12h00 de 14h30 à 18h00\nDu Mercredi au Jeudi : de 08h45 à 12h00 de 14h30 à 17h30\nLe Vendredi : de 08h30 à 12h00 de 13h30 à 16h30\nLe Samedi : de 09h00 à 12h00\n\nAccueil fermé pendant les vacances scolaires.","latitude":47.528,"longitude":-0.606349,"website":"http://www.ville-montreuil-juigne.fr/","hasWebsite":true,"hasHoraires":true,"url":"https://lannuaire.service-public.gouv.fr/pays-de-la-loire/maine-et-loire/ef23b9b8-cce4-4482-9d99-cf2b1f6987bd"}
{"nom":"Montreuil-sur-Loir","nomNormalise":"montreuilsurloir","typeCollectivite":"Commune","region":"Pays de la Loire","departement":"Maine-et-Loire","departementCode":"49","adresse":{"street":"3 rue de la Mairie","postalCode":"49140","city":"Montreuil-sur-Loir","country":"France"},"contacts":{"email":"mairie@montreuilsurloir.fr","telephone":"0241762109"},"horaires":"Le Lundi : de 09h00 à 12h00\nLe Mardi : de 09h00 à 12h00 de 13h00 à 17h30\nLe Jeudi : de 09h00 à 12h00 de 13h00 à 17h30\nLe Samedi : de 09h00 à 12h00\n\nUniquement le 1er et le 3ème du mois.","latitude":47.6073,"longitude":-0.403654,"website":"https://montreuilsloir.fr/","hasWebsite":true,"hasHoraires":true,"url":"https://lannuaire.service-public.gouv.fr/pays-de-la-loire/maine-et-loire/85d1069d-30f6-4580-bf72-e9dbf4fecdfb"}
{"nom":"Montreuil-sur-Maine","nomNormalise":"montreuilsurmaine","typeCollectivite":"Commune","region":"Pays de la Loire","departement":"Maine-et-Loire","departementCode":"49","adresse":{"street":"23 rue du Val-de-Maine","postalCode":"49220","city":"Montreuil-sur-Maine","country":"France"},"contacts":{"email":"mairie@montreuilsurmaine.fr","telephone":"0241953203"},"horaires":"Le Lundi : de 09h00 à 12h00\nLe Mercredi : de 09h00 à 12h00 de 15h00 à 17h00\n\nAccueil ouvert uniquement sur rendez-vous l'après-midi.\nLe Vendredi : de 14h00 à 17h30\nLe Samedi : de 10h30 à 12h00\n\nPermanence des élus uniquement.","latitude":47.613,"longitude":-0.68583,"website":"http://www.montreuilsurmaine.fr/","hasWebsite":true,"hasHoraires":true,"url":"https://lannuaire.service-public.gouv.fr/pays-de-la-loire/maine-et-loire/0f884007-35fb-4472-a778-3885fb635d10"}
{"nom":"Montrevault-sur-Èvre","nomNormalise":"montrevaultsurevre","typeCollectivite":"Commune","region":"Pays de la Loire","departement":"Maine-et-Loire","departementCode":"49","adresse":{"street":"2 rue Arthur-Gibouin","postalCode":"49110","city":"Montrevault-sur-Èvre","country":"France"},"contacts":{"email":"accueil@montrevaultsurevre.fr","telephone":"0241300265"},"horaires":"Du Lundi au Vendredi : de 09h00 à 12h30 de 14h00 à 17h30\nLe Samedi : de 09h00 à 12h00","latitude":47.258198,"longitude":-1.0479882,"website":"https://www.montrevaultsurevre.fr/","hasWebsite":true,"hasHoraires":true,"url":"https://lannuaire.service-public.gouv.fr/pays-de-la-loire/maine-et-loire/432fcd03-1ead-41d0-bee6-e41fe32cff26"}
{"nom":"Montsoreau","nomNormalise":"montsoreau","typeCollectivite":"Commune","region":"Pays de la Loire","departement":"Maine-et-Loire","departementCode":"49","adresse":{"street":"24 place des Diligences","postalCode":"49730","city":"Montsoreau","country":"France"},"contacts":{"email":"mairie@ville-montsoreau.fr","telephone":"0241517015"},"horaires":"Du Lundi au Mardi : de 09h00 à 12h30\nDu Jeudi au Vendredi : de 09h00 à 12h30","latitude":47.2151,"longitude":0.061546,"website":"https://www.intramuros.org/montsoreau","hasWebsite":true,"hasHoraires":true,"url":"https://lannuaire.service-public.gouv.fr/pays-de-la-loire/maine-et-loire/e8c22178-9858-4412-a64a-0855c2dfae0d"}
{"nom":"Morannes-sur Sarthe-Daumeray","nomNormalise":"morannessursarthedaumeray","typeCollectivite":"Commune","region":"Pays de la Loire","departement":"Maine-et-Loire","departementCode":"49","adresse":{"street":"Morannes","postalCode":"49640","city":"Morannes-sur Sarthe-Daumeray","country":"France"},"contacts":{"email":"accueil.morannes@ville-msd.fr","telephone":"0241422108"},"horaires":"Du Lundi au Mardi : de 08h30 à 12h00 de 13h30 à 17h30\nLe Mercredi : de 08h30 à 12h00\nLe Jeudi : de 08h30 à 12h00 de 13h30 à 17h30\nDu Vendredi au Samedi : de 08h30 à 12h00","latitude":47.744106,"longitude":-0.417423,"website":"https://morannessursarthe-daumeray.fr/","hasWebsite":true,"hasHoraires":true,"url":"https://lannuaire.service-public.gouv.fr/pays-de-la-loire/maine-et-loire/16282fcd-a5a3-448e-b595-3b18da26558c"}
{"nom":"Mouliherne","nomNormalise":"mouliherne","typeCollectivite":"Commune","region":"Pays de la Loire","departement":"Maine-et-Loire","departementCode":"49","adresse":{"street":"1 place Émile-Delétang","postalCode":"49390","city":"Mouliherne","country":"France"},"contacts":{"email":"mairie.mouliherne@wanadoo.fr","telephone":"0241670900"},"horaires":"Du Lundi au Vendredi : de 09h00 à 12h00 de 14h15 à 17h15\nLe Samedi : de 09h00 à 12h00","latitude":47.466908,"longitude":0.017108,"website":"https://www.mouliherne.fr/","hasWebsite":true,"hasHoraires":true,"url":"https://lannuaire.service-public.gouv.fr/pays-de-la-loire/maine-et-loire/a9cb7348-e0a1-4b8d-8196-7973b47bfdda"}
{"nom":"Mozé-sur-Louet","nomNormalise":"mozesurlouet","typeCollectivite":"Commune","region":"Pays de la Loire","departement":"Maine-et-Loire","departementCode":"49","adresse":{"street":"7 rue du 22-Juillet-1793","postalCode":"49610","city":"Mozé-sur-Louet","country":"France"},"contacts":{"email":"mairie@mozesurlouet.fr","telephone":"0241453166"},"horaires":"Du Lundi au Jeudi : de 09h00 à 12h00\nLe Vendredi : de 09h00 à 16h30","latitude":47.3578,"longitude":-0.551518,"website":"https://www.mozesurlouet.fr/","hasWebsite":true,"hasHoraires":true,"url":"https://lannuaire.service-public.gouv.fr/pays-de-la-loire/maine-et-loire/4143fadb-207d-4b05-88a3-c5588604541a"}
{"nom":"Mûrs-Erigné","nomNormalise":"murserigne","typeCollectivite":"Commune","region":"Pays de la Loire","departement":"Maine-et-Loire","departementCode":"49","adresse":{"street":"5 chemin de Bellevue","postalCode":"49610","city":"Mûrs-Erigné","country":"France"},"contacts":{"email":"info@ville-murs-erigne.fr","telephone":"0241797877"},"horaires":"Du Lundi au Mardi : de 09h00 à 12h00 de 14h00 à 17h00\nLe Mercredi : de 09h00 à 12h00\nDu Jeudi au Vendredi : de 09h00 à 12h00 de 14h00 à 17h00\nLe Samedi : de 09h00 à 12h00\n\nAccueil ouvert uniquement le 1er samedi du mois.","latitude":47.3993,"longitude":-0.537497,"website":"http://www.murs-erigne.fr/","hasWebsite":true,"hasHoraires":true,"url":"https://lannuaire.service-public.gouv.fr/pays-de-la-loire/maine-et-loire/66e3ca60-faee-4c3a-8ba9-35504708ecc6"}
{"nom":"Neuillé","nomNormalise":"neuille","typeCollectivite":"Commune","region":"Pays de la Loire","departement":"Maine-et-Loire","departementCode":"49","adresse":{"street":"7 place Saint-Médard","postalCode":"49680","city":"Neuillé","country":"France"},"contacts":{"email":"secretariat@neuille.fr","telephone":"0241525110"},"horaires":"Du Lundi au Samedi : de 09h00 à 12h15","latitude":47.342632,"longitude":-0.0356519,"website":"https://www.mairiedeneuille.fr/","hasWebsite":true,"hasHoraires":true,"url":"https://lannuaire.service-public.gouv.fr/pays-de-la-loire/maine-et-loire/3c3ba913-50db-4b5f-a9c5-dd4c5bcddff3"}
{"nom":"Mairie déléguée - Neuvy-en-Mauges","nomNormalise":"mairiedelegueeneuvyenmauges","typeCollectivite":"Commune","region":"Pays de la Loire","departement":"Maine-et-Loire","departementCode":"49","adresse":{"street":"Neuvy-en-Mauges","postalCode":"49120","city":"Chemillé-en-Anjou","country":"France"},"contacts":{"email":"mairie.neuvy-en-mauges@chemille-en-anjou.fr","telephone":"0241706022"},"horaires":"Du Lundi au Mardi : de 14h00 à 17h00\nLe Jeudi : de 14h00 à 17h00\nLe Vendredi : de 14h00 à 18h30","latitude":47.267326,"longitude":-0.82597,"website":"http://www.chemille-en-anjou.frlistes/neuvy-en-mauges","hasWebsite":true,"hasHoraires":true,"url":"https://lannuaire.service-public.gouv.fr/pays-de-la-loire/maine-et-loire/8208310f-4ac3-4d8c-916a-24e18cde3211"}
{"nom":"Mairie déléguée - Noëllet","nomNormalise":"mairiedelegueenoellet","typeCollectivite":"Commune","region":"Pays de la Loire","departement":"Maine-et-Loire","departementCode":"49","adresse":{"street":"Noëllet","postalCode":"49520","city":"Ombrée d'Anjou","country":"France"},"contacts":{"email":"info.noellet@ombreedanjou.fr","telephone":"0241943059"},"horaires":"Le Lundi : de 14h00 à 17h30\nLe Jeudi : de 14h00 à 17h00\nLe Vendredi : de 09h00 à 12h00\nLe Samedi : de 09h00 à 12h00\n\nAccueil ouvert uniquement le 3e samedi du mois.","latitude":47.6908,"longitude":-1.08336,"website":"https://www.ombreedanjou.fr/contacts/mairie-deleguee-de-noellet/","hasWebsite":true,"hasHoraires":true,"url":"https://lannuaire.service-public.gouv.fr/pays-de-la-loire/maine-et-loire/c1fdea62-f9c7-4ad4-92de-5e6eba1904bd"}
{"nom":"Mairie déléguée - Notre-Dame-d'Allençon","nomNormalise":"mairiedelegueenotredamedallencon","typeCollectivite":"Commune","region":"Pays de la Loire","departement":"Maine-et-Loire","departementCode":"49","adresse":{"street":"Notre-Dame-d'Allençon","postalCode":"49380","city":"Terranjou","country":"France"},"contacts":{"email":"accueil-ndallencon@terranjou.fr","telephone":"0241543021"},"horaires":"Le Lundi : de 09h00 à 12h30\nLe Jeudi : de 09h00 à 12h30\nLe Vendredi : de 09h00 à 12h30 de 13h30 à 17h00","latitude":47.302303,"longitude":-0.449078,"website":"https://mairie-terranjou.fr/","hasWebsite":true,"hasHoraires":true,"url":"https://lannuaire.service-public.gouv.fr/pays-de-la-loire/maine-et-loire/b89d8d89-ae52-4feb-848d-418ccac8a3ad"}
{"nom":"Mairie déléguée - Noyant-la-Gravoyère","nomNormalise":"mairiedelegueenoyantlagravoyere","typeCollectivite":"Commune","region":"Pays de la Loire","departement":"Maine-et-Loire","departementCode":"49","adresse":{"street":"Noyant-la-Gravoyère","postalCode":"49520","city":"Segré-en-Anjou Bleu","country":"France"},"contacts":{"email":"noyantlagravoyere@segreenanjoubleu.fr","telephone":"0241615008"},"horaires":"Du Lundi au Mardi : de 09h30 à 12h00 de 14h30 à 17h30\nLe Mercredi : de 14h30 à 17h30\nDu Jeudi au Vendredi : de 09h30 à 12h00 de 14h30 à 17h30\nLe Samedi : de 09h30 à 11h30\n\nAccueil fermé le samedi en juillet et en août.","latitude":47.70362,"longitude":-0.9522745,"website":"http://www.segreenanjoubleu.fr/","hasWebsite":true,"hasHoraires":true,"url":"https://lannuaire.service-public.gouv.fr/pays-de-la-loire/maine-et-loire/f95d3744-1e7b-426e-9d58-b54be36b2004"}
{"nom":"Noyant-Villages","nomNormalise":"noyantvillages","typeCollectivite":"Commune","region":"Pays de la Loire","departement":"Maine-et-Loire","departementCode":"49","adresse":{"street":"Noyant","postalCode":"49490","city":"Noyant-Villages","country":"France"},"contacts":{"email":"accueil@noyant-villages.fr","telephone":"0241895114"},"horaires":"Le Mardi : de 08h30 à 12h30 de 13h30 à 18h00\nLe Jeudi : de 08h30 à 12h30 de 13h30 à 18h00","latitude":47.510773,"longitude":0.120387,"website":"https://www.noyant-villages.fr/","hasWebsite":true,"hasHoraires":true,"url":"https://lannuaire.service-public.gouv.fr/pays-de-la-loire/maine-et-loire/66c0bad2-9e02-4d44-baf5-9da991d812cc"}
{"nom":"Nuaillé","nomNormalise":"nuaille","typeCollectivite":"Commune","region":"Pays de la Loire","departement":"Maine-et-Loire","departementCode":"49","adresse":{"street":"12 rue Germaine-de-Terves","postalCode":"49340","city":"Nuaillé","country":"France"},"contacts":{"email":"contact@mairienuaille.fr","telephone":"0241627518"},"horaires":"Le Mardi : de 08h30 à 11h30 de 14h00 à 17h30\nLe Mercredi : de 08h30 à 11h30\nDu Jeudi au Vendredi : de 08h30 à 11h30 de 14h00 à 17h30\nLe Samedi : de 08h30 à 11h30","latitude":47.095623,"longitude":-0.7968932,"website":"https://www.intramuros.org/nuaille","hasWebsite":true,"hasHoraires":true,"url":"https://lannuaire.service-public.gouv.fr/pays-de-la-loire/maine-et-loire/ef4e9a7d-469c-4429-b1df-73136860f550"}
{"nom":"Mairie déléguée - Nyoiseau","nomNormalise":"mairiedelegueenyoiseau","typeCollectivite":"Commune","region":"Pays de la Loire","departement":"Maine-et-Loire","departementCode":"49","adresse":{"street":"Nyoiseau","postalCode":"49500","city":"Segré-en-Anjou Bleu","country":"France"},"contacts":{"email":"nyoiseau@segreenanjoubleu.fr","telephone":"0241922665"},"horaires":"Du Lundi au Mardi : de 09h00 à 13h00 de 14h00 à 16h30\nLe Mercredi : de 09h00 à 13h00\nDu Jeudi au Vendredi : de 09h00 à 13h00 de 14h00 à 16h30\nLe Samedi : de 09h00 à 12h00\n\nAccueil fermé le 1er samedi du mois.","latitude":47.7164,"longitude":-0.9155166,"website":"https://www.segreenanjoubleu.fr/","hasWebsite":true,"hasHoraires":true,"url":"https://lannuaire.service-public.gouv.fr/pays-de-la-loire/maine-et-loire/7482b3aa-2b7a-4dc6-a9ca-6290bdea025b"}
{"nom":"Ombrée d'Anjou","nomNormalise":"ombreedanjou","typeCollectivite":"Commune","region":"Pays de la Loire","departement":"Maine-et-Loire","departementCode":"49","adresse":{"street":"Pouancé","postalCode":"49420","city":"Ombrée d'Anjou","country":"France"},"contacts":{"email":"info@ombreedanjou.fr","telephone":"0241923519"},"horaires":"Du Lundi au Jeudi : de 09h00 à 12h30 de 13h30 à 17h00\nLe Vendredi : de 09h00 à 12h30 de 13h30 à 16h00","latitude":47.740395,"longitude":-1.1765625,"website":"https://www.ombreedanjou.fr/","hasWebsite":true,"hasHoraires":true,"url":"https://lannuaire.service-public.gouv.fr/pays-de-la-loire/maine-et-loire/bcec2ba1-f5b9-466f-9718-bfda504bf26a"}
{"nom":"Orée d'Anjou","nomNormalise":"oreedanjou","typeCollectivite":"Commune","region":"Pays de la Loire","departement":"Maine-et-Loire","departementCode":"49","adresse":{"street":"Drain","postalCode":"49530","city":"Orée d'Anjou","country":"France"},"contacts":{"email":"accueil2@oreedanjou.fr","telephone":"0240835013"},"horaires":"Du Lundi au Mardi : de 09h00 à 12h30 de 14h00 à 17h00\nLe Mercredi : de 09h00 à 12h00\nLe Jeudi : de 09h00 à 12h30 de 14h00 à 17h00\nLe Vendredi : de 09h00 à 12h30 de 14h00 à 16h00","latitude":47.33453,"longitude":-1.206863,"website":"https://www.oreedanjou.fr/","hasWebsite":true,"hasHoraires":true,"url":"https://lannuaire.service-public.gouv.fr/pays-de-la-loire/maine-et-loire/df6e56dd-837e-49f2-96fa-7e729140c413"}
{"nom":"Mairie déléguée - Parçay-les-Pins","nomNormalise":"mairiedelegueeparcaylespins","typeCollectivite":"Commune","region":"Pays de la Loire","departement":"Maine-et-Loire","departementCode":"49","adresse":{"street":"Parçay-les-Pins","postalCode":"49390","city":"Noyant-Villages","country":"France"},"contacts":{"email":"mairie.parcaylespins@noyant-villages.fr","telephone":"0241826252"},"horaires":"Le Mardi : de 09h00 à 12h00\nLe Mercredi : de 09h00 à 12h00 de 14h00 à 18h00\nDu Jeudi au Samedi : de 09h00 à 12h00","latitude":47.43728,"longitude":0.160259,"website":"http://www.noyant-villages.fr/","hasWebsite":true,"hasHoraires":true,"url":"https://lannuaire.service-public.gouv.fr/pays-de-la-loire/maine-et-loire/da7dddb3-16b8-4416-b6b1-a68e5f945437"}
{"nom":"Parnay","nomNormalise":"parnay","typeCollectivite":"Commune","region":"Pays de la Loire","departement":"Maine-et-Loire","departementCode":"49","adresse":{"street":"4 route de Saumur","postalCode":"49730","city":"Parnay","country":"France"},"contacts":{"email":"contact@parnay.fr","telephone":"0241381161"},"horaires":"Le Lundi : de 09h00 à 12h30\nLe Mardi : de 13h30 à 16h30\nLe Mercredi : de 13h30 à 15h00\nLe Vendredi : de 13h30 à 16h30","latitude":47.231373,"longitude":0.0104471,"website":"http://www.parnay.fr/","hasWebsite":true,"hasHoraires":true,"url":"https://lannuaire.service-public.gouv.fr/pays-de-la-loire/maine-et-loire/70c578a6-67ef-4d39-a1b5-68aade29d6a2"}
{"nom":"Passavant-sur-Layon","nomNormalise":"passavantsurlayon","typeCollectivite":"Commune","region":"Pays de la Loire","departement":"Maine-et-Loire","departementCode":"49","adresse":{"street":"9 rue du Prieuré","postalCode":"49560","city":"Passavant-sur-Layon","country":"France"},"contacts":{"email":"passavantsurlayon@orange.fr","telephone":"0241595517"},"horaires":"Le Mardi : de 13h30 à 18h00","latitude":47.108685,"longitude":-0.3904329,"website":"","hasWebsite":false,"hasHoraires":true,"url":"https://lannuaire.service-public.gouv.fr/pays-de-la-loire/maine-et-loire/1e32fe8d-c34d-4353-9e8d-52ea72ef377a"}
{"nom":"Mairie déléguée - Pruillé","nomNormalise":"mairiedelegueepruille","typeCollectivite":"Commune","region":"Pays de la Loire","departement":"Maine-et-Loire","departementCode":"49","adresse":{"street":"2 rue Principale","postalCode":"49770","city":"Longuenée-en-Anjou","country":"France"},"contacts":{"email":"pruille@longuenee-en-anjou.fr","telephone":"0241326729"},"horaires":"Le Lundi : de 14h00 à 17h30\nLe Mercredi : de 09h00 à 12h00","latitude":47.57686,"longitude":-0.66342,"website":"","hasWebsite":false,"hasHoraires":true,"url":"https://lannuaire.service-public.gouv.fr/pays-de-la-loire/maine-et-loire/912bf790-52e4-4130-8b76-726d2d904e06"}
{"nom":"Mairie déléguée - Querré","nomNormalise":"mairiedelegueequerre","typeCollectivite":"Commune","region":"Pays de la Loire","departement":"Maine-et-Loire","departementCode":"49","adresse":{"street":"Querré","postalCode":"49330","city":"Les Hauts-d'Anjou","country":"France"},"contacts":{"email":"mairie.querre@leshautsdanjou.fr","telephone":"0241420200"},"horaires":"Le Mardi : de 14h00 à 17h00\nLe Vendredi : de 14h00 à 17h00","latitude":47.67787,"longitude":-0.6208115,"website":"https://leshautsdanjou.fr/","hasWebsite":true,"hasHoraires":true,"url":"https://lannuaire.service-public.gouv.fr/pays-de-la-loire/maine-et-loire/7c60451f-248b-41df-af8b-d4b8ab2ef237"}
{"nom":"Rochefort-sur-Loire","nomNormalise":"rochefortsurloire","typeCollectivite":"Commune","region":"Pays de la Loire","departement":"Maine-et-Loire","departementCode":"49","adresse":{"street":"Place de l'Hôtel-de-Ville","postalCode":"49190","city":"Rochefort-sur-Loire","country":"France"},"contacts":{"email":"accueil@rochefortsurloire.fr","telephone":"0241787024"},"horaires":"Du Lundi au Vendredi : de 08h30 à 12h30\nAccueil sur rendez-vous les après-midis.","latitude":47.356,"longitude":-0.654079,"website":"https://www.rochefortsurloire.fr/","hasWebsite":true,"hasHoraires":true,"url":"https://lannuaire.service-public.gouv.fr/pays-de-la-loire/maine-et-loire/cde6e0cb-3429-44bc-b7c2-dce95859a033"}
{"nom":"Rou-Marson","nomNormalise":"roumarson","typeCollectivite":"Commune","region":"Pays de la Loire","departement":"Maine-et-Loire","departementCode":"49","adresse":{"street":"3 place Robert-Sébille","postalCode":"49400","city":"Rou-Marson","country":"France"},"contacts":{"email":"mairie@rou-marson.fr","telephone":"0241505047"},"horaires":"Du Lundi au Mardi : de 09h00 à 12h00\nLe Mercredi : de 16h00 à 19h00\nDu Jeudi au Vendredi : de 09h00 à 12h00","latitude":47.234516,"longitude":-0.156555,"website":"http://www.rou-marson.fr/","hasWebsite":true,"hasHoraires":true,"url":"https://lannuaire.service-public.gouv.fr/pays-de-la-loire/maine-et-loire/8231e9af-b422-4abb-9443-8cf70ca464a2"}
{"nom":"Saint-Augustin-des-Bois","nomNormalise":"saintaugustindesbois","typeCollectivite":"Commune","region":"Pays de la Loire","departement":"Maine-et-Loire","departementCode":"49","adresse":{"street":"1 place de l'Église","postalCode":"49170","city":"Saint-Augustin-des-Bois","country":"France"},"contacts":{"email":"mairie@saint-augustin-des-bois.fr","telephone":"0241770449"},"horaires":"Du Lundi au Vendredi : de 09h00 à 12h00\nLe Samedi : de 09h00 à 12h00\n\nAccueil ouvert les 1er et 3e samedis du mois.","latitude":47.4601,"longitude":-0.794827,"website":"http://www.saint-augustin-des-bois.fr/","hasWebsite":true,"hasHoraires":true,"url":"https://lannuaire.service-public.gouv.fr/pays-de-la-loire/maine-et-loire/d3ad037e-e6b1-4cb7-a7d6-4f85c7ecc951"}
{"nom":"Saint-Barthélemy-d'Anjou","nomNormalise":"saintbarthelemydanjou","typeCollectivite":"Commune","region":"Pays de la Loire","departement":"Maine-et-Loire","departementCode":"49","adresse":{"street":"1 rue Jean-Gilles","postalCode":"49124","city":"Saint-Barthélemy-d'Anjou","country":"France"},"contacts":{"email":"contact@ville-stbarth.fr","telephone":"0241961280"},"horaires":"Le Lundi : de 08h45 à 12h30 de 13h45 à 17h30\nLe Mardi : de 10h30 à 12h30 de 13h45 à 19h00\n\nFermeture à 17h30 pendant les vacances scolaires.\nDu Mercredi au Vendredi : de 08h45 à 12h30 de 13h45 à 17h30","latitude":47.46861,"longitude":-0.495751,"website":"http://www.ville-saint-barthelemy-anjou.fr/","hasWebsite":true,"hasHoraires":true,"url":"https://lannuaire.service-public.gouv.fr/pays-de-la-loire/maine-et-loire/6d850cd4-5a07-4b31-974d-6162790d6ba2"}
{"nom":"Saint-Christophe-du-Bois","nomNormalise":"saintchristophedubois","typeCollectivite":"Commune","region":"Pays de la Loire","departement":"Maine-et-Loire","departementCode":"49","adresse":{"street":"31 rue du Maréchal-Leclerc","postalCode":"49280","city":"Saint-Christophe-du-Bois","country":"France"},"contacts":{"email":"mairie@saint-christophe-du-bois.fr","telephone":"0241569251"},"horaires":"Le Lundi : de 13h00 à 17h00\nLe Mardi : de 09h30 à 13h00 de 14h00 à 17h00\nLe Mercredi : de 09h00 à 12h00\nDu Jeudi au Vendredi : de 09h30 à 13h00 de 14h00 à 17h00\nLe Samedi : de 09h00 à 12h00\n\nUn samedi sur deux","latitude":47.0261,"longitude":-0.950149,"website":"http://www.saint-christophe-du-bois.fr/","hasWebsite":true,"hasHoraires":true,"url":"https://lannuaire.service-public.gouv.fr/pays-de-la-loire/maine-et-loire/01251261-f02b-412f-80be-98641a6d5692"}
{"nom":"Saint-Clément-de-la-Place","nomNormalise":"saintclementdelaplace","typeCollectivite":"Commune","region":"Pays de la Loire","departement":"Maine-et-Loire","departementCode":"49","adresse":{"street":"9 place de l'Église","postalCode":"49370","city":"Saint-Clément-de-la-Place","country":"France"},"contacts":{"email":"mairie@saint-clement-de-la-place.fr","telephone":"0241779404"},"horaires":"Le Lundi : de 09h00 à 12h30 de 14h00 à 17h30\nLe Mardi : de 09h00 à 12h30\nLe Mercredi : de 09h00 à 12h30 de 14h00 à 17h30\nLe Jeudi : de 09h00 à 12h30\nLe Vendredi : de 09h00 à 12h30 de 14h00 à 16h30","latitude":47.525204,"longitude":-0.7450538,"website":"https://www.saint-clement-de-la-place.fr/","hasWebsite":true,"hasHoraires":true,"url":"https://lannuaire.service-public.gouv.fr/pays-de-la-loire/maine-et-loire/c011dc46-13e4-4692-999c-7cdb49e38d17"}
{"nom":"Saint-Clément-des-Levées","nomNormalise":"saintclementdeslevees","typeCollectivite":"Commune","region":"Pays de la Loire","departement":"Maine-et-Loire","departementCode":"49","adresse":{"street":"3 place Michel-Pruvost","postalCode":"49350","city":"Saint-Clément-des-Levées","country":"France"},"contacts":{"email":"sgmairie@stclementdeslevees.fr","telephone":"0241384013"},"horaires":"Le Lundi : de 10h00 à 12h00 de 14h00 à 18h00\nDu Mardi au Jeudi : de 14h00 à 18h00\nLe Vendredi : de 10h00 à 12h00 de 14h00 à 17h00","latitude":47.33577,"longitude":-0.181928,"website":"https://www.stclementdeslevees.fr/","hasWebsite":true,"hasHoraires":true,"url":"https://lannuaire.service-public.gouv.fr/pays-de-la-loire/maine-et-loire/d38cb5d5-884e-49f5-8fe7-dd194f8d019d"}
{"nom":"Mairie déléguée - Sainte-Christine","nomNormalise":"mairiedelegueesaintechristine","typeCollectivite":"Commune","region":"Pays de la Loire","departement":"Maine-et-Loire","departementCode":"49","adresse":{"street":"Sainte-Christine","postalCode":"49120","city":"Chemillé-en-Anjou","country":"France"},"contacts":{"email":"mairie.sainte-christine@chemille-en-anjou.fr","telephone":"0241706095"},"horaires":"Du Lundi au Mardi : de 09h00 à 12h00\nDu Jeudi au Samedi : de 09h00 à 12h00\n\nAccueil fermé le samedi en juillet-août.","latitude":47.28642,"longitude":-0.848239,"website":"http://www.chemille-en-anjou.frlistes/sainte-christine","hasWebsite":true,"hasHoraires":true,"url":"https://lannuaire.service-public.gouv.fr/pays-de-la-loire/maine-et-loire/b92ec651-7742-4e46-bceb-8d1201565289"}
{"nom":"Mairie déléguée - Sainte-Gemmes-d'Andigné","nomNormalise":"mairiedelegueesaintegemmesdandigne","typeCollectivite":"Commune","region":"Pays de la Loire","departement":"Maine-et-Loire","departementCode":"49","adresse":{"street":"Sainte-Gemmes-d'Andigné","postalCode":"49500","city":"Segré-en-Anjou Bleu","country":"France"},"contacts":{"email":"saintegemmesdandigne@segreenanjoubleu.fr","telephone":"0241922040"},"horaires":"Le Lundi : de 09h00 à 12h00 de 14h00 à 17h30\nLe Mardi : de 14h00 à 17h30\nLe Mercredi : de 09h00 à 12h00 de 14h00 à 17h30\nLe Jeudi : de 09h00 à 12h00\nLe Vendredi : de 09h00 à 12h00 de 14h00 à 17h30\nLe Samedi : de 09h00 à 12h00\n\nAccueil ouvert uniquement les semaines impaires.","latitude":47.6754,"longitude":-0.883295,"website":"https://www.segreenanjoubleu.fr/","hasWebsite":true,"hasHoraires":true,"url":"https://lannuaire.service-public.gouv.fr/pays-de-la-loire/maine-et-loire/5e5ef261-4988-4fb5-a7b1-ae18770aded0"}
{"nom":"Sainte-Gemmes-sur-Loire","nomNormalise":"saintegemmessurloire","typeCollectivite":"Commune","region":"Pays de la Loire","departement":"Maine-et-Loire","departementCode":"49","adresse":{"street":"2 place de la Mairie","postalCode":"49130","city":"Sainte-Gemmes-sur-Loire","country":"France"},"contacts":{"email":"mairie@sainte-gemmes-sur-loire.fr","telephone":"0241667552"},"horaires":"Du Lundi au Mardi : de 09h00 à 12h00 de 14h00 à 17h00\nLe Mercredi : de 09h00 à 12h00\n\nAprès-midi sur rendez-vous.\nDu Jeudi au Vendredi : de 09h00 à 12h00 de 14h00 à 17h00\nLe Samedi : de 10h30 à 12h30","latitude":47.4225,"longitude":-0.556716,"website":"https://www.sainte-gemmes-sur-loire.fr/","hasWebsite":true,"hasHoraires":true,"url":"https://lannuaire.service-public.gouv.fr/pays-de-la-loire/maine-et-loire/a1dd7c16-6687-42a7-9374-6744901d7a2d"}
{"nom":"Mairie déléguée - Saint-Georges-des-Gardes","nomNormalise":"mairiedelegueesaintgeorgesdesgardes","typeCollectivite":"Commune","region":"Pays de la Loire","departement":"Maine-et-Loire","departementCode":"49","adresse":{"street":"Saint-Georges-des-Gardes","postalCode":"49120","city":"Chemillé-en-Anjou","country":"France"},"contacts":{"email":"mairie.st-georges-des-gardes@chemille-en-anjou.fr","telephone":"0241627921"},"horaires":"Du Mardi au Mercredi : de 09h00 à 12h00\nLe Jeudi : de 14h00 à 17h00\nLe Vendredi : de 09h00 à 12h00 de 14h00 à 17h00\nLe Samedi : de 09h00 à 12h00\n\nAccueil fermé le samedi en juillet-août.","latitude":47.150475,"longitude":-0.76073,"website":"https://www.chemille-en-anjou.fr/contacts/mairie-deleguee-de-saint-georges-des-gardes/","hasWebsite":true,"hasHoraires":true,"url":"https://lannuaire.service-public.gouv.fr/pays-de-la-loire/maine-et-loire/1f2a75b3-c726-4d54-8c42-1aa98abcec49"}
{"nom":"Mairie déléguée - Saint-Georges-sur-Layon","nomNormalise":"mairiedelegueesaintgeorgessurlayon","typeCollectivite":"Commune","region":"Pays de la Loire","departement":"Maine-et-Loire","departementCode":"49","adresse":{"street":"Saint-Georges-sur-Layon","postalCode":"49700","city":"Doué-en-Anjou","country":"France"},"contacts":{"email":"mairie.stgeorges@doué-en-anjou.fr","telephone":"0241596267"},"horaires":"Le Mardi : de 08h30 à 12h00\nLe Jeudi : de 14h00 à 18h30\nLe Vendredi : de 08h30 à 12h30","latitude":47.1979,"longitude":-0.36759,"website":"https://www.xn--mairiedouenanjou-jqb.fr/","hasWebsite":true,"hasHoraires":true,"url":"https://lannuaire.service-public.gouv.fr/pays-de-la-loire/maine-et-loire/8a47ec60-1fc3-46fd-9689-4231f249f749"}
{"nom":"Saint-Georges-sur-Loire","nomNormalise":"saintgeorgessurloire","typeCollectivite":"Commune","region":"Pays de la Loire","departement":"Maine-et-Loire","departementCode":"49","adresse":{"street":"Place de l'Hôtel-de-Ville","postalCode":"49170","city":"Saint-Georges-sur-Loire","country":"France"},"contacts":{"email":"mairie@saint-georges-sur-loire.fr","telephone":"0241721480"},"horaires":"Le Lundi : de 09h00 à 12h30 de 13h30 à 17h30\nLe Mardi : de 09h00 à 12h30\nLe Mercredi : de 09h00 à 12h30 de 13h30 à 17h30\nLe Jeudi : de 09h00 à 12h30\nLe Vendredi : de 09h00 à 12h30 de 13h30 à 16h30","latitude":47.408794,"longitude":-0.761222,"website":"https://www.saint-georges-sur-loire.fr/","hasWebsite":true,"hasHoraires":true,"url":"https://lannuaire.service-public.gouv.fr/pays-de-la-loire/maine-et-loire/66012a50-9701-4e54-86dd-bac60646c279"}
{"nom":"Saint-Germain-des-Prés","nomNormalise":"saintgermaindespres","typeCollectivite":"Commune","region":"Pays de la Loire","departement":"Maine-et-Loire","departementCode":"49","adresse":{"street":"Rue de la Mairie","postalCode":"49170","city":"Saint-Germain-des-Prés","country":"France"},"contacts":{"email":"contact@saintgermaindespres49.fr","telephone":"0241399422"},"horaires":"Du Mardi au Samedi : de 09h00 à 11h45","latitude":47.29086,"longitude":-0.8482915,"website":"http://www.stgermaindespres.mairie49.fr/","hasWebsite":true,"hasHoraires":true,"url":"https://lannuaire.service-public.gouv.fr/pays-de-la-loire/maine-et-loire/f6a8b803-29a9-42d7-a37f-b7c48a761075"}
{"nom":"Saint-Jean-de-la-Croix","nomNormalise":"saintjeandelacroix","typeCollectivite":"Commune","region":"Pays de la Loire","departement":"Maine-et-Loire","departementCode":"49","adresse":{"street":"91 Levée-Ligérienne","postalCode":"49130","city":"Saint-Jean-de-la-croix","country":"France"},"contacts":{"email":"mairie@saint-jean-de-la-croix.fr","telephone":"0241446498"},"horaires":"Le Mardi : de 09h00 à 12h00\nLe Mercredi : de 14h30 à 19h00\nLe Jeudi : de 09h00 à 12h00","latitude":47.410175,"longitude":-0.59415,"website":"","hasWebsite":false,"hasHoraires":true,"url":"https://lannuaire.service-public.gouv.fr/pays-de-la-loire/maine-et-loire/470ebe74-cc2c-4d75-80a6-dd71bdecb2d9"}
{"nom":"Mairie déléguée - Saint-Jean-des-Mauvrets","nomNormalise":"mairiedelegueesaintjeandesmauvrets","typeCollectivite":"Commune","region":"Pays de la Loire","departement":"Maine-et-Loire","departementCode":"49","adresse":{"street":"Saint-Jean-des-Mauvrets","postalCode":"49320","city":"Les Garennes sur Loire","country":"France"},"contacts":{"email":"mairie@les-garennes-sur-loire.fr","telephone":"0241919202"},"horaires":"Le Lundi : de 14h00 à 17h30\nLe Mercredi : de 09h00 à 12h00\nLe Vendredi : de 14h00 à 17h30\nLe Samedi : de 09h00 à 12h00\n\nLes semaines paires.","latitude":47.3967,"longitude":-0.451073,"website":"https://www.les-garennes-sur-loire.fr/","hasWebsite":true,"hasHoraires":true,"url":"https://lannuaire.service-public.gouv.fr/pays-de-la-loire/maine-et-loire/975db9c0-eaad-4c9b-a12f-a1b72cb0cc61"}
{"nom":"Saint-Just-sur-Dive","nomNormalise":"saintjustsurdive","typeCollectivite":"Commune","region":"Pays de la Loire","departement":"Maine-et-Loire","departementCode":"49","adresse":{"street":"59 rue du Bellay","postalCode":"49260","city":"Saint-Just-sur-Dive","country":"France"},"contacts":{"email":"contact@saint-just-sur-dive.fr","telephone":"0241516196"},"horaires":"Le Lundi : de 09h00 à 12h30 de 13h30 à 17h30\nLe Mardi : de 09h00 à 12h00\nLe Mercredi : de 09h00 à 12h00\nLe Jeudi : de 09h00 à 12h30 de 13h30 à 17h30","latitude":47.1811,"longitude":-0.090492,"website":"http://saint-juste-sur-dive.fr/","hasWebsite":true,"hasHoraires":true,"url":"https://lannuaire.service-public.gouv.fr/pays-de-la-loire/maine-et-loire/9b9ae725-2aee-4e45-bccf-920bc000ade6"}
{"nom":"Saint-Lambert-la-Potherie","nomNormalise":"saintlambertlapotherie","typeCollectivite":"Commune","region":"Pays de la Loire","departement":"Maine-et-Loire","departementCode":"49","adresse":{"street":"4 rue Félix-Pauger","postalCode":"49070","city":"Saint-Lambert-la-Potherie","country":"France"},"contacts":{"email":"accueil@saintlambertlapotherie.fr","telephone":"0241775506"},"horaires":"Du Lundi au Mardi : de 09h00 à 12h00\nLe Mercredi : de 09h00 à 12h00 de 15h30 à 17h30\nLe Jeudi : de 09h00 à 12h00\nLe Vendredi : de 09h00 à 12h00 de 15h30 à 17h30\nLe Samedi : de 09h00 à 12h00\n\nAccueil fermé pendant les vacances scolaires.","latitude":47.48,"longitude":-0.677439,"website":"http://www.saintlambertlapotherie.fr/","hasWebsite":true,"hasHoraires":true,"url":"https://lannuaire.service-public.gouv.fr/pays-de-la-loire/maine-et-loire/6ec8f490-e1f9-4f47-8122-020f4d62c813"}
{"nom":"Saint-Léger-de-Linières","nomNormalise":"saintlegerdelinieres","typeCollectivite":"Commune","region":"Pays de la Loire","departement":"Maine-et-Loire","departementCode":"49","adresse":{"street":"Mairie principale de Saint-Léger-de-Linières","postalCode":"49170","city":"Saint-Léger-de-Linières","country":"France"},"contacts":{"email":"mairie@saint-leger-de-linieres.fr","telephone":"0241395536"},"horaires":"Du Lundi au Mercredi : de 09h00 à 12h00 de 14h00 à 18h00\nLe Jeudi : de 14h00 à 18h00\nLe Vendredi : de 09h00 à 12h00","latitude":47.459827,"longitude":-0.70931,"website":"https://www.saint-leger-de-linieres.fr/","hasWebsite":true,"hasHoraires":true,"url":"https://lannuaire.service-public.gouv.fr/pays-de-la-loire/maine-et-loire/72168271-1984-47be-b27f-f61226e04ce0"}
{"nom":"Saint-Léger-sous-Cholet","nomNormalise":"saintlegersouscholet","typeCollectivite":"Commune","region":"Pays de la Loire","departement":"Maine-et-Loire","departementCode":"49","adresse":{"street":"4 rue de Gasma","postalCode":"49280","city":"Saint-Léger-sous-Cholet","country":"France"},"contacts":{"email":"mairie@saintlegersouscholet.fr","telephone":"0241562323"},"horaires":"Le Lundi : de 14h00 à 17h30\nDu Mardi au Vendredi : de 09h00 à 12h00 de 14h00 à 17h30\nLe Samedi : de 09h00 à 12h00","latitude":47.095394,"longitude":-0.914062,"website":"https://saintlegersouscholet.fr/","hasWebsite":true,"hasHoraires":true,"url":"https://lannuaire.service-public.gouv.fr/pays-de-la-loire/maine-et-loire/30ab94b9-8044-4958-ada8-d4c3a608c3ef"}
{"nom":"Mairie déléguée - Saint-Lézin","nomNormalise":"mairiedelegueesaintlezin","typeCollectivite":"Commune","region":"Pays de la Loire","departement":"Maine-et-Loire","departementCode":"49","adresse":{"street":"Saint-Lézin","postalCode":"49120","city":"Chemillé-en-Anjou","country":"France"},"contacts":{"email":"mairie.saint-lezin@chemille-en-anjou.fr","telephone":"0241643022"},"horaires":"Le Lundi : de 09h00 à 12h00\nLe Mardi : de 14h00 à 17h00\nLe Jeudi : de 14h00 à 18h00\n\n(17h00 pendant les vacances scolaires)\nLe Vendredi : de 09h00 à 12h00","latitude":47.24949,"longitude":-0.775077,"website":"http://www.chemille-en-anjou.frlistes/saint-lezin","hasWebsite":true,"hasHoraires":true,"url":"https://lannuaire.service-public.gouv.fr/pays-de-la-loire/maine-et-loire/71e8131f-e74d-40ae-90b7-b5dd1e77eee0"}
{"nom":"Saint-Macaire-du-Bois","nomNormalise":"saintmacairedubois","typeCollectivite":"Commune","region":"Pays de la Loire","departement":"Maine-et-Loire","departementCode":"49","adresse":{"street":"10 rue de la Mairie","postalCode":"49260","city":"Saint-Macaire-du-Bois","country":"France"},"contacts":{"email":"mairie@saintmacairedubois.fr","telephone":"0241522694"},"horaires":"Le Lundi : de 09h00 à 12h30\nDu Jeudi au Vendredi : de 09h00 à 12h30","latitude":47.117764,"longitude":-0.2729965,"website":"http://www.saintmacairedubois.fr/","hasWebsite":true,"hasHoraires":true,"url":"https://lannuaire.service-public.gouv.fr/pays-de-la-loire/maine-et-loire/3de9cf7d-1948-4320-a13e-34c222ae6f6d"}
{"nom":"Mairie déléguée - Saint-Martin-de-la-Place","nomNormalise":"mairiedelegueesaintmartindelaplace","typeCollectivite":"Commune","region":"Pays de la Loire","departement":"Maine-et-Loire","departementCode":"49","adresse":{"street":"Les Rosiers-sur-Loire","postalCode":"49160","city":"Gennes-Val-de-Loire","country":"France"},"contacts":{"email":"mairie@gennesvaldeloire.fr","telephone":"0241518004"},"horaires":"Le Mardi : de 09h00 à 12h00\nLe Jeudi : de 09h00 à 12h00","latitude":47.349255,"longitude":0.224522,"website":"https://www.gennesvaldeloire.fr/","hasWebsite":true,"hasHoraires":true,"url":"https://lannuaire.service-public.gouv.fr/pays-de-la-loire/maine-et-loire/9a5baad7-ea0c-4f34-8852-0449787aacd5"}
{"nom":"Mairie déléguée - Saint-Martin-du-Bois","nomNormalise":"mairiedelegueesaintmartindubois","typeCollectivite":"Commune","region":"Pays de la Loire","departement":"Maine-et-Loire","departementCode":"49","adresse":{"street":"Saint-Martin-du-Bois","postalCode":"49500","city":"Segré-en-Anjou Bleu","country":"France"},"contacts":{"email":"saintmartindubois@segreenanjoubleu.fr","telephone":"0241613139"},"horaires":"Le Lundi : de 08h30 à 12h30\nLe Mardi : de 13h30 à 18h00\nLe Jeudi : de 13h30 à 17h00\nLe Vendredi : de 13h30 à 18h00\nLe Samedi : de 08h30 à 12h30\n\nAccueil ouvert uniquement le 1er samedi du mois .","latitude":47.7064,"longitude":-0.745117,"website":"http://www.segreenanjoubleu.frma-mairie/permanence/saint-martin-bois","hasWebsite":true,"hasHoraires":true,"url":"https://lannuaire.service-public.gouv.fr/pays-de-la-loire/maine-et-loire/1992278d-c251-47aa-9985-df80576580a8"}
{"nom":"Saint-Martin-du-Fouilloux","nomNormalise":"saintmartindufouilloux","typeCollectivite":"Commune","region":"Pays de la Loire","departement":"Maine-et-Loire","departementCode":"49","adresse":{"street":"5 rue du Petit-Anjou","postalCode":"49170","city":"Saint-Martin-du-Fouilloux","country":"France"},"contacts":{"email":"","telephone":"0241395054"},"horaires":"Le Lundi : de 14h00 à 18h00\nDu Mercredi au Jeudi : de 09h00 à 12h00\nLe Vendredi : de 14h00 à 18h00","latitude":47.431606,"longitude":-0.703963,"website":"https://www.saintmartindufouilloux49.fr/","hasWebsite":true,"hasHoraires":true,"url":"https://lannuaire.service-public.gouv.fr/pays-de-la-loire/maine-et-loire/281fc2f0-c096-4a32-8cbb-6fe346fb30a3"}
{"nom":"Mairie déléguée - Saint-Mathurin-sur-Loire","nomNormalise":"mairiedelegueesaintmathurinsurloire","typeCollectivite":"Commune","region":"Pays de la Loire","departement":"Maine-et-Loire","departementCode":"49","adresse":{"street":"Saint-Mathurin-sur-Loire","postalCode":"49250","city":"Loire-Authion","country":"France"},"contacts":{"email":"contact@loire-authion.fr","telephone":"0252211000"},"horaires":"","latitude":47.410007,"longitude":-0.321116,"website":"https://www.loire-authion.fr/","hasWebsite":true,"hasHoraires":false,"url":"https://lannuaire.service-public.gouv.fr/pays-de-la-loire/maine-et-loire/1909dd6a-abe5-4f4e-8a6e-5c5b73aa1f1f"}
{"nom":"Saint-Melaine-sur-Aubance","nomNormalise":"saintmelainesuraubance","typeCollectivite":"Commune","region":"Pays de la Loire","departement":"Maine-et-Loire","departementCode":"49","adresse":{"street":"5 rue Armand-Brousse","postalCode":"49610","city":"Saint-Melaine-sur-Aubance","country":"France"},"contacts":{"email":"mairie@saint-melaine-sur-aubance.fr","telephone":"0241453030"},"horaires":"Le Lundi : de 08h30 à 12h00 de 14h00 à 17h00\nDu Mardi au Jeudi : de 08h30 à 12h00\nLe Vendredi : de 08h30 à 12h00 de 14h00 à 17h00","latitude":47.3693,"longitude":-0.490876,"website":"https://www.saint-melaine-sur-aubance.fr/","hasWebsite":true,"hasHoraires":true,"url":"https://lannuaire.service-public.gouv.fr/pays-de-la-loire/maine-et-loire/9105ce49-2b09-4313-b091-31ea88879316"}
{"nom":"Mairie déléguée - Saint-Michel-et-Chanveaux","nomNormalise":"mairiedelegueesaintmicheletchanveaux","typeCollectivite":"Commune","region":"Pays de la Loire","departement":"Maine-et-Loire","departementCode":"49","adresse":{"street":"Saint-Michel-et-Chanveaux","postalCode":"49420","city":"Ombrée d'Anjou","country":"France"},"contacts":{"email":"info.stmicheletchanveaux@ombreedanjou.fr","telephone":"0241943270"},"horaires":"Le Mardi : de 14h00 à 17h30\nLe Jeudi : de 09h00 à 12h30\nLe Vendredi : de 14h00 à 17h00\nLe Samedi : de 09h00 à 12h00\n\nAccueil ouvert uniquement le 1er samedi du mois.","latitude":47.680737,"longitude":-1.1304091,"website":"https://www.ombreedanjou.fr/","hasWebsite":true,"hasHoraires":true,"url":"https://lannuaire.service-public.gouv.fr/pays-de-la-loire/maine-et-loire/4be9ac51-f1a5-4482-ba6c-e6ba68e2b344"}
{"nom":"Saint-Paul-du-Bois","nomNormalise":"saintpauldubois","typeCollectivite":"Commune","region":"Pays de la Loire","departement":"Maine-et-Loire","departementCode":"49","adresse":{"street":"1 rue du Bois-d'Anjou","postalCode":"49310","city":"Saint-Paul-du-Bois","country":"France"},"contacts":{"email":"mairiestpaul@orange.fr","telephone":"0241758208"},"horaires":"Le Lundi : de 13h30 à 17h00\nLe Mardi : de 09h00 à 12h00 de 13h30 à 17h00\nLe Mercredi : de 13h30 à 17h00\nDu Jeudi au Vendredi : de 09h00 à 12h00 de 13h30 à 17h00\nLe Samedi : de 09h00 à 12h00","latitude":47.08046,"longitude":-0.544257,"website":"https://saintpauldubois.com/","hasWebsite":true,"hasHoraires":true,"url":"https://lannuaire.service-public.gouv.fr/pays-de-la-loire/maine-et-loire/aad56c21-125e-4e16-813b-532e9a85aa12"}
{"nom":"Saint-Philbert-du-Peuple","nomNormalise":"saintphilbertdupeuple","typeCollectivite":"Commune","region":"Pays de la Loire","departement":"Maine-et-Loire","departementCode":"49","adresse":{"street":"7 rue d'Anjou","postalCode":"49160","city":"Saint-Philbert-du-Peuple","country":"France"},"contacts":{"email":"accueil@mairie-stphilbertdupeuple.fr","telephone":"0241521164"},"horaires":"Le Lundi : de 09h00 à 12h00 de 14h00 à 17h00\nDu Mardi au Jeudi : de 09h00 à 12h00\nLe Vendredi : de 09h00 à 12h00 de 14h00 à 17h00","latitude":47.39379,"longitude":-0.044845,"website":"https://saint-philbert-du-peuple.fr/","hasWebsite":true,"hasHoraires":true,"url":"https://lannuaire.service-public.gouv.fr/pays-de-la-loire/maine-et-loire/7bdec47d-cd62-489c-a40e-6526e06e1e37"}
{"nom":"Mairie déléguée - Saint-Rémy-la-Varenne","nomNormalise":"mairiedelegueesaintremylavarenne","typeCollectivite":"Commune","region":"Pays de la Loire","departement":"Maine-et-Loire","departementCode":"49","adresse":{"street":"Saint-Rémy-la-Varenne","postalCode":"49250","city":"Brissac Loire Aubance","country":"France"},"contacts":{"email":"mairie@brissacloireaubance.fr","telephone":"0241570394"},"horaires":"Le Mercredi : de 09h00 à 12h00","latitude":47.396957,"longitude":-0.317678,"website":"https://www.brissacloireaubance.fr/","hasWebsite":true,"hasHoraires":true,"url":"https://lannuaire.service-public.gouv.fr/pays-de-la-loire/maine-et-loire/e637b455-94df-4875-95d7-9204c569d438"}
{"nom":"Mairie déléguée - Saint-Sauveur-de-Flée","nomNormalise":"mairiedelegueesaintsauveurdeflee","typeCollectivite":"Commune","region":"Pays de la Loire","departement":"Maine-et-Loire","departementCode":"49","adresse":{"street":"Saint-Sauveur-de-Flée","postalCode":"49500","city":"Segré-en-Anjou Bleu","country":"France"},"contacts":{"email":"saintsauveurdeflee@segreenanjoubleu.fr","telephone":"0241613940"},"horaires":"Le Mardi : de 09h30 à 12h30 de 13h30 à 17h30","latitude":47.7503,"longitude":-0.797719,"website":"https://www.segreenanjoubleu.fr/ma-mairie/permanence/saint-sauveur-de-flee/","hasWebsite":true,"hasHoraires":true,"url":"https://lannuaire.service-public.gouv.fr/pays-de-la-loire/maine-et-loire/07ee04b2-f718-4cbc-a84f-00043dddbc94"}
{"nom":"Mairie déléguée - Saint-Sigismond","nomNormalise":"mairiedelegueesaintsigismond","typeCollectivite":"Commune","region":"Pays de la Loire","departement":"Maine-et-Loire","departementCode":"49","adresse":{"street":"Saint-Sigismond","postalCode":"49123","city":"Ingrandes-Le Fresne sur Loire","country":"France"},"contacts":{"email":"mairie@ingrandes-lefresnesurloire.fr","telephone":"0241392152"},"horaires":"Le Mardi : de 09h00 à 12h30","latitude":47.45516,"longitude":-0.9419571,"website":"https://www.ingrandes-lefresnesurloire.fr/","hasWebsite":true,"hasHoraires":true,"url":"https://lannuaire.service-public.gouv.fr/pays-de-la-loire/maine-et-loire/1cd1ac33-f744-441e-ab90-3d427e17ef34"}
{"nom":"Sarrigné","nomNormalise":"sarrigne","typeCollectivite":"Commune","region":"Pays de la Loire","departement":"Maine-et-Loire","departementCode":"49","adresse":{"street":"25 rue Saint-Jean","postalCode":"49800","city":"Sarrigné","country":"France"},"contacts":{"email":"contact@sarrigne.fr","telephone":"0241800505"},"horaires":"Du Lundi au Samedi : de 09h00 à 12h00","latitude":47.501938,"longitude":-0.3822852,"website":"http://www.sarrigne.fr/","hasWebsite":true,"hasHoraires":true,"url":"https://lannuaire.service-public.gouv.fr/pays-de-la-loire/maine-et-loire/68f96e43-f54a-4fda-bd02-7ce47cb0c55b"}
{"nom":"Saumur","nomNormalise":"saumur","typeCollectivite":"Commune","region":"Pays de la Loire","departement":"Maine-et-Loire","departementCode":"49","adresse":{"street":"3 rue Molière","postalCode":"49408","city":"Saumur","country":"France"},"contacts":{"email":"contact@saumur.fr","telephone":"0241833000"},"horaires":"Du Lundi au Vendredi : de 08h30 à 12h00 de 13h30 à 17h30","latitude":47.2603,"longitude":-0.07582,"website":"https://www.ville-saumur.fr/","hasWebsite":true,"hasHoraires":true,"url":"https://lannuaire.service-public.gouv.fr/pays-de-la-loire/maine-et-loire/513be453-fd51-4ecb-9339-f697e498ea6d"}
{"nom":"Savennières","nomNormalise":"savennieres","typeCollectivite":"Commune","region":"Pays de la Loire","departement":"Maine-et-Loire","departementCode":"49","adresse":{"street":"2 place Simone-Veil","postalCode":"49170","city":"Savennières","country":"France"},"contacts":{"email":"mairie@savennieres.fr","telephone":"0241728500"},"horaires":"Du Lundi au Mardi : de 15h00 à 17h30\nLe Mercredi : de 09h00 à 12h00\nDu Jeudi au Vendredi : de 15h00 à 17h30","latitude":47.397423,"longitude":-0.63498837,"website":"http://www.savennieres.fr/","hasWebsite":true,"hasHoraires":true,"url":"https://lannuaire.service-public.gouv.fr/pays-de-la-loire/maine-et-loire/f97fe5a6-3242-4961-9be1-8b09f4aec2da"}
{"nom":"Sceaux-d'Anjou","nomNormalise":"sceauxdanjou","typeCollectivite":"Commune","region":"Pays de la Loire","departement":"Maine-et-Loire","departementCode":"49","adresse":{"street":"2 place Marius Briant","postalCode":"49330","city":"Sceaux-d'Anjou","country":"France"},"contacts":{"email":"mairie@sceauxdanjou.fr","telephone":"0241933030"},"horaires":"Le Lundi : de 09h00 à 12h30\nLe Mercredi : de 14h00 à 18h00\nLe Jeudi : de 09h00 à 12h30\nLe Vendredi : de 09h00 à 12h30","latitude":47.62075,"longitude":-0.608325,"website":"https://sceauxdanjou.fr/","hasWebsite":true,"hasHoraires":true,"url":"https://lannuaire.service-public.gouv.fr/pays-de-la-loire/maine-et-loire/129c8313-7885-4ae2-8e75-ea4ec075ff8c"}
{"nom":"Segré-en-Anjou Bleu","nomNormalise":"segreenanjoubleu","typeCollectivite":"Commune","region":"Pays de la Loire","departement":"Maine-et-Loire","departementCode":"49","adresse":{"street":"1 rue de la Madeleine","postalCode":"49500","city":"Segré-en-Anjou Bleu","country":"France"},"contacts":{"email":"contact@segreenanjoubleu.fr","telephone":"0241921783"},"horaires":"Du Lundi au Vendredi : de 08h30 à 12h30 de 13h30 à 17h30","latitude":47.6862,"longitude":-0.873733,"website":"https://www.segreenanjoubleu.fr/","hasWebsite":true,"hasHoraires":true,"url":"https://lannuaire.service-public.gouv.fr/pays-de-la-loire/maine-et-loire/925e08be-e615-4527-a65d-940c10b46292"}
{"nom":"Seiches-sur-le-Loir","nomNormalise":"seichessurleloir","typeCollectivite":"Commune","region":"Pays de la Loire","departement":"Maine-et-Loire","departementCode":"49","adresse":{"street":"Hôtel-de-Ville","postalCode":"49140","city":"Seiches-sur-le-Loir","country":"France"},"contacts":{"email":"contact@seiches.fr","telephone":"0241762037"},"horaires":"Le Lundi : de 09h00 à 12h00 de 13h30 à 18h00\nLe Mardi : de 08h30 à 12h00\nLe Mercredi : de 08h30 à 12h00 de 13h30 à 17h00\nLe Jeudi : de 08h30 à 12h00\nLe Vendredi : de 08h30 à 12h00 de 13h30 à 16h30\nLe Samedi : de 09h00 à 12h00\n\nLe premier Samedi de chaque mois","latitude":47.57715,"longitude":-0.3628498,"website":"https://www.seiches.fr/","hasWebsite":true,"hasHoraires":true,"url":"https://lannuaire.service-public.gouv.fr/pays-de-la-loire/maine-et-loire/c3958908-674b-4162-9189-86fc08ce63ea"}
{"nom":"Sermaise","nomNormalise":"sermaise","typeCollectivite":"Commune","region":"Pays de la Loire","departement":"Maine-et-Loire","departementCode":"49","adresse":{"street":"15 rue de la Mairie","postalCode":"49140","city":"Sermaise","country":"France"},"contacts":{"email":"sermaise.mairie@orange.fr","telephone":"0241547108"},"horaires":"Le Lundi : de 14h00 à 19h00\nDu Jeudi au Vendredi : de 08h30 à 12h00","latitude":47.52414,"longitude":-0.2128794,"website":"https://sermaise49.fr/","hasWebsite":true,"hasHoraires":true,"url":"https://lannuaire.service-public.gouv.fr/pays-de-la-loire/maine-et-loire/03692b85-1b15-4c16-97de-ccb8b4702634"}
{"nom":"Sèvremoine","nomNormalise":"sevremoine","typeCollectivite":"Commune","region":"Pays de la Loire","departement":"Maine-et-Loire","departementCode":"49","adresse":{"street":"Saint-Macaire-en-Mauges","postalCode":"49450","city":"Sèvremoine","country":"France"},"contacts":{"email":"contact@sevremoine.fr","telephone":"0241553676"},"horaires":"Du Lundi au Vendredi : de 08h30 à 12h30 de 14h00 à 17h30\nLe Samedi : de 08h30 à 12h00","latitude":47.12387,"longitude":-0.99502,"website":"http://www.sevremoine.fr/","hasWebsite":true,"hasHoraires":true,"url":"https://lannuaire.service-public.gouv.fr/pays-de-la-loire/maine-et-loire/65d99200-7424-4eb6-ad5e-e6cad19c00b0"}
{"nom":"Somloire","nomNormalise":"somloire","typeCollectivite":"Commune","region":"Pays de la Loire","departement":"Maine-et-Loire","departementCode":"49","adresse":{"street":"2 place de l'Église","postalCode":"49360","city":"Somloire","country":"France"},"contacts":{"email":"mairie.de.somloire@wanadoo.fr","telephone":"0241490540"},"horaires":"Le Lundi : de 09h00 à 12h00\nLe Mardi : de 08h30 à 12h00\nLe Mercredi : de 09h00 à 12h00 de 13h30 à 17h00\nDu Jeudi au Vendredi : de 09h00 à 12h00","latitude":47.033737,"longitude":-0.608257,"website":"http://www.somloire.mairie49.fr/","hasWebsite":true,"hasHoraires":true,"url":"https://lannuaire.service-public.gouv.fr/pays-de-la-loire/maine-et-loire/f2fcd5f9-a791-4eaa-a6ea-891eb14d8d78"}
{"nom":"Soucelles","nomNormalise":"soucelles","typeCollectivite":"Commune","region":"Pays de la Loire","departement":"Maine-et-Loire","departementCode":"49","adresse":{"street":"Soucelles","postalCode":"49140","city":"Rives-du-Loire-en-Anjou","country":"France"},"contacts":{"email":"accueil.soucelles@rivesduloirenanjou.fr","telephone":"0241695157"},"horaires":"Du Mardi au Vendredi : de 09h00 à 12h30","latitude":47.568073,"longitude":-0.419203,"website":"http://www.rivesduloireenanjou.fr/","hasWebsite":true,"hasHoraires":true,"url":"https://lannuaire.service-public.gouv.fr/pays-de-la-loire/maine-et-loire/cedaf40f-3709-4ae9-b738-404cdfee837f"}
{"nom":"Soulaines-sur-Aubance","nomNormalise":"soulainessuraubance","typeCollectivite":"Commune","region":"Pays de la Loire","departement":"Maine-et-Loire","departementCode":"49","adresse":{"street":"1 rue de la Grange-aux-Dîmes","postalCode":"49610","city":"Soulaines-sur-Aubance","country":"France"},"contacts":{"email":"mairie@soulaines-sur-aubance.fr","telephone":"0241453021"},"horaires":"Du Lundi au Vendredi : de 14h00 à 17h30\nFermée les mercredis et les samedis","latitude":47.36414,"longitude":-0.522993,"website":"https://www.soulaines-sur-aubance.fr/","hasWebsite":true,"hasHoraires":true,"url":"https://lannuaire.service-public.gouv.fr/pays-de-la-loire/maine-et-loire/2f4d3108-c489-4258-86ca-b9b91d701cda"}
{"nom":"Soulaire-et-Bourg","nomNormalise":"soulaireetbourg","typeCollectivite":"Commune","region":"Pays de la Loire","departement":"Maine-et-Loire","departementCode":"49","adresse":{"street":"4 Place de la Mairie","postalCode":"49460","city":"Soulaire-et-Bourg","country":"France"},"contacts":{"email":"contact@soulaire-et-bourg.fr","telephone":"0241320700"},"horaires":"Le Lundi : de 08h30 à 12h00 de 14h00 à 18h00\nDu Mardi au Mercredi : de 09h00 à 12h00\nLe Vendredi : de 08h30 à 12h00 de 14h00 à 17h00","latitude":47.570625,"longitude":-0.5936121,"website":"https://soulaire-et-bourg.fr/","hasWebsite":true,"hasHoraires":true,"url":"https://lannuaire.service-public.gouv.fr/pays-de-la-loire/maine-et-loire/927ab689-f07f-4a4b-979e-1a9ce05c0696"}
{"nom":"Souzay-Champigny","nomNormalise":"souzaychampigny","typeCollectivite":"Commune","region":"Pays de la Loire","departement":"Maine-et-Loire","departementCode":"49","adresse":{"street":"52 rue des Ducs-d'Anjou","postalCode":"49400","city":"Souzay-Champigny","country":"France"},"contacts":{"email":"souzay.champigny@wanadoo.fr","telephone":"0241511416"},"horaires":"Le Lundi : de 14h00 à 18h30\nDu Mardi au Mercredi : de 09h00 à 12h00\nLe Jeudi : de 09h00 à 12h30\nLe Vendredi : de 14h00 à 18h00","latitude":47.23643,"longitude":-0.0075521,"website":"http://www.souzay-champigny.mairie49.fr/","hasWebsite":true,"hasHoraires":true,"url":"https://lannuaire.service-public.gouv.fr/pays-de-la-loire/maine-et-loire/583da2d7-75ae-4976-b915-b41b4c57b7e3"}
{"nom":"Mairie déléguée - Surdres","nomNormalise":"mairiedelegueesurdres","typeCollectivite":"Commune","region":"Pays de la Loire","departement":"Maine-et-Loire","departementCode":"49","adresse":{"street":"Surdres","postalCode":"49330","city":"Les Hauts-d'Anjou","country":"France"},"contacts":{"email":"mairie.soeurdres@leshautsdanjou.fr","telephone":"0241931400"},"horaires":"Le Mardi : de 14h00 à 17h00\nLe Jeudi : de 14h00 à 17h00\nLe Samedi : de 09h00 à 12h00\n\nChaque 3e samedi du mois.","latitude":47.738964,"longitude":-0.5739146,"website":"https://www.leshautsdanjou.fr/","hasWebsite":true,"hasHoraires":true,"url":"https://lannuaire.service-public.gouv.fr/pays-de-la-loire/maine-et-loire/0a6c4ee2-08f3-47bb-85fe-bc26247f450f"}
{"nom":"Terranjou","nomNormalise":"terranjou","typeCollectivite":"Commune","region":"Pays de la Loire","departement":"Maine-et-Loire","departementCode":"49","adresse":{"street":"Chavagnes","postalCode":"49380","city":"Terranjou","country":"France"},"contacts":{"email":"mairie@terranjou.fr","telephone":"0241543120"},"horaires":"Du Lundi au Vendredi : de 13h30 à 17h00","latitude":47.269978,"longitude":-0.454924,"website":"https://mairie-terranjou.fr/","hasWebsite":true,"hasHoraires":true,"url":"https://lannuaire.service-public.gouv.fr/pays-de-la-loire/maine-et-loire/2f00bb50-7d57-4521-acbc-e68ad5803f30"}
{"nom":"Thorigné-d'Anjou","nomNormalise":"thorignedanjou","typeCollectivite":"Commune","region":"Pays de la Loire","departement":"Maine-et-Loire","departementCode":"49","adresse":{"street":"6 rue de la Harderie","postalCode":"49220","city":"Thorigné-d'Anjou","country":"France"},"contacts":{"email":"mairie@thorignedanjou.fr","telephone":"0241953215"},"horaires":"Du Lundi au Mercredi : de 09h00 à 12h00\nLe Vendredi : de 09h00 à 12h00\nLe Samedi : de 09h00 à 11h00\n\nAccueil ouvert uniquement les semaines impaires.","latitude":47.6392,"longitude":-0.6639497,"website":"https://thorignedanjou.fr/","hasWebsite":true,"hasHoraires":true,"url":"https://lannuaire.service-public.gouv.fr/pays-de-la-loire/maine-et-loire/92747a0b-dfe3-49b2-ba88-298054b55c39"}
{"nom":"Tiercé","nomNormalise":"tierce","typeCollectivite":"Commune","region":"Pays de la Loire","departement":"Maine-et-Loire","departementCode":"49","adresse":{"street":"Place de la Mairie","postalCode":"49125","city":"Tiercé","country":"France"},"contacts":{"email":"mairie-tierce@mairietierce.fr","telephone":"0241311440"},"horaires":"Le Lundi : de 14h00 à 18h00\nDu Mardi au Jeudi : de 09h00 à 12h00 de 15h00 à 17h30\nDu Vendredi au Samedi : de 09h00 à 12h00\n\nSamedi de 9h à 12h (uniquement : Accueil / état Civil / élections) Accueil ouvert uniquement pour l'état civil.","latitude":47.6147,"longitude":-0.467866,"website":"https://www.tierce.fr/","hasWebsite":true,"hasHoraires":true,"url":"https://lannuaire.service-public.gouv.fr/pays-de-la-loire/maine-et-loire/8a332bcc-7092-4a6e-8d70-73266ffcc369"}
{"nom":"Toutlemonde","nomNormalise":"toutlemonde","typeCollectivite":"Commune","region":"Pays de la Loire","departement":"Maine-et-Loire","departementCode":"49","adresse":{"street":"3 rue Marthe-Formon","postalCode":"49360","city":"Toutlemonde","country":"France"},"contacts":{"email":"contact@mairiedetoutlemonde.fr","telephone":"0241550216"},"horaires":"Du Lundi au Mardi : de 09h00 à 12h00 de 14h00 à 18h00\nDu Jeudi au Vendredi : de 09h00 à 12h00 de 14h00 à 18h00\nLe Samedi : de 09h00 à 12h00","latitude":47.057,"longitude":-0.76646,"website":"https://www.toutlemonde.fr/","hasWebsite":true,"hasHoraires":true,"url":"https://lannuaire.service-public.gouv.fr/pays-de-la-loire/maine-et-loire/ac81983b-91dd-43a7-8a95-0df215e09855"}
{"nom":"Trélazé","nomNormalise":"trelaze","typeCollectivite":"Commune","region":"Pays de la Loire","departement":"Maine-et-Loire","departementCode":"49","adresse":{"street":"Place Olivier-Thuau","postalCode":"49800","city":"Trélazé","country":"France"},"contacts":{"email":"contact@mairie-trelaze.fr","telephone":"0241337474"},"horaires":"Du Lundi au Mercredi : de 08h45 à 12h15 de 13h30 à 17h00\nLe Jeudi : de 08h45 à 12h15 de 13h30 à 19h00\nLe Vendredi : de 08h45 à 12h15 de 13h30 à 17h00\nLe Samedi : de 10h00 à 12h00\n\nAccueil ouvert uniquement pour l'état civil, pendant la crise sanitaire accueil ouvert sur rendez-vous uniquement pour les démarches administratives.","latitude":47.44554,"longitude":-0.4648153,"website":"https://www.trelaze.fr/","hasWebsite":true,"hasHoraires":true,"url":"https://lannuaire.service-public.gouv.fr/pays-de-la-loire/maine-et-loire/a6392604-8c60-474c-ace2-0f9e988bfe89"}
{"nom":"Trémentines","nomNormalise":"trementines","typeCollectivite":"Commune","region":"Pays de la Loire","departement":"Maine-et-Loire","departementCode":"49","adresse":{"street":"1 rue d'Anjou","postalCode":"49340","city":"Trémentines","country":"France"},"contacts":{"email":"mairie@trementines.com","telephone":"0241625525"},"horaires":"Le Lundi : de 14h30 à 17h30\nLe Mardi : de 09h30 à 12h00 de 14h30 à 18h00\nLe Mercredi : de 09h30 à 12h00\nLe Jeudi : de 09h30 à 12h00 de 14h30 à 18h00\nLe Vendredi : de 09h30 à 12h00 de 14h30 à 17h30","latitude":47.122257,"longitude":-0.786357,"website":"https://trementines.com/","hasWebsite":true,"hasHoraires":true,"url":"https://lannuaire.service-public.gouv.fr/pays-de-la-loire/maine-et-loire/cbd89459-3e13-4b58-842b-1548a25f536f"}
{"nom":"Tuffalun","nomNormalise":"tuffalun","typeCollectivite":"Commune","region":"Pays de la Loire","departement":"Maine-et-Loire","departementCode":"49","adresse":{"street":"Ambillou-Château","postalCode":"49700","city":"Tuffalun","country":"France"},"contacts":{"email":"mairie@tuffalun.fr","telephone":"0241593058"},"horaires":"Du Lundi au Vendredi : de 09h00 à 12h30 de 14h00 à 16h00\nLe Samedi : de 10h00 à 12h00\n\n(excepté pendant la période estivale)","latitude":47.47842,"longitude":-0.563166,"website":"https://tuffalun.fr/","hasWebsite":true,"hasHoraires":true,"url":"https://lannuaire.service-public.gouv.fr/pays-de-la-loire/maine-et-loire/046d619f-50bc-44e4-be3b-8b708a4ab570"}
{"nom":"Turquant","nomNormalise":"turquant","typeCollectivite":"Commune","region":"Pays de la Loire","departement":"Maine-et-Loire","departementCode":"49","adresse":{"street":"Rue de la Mairie","postalCode":"49730","city":"Turquant","country":"France"},"contacts":{"email":"mairie@turquant.fr","telephone":"0241381165"},"horaires":"Le Lundi : de 14h00 à 18h30\nLe Mercredi : de 09h00 à 12h00\nLe Jeudi : de 14h00 à 18h30\nLe Vendredi : de 14h00 à 17h00","latitude":47.2231,"longitude":0.0285279,"website":"http://www.turquant.fr/","hasWebsite":true,"hasHoraires":true,"url":"https://lannuaire.service-public.gouv.fr/pays-de-la-loire/maine-et-loire/54110cb3-b0d0-4b78-990b-3f9c35de1cea"}
{"nom":"Mairie déléguée - Valanjou","nomNormalise":"mairiedelegueevalanjou","typeCollectivite":"Commune","region":"Pays de la Loire","departement":"Maine-et-Loire","departementCode":"49","adresse":{"street":"Valanjou","postalCode":"49670","city":"Chemillé-en-Anjou","country":"France"},"contacts":{"email":"mairie.valanjou@chemille-en-anjou.fr","telephone":"0241454325"},"horaires":"Du Lundi au Mardi : de 09h00 à 12h00 de 14h00 à 17h00\nDu Mercredi au Jeudi : de 09h00 à 12h00\nLe Vendredi : de 09h00 à 12h00 de 14h00 à 17h00\nLe Samedi : de 09h00 à 12h00\n\nAccueil fermé pendant les vacances scolaires.","latitude":47.21537,"longitude":-0.600264,"website":"https://www.chemille-en-anjou.fr/","hasWebsite":true,"hasHoraires":true,"url":"https://lannuaire.service-public.gouv.fr/pays-de-la-loire/maine-et-loire/6ac77699-02f7-4cdd-bbed-728436ff7d42"}
{"nom":"Val-du-Layon","nomNormalise":"valdulayon","typeCollectivite":"Commune","region":"Pays de la Loire","departement":"Maine-et-Loire","departementCode":"49","adresse":{"street":"Saint-Lambert-du-Lattay","postalCode":"49750","city":"Val-du-Layon","country":"France"},"contacts":{"email":"mairie@valdulayon.fr","telephone":"0241783046"},"horaires":"Le Lundi : de 09h00 à 12h00 de 14h00 à 17h30\nDu Mardi au Mercredi : de 09h00 à 12h00\nLe Vendredi : de 09h00 à 12h00 de 14h00 à 18h00","latitude":47.30182,"longitude":-0.634184,"website":"https://www.valdulayon.fr/","hasWebsite":true,"hasHoraires":true,"url":"https://lannuaire.service-public.gouv.fr/pays-de-la-loire/maine-et-loire/2f505c33-30bc-4825-8b55-94a3d64ec336"}
{"nom":"Val d'Erdre-Auxence","nomNormalise":"valderdreauxence","typeCollectivite":"Commune","region":"Pays de la Loire","departement":"Maine-et-Loire","departementCode":"49","adresse":{"street":"1 place de la Mairie","postalCode":"49370","city":"Val d'Erdre-Auxence","country":"France"},"contacts":{"email":"secretariat@val-erdre-auxence.fr","telephone":"0241774187"},"horaires":"Le Lundi : de 09h00 à 12h30 de 13h30 à 18h00\nLe Mardi : de 09h00 à 12h30\nLe Mercredi : de 09h00 à 12h30 de 13h30 à 18h00\nLe Jeudi : de 09h00 à 12h30\nLe Vendredi : de 09h00 à 12h30 de 13h30 à 17h00\nLe Samedi : de 09h00 à 12h00","latitude":47.522194,"longitude":-0.884616,"website":"https://www.val-erdre-auxence.fr/","hasWebsite":true,"hasHoraires":true,"url":"https://lannuaire.service-public.gouv.fr/pays-de-la-loire/maine-et-loire/f339693e-0220-4003-b468-4263f00371d9"}
{"nom":"Varennes-sur-Loire","nomNormalise":"varennessurloire","typeCollectivite":"Commune","region":"Pays de la Loire","departement":"Maine-et-Loire","departementCode":"49","adresse":{"street":"22 place du Jeu-de-Paume","postalCode":"49730","city":"Varennes-sur-Loire","country":"France"},"contacts":{"email":"mairie@varennessurloire.fr","telephone":"0241517229"},"horaires":"Du Lundi au Vendredi : de 08h30 à 12h30\nLe Samedi : de 08h30 à 12h00","latitude":47.23868,"longitude":0.0547017,"website":"http://www.varennessurloire.fr/","hasWebsite":true,"hasHoraires":true,"url":"https://lannuaire.service-public.gouv.fr/pays-de-la-loire/maine-et-loire/34960f0b-6998-4aa0-b4f9-d9e416359f7c"}
{"nom":"Varrains","nomNormalise":"varrains","typeCollectivite":"Commune","region":"Pays de la Loire","departement":"Maine-et-Loire","departementCode":"49","adresse":{"street":"2 rue de la Mairie","postalCode":"49400","city":"Varrains","country":"France"},"contacts":{"email":"mairie.varrains@wanadoo.fr","telephone":"0241529078"},"horaires":"Du Lundi au Jeudi : de 08h45 à 12h15\nLe Vendredi : de 08h45 à 12h15 de 13h15 à 17h00\nLe Samedi : de 08h45 à 12h15\n\nOuvert le 1er samedi du mois.","latitude":47.2227,"longitude":-0.065507,"website":"https://varrains.fr/fra","hasWebsite":true,"hasHoraires":true,"url":"https://lannuaire.service-public.gouv.fr/pays-de-la-loire/maine-et-loire/37782262-a0bb-4774-9327-e29992566f9a"}
{"nom":"Mairie déléguée - Vauchrétien","nomNormalise":"mairiedelegueevauchretien","typeCollectivite":"Commune","region":"Pays de la Loire","departement":"Maine-et-Loire","departementCode":"49","adresse":{"street":"Vauchrétien","postalCode":"49320","city":"Brissac Loire Aubance","country":"France"},"contacts":{"email":"vauchretien@brissacloireaubance.fr","telephone":"0241912418"},"horaires":"Le Mardi : de 09h00 à 12h00\nLe Jeudi : de 09h00 à 12h00","latitude":47.33133,"longitude":-0.4782385,"website":"https://www.brissacloireaubance.fr/","hasWebsite":true,"hasHoraires":true,"url":"https://lannuaire.service-public.gouv.fr/pays-de-la-loire/maine-et-loire/5d8116db-a09d-44b3-8c3f-b6726b41e323"}
{"nom":"Vaudelnay","nomNormalise":"vaudelnay","typeCollectivite":"Commune","region":"Pays de la Loire","departement":"Maine-et-Loire","departementCode":"49","adresse":{"street":"24 place des Deux-Provinces","postalCode":"49260","city":"Vaudelnay","country":"France"},"contacts":{"email":"mairie@vaudelnay.fr","telephone":"0241522010"},"horaires":"Le Lundi : de 09h00 à 12h30 de 14h00 à 17h00\nDu Mardi au Mercredi : de 09h00 à 12h30\nLe Jeudi : de 09h00 à 12h30 de 13h30 à 17h00\nLe Vendredi : de 09h00 à 12h30 de 13h30 à 16h00\nLe Samedi : de 09h00 à 11h00\n\nFermé pendant les vacances d'été.\nPendant les vacances scolaires accueil ouvert de 9h à 12h et de 14h à 17h.","latitude":47.1394,"longitude":-0.2069376,"website":"https://vaudelnay.fr/","hasWebsite":true,"hasHoraires":true,"url":"https://lannuaire.service-public.gouv.fr/pays-de-la-loire/maine-et-loire/5da62b8e-27cf-4dbd-85a3-ba97e42a5366"}
{"nom":"Mairie déléguée - Verchers-sur-Layon","nomNormalise":"mairiedelegueevercherssurlayon","typeCollectivite":"Commune","region":"Pays de la Loire","departement":"Maine-et-Loire","departementCode":"49","adresse":{"street":"Verchers-sur-Layon","postalCode":"49700","city":"Doué-en-Anjou","country":"France"},"contacts":{"email":"mairie.verchers@doue-en-anjou.fr","telephone":"0241591776"},"horaires":"Le Mardi : de 15h00 à 18h00\nLe Vendredi : de 08h30 à 12h30","latitude":47.15437,"longitude":-0.297662,"website":"https://www.doue-en-anjou.fr/","hasWebsite":true,"hasHoraires":true,"url":"https://lannuaire.service-public.gouv.fr/pays-de-la-loire/maine-et-loire/3e605f52-07fd-4dda-a7b9-7e893d1a4ff2"}
{"nom":"Mairie déléguée - Vergonnes","nomNormalise":"mairiedelegueevergonnes","typeCollectivite":"Commune","region":"Pays de la Loire","departement":"Maine-et-Loire","departementCode":"49","adresse":{"street":"Vergonnes","postalCode":"49420","city":"Ombrée d'Anjou","country":"France"},"contacts":{"email":"info.vergonnes@ombreedanjou.fr","telephone":"0241943227"},"horaires":"Du Mardi au Mercredi : de 14h00 à 17h30\nLe Vendredi : de 09h00 à 12h00","latitude":47.726154,"longitude":-1.085905,"website":"https://www.ombreedanjou.fr/","hasWebsite":true,"hasHoraires":true,"url":"https://lannuaire.service-public.gouv.fr/pays-de-la-loire/maine-et-loire/6c51f89b-ed85-417f-80eb-052ae8dbe7f3"}
{"nom":"Vernantes","nomNormalise":"vernantes","typeCollectivite":"Commune","region":"Pays de la Loire","departement":"Maine-et-Loire","departementCode":"49","adresse":{"street":"Place de la Mairie","postalCode":"49390","city":"Vernantes","country":"France"},"contacts":{"email":"mairie@vernantes.fr","telephone":"0241515012"},"horaires":"Du Lundi au Mardi : de 08h45 à 12h15\nLe Mercredi : de 09h00 à 12h30 de 14h00 à 17h30\nLe Jeudi : de 08h45 à 12h15\nLe Vendredi : de 08h45 à 12h15 de 14h00 à 17h30","latitude":47.39406,"longitude":0.052749,"website":"http://www.vernantes.fr/","hasWebsite":true,"hasHoraires":true,"url":"https://lannuaire.service-public.gouv.fr/pays-de-la-loire/maine-et-loire/357b3ce1-3fab-47ce-9ff0-1430c92b466b"}
{"nom":"Vernoil-le-Fourrier","nomNormalise":"vernoillefourrier","typeCollectivite":"Commune","region":"Pays de la Loire","departement":"Maine-et-Loire","departementCode":"49","adresse":{"street":"14 rue de la Mairie","postalCode":"49390","city":"Vernoil-le-Fourrier","country":"France"},"contacts":{"email":"secretariat@mairievernoil.fr","telephone":"0241515113"},"horaires":"Le Lundi : de 13h30 à 17h00\nLe Mardi : de 09h00 à 12h15 de 13h30 à 17h00\nLe Mercredi : de 09h00 à 12h15\nLe Jeudi : de 09h00 à 12h15 de 13h30 à 17h00\nLe Vendredi : de 09h00 à 12h15\nLe Samedi : de 09h00 à 12h00","latitude":47.387978,"longitude":0.0766293,"website":"https://www.vernoil.fr/","hasWebsite":true,"hasHoraires":true,"url":"https://lannuaire.service-public.gouv.fr/pays-de-la-loire/maine-et-loire/a8b5d8dc-c038-4030-8630-96115d6a8354"}
{"nom":"Verrie","nomNormalise":"verrie","typeCollectivite":"Commune","region":"Pays de la Loire","departement":"Maine-et-Loire","departementCode":"49","adresse":{"street":"4 place de l'Église","postalCode":"49400","city":"Verrie","country":"France"},"contacts":{"email":"mairie-verrie@wanadoo.fr","telephone":"0241505304"},"horaires":"Le Lundi : de 13h30 à 18h00\nLe Mardi : de 11h30 à 12h30 de 14h00 à 18h00\nLe Jeudi : de 13h30 à 18h00","latitude":47.266003,"longitude":-0.1792231,"website":"https://mairie-verrie.fr/","hasWebsite":true,"hasHoraires":true,"url":"https://lannuaire.service-public.gouv.fr/pays-de-la-loire/maine-et-loire/0fd06a2a-b4a4-4f0c-890f-8138af7caa06"}
{"nom":"Verrières-en-Anjou","nomNormalise":"verrieresenanjou","typeCollectivite":"Commune","region":"Pays de la Loire","departement":"Maine-et-Loire","departementCode":"49","adresse":{"street":"Place de la Mairie","postalCode":"49480","city":"Verrieres-en-Anjou","country":"France"},"contacts":{"email":"mairie@verrieres-anjou.fr","telephone":"0241211282"},"horaires":"Le Lundi : de 14h00 à 17h00\nDu Mardi au Vendredi : de 09h00 à 12h00 de 14h00 à 17h00\nLe Samedi : de 09h00 à 12h00","latitude":47.50684,"longitude":-0.4562332,"website":"http://www.verrieresenanjou.fr/","hasWebsite":true,"hasHoraires":true,"url":"https://lannuaire.service-public.gouv.fr/pays-de-la-loire/maine-et-loire/1a07938f-2e2f-4c60-8848-754e81f98712"}
{"nom":"Vezins","nomNormalise":"vezins","typeCollectivite":"Commune","region":"Pays de la Loire","departement":"Maine-et-Loire","departementCode":"49","adresse":{"street":"Place Flandres-Dunkerque","postalCode":"49340","city":"Vezins","country":"France"},"contacts":{"email":"mairie@mairie-de-vezins.com","telephone":"0241490260"},"horaires":"Le Lundi : de 09h00 à 12h00 de 14h00 à 18h30\nLe Mercredi : de 09h00 à 12h00 de 14h00 à 18h30\nLe Vendredi : de 09h00 à 12h00 de 14h00 à 18h30","latitude":47.122887,"longitude":-0.7866244,"website":"https://www.mairie-de-vezins.com/","hasWebsite":true,"hasHoraires":true,"url":"https://lannuaire.service-public.gouv.fr/pays-de-la-loire/maine-et-loire/99932bb2-7e0e-44d9-85a1-a9ac943e9a4a"}
{"nom":"Villebernier","nomNormalise":"villebernier","typeCollectivite":"Commune","region":"Pays de la Loire","departement":"Maine-et-Loire","departementCode":"49","adresse":{"street":"11 bis rue de la Mairie","postalCode":"49400","city":"Villebernier","country":"France"},"contacts":{"email":"mairie@villebernier.fr","telephone":"0241510625"},"horaires":"Du Lundi au Vendredi : de 08h30 à 12h30","latitude":47.25244,"longitude":-0.029555,"website":"https://www.villebernier.fr/","hasWebsite":true,"hasHoraires":true,"url":"https://lannuaire.service-public.gouv.fr/pays-de-la-loire/maine-et-loire/21d91c96-d78a-4f25-9d19-6e1ce495cad5"}
{"nom":"Mairie déléguée - Villemoisan","nomNormalise":"mairiedelegueevillemoisan","typeCollectivite":"Commune","region":"Pays de la Loire","departement":"Maine-et-Loire","departementCode":"49","adresse":{"street":"Villemoisan","postalCode":"49370","city":"Val d'Erdre-Auxence","country":"France"},"contacts":{"email":"villemoisan@val-erdre-auxence.fr","telephone":"0241392172"},"horaires":"Du Lundi au Jeudi : de 09h00 à 12h00\nLe Vendredi : de 14h00 à 17h00","latitude":47.464413,"longitude":-0.893335,"website":"http://www.val-erdre-auxence.fr/","hasWebsite":true,"hasHoraires":true,"url":"https://lannuaire.service-public.gouv.fr/pays-de-la-loire/maine-et-loire/2272366e-ffd3-42af-aa95-501bcec5e7a3"}
{"nom":"Villevêque","nomNormalise":"villeveque","typeCollectivite":"Commune","region":"Pays de la Loire","departement":"Maine-et-Loire","departementCode":"49","adresse":{"street":"Villevêque","postalCode":"49140","city":"Rives-du-Loir-en-Anjou","country":"France"},"contacts":{"email":"mairie@rivesduloirenanjou.fr","telephone":"0241695115"},"horaires":"Du Lundi au Mardi : de 09h00 à 12h30 de 14h30 à 17h30\nLe Mercredi : de 09h00 à 12h30\nLe Jeudi : de 09h00 à 12h30 de 15h00 à 17h30\nLe Vendredi : de 09h00 à 12h30 de 14h30 à 17h00","latitude":47.5202,"longitude":-0.4718046,"website":"https://rivesduloirenanjou.fr/","hasWebsite":true,"hasHoraires":true,"url":"https://lannuaire.service-public.gouv.fr/pays-de-la-loire/maine-et-loire/d00ac6c7-f2d6-4dac-849c-48ffb1a95994"}
{"nom":"Vivy","nomNormalise":"vivy","typeCollectivite":"Commune","region":"Pays de la Loire","departement":"Maine-et-Loire","departementCode":"49","adresse":{"street":"45 rue Nationale","postalCode":"49680","city":"Vivy","country":"France"},"contacts":{"email":"a.beaujeon@vivy.fr","telephone":"0241525017"},"horaires":"Du Lundi au Vendredi : de 09h00 à 12h00 de 14h00 à 17h00","latitude":47.32444,"longitude":-0.0545592,"website":"https://www.vivy-commune.fr/","hasWebsite":true,"hasHoraires":true,"url":"https://lannuaire.service-public.gouv.fr/pays-de-la-loire/maine-et-loire/001a9d22-9383-48a1-9caa-b679fc7bf75d"}
{"nom":"Yzernay","nomNormalise":"yzernay","typeCollectivite":"Commune","region":"Pays de la Loire","departement":"Maine-et-Loire","departementCode":"49","adresse":{"street":"7 rue Pierre-de-Romans","postalCode":"49360","city":"Yzernay","country":"France"},"contacts":{"email":"mairie@yzernay.fr","telephone":"0241550109"},"horaires":"Le Lundi : de 09h00 à 12h00 de 14h30 à 17h00\nDu Mardi au Jeudi : de 09h00 à 12h00\nLe Vendredi : de 09h00 à 12h00 de 14h30 à 17h00\nLe Samedi : de 09h00 à 12h00","latitude":47.0164,"longitude":-0.717899,"website":"https://www.yzernay.fr/","hasWebsite":true,"hasHoraires":true,"url":"https://lannuaire.service-public.gouv.fr/pays-de-la-loire/maine-et-loire/54f6c7cf-6d07-4f08-8906-0c0f746939f7"}
