{"nom":"Ahuillé","nomNormalise":"ahuille","typeCollectivite":"Commune","region":"Pays de la Loire","departement":"Mayenne","departementCode":"53","adresse":{"street":"1 rue de l'Europe","postalCode":"53940","city":"Ahuillé","country":"France"},"contacts":{"email":"mairie@ahuille.fr","telephone":"0243689065"},"horaires":"Du Lundi au Mardi : de 15h00 à 17h30\nLe Mercredi : de 09h00 à 12h00 de 15h00 à 17h30\nLe Jeudi : de 15h00 à 17h30\nLe Vendredi : de 09h00 à 12h00 de 15h00 à 17h30\nLe Samedi : de 09h00 à 12h00","latitude":48.0188,"longitude":-0.86997,"website":"https://ahuille.fr/","hasWebsite":true,"hasHoraires":true,"url":"https://lannuaire.service-public.gouv.fr/pays-de-la-loire/mayenne/6e09f589-9802-4c80-a5ec-f4842db945a7"}
{"nom":"Alexain","nomNormalise":"alexain","typeCollectivite":"Commune","region":"Pays de la Loire","departement":"Mayenne","departementCode":"53","adresse":{"street":"12 rue de la Mairie","postalCode":"53240","city":"Alexain","country":"France"},"contacts":{"email":"mairie@alexain.fr","telephone":"0243698034"},"horaires":"Du Lundi au Vendredi : de 10h00 à 12h00\nContacter l'accueil pour obtenir un rendez-vous l'après-midi.","latitude":48.2285,"longitude":-0.756646,"website":"","hasWebsite":false,"hasHoraires":true,"url":"https://lannuaire.service-public.gouv.fr/pays-de-la-loire/mayenne/6e20e725-9dd7-4738-af89-6c633e1f527e"}
{"nom":"Ambrières-les-Vallées","nomNormalise":"ambriereslesvallees","typeCollectivite":"Commune","region":"Pays de la Loire","departement":"Mayenne","departementCode":"53","adresse":{"street":"6 place du Château","postalCode":"53300","city":"Ambrières-les-Vallées","country":"France"},"contacts":{"email":"mairie@ambriereslesvallees.fr","telephone":"0243049010"},"horaires":"Le Lundi : de 13h30 à 17h00\nDu Mardi au Vendredi : de 08h45 à 12h00 de 13h30 à 17h00","latitude":48.4032,"longitude":-0.630027,"website":"https://ambriereslesvallees.fr/","hasWebsite":true,"hasHoraires":true,"url":"https://lannuaire.service-public.gouv.fr/pays-de-la-loire/mayenne/f6c6c95b-ffb8-440d-813f-da48ab8f783b"}
{"nom":"Mairie déléguée - Ampoigné","nomNormalise":"mairiedelegueeampoigne","typeCollectivite":"Commune","region":"Pays de la Loire","departement":"Mayenne","departementCode":"53","adresse":{"street":"Ampoigné","postalCode":"53200","city":"Prée-d'Anjou","country":"France"},"contacts":{"email":"preedanjou@chateaugontier.fr","telephone":"0243700214"},"horaires":"Le Mercredi : de 08h30 à 12h30\nLe Vendredi : de 13h30 à 17h30","latitude":47.811348,"longitude":-0.826256,"website":"https://preedanjou.fr/","hasWebsite":true,"hasHoraires":true,"url":"https://lannuaire.service-public.gouv.fr/pays-de-la-loire/mayenne/8c42df5c-9ef3-4114-ac19-108c8c5374db"}
{"nom":"Andouillé","nomNormalise":"andouille","typeCollectivite":"Commune","region":"Pays de la Loire","departement":"Mayenne","departementCode":"53","adresse":{"street":"16 rue de l'Hôtel-de-Ville","postalCode":"53240","city":"Andouillé","country":"France"},"contacts":{"email":"mairie@andouille53.fr","telephone":"0243697272"},"horaires":"Le Lundi : de 09h00 à 12h30 de 14h00 à 17h30\nLe Mardi : de 09h00 à 12h30 de 14h00 à 18h30\nLe Mercredi : de 09h00 à 12h30 de 14h00 à 17h30\nLe Jeudi : de 09h00 à 13h00\nLe Vendredi : de 09h00 à 12h30 de 14h00 à 17h30","latitude":48.1777,"longitude":-0.783361,"website":"https://www.ville-andouille.fr/","hasWebsite":true,"hasHoraires":true,"url":"https://lannuaire.service-public.gouv.fr/pays-de-la-loire/mayenne/4a8f6c04-637a-4613-86c4-706b21e92a2a"}
{"nom":"Mairie déléguée - Argenton-Notre-Dame","nomNormalise":"mairiedelegueeargentonnotredame","typeCollectivite":"Commune","region":"Pays de la Loire","departement":"Mayenne","departementCode":"53","adresse":{"street":"Argenton-Notre-Dame","postalCode":"53290","city":"Bierné-les-Villages","country":"France"},"contacts":{"email":"mairie.argenton-notre-dame@orange.fr","telephone":"0243705517"},"horaires":"Le Mardi : de 13h30 à 18h30\nLe Mercredi : de 09h00 à 12h00\nLe Vendredi : de 09h00 à 12h00","latitude":47.780354,"longitude":-0.588891,"website":"","hasWebsite":false,"hasHoraires":true,"url":"https://lannuaire.service-public.gouv.fr/pays-de-la-loire/mayenne/2a31e0ce-1415-46ce-a803-7fc0344fac95"}
{"nom":"Argentré","nomNormalise":"argentre","typeCollectivite":"Commune","region":"Pays de la Loire","departement":"Mayenne","departementCode":"53","adresse":{"street":"10 place de l'Église","postalCode":"53210","city":"Argentré","country":"France"},"contacts":{"email":"mairie@argentre.fr","telephone":"0243373021"},"horaires":"Du Lundi au Mercredi : de 09h00 à 12h30 de 14h30 à 18h00\nLe Jeudi : de 09h00 à 12h30\nLe Vendredi : de 09h00 à 12h30 de 14h30 à 18h00","latitude":48.0846,"longitude":-0.64345,"website":"http://www.argentre.fr/","hasWebsite":true,"hasHoraires":true,"url":"https://lannuaire.service-public.gouv.fr/pays-de-la-loire/mayenne/f2eeeab1-858b-48cb-879f-e912fd139cb9"}
{"nom":"Aron","nomNormalise":"aron","typeCollectivite":"Commune","region":"Pays de la Loire","departement":"Mayenne","departementCode":"53","adresse":{"street":"Parc des Forges","postalCode":"53440","city":"Aron","country":"France"},"contacts":{"email":"aron.mairie@wanadoo.fr","telephone":"0243042102"},"horaires":"Le Mardi : de 09h00 à 12h00\nLe Mercredi : de 09h00 à 12h00 de 15h00 à 17h30\nLe Vendredi : de 09h00 à 12h00 de 15h00 à 17h30\nLe Samedi : de 09h00 à 11h30","latitude":48.296303,"longitude":-0.5578162,"website":"https://aron53.fr/","hasWebsite":true,"hasHoraires":true,"url":"https://lannuaire.service-public.gouv.fr/pays-de-la-loire/mayenne/6bef50e1-4710-4fe7-b370-6e291890b845"}
{"nom":"Arquenay","nomNormalise":"arquenay","typeCollectivite":"Commune","region":"Pays de la Loire","departement":"Mayenne","departementCode":"53","adresse":{"street":"1 place de l'Église","postalCode":"53170","city":"Arquenay","country":"France"},"contacts":{"email":"mairie.arquenay@orange.fr","telephone":"0243984209"},"horaires":"Le Lundi : de 09h15 à 12h30 de 14h15 à 17h30\nLe Jeudi : de 09h15 à 12h30 de 14h15 à 17h30\nLe Vendredi : de 09h15 à 12h30 de 14h15 à 18h00","latitude":47.986725,"longitude":-0.569423,"website":"https://arquenay.fr/","hasWebsite":true,"hasHoraires":true,"url":"https://lannuaire.service-public.gouv.fr/pays-de-la-loire/mayenne/e1537f31-a5b6-4e74-8afb-b76b3b7b7a23"}
{"nom":"Assé-le-Bérenger","nomNormalise":"asseleberenger","typeCollectivite":"Commune","region":"Pays de la Loire","departement":"Mayenne","departementCode":"53","adresse":{"street":"5 route de Sainte-Suzanne","postalCode":"53600","city":"Assé-le-Bérenger","country":"France"},"contacts":{"email":"mairie.asseleberenger@hotmail.com","telephone":"0243016405"},"horaires":"Le Lundi : de 09h00 à 12h00 de 14h00 à 17h00\nLe Mardi : de 09h00 à 12h00\nLe Mercredi : de 14h00 à 17h00\nLe Vendredi : de 09h00 à 12h00","latitude":48.1553,"longitude":-0.321258,"website":"https://asseleberenger.fr/","hasWebsite":true,"hasHoraires":true,"url":"https://lannuaire.service-public.gouv.fr/pays-de-la-loire/mayenne/2f173dbe-58bf-43de-bb29-348fd08eb468"}
{"nom":"Astillé","nomNormalise":"astille","typeCollectivite":"Commune","region":"Pays de la Loire","departement":"Mayenne","departementCode":"53","adresse":{"street":"18 rue de la Mairie","postalCode":"53230","city":"Astillé","country":"France"},"contacts":{"email":"astille-mairie@orange.fr","telephone":"0243988386"},"horaires":"Le Lundi : de 09h00 à 12h00 de 14h00 à 16h00\nLe Mardi : de 09h00 à 12h00 de 14h00 à 18h30\nDu Jeudi au Vendredi : de 09h00 à 12h00 de 14h00 à 16h00","latitude":47.96349,"longitude":-0.854286,"website":"https://www.astille.fr/","hasWebsite":true,"hasHoraires":true,"url":"https://lannuaire.service-public.gouv.fr/pays-de-la-loire/mayenne/0eb9fe2f-d72f-4e7c-9e06-fa07ee8dc521"}
{"nom":"Athée","nomNormalise":"athee","typeCollectivite":"Commune","region":"Pays de la Loire","departement":"Mayenne","departementCode":"53","adresse":{"street":"2 route de Livré","postalCode":"53400","city":"Athée","country":"France"},"contacts":{"email":"contact@mairie-athee53.fr","telephone":"0243061154"},"horaires":"Le Lundi : de 09h00 à 12h30 de 13h30 à 16h30\nLe Mardi : de 09h00 à 12h30\nLe Jeudi : de 09h00 à 12h30 de 13h30 à 16h30\n\nvendredi matin permanence du maire uniquement sur rdv","latitude":47.8873,"longitude":-0.955508,"website":"https://www.athee-mayenne.fr/","hasWebsite":true,"hasHoraires":true,"url":"https://lannuaire.service-public.gouv.fr/pays-de-la-loire/mayenne/35de7a5d-e69a-4fb0-be88-1ce74866627c"}
{"nom":"Averton","nomNormalise":"averton","typeCollectivite":"Commune","region":"Pays de la Loire","departement":"Mayenne","departementCode":"53","adresse":{"street":"16 rue de Villaines","postalCode":"53700","city":"Averton","country":"France"},"contacts":{"email":"mairie@averton.fr","telephone":"0243032416"},"horaires":"Le Lundi : de 08h00 à 12h00 de 13h00 à 18h00\nLe Mardi : de 08h00 à 12h00\nLe Jeudi : de 08h00 à 12h00 de 13h00 à 18h00\nLe Vendredi : de 08h00 à 12h00 de 13h00 à 16h00","latitude":48.33192,"longitude":-0.224623,"website":"https://www.intramuros.org/averton","hasWebsite":true,"hasHoraires":true,"url":"https://lannuaire.service-public.gouv.fr/pays-de-la-loire/mayenne/58241dac-2a35-4505-a697-846560c0dc19"}
{"nom":"Mairie déléguée - Azé","nomNormalise":"mairiedelegueeaze","typeCollectivite":"Commune","region":"Pays de la Loire","departement":"Mayenne","departementCode":"53","adresse":{"street":"Azé","postalCode":"53200","city":"Château-Gontier-sur-Mayenne","country":"France"},"contacts":{"email":"aze@chateaugontier.fr","telephone":"0243704400"},"horaires":"Le Lundi : de 14h00 à 18h00\nDu Mardi au Vendredi : de 09h00 à 12h00 de 14h00 à 18h00\nLe Samedi : de 09h00 à 12h00","latitude":47.81825,"longitude":-0.685202,"website":"","hasWebsite":false,"hasHoraires":true,"url":"https://lannuaire.service-public.gouv.fr/pays-de-la-loire/mayenne/106b2444-a582-47fb-ae10-d940ebb0b030"}
{"nom":"Bais","nomNormalise":"bais","typeCollectivite":"Commune","region":"Pays de la Loire","departement":"Mayenne","departementCode":"53","adresse":{"street":"2 avenue Auguste-Janvier","postalCode":"53160","city":"Bais","country":"France"},"contacts":{"email":"bais53@wanadoo.fr","telephone":"0243379038"},"horaires":"Le Lundi : de 08h30 à 12h30 de 15h00 à 18h00\nDu Mardi au Mercredi : de 08h30 à 12h30\nLe Jeudi : de 08h30 à 12h30 de 15h00 à 18h00\nLe Vendredi : de 08h30 à 12h30","latitude":48.25128,"longitude":-0.3635667,"website":"https://bais53.fr/","hasWebsite":true,"hasHoraires":true,"url":"https://lannuaire.service-public.gouv.fr/pays-de-la-loire/mayenne/b2452344-b763-4abf-a455-e7fe1de7bf2a"}
{"nom":"Ballots","nomNormalise":"ballots","typeCollectivite":"Commune","region":"Pays de la Loire","departement":"Mayenne","departementCode":"53","adresse":{"street":"1 rue Nationale","postalCode":"53350","city":"Ballots","country":"France"},"contacts":{"email":"mairie@ballots.fr","telephone":"0243065208"},"horaires":"Le Lundi : de 08h30 à 12h30 de 14h00 à 17h30\nLe Mardi : de 08h30 à 12h30\nDu Mercredi au Jeudi : de 08h30 à 12h30 de 14h00 à 17h30\nLe Vendredi : de 08h30 à 12h30 de 14h00 à 17h00","latitude":47.8953,"longitude":-1.04843,"website":"http://www.ballots.fr/","hasWebsite":true,"hasHoraires":true,"url":"https://lannuaire.service-public.gouv.fr/pays-de-la-loire/mayenne/81f9f930-2bc4-4ac5-8b0c-478ded69a3c8"}
{"nom":"Bannes","nomNormalise":"bannes","typeCollectivite":"Commune","region":"Pays de la Loire","departement":"Mayenne","departementCode":"53","adresse":{"street":"1 place de la Mairie","postalCode":"53340","city":"Bannes","country":"France"},"contacts":{"email":"mairie@bannes53.fr","telephone":"0243905691"},"horaires":"Le Lundi : de 09h00 à 12h30 de 14h00 à 17h00\nLe Jeudi : de 09h00 à 12h30 de 14h00 à 16h30","latitude":47.98073,"longitude":-0.35430908,"website":"","hasWebsite":false,"hasHoraires":true,"url":"https://lannuaire.service-public.gouv.fr/pays-de-la-loire/mayenne/e16e612e-8139-434a-ac43-bfeeaf05a5d3"}
{"nom":"Bazougers","nomNormalise":"bazougers","typeCollectivite":"Commune","region":"Pays de la Loire","departement":"Mayenne","departementCode":"53","adresse":{"street":"1 bis rue du Château","postalCode":"53170","city":"Bazougers","country":"France"},"contacts":{"email":"accueil@bazougers.fr","telephone":"0243023186"},"horaires":"Du Lundi au Mardi : de 08h30 à 12h30 de 17h00 à 18h00\nLe Mercredi : de 09h00 à 12h00\nDu Jeudi au Vendredi : de 08h30 à 12h30 de 17h00 à 18h00\nLe Samedi : de 09h00 à 12h00","latitude":48.017284,"longitude":-0.580922,"website":"https://bazougers.fr/","hasWebsite":true,"hasHoraires":true,"url":"https://lannuaire.service-public.gouv.fr/pays-de-la-loire/mayenne/a3c1cc26-cd2a-4581-b201-4a36babb6df6"}
{"nom":"Beaulieu-sur-Oudon","nomNormalise":"beaulieusuroudon","typeCollectivite":"Commune","region":"Pays de la Loire","departement":"Mayenne","departementCode":"53","adresse":{"street":"22 rue de Bretagne","postalCode":"53320","city":"Beaulieu-sur-Oudon","country":"France"},"contacts":{"email":"mairie@beaulieu-sur-oudon.fr","telephone":"0243021140"},"horaires":"Du Lundi au Mercredi : de 09h00 à 12h00\nDu Vendredi au Samedi : de 09h00 à 12h00\n\nAccueil fermé le samedi en juillet-août.","latitude":48.0043,"longitude":-0.995149,"website":"http://www.beaulieu-sur-oudon.fr/","hasWebsite":true,"hasHoraires":true,"url":"https://lannuaire.service-public.gouv.fr/pays-de-la-loire/mayenne/864ab9b9-da8e-4c01-8181-321a5116bcbc"}
{"nom":"Beaumont-Pied-de-Buf","nomNormalise":"beaumontpieddebuf","typeCollectivite":"Commune","region":"Pays de la Loire","departement":"Mayenne","departementCode":"53","adresse":{"street":"3 place Charles-Hérisson","postalCode":"53290","city":"Beaumont-Pied-de-Buf","country":"France"},"contacts":{"email":"mairie.beaumontpieddeboeuf@orange.fr","telephone":"0243708274"},"horaires":"Le Lundi : de 09h00 à 12h00 de 14h00 à 16h00\nLe Jeudi : de 09h00 à 12h00 de 14h00 à 16h00\nLe Vendredi : de 09h00 à 12h00","latitude":47.904488,"longitude":-0.4296294,"website":"","hasWebsite":false,"hasHoraires":true,"url":"https://lannuaire.service-public.gouv.fr/pays-de-la-loire/mayenne/a2f86be6-2016-4ac8-b41b-ffe1ac8c5fb7"}
{"nom":"Belgeard","nomNormalise":"belgeard","typeCollectivite":"Commune","region":"Pays de la Loire","departement":"Mayenne","departementCode":"53","adresse":{"street":"30 rue du Muguet","postalCode":"53440","city":"Belgeard","country":"France"},"contacts":{"email":"mairie.belgeard@wanadoo.fr","telephone":"0243044569"},"horaires":"Le Mardi : de 08h30 à 12h30 de 14h00 à 18h00\nLe Mercredi : de 09h00 à 12h30\nLe Jeudi : de 13h30 à 18h00\nLe Samedi : de 08h30 à 12h00","latitude":48.253777,"longitude":-0.549602,"website":"","hasWebsite":false,"hasHoraires":true,"url":"https://lannuaire.service-public.gouv.fr/pays-de-la-loire/mayenne/9a46b7e3-c04b-403c-af20-0dc57381783b"}
{"nom":"Bierné-les-Villages","nomNormalise":"biernelesvillages","typeCollectivite":"Commune","region":"Pays de la Loire","departement":"Mayenne","departementCode":"53","adresse":{"street":"Bierné","postalCode":"53290","city":"Bierné-les-Villages","country":"France"},"contacts":{"email":"biernelesvillages@chateaugontier.fr","telephone":"0243705317"},"horaires":"Du Lundi au Vendredi : de 09h00 à 12h00","latitude":47.81032,"longitude":-0.541883,"website":"https://www.biernelesvillages.fr/","hasWebsite":true,"hasHoraires":true,"url":"https://lannuaire.service-public.gouv.fr/pays-de-la-loire/mayenne/b6bd267c-db85-46a9-946f-f8c8b12f085d"}
{"nom":"Mairie déléguée - Blandouet","nomNormalise":"mairiedelegueeblandouet","typeCollectivite":"Commune","region":"Pays de la Loire","departement":"Mayenne","departementCode":"53","adresse":{"street":"Blandouet","postalCode":"53270","city":"Blandouet-Saint Jean","country":"France"},"contacts":{"email":"mairie@blandouetsaintjean.fr","telephone":"0243902741"},"horaires":"Le Mardi : de 13h30 à 16h45\nLe Vendredi : de 09h00 à 12h00","latitude":48.051655,"longitude":-0.328575,"website":"https://blandouetsaintjean.fr/","hasWebsite":true,"hasHoraires":true,"url":"https://lannuaire.service-public.gouv.fr/pays-de-la-loire/mayenne/341b998f-0d71-4cfb-b5a6-0bd87707eb15"}
{"nom":"Blandouet-Saint Jean","nomNormalise":"blandouetsaintjean","typeCollectivite":"Commune","region":"Pays de la Loire","departement":"Mayenne","departementCode":"53","adresse":{"street":"Saint-Jean-Sur-Erve","postalCode":"53270","city":"Blandouet-Saint Jean","country":"France"},"contacts":{"email":"mairie@blandouetsaintjean.fr","telephone":"0243906088"},"horaires":"Le Lundi : de 09h00 à 12h30 de 13h30 à 17h15\nLe Mardi : de 09h00 à 12h30\nLe Jeudi : de 13h30 à 17h15\nLe Vendredi : de 13h30 à 16h45","latitude":48.0345,"longitude":-0.391367,"website":"https://blandouetsaintjean.fr/","hasWebsite":true,"hasHoraires":true,"url":"https://lannuaire.service-public.gouv.fr/pays-de-la-loire/mayenne/210a46a4-2720-4d3f-88d6-4cadfaa5cc47"}
{"nom":"Bonchamp-lès-Laval","nomNormalise":"bonchampleslaval","typeCollectivite":"Commune","region":"Pays de la Loire","departement":"Mayenne","departementCode":"53","adresse":{"street":"25 rue du Maine","postalCode":"53960","city":"Bonchamp-lès-Laval","country":"France"},"contacts":{"email":"mairie@bonchamp.fr","telephone":"0243903188"},"horaires":"Du Lundi au Vendredi : de 08h30 à 12h00 de 14h00 à 18h00","latitude":48.0726,"longitude":-0.700139,"website":"https://www.bonchamp.fr/","hasWebsite":true,"hasHoraires":true,"url":"https://lannuaire.service-public.gouv.fr/pays-de-la-loire/mayenne/514cfd96-7746-4671-a906-de96028524bb"}
{"nom":"Bouchamps-lès-Craon","nomNormalise":"bouchampslescraon","typeCollectivite":"Commune","region":"Pays de la Loire","departement":"Mayenne","departementCode":"53","adresse":{"street":"3 place de Challonges","postalCode":"53800","city":"Bouchamps-lès-Craon","country":"France"},"contacts":{"email":"mairie.bouchamps.les.craon@orange.fr","telephone":"0243064313"},"horaires":"Le Mardi : de 08h30 à 12h30\nLe Mercredi : de 08h30 à 12h30\nLe Jeudi : de 15h00 à 18h30","latitude":47.814964,"longitude":-0.993353,"website":"","hasWebsite":false,"hasHoraires":true,"url":"https://lannuaire.service-public.gouv.fr/pays-de-la-loire/mayenne/0d6d10db-5bf3-4491-876a-54df5351f0cf"}
{"nom":"Bouère","nomNormalise":"bouere","typeCollectivite":"Commune","region":"Pays de la Loire","departement":"Mayenne","departementCode":"53","adresse":{"street":"2 rue des Sencies","postalCode":"53290","city":"Bouère","country":"France"},"contacts":{"email":"mairie@mairie53-bouere.fr","telephone":"0243705129"},"horaires":"Du Lundi au Mercredi : de 09h00 à 12h00\nLe Jeudi : de 09h00 à 12h00 de 14h00 à 18h30\nLe Vendredi : de 09h00 à 12h00","latitude":47.8636,"longitude":-0.47718,"website":"https://mairie53-bouere.fr/","hasWebsite":true,"hasHoraires":true,"url":"https://lannuaire.service-public.gouv.fr/pays-de-la-loire/mayenne/cb848727-505d-4d05-a884-f08ca3692704"}
{"nom":"Bouessay","nomNormalise":"bouessay","typeCollectivite":"Commune","region":"Pays de la Loire","departement":"Mayenne","departementCode":"53","adresse":{"street":"1 Route de Grez-en-Bouère","postalCode":"53290","city":"Bouessay","country":"France"},"contacts":{"email":"mairie.bouessay@wanadoo.fr","telephone":"0243708222"},"horaires":"Le Lundi : de 13h30 à 17h00\nLe Mardi : de 13h30 à 18h00\nLe Jeudi : de 09h00 à 12h00\nLe Vendredi : de 13h30 à 17h00\nLe Samedi : de 09h00 à 12h00","latitude":47.876274,"longitude":-0.3943686,"website":"https://bouessay.fr/","hasWebsite":true,"hasHoraires":true,"url":"https://lannuaire.service-public.gouv.fr/pays-de-la-loire/mayenne/4ff1d820-4fb1-49af-bf7e-30208ee6c51e"}
{"nom":"Boulays-les-Ifs","nomNormalise":"boulayslesifs","typeCollectivite":"Commune","region":"Pays de la Loire","departement":"Mayenne","departementCode":"53","adresse":{"street":"Place de l'Eglise","postalCode":"53370","city":"Boulay-les-Ifs","country":"France"},"contacts":{"email":"mairie.boulay.les.ifs@wanadoo.fr","telephone":"0243035202"},"horaires":"Le Mardi : de 08h30 à 12h30 de 13h30 à 18h00\nLe Vendredi : de 08h30 à 12h30 de 13h30 à 17h45","latitude":48.42055,"longitude":-0.132864,"website":"","hasWebsite":false,"hasHoraires":true,"url":"https://lannuaire.service-public.gouv.fr/pays-de-la-loire/mayenne/9a8963bb-72d7-4a85-ab4b-48929cbcd117"}
{"nom":"Bourgon","nomNormalise":"bourgon","typeCollectivite":"Commune","region":"Pays de la Loire","departement":"Mayenne","departementCode":"53","adresse":{"street":"Rue Hetlé","postalCode":"53410","city":"Bourgon","country":"France"},"contacts":{"email":"contact@mairiebourgon.fr","telephone":"0243371590"},"horaires":"Du Mardi au Samedi : de 09h00 à 12h00","latitude":48.16677,"longitude":-1.0670794,"website":"","hasWebsite":false,"hasHoraires":true,"url":"https://lannuaire.service-public.gouv.fr/pays-de-la-loire/mayenne/6ba5d8c4-c980-4fdd-887e-a5270a415b30"}
{"nom":"Brains-sur-les-Marches","nomNormalise":"brainssurlesmarches","typeCollectivite":"Commune","region":"Pays de la Loire","departement":"Mayenne","departementCode":"53","adresse":{"street":"4 rue des Marches-de-Bretagne","postalCode":"53350","city":"Brains-sur-les-Marches","country":"France"},"contacts":{"email":"mairiebrains@orange.fr","telephone":"0243065016"},"horaires":"Le Mardi : de 13h30 à 17h00\nLe Vendredi : de 09h00 à 12h00","latitude":47.8876,"longitude":-1.18198,"website":"","hasWebsite":false,"hasHoraires":true,"url":"https://lannuaire.service-public.gouv.fr/pays-de-la-loire/mayenne/68441802-0ead-4977-bf8a-3e49fcff771a"}
{"nom":"Brecé","nomNormalise":"brece","typeCollectivite":"Commune","region":"Pays de la Loire","departement":"Mayenne","departementCode":"53","adresse":{"street":"2 rue de la Mairie","postalCode":"53120","city":"Brecé","country":"France"},"contacts":{"email":"contact@brece.com","telephone":"0243086452"},"horaires":"Le Mardi : de 09h30 à 12h30 de 14h30 à 16h30\nLe Mercredi : de 09h30 à 12h30\nLe Jeudi : de 09h30 à 12h30 de 14h30 à 16h30\nLe Vendredi : de 09h30 à 12h30","latitude":48.398796,"longitude":-0.7890168,"website":"https://www.brece.com/","hasWebsite":true,"hasHoraires":true,"url":"https://lannuaire.service-public.gouv.fr/pays-de-la-loire/mayenne/d25583ee-0999-4274-9aad-1c389e56d201"}
{"nom":"Brée","nomNormalise":"bree","typeCollectivite":"Commune","region":"Pays de la Loire","departement":"Mayenne","departementCode":"53","adresse":{"street":"3 Grand'rue","postalCode":"53150","city":"Brée","country":"France"},"contacts":{"email":"mairie.bree@wanadoo.fr","telephone":"0243900546"},"horaires":"Le Lundi : de 14h30 à 17h00\nLe Mardi : de 09h00 à 12h30\nLe Jeudi : de 09h00 à 12h30\nLe Vendredi : de 09h00 à 12h30 de 14h00 à 18h00","latitude":48.1355,"longitude":-0.553126,"website":"","hasWebsite":false,"hasHoraires":true,"url":"https://lannuaire.service-public.gouv.fr/pays-de-la-loire/mayenne/43e7aa74-86ea-440e-8a24-10d1eadacc62"}
{"nom":"Carelles","nomNormalise":"carelles","typeCollectivite":"Commune","region":"Pays de la Loire","departement":"Mayenne","departementCode":"53","adresse":{"street":"2 place de l'Église","postalCode":"53120","city":"Carelles","country":"France"},"contacts":{"email":"commune.carelles@wanadoo.fr","telephone":"0243081600"},"horaires":"Le Mardi : de 09h00 à 12h00\nLe Jeudi : de 09h00 à 12h00\nLe Samedi : de 09h00 à 12h00","latitude":48.3816,"longitude":-0.904946,"website":"","hasWebsite":false,"hasHoraires":true,"url":"https://lannuaire.service-public.gouv.fr/pays-de-la-loire/mayenne/296a27bc-2926-4715-b1d5-feec10b49485"}
{"nom":"Chailland","nomNormalise":"chailland","typeCollectivite":"Commune","region":"Pays de la Loire","departement":"Mayenne","departementCode":"53","adresse":{"street":"Place de la Mairie","postalCode":"53420","city":"Chailland","country":"France"},"contacts":{"email":"mairie.chailland@orange.fr","telephone":"0243027011"},"horaires":"Du Lundi au Mardi : de 09h00 à 12h00 de 14h00 à 17h30\nLe Mercredi : de 09h00 à 12h00\nLe Jeudi : de 09h00 à 12h00 de 14h00 à 17h30\nLe Vendredi : de 09h00 à 12h00 de 14h00 à 16h30\nLe Samedi : de 09h00 à 12h00\n\n1 samedi sur 2.","latitude":48.223724,"longitude":-0.873553,"website":"https://chailland.fr/","hasWebsite":true,"hasHoraires":true,"url":"https://lannuaire.service-public.gouv.fr/pays-de-la-loire/mayenne/386c213b-8ce2-453c-9086-ec1624164fea"}
{"nom":"Châlons-du-Maine","nomNormalise":"chalonsdumaine","typeCollectivite":"Commune","region":"Pays de la Loire","departement":"Mayenne","departementCode":"53","adresse":{"street":"15 rue Principale","postalCode":"53470","city":"Châlons-du-Maine","country":"France"},"contacts":{"email":"mairie@chalonsdumaine.fr","telephone":"0243025556"},"horaires":"Du Lundi au Mardi : de 14h00 à 17h00\nLe Mercredi : de 09h30 à 11h30\nLe Jeudi : de 15h00 à 18h45\nLe Vendredi : de 10h00 à 13h00","latitude":48.163097,"longitude":-0.644226,"website":"https://chalonsdumaine.fr/","hasWebsite":true,"hasHoraires":true,"url":"https://lannuaire.service-public.gouv.fr/pays-de-la-loire/mayenne/5ca956c9-cd83-4904-ba7a-3a457618b63f"}
{"nom":"Champéon","nomNormalise":"champeon","typeCollectivite":"Commune","region":"Pays de la Loire","departement":"Mayenne","departementCode":"53","adresse":{"street":"11 place Saint-Médard","postalCode":"53640","city":"Champéon","country":"France"},"contacts":{"email":"mairie.champeon@gmail.com","telephone":"0243008456"},"horaires":"Le Lundi : de 09h00 à 12h00\nLe Mardi : de 09h00 à 12h00 de 14h00 à 18h00\nLe Jeudi : de 09h00 à 12h00\nLe Vendredi : de 09h00 à 12h00 de 14h00 à 17h00\nLe Samedi : de 09h00 à 12h00","latitude":48.367195,"longitude":-0.5180376,"website":"","hasWebsite":false,"hasHoraires":true,"url":"https://lannuaire.service-public.gouv.fr/pays-de-la-loire/mayenne/f04aa9a7-10e8-48d9-8477-cc4eb48b32ad"}
{"nom":"Champfrémont","nomNormalise":"champfremont","typeCollectivite":"Commune","region":"Pays de la Loire","departement":"Mayenne","departementCode":"53","adresse":{"street":"2 route de Boulay","postalCode":"53370","city":"Champfrémont","country":"France"},"contacts":{"email":"champfremont.mairie@wanadoo.fr","telephone":"0965255574"},"horaires":"Le Lundi : de 08h30 à 12h30 de 13h30 à 17h00\nLe Mercredi : de 08h30 à 12h00\nLe Jeudi : de 08h30 à 12h30 de 14h00 à 17h00","latitude":48.428303,"longitude":-0.093854,"website":"","hasWebsite":false,"hasHoraires":true,"url":"https://lannuaire.service-public.gouv.fr/pays-de-la-loire/mayenne/4b2009bc-496d-4e64-85a3-631d8b53ab7d"}
{"nom":"Champgenéteux","nomNormalise":"champgeneteux","typeCollectivite":"Commune","region":"Pays de la Loire","departement":"Mayenne","departementCode":"53","adresse":{"street":"11 rue des Rosiers","postalCode":"53160","city":"Champgenéteux","country":"France"},"contacts":{"email":"mairie.champgeneteux@wanadoo.fr","telephone":"0243379111"},"horaires":"Le Lundi : de 08h00 à 12h00 de 13h30 à 17h30\nLe Mardi : de 08h00 à 12h00\nLe Mercredi : de 09h00 à 12h00\n\nAccueil fermé les 1er et 3e mercredi du mois.\nLe Jeudi : de 08h00 à 12h00\nLe Vendredi : de 08h00 à 12h00 de 13h30 à 17h30\nLe Samedi : de 09h00 à 12h00\n\nAccueil ouvert les 1er et 3e samedi du mois.","latitude":48.2908,"longitude":-0.360346,"website":"https://www.mairiechampgeneteux.fr/","hasWebsite":true,"hasHoraires":true,"url":"https://lannuaire.service-public.gouv.fr/pays-de-la-loire/mayenne/680246ae-bbb2-4ee9-97b0-b35c20a2ad7c"}
{"nom":"Changé","nomNormalise":"change","typeCollectivite":"Commune","region":"Pays de la Loire","departement":"Mayenne","departementCode":"53","adresse":{"street":"6 place Christian-d'Elva","postalCode":"53810","city":"Changé","country":"France"},"contacts":{"email":"mairie@change53.fr","telephone":"0243532082"},"horaires":"Le Lundi : de 13h30 à 17h30\nDu Mardi au Vendredi : de 08h30 à 12h00 de 13h30 à 17h30\nLe Samedi : de 09h00 à 12h00\n\nAccueil fermé le samedi en juillet-août.","latitude":48.0984,"longitude":-0.788982,"website":"https://www.change53.fr/","hasWebsite":true,"hasHoraires":true,"url":"https://lannuaire.service-public.gouv.fr/pays-de-la-loire/mayenne/b07434b8-ec08-4e3a-83e9-8493d4272666"}
{"nom":"Chantrigné","nomNormalise":"chantrigne","typeCollectivite":"Commune","region":"Pays de la Loire","departement":"Mayenne","departementCode":"53","adresse":{"street":"47 rue des Vallées","postalCode":"53300","city":"Chantrigné","country":"France"},"contacts":{"email":"contact@mairie-chantrigne.fr","telephone":"0243008169"},"horaires":"Du Lundi au Mardi : de 09h00 à 12h30\nDu Jeudi au Vendredi : de 09h00 à 12h30\nLe Samedi : de 09h00 à 12h00","latitude":48.4145,"longitude":-0.571054,"website":"https://mairie-chantrigne.fr/","hasWebsite":true,"hasHoraires":true,"url":"https://lannuaire.service-public.gouv.fr/pays-de-la-loire/mayenne/4572ac4d-801f-4240-82c9-fb6d33c59f8e"}
{"nom":"Charchigné","nomNormalise":"charchigne","typeCollectivite":"Commune","region":"Pays de la Loire","departement":"Mayenne","departementCode":"53","adresse":{"street":"6 rue de la Bruyère","postalCode":"53250","city":"Charchigné","country":"France"},"contacts":{"email":"mairie.charchigne@wanadoo.fr","telephone":"0243039583"},"horaires":"Du Lundi au Mardi : de 10h00 à 12h00 de 14h30 à 17h00\nLe Jeudi : de 10h00 à 12h00 de 14h30 à 17h00\nLe Vendredi : de 10h00 à 12h00 de 14h30 à 16h30","latitude":48.417564,"longitude":-0.40846,"website":"https://mairiecharchigne.fr/","hasWebsite":true,"hasHoraires":true,"url":"https://lannuaire.service-public.gouv.fr/pays-de-la-loire/mayenne/1baea63b-8a40-40c9-b890-46cacf043605"}
{"nom":"Château-Gontier-sur-Mayenne","nomNormalise":"chateaugontiersurmayenne","typeCollectivite":"Commune","region":"Pays de la Loire","departement":"Mayenne","departementCode":"53","adresse":{"street":"Hôtel de Ville et de Pays","postalCode":"53200","city":"Château-Gontier-sur-Mayenne","country":"France"},"contacts":{"email":"chateau-gontier@chateaugontier.fr","telephone":"0243095555"},"horaires":"Du Lundi au Vendredi : de 08h30 à 12h00 de 13h30 à 18h00\nLe Samedi : de 08h30 à 12h00\n\nAccueil ouvert uniquement pour l'état civil.","latitude":47.826584,"longitude":-0.707012,"website":"https://www.chateaugontiersurmayenne.fr/","hasWebsite":true,"hasHoraires":true,"url":"https://lannuaire.service-public.gouv.fr/pays-de-la-loire/mayenne/302fe425-4103-4c6a-9e66-a9bd18af94fd"}
{"nom":"Châtelain","nomNormalise":"chatelain","typeCollectivite":"Commune","region":"Pays de la Loire","departement":"Mayenne","departementCode":"53","adresse":{"street":"14 rue Principale","postalCode":"53200","city":"Châtelain","country":"France"},"contacts":{"email":"chatelain@chateaugontier.fr","telephone":"0243072209"},"horaires":"Le Lundi : de 16h30 à 18h30\nLe Mardi : de 09h00 à 12h30\nLe Jeudi : de 09h00 à 12h30\nLe Samedi : de 09h00 à 12h00\n\nAccueil ouvert uniquement le 1er samedi du mois.","latitude":47.809307,"longitude":-0.598433,"website":"https://chatelain53.fr/","hasWebsite":true,"hasHoraires":true,"url":"https://lannuaire.service-public.gouv.fr/pays-de-la-loire/mayenne/4e9926e8-f735-47a1-a44b-4c80ffa859b9"}
{"nom":"Châtillon-sur-Colmont","nomNormalise":"chatillonsurcolmont","typeCollectivite":"Commune","region":"Pays de la Loire","departement":"Mayenne","departementCode":"53","adresse":{"street":"34 rue des Anciens-Combattants","postalCode":"53100","city":"Châtillon-sur-Colmont","country":"France"},"contacts":{"email":"mairie@chatillon-sur-colmont.fr","telephone":"0243002016"},"horaires":"Le Lundi : de 08h00 à 12h30 de 13h30 à 16h15\nLe Mardi : de 08h00 à 12h30 de 13h30 à 18h15\nLe Mercredi : de 08h45 à 12h00\nLe Jeudi : de 08h00 à 12h30 de 13h30 à 16h15\nLe Vendredi : de 08h00 à 12h30\nLe Samedi : de 09h00 à 12h00\n\nAccueil ouvert les semaines paires.","latitude":48.33917,"longitude":-0.739605,"website":"https://www.chatillon-sur-colmont.fr/","hasWebsite":true,"hasHoraires":true,"url":"https://lannuaire.service-public.gouv.fr/pays-de-la-loire/mayenne/bcdd61a0-49d9-4c4a-947c-2b2a3f2a93c9"}
{"nom":"Mairie déléguée - Châtres-la-Forêt","nomNormalise":"mairiedelegueechatreslaforet","typeCollectivite":"Commune","region":"Pays de la Loire","departement":"Mayenne","departementCode":"53","adresse":{"street":"Châtres-la-Forêt","postalCode":"53600","city":"Évron","country":"France"},"contacts":{"email":"chatreslaforet@evron.fr","telephone":"0243663200"},"horaires":"Le Lundi : de 08h15 à 12h30\nLe Mardi : de 14h15 à 18h30\nLe Jeudi : de 10h00 à 11h30\nLe Vendredi : de 14h15 à 16h15","latitude":48.1328,"longitude":-0.431799,"website":"https://www.evron.fr/","hasWebsite":true,"hasHoraires":true,"url":"https://lannuaire.service-public.gouv.fr/pays-de-la-loire/mayenne/cad5ba36-2438-4aa0-adb4-6796fc3b73db"}
{"nom":"Chemazé","nomNormalise":"chemaze","typeCollectivite":"Commune","region":"Pays de la Loire","departement":"Mayenne","departementCode":"53","adresse":{"street":"3 place de la Mairie","postalCode":"53200","city":"Chemazé","country":"France"},"contacts":{"email":"chemaze@chateaugontier.fr","telephone":"0243702020"},"horaires":"Du Lundi au Jeudi : de 09h00 à 12h00 de 14h00 à 18h00\nLe Vendredi : de 09h00 à 12h00","latitude":47.786114,"longitude":-0.77449,"website":"https://www.chemaze.fr/","hasWebsite":true,"hasHoraires":true,"url":"https://lannuaire.service-public.gouv.fr/pays-de-la-loire/mayenne/ea556cb3-7511-471e-8261-d9773964ed84"}
{"nom":"Chémeré-le-Roi","nomNormalise":"chemereleroi","typeCollectivite":"Commune","region":"Pays de la Loire","departement":"Mayenne","departementCode":"53","adresse":{"street":"1 place de la Mairie","postalCode":"53340","city":"Chémeré-le-Roi","country":"France"},"contacts":{"email":"mairie.chemere@chemereleroi.fr","telephone":"0243986888"},"horaires":"Le Mardi : de 08h30 à 12h30\nLe Mercredi : de 08h30 à 12h30 de 13h00 à 17h00\nLe Vendredi : de 08h30 à 13h00","latitude":47.9774,"longitude":-0.439536,"website":"https://chemereleroi.fr/","hasWebsite":true,"hasHoraires":true,"url":"https://lannuaire.service-public.gouv.fr/pays-de-la-loire/mayenne/ae588173-5cc0-464a-be99-7b09e413c66d"}
{"nom":"Chérancé","nomNormalise":"cherance","typeCollectivite":"Commune","region":"Pays de la Loire","departement":"Mayenne","departementCode":"53","adresse":{"street":"25 rue Principale","postalCode":"53400","city":"Chérancé","country":"France"},"contacts":{"email":"cherance.mairie@wanadoo.fr","telephone":"0243061268"},"horaires":"Le Lundi : de 14h00 à 18h00\nLe Jeudi : de 08h00 à 12h00\nLe Vendredi : de 14h30 à 18h30","latitude":47.794933,"longitude":-0.936607,"website":"","hasWebsite":false,"hasHoraires":true,"url":"https://lannuaire.service-public.gouv.fr/pays-de-la-loire/mayenne/c741aeba-eb0a-41c8-a472-38d70281d18e"}
{"nom":"Chevaigné-du-Maine","nomNormalise":"chevaignedumaine","typeCollectivite":"Commune","region":"Pays de la Loire","departement":"Mayenne","departementCode":"53","adresse":{"street":"17 rue des Cèdres","postalCode":"53250","city":"Chevaigné-du-Maine","country":"France"},"contacts":{"email":"chevaigne-53@orange.fr","telephone":"0243034270"},"horaires":"Du Mardi au Vendredi : de 14h00 à 17h00\nLe Samedi : de 10h30 à 12h30","latitude":48.437447,"longitude":-0.388292,"website":"","hasWebsite":false,"hasHoraires":true,"url":"https://lannuaire.service-public.gouv.fr/pays-de-la-loire/mayenne/36de018a-60ec-430e-b753-92860cd8530d"}
{"nom":"Colombiers-du-Plessis","nomNormalise":"colombiersduplessis","typeCollectivite":"Commune","region":"Pays de la Loire","departement":"Mayenne","departementCode":"53","adresse":{"street":"5 rue de la Mairie","postalCode":"53120","city":"Colombiers-du-Plessis","country":"France"},"contacts":{"email":"mairie-colombiers@wanadoo.fr","telephone":"0243086011"},"horaires":"Du Lundi au Mardi : de 09h00 à 12h30\nDu Jeudi au Samedi : de 09h00 à 12h30","latitude":48.411247,"longitude":-0.8136,"website":"https://www.colombiers-du-plessis.fr/","hasWebsite":true,"hasHoraires":true,"url":"https://lannuaire.service-public.gouv.fr/pays-de-la-loire/mayenne/838b26ef-e68c-4417-859f-c2691dd675b9"}
{"nom":"Commer","nomNormalise":"commer","typeCollectivite":"Commune","region":"Pays de la Loire","departement":"Mayenne","departementCode":"53","adresse":{"street":"2 rue des Acacias","postalCode":"53470","city":"Commer","country":"France"},"contacts":{"email":"accueil@commer.fr","telephone":"0243004530"},"horaires":"Du Lundi au Jeudi : de 09h00 à 12h00\nLe Vendredi : de 14h00 à 17h30\nLe Samedi : de 09h30 à 12h00","latitude":48.2489,"longitude":-0.6217,"website":"https://commer.fr/","hasWebsite":true,"hasHoraires":true,"url":"https://lannuaire.service-public.gouv.fr/pays-de-la-loire/mayenne/8e222a99-9da3-4891-a023-bde7eb3c8542"}
{"nom":"Congrier","nomNormalise":"congrier","typeCollectivite":"Commune","region":"Pays de la Loire","departement":"Mayenne","departementCode":"53","adresse":{"street":"12 place de l'Église","postalCode":"53800","city":"Congrier","country":"France"},"contacts":{"email":"contact@congrier.fr","telephone":"0243064206"},"horaires":"Du Lundi au Mardi : de 09h30 à 12h00 de 13h30 à 17h30\nLe Mercredi : de 09h30 à 12h00\nDu Jeudi au Vendredi : de 09h30 à 12h00 de 13h30 à 17h30","latitude":47.8128,"longitude":-1.1179,"website":"http://www.congrier.fr/","hasWebsite":true,"hasHoraires":true,"url":"https://lannuaire.service-public.gouv.fr/pays-de-la-loire/mayenne/ee351d25-e3c3-4f56-ac2b-d8d2dcec7517"}
{"nom":"Contest","nomNormalise":"contest","typeCollectivite":"Commune","region":"Pays de la Loire","departement":"Mayenne","departementCode":"53","adresse":{"street":"20 bis rue Principale","postalCode":"53100","city":"Contest","country":"France"},"contacts":{"email":"mairie@contest.fr","telephone":"0243004677"},"horaires":"Du Lundi au Mardi : de 09h15 à 12h00\nLe Jeudi : de 09h15 à 12h00","latitude":48.2684,"longitude":-0.654378,"website":"","hasWebsite":false,"hasHoraires":true,"url":"https://lannuaire.service-public.gouv.fr/pays-de-la-loire/mayenne/f55416c2-5242-446f-bf86-f42f863f678d"}
{"nom":"Cosmes","nomNormalise":"cosmes","typeCollectivite":"Commune","region":"Pays de la Loire","departement":"Mayenne","departementCode":"53","adresse":{"street":"12 A rue de la Fontaine","postalCode":"53230","city":"Cosmes","country":"France"},"contacts":{"email":"mairie.cosmes@wanadoo.fr","telephone":"0243988353"},"horaires":"Le Lundi : de 08h30 à 12h00 de 13h30 à 17h00\nLe Jeudi : de 08h30 à 12h00 de 13h30 à 17h00","latitude":47.91974,"longitude":-0.8820203,"website":"","hasWebsite":false,"hasHoraires":true,"url":"https://lannuaire.service-public.gouv.fr/pays-de-la-loire/mayenne/11923c27-b55e-4713-9897-c9693dac42bd"}
{"nom":"Cossé-en-Champagne","nomNormalise":"cosseenchampagne","typeCollectivite":"Commune","region":"Pays de la Loire","departement":"Mayenne","departementCode":"53","adresse":{"street":"Route de Plaisance","postalCode":"53340","city":"Cossé-en-Champagne","country":"France"},"contacts":{"email":"mairie.cosse.en.champagne@wanadoo.fr","telephone":"0243905272"},"horaires":"Le Mardi : de 09h00 à 12h00 de 14h00 à 17h00\nDu Jeudi au Vendredi : de 09h00 à 12h00 de 14h00 à 17h00","latitude":47.9632,"longitude":-0.346478,"website":"https://cosse-en-champagne.fr/","hasWebsite":true,"hasHoraires":true,"url":"https://lannuaire.service-public.gouv.fr/pays-de-la-loire/mayenne/a938d2ba-28b5-49ea-9965-5adcc9d8fdf7"}
{"nom":"Cossé-le-Vivien","nomNormalise":"cosselevivien","typeCollectivite":"Commune","region":"Pays de la Loire","departement":"Mayenne","departementCode":"53","adresse":{"street":"23 rue de Nantes","postalCode":"53230","city":"Cossé-le-Vivien","country":"France"},"contacts":{"email":"mairie@cosse-le-vivien.fr","telephone":"0243988024"},"horaires":"Du Lundi au Mercredi : de 09h00 à 12h30 de 14h00 à 17h30\nLe Jeudi : de 09h00 à 12h30\nLe Vendredi : de 09h00 à 12h30 de 14h00 à 17h30\nLe Samedi : de 09h30 à 12h00\n\nAccueil fermé le samedi, du 15 juillet au 12 août.","latitude":47.941,"longitude":-0.914403,"website":"https://www.cosse-le-vivien.fr/","hasWebsite":true,"hasHoraires":true,"url":"https://lannuaire.service-public.gouv.fr/pays-de-la-loire/mayenne/01b7e810-90ff-4dfa-a467-b9be24656065"}
{"nom":"Coudray","nomNormalise":"coudray","typeCollectivite":"Commune","region":"Pays de la Loire","departement":"Mayenne","departementCode":"53","adresse":{"street":"1B rue Principale","postalCode":"53200","city":"Coudray","country":"France"},"contacts":{"email":"mairie-coudray@orange.fr","telephone":"0243069414"},"horaires":"Le Lundi : de 09h00 à 12h00\nLe Mercredi : de 09h00 à 12h00\nLe Jeudi : de 16h00 à 18h00\nLe Vendredi : de 09h00 à 12h00","latitude":47.790466,"longitude":-0.642511,"website":"http://www.coudray53.fr/","hasWebsite":true,"hasHoraires":true,"url":"https://lannuaire.service-public.gouv.fr/pays-de-la-loire/mayenne/1a2f6b39-b441-439f-951c-daff4e7b8f7c"}
{"nom":"Couesmes-Vaucé","nomNormalise":"couesmesvauce","typeCollectivite":"Commune","region":"Pays de la Loire","departement":"Mayenne","departementCode":"53","adresse":{"street":"25 rue du Bocage","postalCode":"53300","city":"Couesmes-Vaucé","country":"France"},"contacts":{"email":"contact@commune-couesmes-vauce.fr","telephone":"0243088635"},"horaires":"Le Lundi : de 14h00 à 16h30\nLe Mardi : de 10h00 à 12h00 de 14h00 à 16h00\nDu Jeudi au Vendredi : de 10h00 à 12h00 de 14h00 à 16h00","latitude":48.451,"longitude":-0.711551,"website":"","hasWebsite":false,"hasHoraires":true,"url":"https://lannuaire.service-public.gouv.fr/pays-de-la-loire/mayenne/5b18e65b-e647-4c0f-854a-89bcbb950be1"}
{"nom":"Couptrain","nomNormalise":"couptrain","typeCollectivite":"Commune","region":"Pays de la Loire","departement":"Mayenne","departementCode":"53","adresse":{"street":"89 rue Chevallerie","postalCode":"53250","city":"Couptrain","country":"France"},"contacts":{"email":"mairie@couptrain.fr","telephone":"0243038054"},"horaires":"Du Lundi au Mardi : de 13h30 à 16h30\nLe Jeudi : de 13h30 à 16h30\nLe Vendredi : de 13h30 à 19h00","latitude":48.4847,"longitude":-0.296642,"website":"","hasWebsite":false,"hasHoraires":true,"url":"https://lannuaire.service-public.gouv.fr/pays-de-la-loire/mayenne/70e203a9-8488-4b6f-8ed6-dff5ccce9471"}
{"nom":"Courbeveille","nomNormalise":"courbeveille","typeCollectivite":"Commune","region":"Pays de la Loire","departement":"Mayenne","departementCode":"53","adresse":{"street":"3 rue de Bretagne","postalCode":"53230","city":"Courbeveille","country":"France"},"contacts":{"email":"mairie.courbeveille@orange.fr","telephone":"0243689838"},"horaires":"Le Lundi : de 09h00 à 12h00 de 14h00 à 16h30\nDu Mardi au Jeudi : de 09h00 à 12h00\nLe Vendredi : de 09h00 à 12h00 de 14h00 à 16h30\nLe Samedi : de 09h00 à 12h00\n\nAccueil ouvert uniquement les 1er et 3e samedis du mois.","latitude":47.992603,"longitude":-0.888554,"website":"http://www.courbeveille.fr/","hasWebsite":true,"hasHoraires":true,"url":"https://lannuaire.service-public.gouv.fr/pays-de-la-loire/mayenne/a81267f0-a21a-4566-b4c2-a03b916ff2fe"}
{"nom":"Courcité","nomNormalise":"courcite","typeCollectivite":"Commune","region":"Pays de la Loire","departement":"Mayenne","departementCode":"53","adresse":{"street":"4 rue de la Mairie","postalCode":"53700","city":"Courcité","country":"France"},"contacts":{"email":"mairie@mairie-courcite.fr","telephone":"0243032507"},"horaires":"Le Lundi : de 08h30 à 12h00\nLe Mardi : de 08h30 à 12h00 de 13h30 à 17h30\nLe Mercredi : de 08h30 à 12h00\nLe Jeudi : de 08h30 à 12h00 de 13h30 à 17h30\nLe Vendredi : de 08h30 à 12h00\nLe Samedi : de 09h00 à 12h00\n\nAccueil ouvert uniquement les semaines paires.","latitude":48.3085,"longitude":-0.249761,"website":"","hasWebsite":false,"hasHoraires":true,"url":"https://lannuaire.service-public.gouv.fr/pays-de-la-loire/mayenne/48a17d0d-3fcc-410c-b9a4-c37275ca784c"}
{"nom":"Craon","nomNormalise":"craon","typeCollectivite":"Commune","region":"Pays de la Loire","departement":"Mayenne","departementCode":"53","adresse":{"street":"2 Place de la Mairie","postalCode":"53400","city":"Craon","country":"France"},"contacts":{"email":"contact@ville-craon53.fr","telephone":"0243061309"},"horaires":"Du Lundi au Mercredi : de 08h30 à 12h00 de 13h30 à 18h00\nLe Jeudi : de 08h30 à 12h00\nLe Vendredi : de 08h30 à 12h00 de 13h30 à 17h00\nLe Samedi : de 09h00 à 12h00","latitude":47.8485,"longitude":-0.94977,"website":"https://www.ville-craon53.fr/","hasWebsite":true,"hasHoraires":true,"url":"https://lannuaire.service-public.gouv.fr/pays-de-la-loire/mayenne/828707a8-6478-4864-96c7-7978b35808f5"}
{"nom":"Crennes-sur-Fraubée","nomNormalise":"crennessurfraubee","typeCollectivite":"Commune","region":"Pays de la Loire","departement":"Mayenne","departementCode":"53","adresse":{"street":"7 rue de Pré-en-Pail","postalCode":"53700","city":"Crennes-sur-Fraubée","country":"France"},"contacts":{"email":"mairie.crennes@wanadoo.fr","telephone":"0243032596"},"horaires":"Le Mardi : de 14h00 à 17h30\nLe Jeudi : de 09h00 à 12h00 de 14h00 à 18h30","latitude":48.3785,"longitude":-0.279062,"website":"","hasWebsite":false,"hasHoraires":true,"url":"https://lannuaire.service-public.gouv.fr/pays-de-la-loire/mayenne/6850710b-8276-4b2b-9507-1d3275f26ff2"}
{"nom":"Cuillé","nomNormalise":"cuille","typeCollectivite":"Commune","region":"Pays de la Loire","departement":"Mayenne","departementCode":"53","adresse":{"street":"1D rue de Bretagne","postalCode":"53540","city":"Cuillé","country":"France"},"contacts":{"email":"mairie@cuille53.fr","telephone":"0243065322"},"horaires":"Du Lundi au Vendredi : de 08h30 à 12h00\nLe Samedi : de 08h30 à 12h00\n\nAccueil fermé les samedis du 15 juillet inclus au 19 août inclus.","latitude":47.9692,"longitude":-1.12698,"website":"https://www.cuille53.fr/","hasWebsite":true,"hasHoraires":true,"url":"https://lannuaire.service-public.gouv.fr/pays-de-la-loire/mayenne/7d6c7ab4-2177-455f-bef0-0baa7494a482"}
{"nom":"Daon","nomNormalise":"daon","typeCollectivite":"Commune","region":"Pays de la Loire","departement":"Mayenne","departementCode":"53","adresse":{"street":"8 place Chanoine-Raimbault","postalCode":"53200","city":"Daon","country":"France"},"contacts":{"email":"daon@chateaugontier.fr","telephone":"0243069410"},"horaires":"Le Lundi : de 14h30 à 17h30\nLe Mercredi : de 09h00 à 12h00\nLe Vendredi : de 14h30 à 17h30","latitude":47.749607,"longitude":-0.638445,"website":"https://daon53.com/","hasWebsite":true,"hasHoraires":true,"url":"https://lannuaire.service-public.gouv.fr/pays-de-la-loire/mayenne/0d8c700c-c147-4896-b111-e288c96cb582"}
{"nom":"Denazé","nomNormalise":"denaze","typeCollectivite":"Commune","region":"Pays de la Loire","departement":"Mayenne","departementCode":"53","adresse":{"street":"1 place du Presbytère","postalCode":"53400","city":"Denazé","country":"France"},"contacts":{"email":"denaze@wanadoo.fr","telephone":"0243985921"},"horaires":"Le Mercredi : de 09h00 à 12h30 de 13h30 à 17h00\nLe Vendredi : de 09h00 à 12h30 de 13h30 à 17h00","latitude":47.885178,"longitude":-0.88793,"website":"https://denaze53.fr/","hasWebsite":true,"hasHoraires":true,"url":"https://lannuaire.service-public.gouv.fr/pays-de-la-loire/mayenne/d89c7363-129b-4960-b51c-085bb1f0d12e"}
{"nom":"Désertines","nomNormalise":"desertines","typeCollectivite":"Commune","region":"Pays de la Loire","departement":"Mayenne","departementCode":"53","adresse":{"street":"7 rue de Normandie","postalCode":"53190","city":"Désertines","country":"France"},"contacts":{"email":"contact@desertines53.fr","telephone":"0243006143"},"horaires":"Le Lundi : de 09h00 à 12h00\nLe Mardi : de 09h00 à 12h00 de 14h00 à 17h00\nLe Jeudi : de 09h00 à 12h00\nLe Vendredi : de 09h00 à 12h00 de 14h00 à 17h00\nLe Samedi : de 09h00 à 12h00\n\nAccueil ouvert les 1er et 3e samedis du mois.","latitude":48.4683,"longitude":-0.867704,"website":"https://desertines53.fr/","hasWebsite":true,"hasHoraires":true,"url":"https://lannuaire.service-public.gouv.fr/pays-de-la-loire/mayenne/1c3ac5b2-8fbf-486f-9db2-2d47f7bf2e09"}
{"nom":"Mairie déléguée - Deux-Évailles","nomNormalise":"mairiedelegueedeuxevailles","typeCollectivite":"Commune","region":"Pays de la Loire","departement":"Mayenne","departementCode":"53","adresse":{"street":"Deux-Evailles","postalCode":"53150","city":"Montsûrs","country":"France"},"contacts":{"email":"commune.montsurs@wanadoo.fr","telephone":"0243010031"},"horaires":"","latitude":48.1478,"longitude":-0.552179,"website":"","hasWebsite":false,"hasHoraires":false,"url":"https://lannuaire.service-public.gouv.fr/pays-de-la-loire/mayenne/93e09459-8b46-4fae-9f4b-4668601df660"}
{"nom":"Entrammes","nomNormalise":"entrammes","typeCollectivite":"Commune","region":"Pays de la Loire","departement":"Mayenne","departementCode":"53","adresse":{"street":"1 rue de Rosendahl","postalCode":"53260","city":"Entrammes","country":"France"},"contacts":{"email":"secretariat@mairie-entrammes.fr","telephone":"0243980025"},"horaires":"Du Lundi au Mercredi : de 08h30 à 12h00\nLe Vendredi : de 08h30 à 12h00 de 13h30 à 17h00\nLe Samedi : de 08h30 à 12h00","latitude":47.99727,"longitude":-0.715603,"website":"https://mairie-entrammes.fr/","hasWebsite":true,"hasHoraires":true,"url":"https://lannuaire.service-public.gouv.fr/pays-de-la-loire/mayenne/b0327132-2174-4f3c-a240-3a9dd5db3aff"}
{"nom":"Mairie déléguée - Épineux-le-Seguin","nomNormalise":"mairiedelegueeepineuxleseguin","typeCollectivite":"Commune","region":"Pays de la Loire","departement":"Mayenne","departementCode":"53","adresse":{"street":"Épineux-le-Seguin","postalCode":"53340","city":"Val-du-Maine","country":"France"},"contacts":{"email":"","telephone":"0243984345"},"horaires":"Le Mardi : de 10h00 à 12h00 de 13h00 à 18h30\nLe Vendredi : de 10h00 à 13h00","latitude":47.94233,"longitude":-0.3615787,"website":"","hasWebsite":false,"hasHoraires":true,"url":"https://lannuaire.service-public.gouv.fr/pays-de-la-loire/mayenne/4342a5bf-94c9-4a60-ac14-8b663e8364c8"}
{"nom":"Ernée","nomNormalise":"ernee","typeCollectivite":"Commune","region":"Pays de la Loire","departement":"Mayenne","departementCode":"53","adresse":{"street":"Place de l'Hôtel-de-Ville","postalCode":"53500","city":"Ernée","country":"France"},"contacts":{"email":"accueil@ville-ernee.fr","telephone":"0243087110"},"horaires":"Le Lundi : de 13h30 à 18h00\nDu Mardi au Jeudi : de 09h30 à 12h00 de 13h30 à 18h00\nLe Vendredi : de 09h30 à 12h00 de 13h30 à 16h30\nLe Samedi : de 08h30 à 11h45","latitude":48.29664,"longitude":-0.9394368,"website":"https://www.ville-ernee.fr/","hasWebsite":true,"hasHoraires":true,"url":"https://lannuaire.service-public.gouv.fr/pays-de-la-loire/mayenne/3676bf91-592d-454f-be34-cd0812c7688a"}
{"nom":"Évron","nomNormalise":"evron","typeCollectivite":"Commune","region":"Pays de la Loire","departement":"Mayenne","departementCode":"53","adresse":{"street":"4 rue de Hertford","postalCode":"53600","city":"Évron","country":"France"},"contacts":{"email":"mairie@evron.fr","telephone":"0243017803"},"horaires":"Du Lundi au Vendredi : de 08h30 à 12h00 de 13h30 à 17h30\nLe Samedi : de 09h00 à 12h00\n\nAccueil fermé le samedi en juillet-août.","latitude":48.15658,"longitude":-0.4005666,"website":"https://www.evron.fr/","hasWebsite":true,"hasHoraires":true,"url":"https://lannuaire.service-public.gouv.fr/pays-de-la-loire/mayenne/5b5b4b9a-1024-4a4f-afe1-ccdf02137d7c"}
{"nom":"Fontaine-Couverte","nomNormalise":"fontainecouverte","typeCollectivite":"Commune","region":"Pays de la Loire","departement":"Mayenne","departementCode":"53","adresse":{"street":"16 rue Pierre-Barauderie","postalCode":"53350","city":"Fontaine-Couverte","country":"France"},"contacts":{"email":"mairie.fontaine-couverte@wanadoo.fr","telephone":"0243065043"},"horaires":"Le Lundi : de 09h30 à 12h00\nDu Mercredi au Vendredi : de 09h30 à 12h00","latitude":47.9079,"longitude":-1.14359,"website":"https://fontaine-couverte.fr/","hasWebsite":true,"hasHoraires":true,"url":"https://lannuaire.service-public.gouv.fr/pays-de-la-loire/mayenne/b0095714-7e14-4b05-8392-5356084f92b9"}
{"nom":"Forcé","nomNormalise":"force","typeCollectivite":"Commune","region":"Pays de la Loire","departement":"Mayenne","departementCode":"53","adresse":{"street":"1 chemin de la Courtillerie","postalCode":"53260","city":"Forcé","country":"France"},"contacts":{"email":"mairie.force@wanadoo.fr","telephone":"0243533072"},"horaires":"Du Lundi au Vendredi : de 14h00 à 18h00\nLe Samedi : de 09h00 à 12h00","latitude":48.0344,"longitude":-0.701561,"website":"http://www.mairie-force53.fr/","hasWebsite":true,"hasHoraires":true,"url":"https://lannuaire.service-public.gouv.fr/pays-de-la-loire/mayenne/ec06c062-7f92-4c00-aaa3-2c6e326f9ab8"}
{"nom":"Fougerolles-du-Plessis","nomNormalise":"fougerollesduplessis","typeCollectivite":"Commune","region":"Pays de la Loire","departement":"Mayenne","departementCode":"53","adresse":{"street":"3 rue des Châteaux","postalCode":"53190","city":"Fougerolles-du-Plessis","country":"France"},"contacts":{"email":"mairie@fougerollesduplessis.fr","telephone":"0243055617"},"horaires":"Le Lundi : de 09h00 à 12h00\nLe Mardi : de 09h00 à 12h30 de 13h30 à 16h00\nDu Mercredi au Jeudi : de 09h00 à 12h00\nLe Vendredi : de 09h00 à 12h00 de 13h30 à 16h00\nLe Samedi : de 09h00 à 12h00\n\nFermé le dernier samedi de chaque mois.","latitude":48.4737,"longitude":-0.972393,"website":"http://www.fougerolles-du-plessis.fr/","hasWebsite":true,"hasHoraires":true,"url":"https://lannuaire.service-public.gouv.fr/pays-de-la-loire/mayenne/5fdfc03d-08e8-4b02-ba05-1d94b444a7e8"}
{"nom":"Fromentières","nomNormalise":"fromentieres","typeCollectivite":"Commune","region":"Pays de la Loire","departement":"Mayenne","departementCode":"53","adresse":{"street":"1 rue du Parc-des-Sports","postalCode":"53200","city":"Fromentières","country":"France"},"contacts":{"email":"fromentieres@chateaugontier.fr","telephone":"0243071003"},"horaires":"Le Lundi : de 14h00 à 17h00\nDu Mardi au Jeudi : de 09h00 à 12h30\nLe Vendredi : de 09h00 à 12h30 de 14h00 à 18h00\nLe Samedi : de 09h00 à 12h00","latitude":47.854828,"longitude":-0.678992,"website":"","hasWebsite":false,"hasHoraires":true,"url":"https://lannuaire.service-public.gouv.fr/pays-de-la-loire/mayenne/23f28dc9-aac2-407a-ae35-80aa39d93148"}
{"nom":"Gastines","nomNormalise":"gastines","typeCollectivite":"Commune","region":"Pays de la Loire","departement":"Mayenne","departementCode":"53","adresse":{"street":"2 rue de l'Océan","postalCode":"53540","city":"Gastines","country":"France"},"contacts":{"email":"mairie@gastines53.fr","telephone":"0243065483"},"horaires":"Du Mardi au Mercredi : de 08h30 à 12h00\nLe Vendredi : de 13h15 à 15h45","latitude":47.9515,"longitude":-1.10378,"website":"","hasWebsite":false,"hasHoraires":true,"url":"https://lannuaire.service-public.gouv.fr/pays-de-la-loire/mayenne/12d125c2-8aab-4f67-a16d-3f9030bd50d0"}
{"nom":"Gennes-Longuefuye","nomNormalise":"genneslonguefuye","typeCollectivite":"Commune","region":"Pays de la Loire","departement":"Mayenne","departementCode":"53","adresse":{"street":"Gennes-sur-Glaize","postalCode":"53200","city":"Gennes-Longuefuye","country":"France"},"contacts":{"email":"gennes-longuefuye@chateaugontier.fr","telephone":"0243709118"},"horaires":"Du Lundi au Mercredi : de 08h00 à 12h30\nLe Vendredi : de 08h00 à 12h30 de 14h00 à 18h00","latitude":47.854168,"longitude":-0.607328,"website":"http://gennes-longuefuye.fr/","hasWebsite":true,"hasHoraires":true,"url":"https://lannuaire.service-public.gouv.fr/pays-de-la-loire/mayenne/2587190c-340c-46f0-b0c8-d4719e88be65"}
{"nom":"Gesnes","nomNormalise":"gesnes","typeCollectivite":"Commune","region":"Pays de la Loire","departement":"Mayenne","departementCode":"53","adresse":{"street":"1 place de l'Église","postalCode":"53150","city":"Gesnes","country":"France"},"contacts":{"email":"mairiedegesnes@wanadoo.fr","telephone":"0243010111"},"horaires":"Le Mardi : de 09h00 à 12h00 de 13h30 à 16h30\nLe Jeudi : de 09h00 à 12h00 de 13h30 à 16h30","latitude":48.146793,"longitude":-0.5854476,"website":"","hasWebsite":false,"hasHoraires":true,"url":"https://lannuaire.service-public.gouv.fr/pays-de-la-loire/mayenne/90c50cc3-cb4f-4699-ad36-b05e58bd87eb"}
{"nom":"Gesvres","nomNormalise":"gesvres","typeCollectivite":"Commune","region":"Pays de la Loire","departement":"Mayenne","departementCode":"53","adresse":{"street":"14 rue des Alpes-Mancelles","postalCode":"53370","city":"Gesvres","country":"France"},"contacts":{"email":"mairiedegesvres@orange.fr","telephone":"0243035258"},"horaires":"Du Lundi au Vendredi : de 08h30 à 12h00","latitude":48.368862,"longitude":-0.144476,"website":"","hasWebsite":false,"hasHoraires":true,"url":"https://lannuaire.service-public.gouv.fr/pays-de-la-loire/mayenne/02615e43-40ae-4923-800e-5116fedeeabf"}
{"nom":"Gorron","nomNormalise":"gorron","typeCollectivite":"Commune","region":"Pays de la Loire","departement":"Mayenne","departementCode":"53","adresse":{"street":"Place de la Mairie","postalCode":"53120","city":"Gorron","country":"France"},"contacts":{"email":"ville.gorron@gorron.fr","telephone":"0243301050"},"horaires":"Du Lundi au Vendredi : de 08h15 à 12h15 de 13h30 à 17h30\nLe Samedi : de 09h30 à 12h00","latitude":48.4118,"longitude":-0.813203,"website":"https://www.gorron.org/index.php/fr/","hasWebsite":true,"hasHoraires":true,"url":"https://lannuaire.service-public.gouv.fr/pays-de-la-loire/mayenne/8cf44c36-c747-4d05-ae32-72cb635be649"}
{"nom":"Grazay","nomNormalise":"grazay","typeCollectivite":"Commune","region":"Pays de la Loire","departement":"Mayenne","departementCode":"53","adresse":{"street":"4 place Saint-Denis","postalCode":"53440","city":"Grazay","country":"France"},"contacts":{"email":"mairie.grazay@wanadoo.fr","telephone":"0243007366"},"horaires":"Le Lundi : de 08h30 à 12h30\nLe Mercredi : de 08h30 à 12h30 de 13h30 à 17h00\nLe Vendredi : de 08h30 à 12h30","latitude":48.2914,"longitude":-0.484727,"website":"http://www.grazay.fr/","hasWebsite":true,"hasHoraires":true,"url":"https://lannuaire.service-public.gouv.fr/pays-de-la-loire/mayenne/b2111968-dd99-4c30-a53d-50f587841c31"}
{"nom":"Grez-en-Bouère","nomNormalise":"grezenbouere","typeCollectivite":"Commune","region":"Pays de la Loire","departement":"Mayenne","departementCode":"53","adresse":{"street":"1 place de la Mairie","postalCode":"53290","city":"Grez-en-Bouère","country":"France"},"contacts":{"email":"mairie.grez-en-bouere@wanadoo.fr","telephone":"0243705022"},"horaires":"Le Lundi : de 09h00 à 12h00\nLe Mardi : de 09h00 à 12h00 de 14h00 à 17h00\nLe Mercredi : de 09h00 à 12h00\nLe Jeudi : de 09h00 à 12h00 de 14h00 à 17h00\nLe Vendredi : de 09h00 à 12h00\nLe Samedi : de 08h30 à 11h30\n\nAccueil ouvert les 2e et 4e samedis du mois.","latitude":47.873344,"longitude":-0.5225199,"website":"http://www.grez-en-bouere.fr/","hasWebsite":true,"hasHoraires":true,"url":"https://lannuaire.service-public.gouv.fr/pays-de-la-loire/mayenne/c40bbd9c-3e94-40c7-9255-0bdf15c416fc"}
{"nom":"Hambers","nomNormalise":"hambers","typeCollectivite":"Commune","region":"Pays de la Loire","departement":"Mayenne","departementCode":"53","adresse":{"street":"13 rue des Abbés-Gaugain","postalCode":"53160","city":"Hambers","country":"France"},"contacts":{"email":"mairie.hambers@wanadoo.fr","telephone":"0243379369"},"horaires":"Du Lundi au Mardi : de 09h00 à 12h30\nLe Jeudi : de 14h30 à 17h30\nLe Vendredi : de 09h00 à 12h30","latitude":48.252945,"longitude":-0.421798,"website":"https://hambers.fr/","hasWebsite":true,"hasHoraires":true,"url":"https://lannuaire.service-public.gouv.fr/pays-de-la-loire/mayenne/a0aa6dbf-82b6-45ad-84ea-e59162ca8d8d"}
{"nom":"Hardanges","nomNormalise":"hardanges","typeCollectivite":"Commune","region":"Pays de la Loire","departement":"Mayenne","departementCode":"53","adresse":{"street":"1 impasse de la Butte","postalCode":"53640","city":"Hardanges","country":"France"},"contacts":{"email":"commune.hardanges@orange.fr","telephone":"0243039282"},"horaires":"Le Lundi : de 08h30 à 17h30\nLe Mercredi : de 08h30 à 17h30\nLe Vendredi : de 08h30 à 16h30","latitude":48.33587,"longitude":-0.401194,"website":"https://mairiehardanges.fr/","hasWebsite":true,"hasHoraires":true,"url":"https://lannuaire.service-public.gouv.fr/pays-de-la-loire/mayenne/430948d0-3ba3-4810-b37c-27e1cc8837a9"}
{"nom":"Hercé","nomNormalise":"herce","typeCollectivite":"Commune","region":"Pays de la Loire","departement":"Mayenne","departementCode":"53","adresse":{"street":"6 rue Saint-Pierre","postalCode":"53120","city":"Hercé","country":"France"},"contacts":{"email":"mairiedeherce@gmail.com","telephone":"0243086607"},"horaires":"Du Lundi au Mardi : de 09h00 à 12h00\nDu Jeudi au Vendredi : de 09h00 à 12h00\nLe Samedi : de 10h00 à 12h00\n\nAccueil fermé en juillet-août.","latitude":48.418232,"longitude":-0.85246,"website":"","hasWebsite":false,"hasHoraires":true,"url":"https://lannuaire.service-public.gouv.fr/pays-de-la-loire/mayenne/7ea48bf0-d1ec-41cf-a55b-2e89d3ca47fd"}
{"nom":"Houssay","nomNormalise":"houssay","typeCollectivite":"Commune","region":"Pays de la Loire","departement":"Mayenne","departementCode":"53","adresse":{"street":"1 rue des Forges","postalCode":"53360","city":"Houssay","country":"France"},"contacts":{"email":"houssay@chateaugontier.fr","telephone":"0243077117"},"horaires":"Du Lundi au Mardi : de 09h00 à 12h30 de 13h30 à 17h30\nLe Jeudi : de 09h00 à 12h30 de 13h30 à 17h30\nLe Vendredi : de 09h00 à 12h30 de 13h30 à 17h00","latitude":47.914867,"longitude":-0.7350445,"website":"https://www.houssay.fr/","hasWebsite":true,"hasHoraires":true,"url":"https://lannuaire.service-public.gouv.fr/pays-de-la-loire/mayenne/98f83b23-1bc1-49bd-9b30-352f9b4e743f"}
{"nom":"Izé","nomNormalise":"ize","typeCollectivite":"Commune","region":"Pays de la Loire","departement":"Mayenne","departementCode":"53","adresse":{"street":"2 place Raymond-Daniel","postalCode":"53160","city":"Izé","country":"France"},"contacts":{"email":"mairiedize@wanadoo.fr","telephone":"0243379159"},"horaires":"Le Mardi : de 14h00 à 17h00\nLe Mercredi : de 09h00 à 12h00\nLe Jeudi : de 09h00 à 12h00 de 14h00 à 17h00\nLe Vendredi : de 14h00 à 17h00\nSamedi ouvert uniquement le 1er samedi du mois de 9h00 à 12h00.","latitude":48.2306,"longitude":-0.3083949,"website":"","hasWebsite":false,"hasHoraires":true,"url":"https://lannuaire.service-public.gouv.fr/pays-de-la-loire/mayenne/abde9a5b-005c-4344-baeb-879c3852d629"}
{"nom":"Javron-les-Chapelles","nomNormalise":"javronleschapelles","typeCollectivite":"Commune","region":"Pays de la Loire","departement":"Mayenne","departementCode":"53","adresse":{"street":"Rue Saint-Martin","postalCode":"53250","city":"Javron-les-Chapelles","country":"France"},"contacts":{"email":"contact@javronleschapelles.fr","telephone":"0243034067"},"horaires":"Le Lundi : de 14h00 à 17h30\nDu Mardi au Mercredi : de 09h00 à 12h30 de 14h00 à 17h30\nLe Jeudi : de 09h00 à 12h30\nLe Vendredi : de 09h00 à 12h30 de 14h00 à 17h30\nLe Samedi : de 11h00 à 12h00","latitude":48.41677,"longitude":-0.334984,"website":"https://www.javronleschapelles.fr/","hasWebsite":true,"hasHoraires":true,"url":"https://lannuaire.service-public.gouv.fr/pays-de-la-loire/mayenne/3ab0ce12-59f5-4199-8a2d-c891879901cc"}
{"nom":"Jublains","nomNormalise":"jublains","typeCollectivite":"Commune","region":"Pays de la Loire","departement":"Mayenne","departementCode":"53","adresse":{"street":"6 impasse Romaine","postalCode":"53160","city":"Jublains","country":"France"},"contacts":{"email":"accueil@jublains.fr","telephone":"0243043033"},"horaires":"Le Lundi : de 13h00 à 16h30\nDu Mardi au Mercredi : de 09h00 à 12h30\nLe Jeudi : de 13h00 à 16h30\nLe Vendredi : de 09h00 à 12h30\nLe Samedi : de 09h00 à 11h30\n\nAccueil fermé en juillet-août.","latitude":48.2564,"longitude":-0.494856,"website":"http://www.jublains.fr/","hasWebsite":true,"hasHoraires":true,"url":"https://lannuaire.service-public.gouv.fr/pays-de-la-loire/mayenne/abc60ec1-a3bc-42af-9fb8-5db7a9e44e52"}
{"nom":"Juvigné","nomNormalise":"juvigne","typeCollectivite":"Commune","region":"Pays de la Loire","departement":"Mayenne","departementCode":"53","adresse":{"street":"1 place de la Mairie","postalCode":"53380","city":"Juvigné","country":"France"},"contacts":{"email":"mairie@juvigne.fr","telephone":"0243685154"},"horaires":"Le Mardi : de 08h00 à 12h00 de 13h30 à 17h30\nLe Mercredi : de 08h00 à 12h00\nDu Jeudi au Vendredi : de 08h00 à 12h00 de 13h30 à 17h30\nLe Samedi : de 09h00 à 12h00","latitude":48.2306,"longitude":-1.0344,"website":"https://juvigne.fr/","hasWebsite":true,"hasHoraires":true,"url":"https://lannuaire.service-public.gouv.fr/pays-de-la-loire/mayenne/aabc78c2-59fc-42ab-8158-ab8a205f65a7"}
{"nom":"L'Huisserie","nomNormalise":"lhuisserie","typeCollectivite":"Commune","region":"Pays de la Loire","departement":"Mayenne","departementCode":"53","adresse":{"street":"2 rue du Maine","postalCode":"53970","city":"L'Huisserie","country":"France"},"contacts":{"email":"mairie@lhuisserie.fr","telephone":"0243914820"},"horaires":"Le Lundi : de 13h30 à 17h30\nDu Mardi au Vendredi : de 08h30 à 12h00 de 13h30 à 17h30","latitude":48.0227,"longitude":-0.769804,"website":"http://www.lhuisserie.fr/","hasWebsite":true,"hasHoraires":true,"url":"https://lannuaire.service-public.gouv.fr/pays-de-la-loire/mayenne/84bf1176-44a4-4d9c-a186-2c77d07406fb"}
{"nom":"La Baconnière","nomNormalise":"labaconniere","typeCollectivite":"Commune","region":"Pays de la Loire","departement":"Mayenne","departementCode":"53","adresse":{"street":"13 place de l'Église","postalCode":"53240","city":"La Baconnière","country":"France"},"contacts":{"email":"accueil@labaconniere.fr","telephone":"0243027114"},"horaires":"Le Lundi : de 09h00 à 12h30\nDu Mardi au Mercredi : de 09h00 à 12h30 de 14h00 à 17h30\nLe Jeudi : de 09h00 à 12h30\nLe Vendredi : de 09h00 à 12h30 de 14h00 à 17h30\nLe Samedi : de 09h00 à 12h30\n\nSemaine paire uniquement.","latitude":48.1836,"longitude":-0.892659,"website":"https://www.labaconniere.fr/","hasWebsite":true,"hasHoraires":true,"url":"https://lannuaire.service-public.gouv.fr/pays-de-la-loire/mayenne/e0ee5aed-5561-41ea-a17c-bd7d4fb33a02"}
{"nom":"La Bazoge-Montpinçon","nomNormalise":"labazogemontpincon","typeCollectivite":"Commune","region":"Pays de la Loire","departement":"Mayenne","departementCode":"53","adresse":{"street":"1 rue de la Mairie","postalCode":"53440","city":"La Bazoge-Montpinçon","country":"France"},"contacts":{"email":"mairie-la-bazoge-montpincon@orange.fr","telephone":"0243048261"},"horaires":"Le Lundi : de 10h00 à 12h00 de 13h30 à 18h00\nLe Mardi : de 09h00 à 12h30\nLe Jeudi : de 09h00 à 12h30 de 14h00 à 18h00\nLe Vendredi : de 13h30 à 18h00\nLe Samedi : de 09h00 à 12h00","latitude":48.2789,"longitude":-0.573142,"website":"https://labazogemontpincon.fr/","hasWebsite":true,"hasHoraires":true,"url":"https://lannuaire.service-public.gouv.fr/pays-de-la-loire/mayenne/92148b5d-57a8-4e89-9703-4b9805184850"}
{"nom":"La Bazouge-de-Chémeré","nomNormalise":"labazougedechemere","typeCollectivite":"Commune","region":"Pays de la Loire","departement":"Mayenne","departementCode":"53","adresse":{"street":"1 rue du Pont","postalCode":"53170","city":"La Bazouge-de-Chémeré","country":"France"},"contacts":{"email":"mairie@labazougedechemere.fr","telephone":"0243905107"},"horaires":"Le Lundi : de 09h00 à 12h45\nLe Jeudi : de 09h00 à 12h45\nLe Vendredi : de 09h00 à 12h45 de 14h00 à 17h30","latitude":48.001266,"longitude":-0.4874541,"website":"http://www.labazougedechemere.fr/","hasWebsite":true,"hasHoraires":true,"url":"https://lannuaire.service-public.gouv.fr/pays-de-la-loire/mayenne/c1185a88-4ade-488b-b1c2-f1f66a40e904"}
{"nom":"La Bazouge-des-Alleux","nomNormalise":"labazougedesalleux","typeCollectivite":"Commune","region":"Pays de la Loire","departement":"Mayenne","departementCode":"53","adresse":{"street":"2 rue Michel-Chaudet","postalCode":"53470","city":"La Bazouge-des-Alleux","country":"France"},"contacts":{"email":"la-bazouge-des-alleux@wanadoo.fr","telephone":"0243025449"},"horaires":"Du Mardi au Jeudi : de 09h00 à 12h30 de 14h00 à 18h00\nLe Vendredi : de 14h00 à 18h00\nLe Samedi : de 09h00 à 12h00\n\n2 ème et 4 ème samedis du mois","latitude":48.1815,"longitude":-0.611581,"website":"https://www.labazougedesalleux.fr/","hasWebsite":true,"hasHoraires":true,"url":"https://lannuaire.service-public.gouv.fr/pays-de-la-loire/mayenne/85507cfe-4020-457b-b1a5-a7442b6efca2"}
{"nom":"La Bigottière","nomNormalise":"labigottiere","typeCollectivite":"Commune","region":"Pays de la Loire","departement":"Mayenne","departementCode":"53","adresse":{"street":"9 rue de la Mairie","postalCode":"53240","city":"La Bigottière","country":"France"},"contacts":{"email":"mairie.la.bigottiere@wanadoo.fr","telephone":"0243694064"},"horaires":"Du Lundi au Mardi : de 08h00 à 12h00\nDu Jeudi au Samedi : de 08h00 à 12h00\nAccueil le lundi de 9h à 12h sur rendez-vous uniquement.","latitude":48.218304,"longitude":-0.7976807,"website":"https://labigottiere.fr/","hasWebsite":true,"hasHoraires":true,"url":"https://lannuaire.service-public.gouv.fr/pays-de-la-loire/mayenne/95d8c871-c059-4bd9-b716-760513abb460"}
{"nom":"La Boissière","nomNormalise":"laboissiere","typeCollectivite":"Commune","region":"Pays de la Loire","departement":"Mayenne","departementCode":"53","adresse":{"street":"2 route des Écoles","postalCode":"53800","city":"La Boissière","country":"France"},"contacts":{"email":"mairielaboissiere@orange.fr","telephone":"0243064096"},"horaires":"Le Lundi : de 13h30 à 17h00\nLe Jeudi : de 13h30 à 17h00","latitude":47.7773,"longitude":-1.03973,"website":"","hasWebsite":false,"hasHoraires":true,"url":"https://lannuaire.service-public.gouv.fr/pays-de-la-loire/mayenne/d81eb247-ca8b-4c4b-9672-d92f875126e2"}
{"nom":"La Brûlatte","nomNormalise":"labrulatte","typeCollectivite":"Commune","region":"Pays de la Loire","departement":"Mayenne","departementCode":"53","adresse":{"street":"Rue des Écoles","postalCode":"53410","city":"La Brûlatte","country":"France"},"contacts":{"email":"la-brulatte@wanadoo.fr","telephone":"0243021202"},"horaires":"Le Lundi : de 09h00 à 12h00\nLe Mardi : de 09h00 à 12h00 de 13h30 à 18h30\nLe Mercredi : de 09h00 à 12h00\nLe Jeudi : de 09h00 à 12h00 de 13h30 à 18h30\nLe Vendredi : de 09h00 à 12h00","latitude":48.085995,"longitude":-0.95383,"website":"https://labrulatte.fr/","hasWebsite":true,"hasHoraires":true,"url":"https://lannuaire.service-public.gouv.fr/pays-de-la-loire/mayenne/80cd907a-b98c-4787-a849-890c0560db3f"}
{"nom":"La Chapelle-Anthenaise","nomNormalise":"lachapelleanthenaise","typeCollectivite":"Commune","region":"Pays de la Loire","departement":"Mayenne","departementCode":"53","adresse":{"street":"19 rue de Louverné","postalCode":"53950","city":"La Chapelle-Anthenaise","country":"France"},"contacts":{"email":"contact@lachapelleanthenaise.fr","telephone":"0243011073"},"horaires":"Le Lundi : de 09h00 à 12h30 de 14h00 à 18h00\nDu Mardi au Jeudi : de 09h00 à 12h30\nLe Vendredi : de 09h00 à 12h30 de 14h00 à 17h00","latitude":48.122257,"longitude":-0.678485,"website":"https://lachapelleanthenaise.fr/","hasWebsite":true,"hasHoraires":true,"url":"https://lannuaire.service-public.gouv.fr/pays-de-la-loire/mayenne/6d0eaab5-40ea-4d9b-8592-663c99133408"}
{"nom":"La Chapelle-au-Riboul","nomNormalise":"lachapelleauriboul","typeCollectivite":"Commune","region":"Pays de la Loire","departement":"Mayenne","departementCode":"53","adresse":{"street":"2 rue Perrine","postalCode":"53440","city":"La Chapelle-au-Riboul","country":"France"},"contacts":{"email":"mairielachapelleauriboul@wanadoo.fr","telephone":"0243007593"},"horaires":"Du Lundi au Mardi : de 08h30 à 12h30 de 13h30 à 17h30\nDu Jeudi au Vendredi : de 08h30 à 12h30 de 13h30 à 17h30","latitude":48.31815,"longitude":-0.4347717,"website":"https://www.la-chapelle-au-riboul.fr/","hasWebsite":true,"hasHoraires":true,"url":"https://lannuaire.service-public.gouv.fr/pays-de-la-loire/mayenne/99a8890a-9c41-476c-9fcd-f9c7f2f7eeac"}
{"nom":"La Chapelle-Craonnaise","nomNormalise":"lachapellecraonnaise","typeCollectivite":"Commune","region":"Pays de la Loire","departement":"Mayenne","departementCode":"53","adresse":{"street":"Rue de la Mairie","postalCode":"53230","city":"La Chapelle-Craonnaise","country":"France"},"contacts":{"email":"lachapellecraonnaise@orange.fr","telephone":"0243988192"},"horaires":"Le Lundi : de 09h00 à 12h30\nLe Mercredi : de 09h00 à 12h30 de 13h30 à 16h00\nLe Vendredi : de 09h00 à 12h30","latitude":47.899433,"longitude":-0.915409,"website":"http://www.chapelle-craonnaise.fr/","hasWebsite":true,"hasHoraires":true,"url":"https://lannuaire.service-public.gouv.fr/pays-de-la-loire/mayenne/9910533f-cc69-41c9-9b10-adc497d7a249"}
{"nom":"La Chapelle-Rainsouin","nomNormalise":"lachapellerainsouin","typeCollectivite":"Commune","region":"Pays de la Loire","departement":"Mayenne","departementCode":"53","adresse":{"street":"3 rue du Maine","postalCode":"53150","city":"La Chapelle-Rainsouin","country":"France"},"contacts":{"email":"chapelle.rainsouin@orange.fr","telephone":"0243022537"},"horaires":"Le Mardi : de 09h00 à 17h45\nLe Mercredi : de 09h00 à 17h00\nLe Jeudi : de 09h00 à 18h00","latitude":48.098377,"longitude":-0.5195446,"website":"","hasWebsite":false,"hasHoraires":true,"url":"https://lannuaire.service-public.gouv.fr/pays-de-la-loire/mayenne/61c36357-fdb3-4069-a103-a61c5d391d97"}
{"nom":"La Croixille","nomNormalise":"lacroixille","typeCollectivite":"Commune","region":"Pays de la Loire","departement":"Mayenne","departementCode":"53","adresse":{"street":"2 place de la Mairie","postalCode":"53380","city":"La Croixille","country":"France"},"contacts":{"email":"la-croixille@wanadoo.fr","telephone":"0243685856"},"horaires":"Du Lundi au Vendredi : de 09h00 à 12h00","latitude":48.205143,"longitude":-1.057784,"website":"https://www.lacroixille.fr/","hasWebsite":true,"hasHoraires":true,"url":"https://lannuaire.service-public.gouv.fr/pays-de-la-loire/mayenne/5ba90cc3-d7f8-4a6a-807e-b2b084ecc587"}
{"nom":"La Cropte","nomNormalise":"lacropte","typeCollectivite":"Commune","region":"Pays de la Loire","departement":"Mayenne","departementCode":"53","adresse":{"street":"1 place de l'Eglise","postalCode":"53170","city":"La Cropte","country":"France"},"contacts":{"email":"mairie@lacropte53.fr","telephone":"0243984313"},"horaires":"Le Lundi : de 08h30 à 12h00 de 13h30 à 17h00\nLe Mardi : de 08h30 à 12h00\nLe Jeudi : de 08h30 à 12h00 de 13h30 à 17h00","latitude":47.958065,"longitude":-0.493555,"website":"https://www.mairie-la-cropte.fr/","hasWebsite":true,"hasHoraires":true,"url":"https://lannuaire.service-public.gouv.fr/pays-de-la-loire/mayenne/21e7246d-4fd5-48e7-9cff-e6385dd787d6"}
{"nom":"La Dorée","nomNormalise":"ladoree","typeCollectivite":"Commune","region":"Pays de la Loire","departement":"Mayenne","departementCode":"53","adresse":{"street":"15 place de la Mairie","postalCode":"53190","city":"La Dorée","country":"France"},"contacts":{"email":"accueil@ladoree53.fr","telephone":"0243055472"},"horaires":"Le Lundi : de 09h00 à 13h00\nDu Mercredi au Jeudi : de 09h00 à 13h00","latitude":48.448666,"longitude":-0.964859,"website":"https://www.ladoree53.fr/","hasWebsite":true,"hasHoraires":true,"url":"https://lannuaire.service-public.gouv.fr/pays-de-la-loire/mayenne/7a4137c2-a881-4157-9396-950151a35046"}
{"nom":"La Gravelle","nomNormalise":"lagravelle","typeCollectivite":"Commune","region":"Pays de la Loire","departement":"Mayenne","departementCode":"53","adresse":{"street":"1 rue Madame-de-Sévigné","postalCode":"53410","city":"La Gravelle","country":"France"},"contacts":{"email":"mairielagravelle@orange.fr","telephone":"0243375792"},"horaires":"Du Lundi au Mardi : de 08h45 à 12h00 de 14h00 à 18h00\nLe Mercredi : de 08h45 à 12h00\nLe Jeudi : de 08h45 à 12h00 de 14h00 à 18h00\nLe Vendredi : de 08h30 à 12h00 de 13h30 à 15h00","latitude":48.07262,"longitude":-1.013405,"website":"https://mairie-la-gravelle.fr/","hasWebsite":true,"hasHoraires":true,"url":"https://lannuaire.service-public.gouv.fr/pays-de-la-loire/mayenne/d5b67d15-999b-4e07-b0a8-5d5e7cae8fc3"}
{"nom":"La Haie-Traversaine","nomNormalise":"lahaietraversaine","typeCollectivite":"Commune","region":"Pays de la Loire","departement":"Mayenne","departementCode":"53","adresse":{"street":"2 rue du Presbytère","postalCode":"53300","city":"La Haie-Traversaine","country":"France"},"contacts":{"email":"mairie.lahaie@wanadoo.fr","telephone":"0243049084"},"horaires":"Le Lundi : de 13h30 à 17h00\nLe Mardi : de 09h00 à 17h00\nLe Mercredi : de 09h00 à 12h30\nLe Vendredi : de 09h00 à 17h30","latitude":48.370033,"longitude":-0.6061084,"website":"","hasWebsite":false,"hasHoraires":true,"url":"https://lannuaire.service-public.gouv.fr/pays-de-la-loire/mayenne/720c3412-2750-4373-b1fd-63c992e3397e"}
{"nom":"Landivy","nomNormalise":"landivy","typeCollectivite":"Commune","region":"Pays de la Loire","departement":"Mayenne","departementCode":"53","adresse":{"street":"2 rue de Normandie","postalCode":"53190","city":"Landivy","country":"France"},"contacts":{"email":"mairie@landivy.fr","telephone":"0243054205"},"horaires":"Du Lundi au Vendredi : de 08h30 à 12h00 de 13h30 à 17h00\nLe Samedi : de 08h00 à 12h00","latitude":48.4842,"longitude":-1.03754,"website":"https://www.landivy.fr/","hasWebsite":true,"hasHoraires":true,"url":"https://lannuaire.service-public.gouv.fr/pays-de-la-loire/mayenne/effbe21a-29d1-4f36-98a9-21deeb000c34"}
{"nom":"La Pallu","nomNormalise":"lapallu","typeCollectivite":"Commune","region":"Pays de la Loire","departement":"Mayenne","departementCode":"53","adresse":{"street":"2 rue Croix-Couppard","postalCode":"53140","city":"La Pallu","country":"France"},"contacts":{"email":"mairie.la.pallu@wanadoo.fr","telephone":"0243038723"},"horaires":"Le Lundi : de 09h30 à 12h30\nLe Jeudi : de 09h30 à 12h30","latitude":48.506676,"longitude":-0.299072,"website":"http://www.mairie-la-pallu.fr/","hasWebsite":true,"hasHoraires":true,"url":"https://lannuaire.service-public.gouv.fr/pays-de-la-loire/mayenne/cabfd1f7-1ae0-4d48-a47d-be338995ba51"}
{"nom":"La Pellerine","nomNormalise":"lapellerine","typeCollectivite":"Commune","region":"Pays de la Loire","departement":"Mayenne","departementCode":"53","adresse":{"street":"2 rue du Maine","postalCode":"53220","city":"La Pellerine","country":"France"},"contacts":{"email":"mairie.pellerine@wanadoo.fr","telephone":"0243059351"},"horaires":"Du Lundi au Jeudi : de 08h30 à 12h00\nLe Vendredi : de 08h30 à 12h00 de 14h00 à 18h30","latitude":48.3622,"longitude":-0.99914,"website":"","hasWebsite":false,"hasHoraires":true,"url":"https://lannuaire.service-public.gouv.fr/pays-de-la-loire/mayenne/1a295c82-2fdb-4753-94cc-7d17da7aafe4"}
{"nom":"Larchamp","nomNormalise":"larchamp","typeCollectivite":"Commune","region":"Pays de la Loire","departement":"Mayenne","departementCode":"53","adresse":{"street":"6 rue Saint-Crespin","postalCode":"53220","city":"Larchamp","country":"France"},"contacts":{"email":"accueil.mairie@larchamp53.fr","telephone":"0243053191"},"horaires":"Du Mardi au Mercredi : de 09h00 à 12h00 de 14h00 à 17h00\nLe Vendredi : de 09h00 à 12h00 de 14h00 à 17h00\nLe Samedi : de 09h00 à 12h00","latitude":48.3626,"longitude":-0.999335,"website":"","hasWebsite":false,"hasHoraires":true,"url":"https://lannuaire.service-public.gouv.fr/pays-de-la-loire/mayenne/ac18a8e2-24e2-4b6a-abd0-ccd3b02087fd"}
{"nom":"La Roche-Neuville","nomNormalise":"larocheneuville","typeCollectivite":"Commune","region":"Pays de la Loire","departement":"Mayenne","departementCode":"53","adresse":{"street":"1 rue de la Roche-du-Maine","postalCode":"53200","city":"La Roche-Neuville","country":"France"},"contacts":{"email":"mairie@larocheneuville.fr","telephone":"0243072871"},"horaires":"Du Lundi au Jeudi : de 09h00 à 12h30\nLe Vendredi : de 09h00 à 12h30 de 13h30 à 17h30","latitude":47.872814,"longitude":-0.7480712,"website":"https://larocheneuville.fr/","hasWebsite":true,"hasHoraires":true,"url":"https://lannuaire.service-public.gouv.fr/pays-de-la-loire/mayenne/dd46efad-37d3-437f-a648-bec35cd16799"}
{"nom":"La Rouaudière","nomNormalise":"larouaudiere","typeCollectivite":"Commune","region":"Pays de la Loire","departement":"Mayenne","departementCode":"53","adresse":{"street":"12 rue du Maine","postalCode":"53390","city":"La Rouaudière","country":"France"},"contacts":{"email":"mairie.la.rouaudiere@wanadoo.fr","telephone":"0243065467"},"horaires":"Le Lundi : de 09h00 à 12h00\nLe Vendredi : de 09h00 à 12h00","latitude":47.829998,"longitude":-1.190322,"website":"https://la-rouaudiere.fr/","hasWebsite":true,"hasHoraires":true,"url":"https://lannuaire.service-public.gouv.fr/pays-de-la-loire/mayenne/95aab338-e017-4f5f-b475-481b0e4e318e"}
{"nom":"La Selle-Craonnaise","nomNormalise":"lasellecraonnaise","typeCollectivite":"Commune","region":"Pays de la Loire","departement":"Mayenne","departementCode":"53","adresse":{"street":"12 rue de la Gare","postalCode":"53800","city":"La Selle-Craonnaise","country":"France"},"contacts":{"email":"accueil@lasellecraonnaise.fr","telephone":"0243061671"},"horaires":"Du Mardi au Mercredi : de 09h00 à 12h00\nLe Vendredi : de 09h00 à 12h00 de 13h30 à 16h30\nLe Samedi : de 09h00 à 12h00","latitude":47.841892,"longitude":-1.043806,"website":"https://lasellecraonnaise.fr/","hasWebsite":true,"hasHoraires":true,"url":"https://lannuaire.service-public.gouv.fr/pays-de-la-loire/mayenne/1e50d914-8f26-423e-b9a4-776e7af4e1f7"}
{"nom":"Lassay-les-Châteaux","nomNormalise":"lassayleschateaux","typeCollectivite":"Commune","region":"Pays de la Loire","departement":"Mayenne","departementCode":"53","adresse":{"street":"18 place du 8-Mai-1945","postalCode":"53110","city":"Lassay-les-Châteaux","country":"France"},"contacts":{"email":"accueil@lassay-les-chateaux.fr","telephone":"0243047153"},"horaires":"Du Lundi au Mercredi : de 08h30 à 12h00 de 14h00 à 17h00\nLe Jeudi : de 08h30 à 12h00\nLe Vendredi : de 08h30 à 12h00 de 14h00 à 17h00\nLe Samedi : de 10h30 à 12h00\n\nAccueil ouvert le 1er et le 3e samedi du mois.","latitude":48.437836,"longitude":-0.4969713,"website":"https://www.lassay-les-chateaux.fr/","hasWebsite":true,"hasHoraires":true,"url":"https://lannuaire.service-public.gouv.fr/pays-de-la-loire/mayenne/91f8bfd5-8a0f-4840-8566-38f2424aca5a"}
{"nom":"Laubrières","nomNormalise":"laubrieres","typeCollectivite":"Commune","region":"Pays de la Loire","departement":"Mayenne","departementCode":"53","adresse":{"street":"6 rue d'Anjou","postalCode":"53540","city":"Laubrières","country":"France"},"contacts":{"email":"mairie@laubrieres53.fr","telephone":"0243066061"},"horaires":"Du Lundi au Mardi : de 13h30 à 17h00\nLe Jeudi : de 08h30 à 12h00 de 13h30 à 17h00","latitude":47.9699,"longitude":-1.11917,"website":"https://www.laubrieres53.fr/","hasWebsite":true,"hasHoraires":true,"url":"https://lannuaire.service-public.gouv.fr/pays-de-la-loire/mayenne/3495e518-dd6a-404e-99dc-8e66403d1da2"}
{"nom":"Launay-Villiers","nomNormalise":"launayvilliers","typeCollectivite":"Commune","region":"Pays de la Loire","departement":"Mayenne","departementCode":"53","adresse":{"street":"Place de l'Église","postalCode":"53410","city":"Launay-Villiers","country":"France"},"contacts":{"email":"mairie.launay.villiers@wanadoo.fr","telephone":"0243375469"},"horaires":"Du Lundi au Mardi : de 09h00 à 12h00\nDu Jeudi au Vendredi : de 14h00 à 17h00","latitude":48.1336,"longitude":-1.00846,"website":"","hasWebsite":false,"hasHoraires":true,"url":"https://lannuaire.service-public.gouv.fr/pays-de-la-loire/mayenne/7718cc19-adac-4c3b-a73f-dbe38acf97a3"}
{"nom":"Laval","nomNormalise":"laval","typeCollectivite":"Commune","region":"Pays de la Loire","departement":"Mayenne","departementCode":"53","adresse":{"street":"Place du 11-Novembre","postalCode":"53000","city":"Laval","country":"France"},"contacts":{"email":"mairie@laval.fr","telephone":"0243494300"},"horaires":"Le Lundi : de 09h00 à 12h00 de 13h30 à 17h30\nDu Mardi au Vendredi : de 08h00 à 17h30\nLe Samedi : de 08h00 à 13h00","latitude":48.07786,"longitude":-0.770138,"website":"https://www.laval.fr/accueil","hasWebsite":true,"hasHoraires":true,"url":"https://lannuaire.service-public.gouv.fr/pays-de-la-loire/mayenne/39b5f5eb-6139-45df-b05e-ab33a24a29f3"}
{"nom":"Le Bignon-du-Maine","nomNormalise":"lebignondumaine","typeCollectivite":"Commune","region":"Pays de la Loire","departement":"Mayenne","departementCode":"53","adresse":{"street":"3 rue du Lin","postalCode":"53170","city":"Le Bignon-du-Maine","country":"France"},"contacts":{"email":"mairie.le.bignon.du.maine@wanadoo.fr","telephone":"0243984264"},"horaires":"Le Lundi : de 08h30 à 12h30 de 13h30 à 17h00\nLe Mardi : de 08h00 à 12h00\nLe Vendredi : de 08h30 à 12h30 de 13h30 à 17h00","latitude":47.950104,"longitude":-0.610701,"website":"https://lebignondumaine53.fr/","hasWebsite":true,"hasHoraires":true,"url":"https://lannuaire.service-public.gouv.fr/pays-de-la-loire/mayenne/d28b9bdd-c8c8-46ce-9d59-6e239d1ced4d"}
{"nom":"Le Bourgneuf-la-Forêt","nomNormalise":"lebourgneuflaforet","typeCollectivite":"Commune","region":"Pays de la Loire","departement":"Mayenne","departementCode":"53","adresse":{"street":"45 rue Principale","postalCode":"53410","city":"Le Bourgneuf-la-Forêt","country":"France"},"contacts":{"email":"mairiebourgneuf.la.foret@wanadoo.fr","telephone":"0243377108"},"horaires":"Le Lundi : de 08h45 à 12h30 de 16h30 à 18h00\nLe Mardi : de 08h45 à 12h30\nLe Mercredi : de 08h45 à 12h30 de 16h30 à 18h00\nLe Jeudi : de 08h45 à 12h30\nLe Vendredi : de 08h45 à 12h30 de 16h30 à 18h00\nLe Samedi : de 09h00 à 12h00","latitude":48.16429,"longitude":-0.970643,"website":"http://www.lebourgneuflaforet.fr/","hasWebsite":true,"hasHoraires":true,"url":"https://lannuaire.service-public.gouv.fr/pays-de-la-loire/mayenne/a33b6d2a-2416-463c-9ead-78ee2a3537f1"}
{"nom":"Le Buret","nomNormalise":"leburet","typeCollectivite":"Commune","region":"Pays de la Loire","departement":"Mayenne","departementCode":"53","adresse":{"street":"25 place Buaret","postalCode":"53170","city":"Le Buret","country":"France"},"contacts":{"email":"mairie.le.buret@wanadoo.fr","telephone":"0243985569"},"horaires":"Le Mardi : de 09h00 à 12h30\nLe Jeudi : de 09h00 à 12h30\nLe Vendredi : de 09h00 à 12h30 de 13h30 à 18h30","latitude":47.9225,"longitude":-0.513162,"website":"https://leburet.fr/","hasWebsite":true,"hasHoraires":true,"url":"https://lannuaire.service-public.gouv.fr/pays-de-la-loire/mayenne/5679c865-bb6a-479a-b6ae-d746f354bade"}
{"nom":"Le Genest-Saint-Isle","nomNormalise":"legenestsaintisle","typeCollectivite":"Commune","region":"Pays de la Loire","departement":"Mayenne","departementCode":"53","adresse":{"street":"2 place de l'Église","postalCode":"53940","city":"Le Genest-Saint-Isle","country":"France"},"contacts":{"email":"mairie@legenestsaintisle.fr","telephone":"0243021195"},"horaires":"Le Lundi : de 16h00 à 18h00\nDu Mardi au Vendredi : de 10h30 à 12h15 de 16h00 à 18h00\nLe Samedi : de 08h30 à 12h00\n\nAccueil fermé en juillet-août.","latitude":48.097294,"longitude":-0.887455,"website":"https://www.legenestsaintisle.fr/","hasWebsite":true,"hasHoraires":true,"url":"https://lannuaire.service-public.gouv.fr/pays-de-la-loire/mayenne/d9da91bb-1335-40d1-b579-7205909f39d7"}
{"nom":"Le Ham","nomNormalise":"leham","typeCollectivite":"Commune","region":"Pays de la Loire","departement":"Mayenne","departementCode":"53","adresse":{"street":"5 rue de la Grotte","postalCode":"53250","city":"Le Ham","country":"France"},"contacts":{"email":"contact@mairieleham53.fr","telephone":"0243039707"},"horaires":"Le Lundi : de 09h00 à 12h00\nLe Mardi : de 09h00 à 12h00 de 14h00 à 18h00\nLe Jeudi : de 09h00 à 12h00\nLe Vendredi : de 09h00 à 12h00 de 14h00 à 17h00\nLe Samedi : de 09h00 à 12h00","latitude":48.380337,"longitude":-0.376902,"website":"https://leham53.fr/","hasWebsite":true,"hasHoraires":true,"url":"https://lannuaire.service-public.gouv.fr/pays-de-la-loire/mayenne/d68c29f8-f822-47ec-8062-8aafa54dc0b2"}
{"nom":"Le Horps","nomNormalise":"lehorps","typeCollectivite":"Commune","region":"Pays de la Loire","departement":"Mayenne","departementCode":"53","adresse":{"street":"8 rue des Moulins","postalCode":"53640","city":"Le Horps","country":"France"},"contacts":{"email":"mairie.lehorps@wanadoo.fr","telephone":"0243039471"},"horaires":"Du Mardi au Vendredi : de 09h00 à 12h30 de 14h00 à 17h30\nLe Samedi : de 09h00 à 12h00","latitude":48.3969,"longitude":-0.459829,"website":"http://www.le-horps.fr/","hasWebsite":true,"hasHoraires":true,"url":"https://lannuaire.service-public.gouv.fr/pays-de-la-loire/mayenne/77041af5-961c-4aa0-b911-ff9dc09279d2"}
{"nom":"Le Housseau-Brétignolles","nomNormalise":"lehousseaubretignolles","typeCollectivite":"Commune","region":"Pays de la Loire","departement":"Mayenne","departementCode":"53","adresse":{"street":"16 rue de Normandie","postalCode":"53110","city":"Le Housseau-Brétignolles","country":"France"},"contacts":{"email":"mairie.lehousseau@orange.fr","telephone":"0243044181"},"horaires":"Le Mercredi : de 14h30 à 19h00\nLe Vendredi : de 14h30 à 17h30","latitude":48.468746,"longitude":-0.522179,"website":"","hasWebsite":false,"hasHoraires":true,"url":"https://lannuaire.service-public.gouv.fr/pays-de-la-loire/mayenne/f947a886-c6b5-4dce-b60d-a013fc07bf71"}
{"nom":"Le Pas","nomNormalise":"lepas","typeCollectivite":"Commune","region":"Pays de la Loire","departement":"Mayenne","departementCode":"53","adresse":{"street":"15 rue du Bocage","postalCode":"53300","city":"Le Pas","country":"France"},"contacts":{"email":"contact@commune-le-pas.fr","telephone":"0243088815"},"horaires":"Du Mardi au Samedi : de 09h00 à 12h00","latitude":48.42919,"longitude":-0.703215,"website":"https://commune-le-pas.fr/","hasWebsite":true,"hasHoraires":true,"url":"https://lannuaire.service-public.gouv.fr/pays-de-la-loire/mayenne/a230b0a7-f7d8-4267-b260-365f77c5fb86"}
{"nom":"Le Ribay","nomNormalise":"leribay","typeCollectivite":"Commune","region":"Pays de la Loire","departement":"Mayenne","departementCode":"53","adresse":{"street":"1 place du Centre","postalCode":"53640","city":"Le Ribay","country":"France"},"contacts":{"email":"mairie.leribay@wanadoo.fr","telephone":"0243039125"},"horaires":"Le Lundi : de 09h00 à 12h30 de 14h00 à 17h00\nLe Mardi : de 09h00 à 12h30 de 14h00 à 17h00\nLe Jeudi : de 09h00 à 12h30 de 14h00 à 18h00\nLe Vendredi : de 09h00 à 12h30\nLe Samedi : de 09h00 à 12h00","latitude":48.383465,"longitude":-0.408328,"website":"https://mairie-leribay.fr/","hasWebsite":true,"hasHoraires":true,"url":"https://lannuaire.service-public.gouv.fr/pays-de-la-loire/mayenne/6648aed4-9dc8-4d98-a1c2-c451e18e1f49"}
{"nom":"Lesbois","nomNormalise":"lesbois","typeCollectivite":"Commune","region":"Pays de la Loire","departement":"Mayenne","departementCode":"53","adresse":{"street":"2 rue de la Colmont","postalCode":"53120","city":"Lesbois","country":"France"},"contacts":{"email":"mairie.lesbois@wanadoo.fr","telephone":"0243086742"},"horaires":"Le Lundi : de 14h00 à 18h00\nLe Mercredi : de 09h00 à 12h00\nLe Vendredi : de 14h00 à 18h00","latitude":48.441612,"longitude":-0.805368,"website":"","hasWebsite":false,"hasHoraires":true,"url":"https://lannuaire.service-public.gouv.fr/pays-de-la-loire/mayenne/7c458fde-c0b7-48e9-b119-6335b0756b04"}
{"nom":"Levaré","nomNormalise":"levare","typeCollectivite":"Commune","region":"Pays de la Loire","departement":"Mayenne","departementCode":"53","adresse":{"street":"7 rue de la Mairie","postalCode":"53120","city":"Levaré","country":"France"},"contacts":{"email":"mairie.levare@wanadoo.fr","telephone":"0243086374"},"horaires":"Le Mardi : de 09h00 à 12h30 de 14h00 à 16h00\nLe Vendredi : de 09h00 à 12h30 de 14h00 à 16h00\nLe Samedi : de 09h00 à 12h00","latitude":48.41826,"longitude":-0.914917,"website":"http://www.levare.fr/","hasWebsite":true,"hasHoraires":true,"url":"https://lannuaire.service-public.gouv.fr/pays-de-la-loire/mayenne/220a0431-056e-4144-b2cb-5d01363692b8"}
{"nom":"Lignières-Orgères","nomNormalise":"lignieresorgeres","typeCollectivite":"Commune","region":"Pays de la Loire","departement":"Mayenne","departementCode":"53","adresse":{"street":"19 rue de Caen","postalCode":"53140","city":"Lignières-Orgères","country":"France"},"contacts":{"email":"mairie-lignieres-orgeres@orange.fr","telephone":"0243030744"},"horaires":"Le Lundi : de 08h15 à 12h00 de 13h00 à 16h30\nLe Mardi : de 08h15 à 12h00\nLe Mercredi : de 08h15 à 12h00 de 13h00 à 16h30\nLe Jeudi : de 08h15 à 12h00","latitude":48.553833,"longitude":-0.234069,"website":"http://www.lignieres-orgeres.fr/","hasWebsite":true,"hasHoraires":true,"url":"https://lannuaire.service-public.gouv.fr/pays-de-la-loire/mayenne/d1db5bdb-9467-44ad-809b-ede0022de347"}
{"nom":"Livet-en-Charnie","nomNormalise":"livetencharnie","typeCollectivite":"Commune","region":"Pays de la Loire","departement":"Mayenne","departementCode":"53","adresse":{"street":"150 route de Sainte-Suzanne","postalCode":"53150","city":"Livet-en-Charnie","country":"France"},"contacts":{"email":"mairie@livet53.fr","telephone":"0243982405"},"horaires":"Le Mardi : de 14h00 à 17h30\nLe Vendredi : de 09h00 à 12h30 de 13h30 à 16h30","latitude":48.15312,"longitude":-0.3976103,"website":"http://mairie.livet.free.fr/","hasWebsite":true,"hasHoraires":true,"url":"https://lannuaire.service-public.gouv.fr/pays-de-la-loire/mayenne/09c63e8e-2b43-4e59-b1aa-798db74e9450"}
{"nom":"Livré-la-Touche","nomNormalise":"livrelatouche","typeCollectivite":"Commune","region":"Pays de la Loire","departement":"Mayenne","departementCode":"53","adresse":{"street":"8 rue des Lavandières","postalCode":"53400","city":"Livré-la-Touche","country":"France"},"contacts":{"email":"mairie@livrelatouche.fr","telephone":"0243061697"},"horaires":"Le Lundi : de 09h00 à 12h30 de 14h00 à 18h00\nLe Jeudi : de 09h00 à 12h30 de 14h00 à 18h00\nLe Vendredi : de 09h00 à 12h30 de 14h00 à 16h30","latitude":47.881744,"longitude":-0.981936,"website":"https://livrelatouche.fr/","hasWebsite":true,"hasHoraires":true,"url":"https://lannuaire.service-public.gouv.fr/pays-de-la-loire/mayenne/2700e7c1-db10-43a7-a934-e6614750580d"}
{"nom":"Loiron-Ruillé","nomNormalise":"loironruille","typeCollectivite":"Commune","region":"Pays de la Loire","departement":"Mayenne","departementCode":"53","adresse":{"street":"13 rue du Docteur-Ramé","postalCode":"53320","city":"Loiron-Ruillé","country":"France"},"contacts":{"email":"contact@loiron-ruille.fr","telephone":"0243021024"},"horaires":"Le Lundi : de 09h00 à 12h30 de 16h00 à 18h00\nLe Mardi : de 09h00 à 12h30\nLe Mercredi : de 09h00 à 12h30 de 16h00 à 18h00\nLe Jeudi : de 09h00 à 12h30\nLe Vendredi : de 09h00 à 12h30 de 16h00 à 18h00","latitude":48.0591,"longitude":-0.935265,"website":"https://www.loiron-ruille.fr/","hasWebsite":true,"hasHoraires":true,"url":"https://lannuaire.service-public.gouv.fr/pays-de-la-loire/mayenne/b1fd2998-c73e-4a46-8fbd-e92cc8130634"}
{"nom":"Loupfougères","nomNormalise":"loupfougeres","typeCollectivite":"Commune","region":"Pays de la Loire","departement":"Mayenne","departementCode":"53","adresse":{"street":"11 rue de Normandie","postalCode":"53700","city":"Loupfougères","country":"France"},"contacts":{"email":"mairiedeloupfougeres@gmail.com","telephone":"0243032631"},"horaires":"Le Lundi : de 10h30 à 12h30 de 14h00 à 17h00\nLe Mercredi : de 09h30 à 12h30 de 14h00 à 18h00\nLe Vendredi : de 09h30 à 12h30 de 14h00 à 17h00","latitude":48.33857,"longitude":-0.347938,"website":"","hasWebsite":false,"hasHoraires":true,"url":"https://lannuaire.service-public.gouv.fr/pays-de-la-loire/mayenne/8fd1f5c0-2a19-4ecb-9c12-9446e1c6e15d"}
{"nom":"Louverné","nomNormalise":"louverne","typeCollectivite":"Commune","region":"Pays de la Loire","departement":"Mayenne","departementCode":"53","adresse":{"street":"2 rue de l'Abbé-Angot","postalCode":"53950","city":"Louverné","country":"France"},"contacts":{"email":"accueil.mairie@louverne.fr","telephone":"0243011008"},"horaires":"Le Lundi : de 14h00 à 18h00\nDu Mardi au Jeudi : de 08h30 à 12h00 de 14h00 à 18h00\nLe Vendredi : de 08h30 à 12h00 de 14h00 à 17h00\nLe Samedi : de 09h00 à 12h00","latitude":48.12196,"longitude":-0.7185198,"website":"https://www.louverne.fr/","hasWebsite":true,"hasHoraires":true,"url":"https://lannuaire.service-public.gouv.fr/pays-de-la-loire/mayenne/cd5a520a-0415-4c4b-8ec6-2569a0676654"}
{"nom":"Louvigné","nomNormalise":"louvigne","typeCollectivite":"Commune","region":"Pays de la Loire","departement":"Mayenne","departementCode":"53","adresse":{"street":"6 place Saint-Martin","postalCode":"53210","city":"Louvigné","country":"France"},"contacts":{"email":"mairie@louvigne.fr","telephone":"0243373094"},"horaires":"Du Lundi au Mardi : de 14h00 à 18h00\nLe Mercredi : de 09h00 à 12h00 de 14h00 à 18h00\nDu Jeudi au Vendredi : de 14h00 à 18h00","latitude":48.05738,"longitude":-0.6304903,"website":"https://www.louvigne.fr/","hasWebsite":true,"hasHoraires":true,"url":"https://lannuaire.service-public.gouv.fr/pays-de-la-loire/mayenne/464c335f-0c20-4d32-b0d9-422237b86995"}
{"nom":"Madré","nomNormalise":"madre","typeCollectivite":"Commune","region":"Pays de la Loire","departement":"Mayenne","departementCode":"53","adresse":{"street":"2 rue du Balai","postalCode":"53250","city":"Madré","country":"France"},"contacts":{"email":"madre-53@wanadoo.fr","telephone":"0243302487"},"horaires":"Du Mardi au Vendredi : de 09h00 à 12h30\nLe Samedi : de 08h15 à 10h15","latitude":48.47659,"longitude":-0.380035,"website":"","hasWebsite":false,"hasHoraires":true,"url":"https://lannuaire.service-public.gouv.fr/pays-de-la-loire/mayenne/fc599259-45a0-4ead-b34e-2c81c2e8f370"}
{"nom":"Maisoncelles-du-Maine","nomNormalise":"maisoncellesdumaine","typeCollectivite":"Commune","region":"Pays de la Loire","departement":"Mayenne","departementCode":"53","adresse":{"street":"9 place de l'Église","postalCode":"53170","city":"Maisoncelles-du-Maine","country":"France"},"contacts":{"email":"mairie@maisoncellesdumaine.fr","telephone":"0243984274"},"horaires":"Le Lundi : de 08h30 à 12h00\nLe Mardi : de 08h30 à 12h00 de 13h30 à 18h00\nDu Mercredi au Jeudi : de 08h30 à 12h00\nLe Vendredi : de 08h30 à 12h00 de 13h30 à 18h30","latitude":47.9643,"longitude":-0.65207,"website":"http://www.maisoncellesdumaine.fr/","hasWebsite":true,"hasHoraires":true,"url":"https://lannuaire.service-public.gouv.fr/pays-de-la-loire/mayenne/c11c50c2-e283-47c4-825c-df2db081b01a"}
{"nom":"Marcillé-la-Ville","nomNormalise":"marcillelaville","typeCollectivite":"Commune","region":"Pays de la Loire","departement":"Mayenne","departementCode":"53","adresse":{"street":"27 rue de Normandie","postalCode":"53440","city":"Marcillé-la-Ville","country":"France"},"contacts":{"email":"mairie.marcille.la.ville@wanadoo.fr","telephone":"0243007043"},"horaires":"Le Mardi : de 08h30 à 12h30 de 13h30 à 17h30\nLe Mercredi : de 08h30 à 12h00\nLe Jeudi : de 08h30 à 12h30 de 13h30 à 17h30\nLe Vendredi : de 08h30 à 12h30","latitude":48.3069,"longitude":-0.49169,"website":"https://marcillelaville.fr/","hasWebsite":true,"hasHoraires":true,"url":"https://lannuaire.service-public.gouv.fr/pays-de-la-loire/mayenne/27d0780e-c340-450c-989d-346e38bfbef9"}
{"nom":"Marigné-Peuton","nomNormalise":"marignepeuton","typeCollectivite":"Commune","region":"Pays de la Loire","departement":"Mayenne","departementCode":"53","adresse":{"street":"2 rue de la Souabe","postalCode":"53200","city":"Marigné-Peuton","country":"France"},"contacts":{"email":"marigne_peuton@chateaugontier.fr","telephone":"0243700474"},"horaires":"Le Mardi : de 08h30 à 12h00 de 14h00 à 17h30\nLe Mercredi : de 08h30 à 12h00\nLe Vendredi : de 08h30 à 12h00 de 14h00 à 16h30","latitude":47.87026,"longitude":-0.813117,"website":"https://marigne-peuton.fr/","hasWebsite":true,"hasHoraires":true,"url":"https://lannuaire.service-public.gouv.fr/pays-de-la-loire/mayenne/cd4a855e-d6dd-44a0-9558-3c3a56e6258c"}
{"nom":"Martigné-sur-Mayenne","nomNormalise":"martignesurmayenne","typeCollectivite":"Commune","region":"Pays de la Loire","departement":"Mayenne","departementCode":"53","adresse":{"street":"5 place de l'Église","postalCode":"53470","city":"Martigné-sur-Mayenne","country":"France"},"contacts":{"email":"mairie@martigne.com","telephone":"0243025034"},"horaires":"Le Lundi : de 09h00 à 12h00 de 14h00 à 18h00\nLe Mercredi : de 09h00 à 12h00 de 14h00 à 18h00\nLe Jeudi : de 09h00 à 12h00\nLe Vendredi : de 09h00 à 12h00 de 14h00 à 18h00","latitude":48.1934,"longitude":-0.664308,"website":"https://www.martigne.com/","hasWebsite":true,"hasHoraires":true,"url":"https://lannuaire.service-public.gouv.fr/pays-de-la-loire/mayenne/94e67af3-9876-426b-b34a-479b62e426a2"}
{"nom":"Mayenne","nomNormalise":"mayenne","typeCollectivite":"Commune","region":"Pays de la Loire","departement":"Mayenne","departementCode":"53","adresse":{"street":"10 rue de Verdun","postalCode":"53103","city":"Mayenne","country":"France"},"contacts":{"email":"contact@mayennecommunaute.fr","telephone":"0243302121"},"horaires":"Du Lundi au Vendredi : de 08h30 à 12h00 de 13h30 à 17h30\nLe Samedi : de 10h00 à 12h00\n\nAccueil ouvert une semaine sur deux, fermé en juillet-août et la veille des jours de fêtes.","latitude":48.304436,"longitude":-0.61763763,"website":"https://www.ville-mayenne.fr/","hasWebsite":true,"hasHoraires":true,"url":"https://lannuaire.service-public.gouv.fr/pays-de-la-loire/mayenne/81988126-fbde-407b-9b60-d20df06e3153"}
{"nom":"Mée","nomNormalise":"mee","typeCollectivite":"Commune","region":"Pays de la Loire","departement":"Mayenne","departementCode":"53","adresse":{"street":"14 route de Saint-Quentin","postalCode":"53400","city":"Mée","country":"France"},"contacts":{"email":"mairie-mee@wanadoo.fr","telephone":"0243061373"},"horaires":"Le Mardi : de 08h30 à 12h30 de 13h30 à 17h30\nLe Jeudi : de 08h30 à 12h30 de 13h30 à 17h30\n\nOuvert semaine impaire","latitude":47.7942,"longitude":-0.863718,"website":"","hasWebsite":false,"hasHoraires":true,"url":"https://lannuaire.service-public.gouv.fr/pays-de-la-loire/mayenne/ab267da4-2f6f-4285-b218-a1c9087ce1fa"}
{"nom":"Ménil","nomNormalise":"menil","typeCollectivite":"Commune","region":"Pays de la Loire","departement":"Mayenne","departementCode":"53","adresse":{"street":"1 place de la Mairie","postalCode":"53200","city":"Ménil","country":"France"},"contacts":{"email":"menil@chateaugontier.fr","telephone":"0243702525"},"horaires":"Du Lundi au Mardi : de 08h30 à 12h15\nDu Jeudi au Samedi : de 08h30 à 12h15","latitude":47.834015,"longitude":-0.717778,"website":"https://www.menil53.fr/","hasWebsite":true,"hasHoraires":true,"url":"https://lannuaire.service-public.gouv.fr/pays-de-la-loire/mayenne/4a27b9c3-593c-4c01-9442-feffa19af93e"}
{"nom":"Méral","nomNormalise":"meral","typeCollectivite":"Commune","region":"Pays de la Loire","departement":"Mayenne","departementCode":"53","adresse":{"street":"5 rue de Bretagne","postalCode":"53230","city":"Méral","country":"France"},"contacts":{"email":"mairie.meral@orange.fr","telephone":"0243988307"},"horaires":"Du Lundi au Mardi : de 09h00 à 12h15\nLe Mercredi : de 09h00 à 12h00 de 13h30 à 16h00\nLe Jeudi : de 09h00 à 12h15\nLe Vendredi : de 13h30 à 18h00\nLe Samedi : de 09h00 à 12h00","latitude":47.9608,"longitude":-0.990143,"website":"https://www.village-meral.fr/","hasWebsite":true,"hasHoraires":true,"url":"https://lannuaire.service-public.gouv.fr/pays-de-la-loire/mayenne/83791aa3-b375-4b2f-a33b-70e122871507"}
{"nom":"Meslay-du-Maine","nomNormalise":"meslaydumaine","typeCollectivite":"Commune","region":"Pays de la Loire","departement":"Mayenne","departementCode":"53","adresse":{"street":"10 avenue de l'Hôtel-de-Ville","postalCode":"53170","city":"Meslay-du-Maine","country":"France"},"contacts":{"email":"mairie@ville-meslaydumaine.fr","telephone":"0243641040"},"horaires":"Du Lundi au Mardi : de 08h30 à 12h30 de 13h30 à 17h30\nLe Mercredi : de 08h30 à 12h00\nLe Jeudi : de 15h00 à 17h30\nLe Vendredi : de 08h30 à 12h30 de 13h30 à 17h00","latitude":47.9503,"longitude":-0.555249,"website":"https://meslay-du-maine.fr/","hasWebsite":true,"hasHoraires":true,"url":"https://lannuaire.service-public.gouv.fr/pays-de-la-loire/mayenne/fd8662b3-cd6e-4c2e-9210-2789bfb39a18"}
{"nom":"Mézangers","nomNormalise":"mezangers","typeCollectivite":"Commune","region":"Pays de la Loire","departement":"Mayenne","departementCode":"53","adresse":{"street":"18 place René Lair-de-la-Motte","postalCode":"53600","city":"Mézangers","country":"France"},"contacts":{"email":"mairie-mezangers@orange.fr","telephone":"0243906495"},"horaires":"Du Lundi au Mardi : de 09h00 à 12h30 de 13h30 à 17h00\nDu Jeudi au Vendredi : de 09h00 à 12h30 de 13h30 à 17h00","latitude":48.189285,"longitude":-0.4328584,"website":"https://mezangers.fr/","hasWebsite":true,"hasHoraires":true,"url":"https://lannuaire.service-public.gouv.fr/pays-de-la-loire/mayenne/fef3d80d-e7ed-4c64-8996-e8d715dd4821"}
{"nom":"Montaudin","nomNormalise":"montaudin","typeCollectivite":"Commune","region":"Pays de la Loire","departement":"Mayenne","departementCode":"53","adresse":{"street":"5 place de la Mairie","postalCode":"53220","city":"Montaudin","country":"France"},"contacts":{"email":"mairie-montaudin@wanadoo.fr","telephone":"0243053147"},"horaires":"Du Mardi au Jeudi : de 09h00 à 12h00 de 14h00 à 17h00\nDu Vendredi au Samedi : de 09h00 à 12h00","latitude":48.38535,"longitude":-0.989483,"website":"","hasWebsite":false,"hasHoraires":true,"url":"https://lannuaire.service-public.gouv.fr/pays-de-la-loire/mayenne/f1bc5966-b119-4d73-8b70-279a915a2437"}
{"nom":"Montenay","nomNormalise":"montenay","typeCollectivite":"Commune","region":"Pays de la Loire","departement":"Mayenne","departementCode":"53","adresse":{"street":"1 rue des Prés","postalCode":"53500","city":"Montenay","country":"France"},"contacts":{"email":"mairie@montenay.net","telephone":"0243051765"},"horaires":"Le Lundi : de 14h00 à 17h45\nLe Mardi : de 09h00 à 12h00 de 15h00 à 17h45\nLe Mercredi : de 09h00 à 12h00\nDu Jeudi au Vendredi : de 09h00 à 12h00 de 15h00 à 17h45\nLe Samedi : de 09h00 à 12h00","latitude":48.28631,"longitude":-0.894134,"website":"https://www.montenay.net/","hasWebsite":true,"hasHoraires":true,"url":"https://lannuaire.service-public.gouv.fr/pays-de-la-loire/mayenne/2698b32d-4837-414c-af2f-beeed8770408"}
{"nom":"Montflours","nomNormalise":"montflours","typeCollectivite":"Commune","region":"Pays de la Loire","departement":"Mayenne","departementCode":"53","adresse":{"street":"1 place de la Sergenterie","postalCode":"53240","city":"Montflours","country":"France"},"contacts":{"email":"mairie.montflours@orange.fr","telephone":"0243025339"},"horaires":"Du Lundi au Mardi : de 08h30 à 12h30 de 14h30 à 17h30\nLe Jeudi : de 08h30 à 12h30 de 14h30 à 17h30","latitude":48.170437,"longitude":-0.733537,"website":"https://montflours.fr/","hasWebsite":true,"hasHoraires":true,"url":"https://lannuaire.service-public.gouv.fr/pays-de-la-loire/mayenne/f562fe14-b867-49c9-99e9-04e200b689bf"}
{"nom":"Montigné-le-Brillant","nomNormalise":"montignelebrillant","typeCollectivite":"Commune","region":"Pays de la Loire","departement":"Mayenne","departementCode":"53","adresse":{"street":"2 rue des Écoles","postalCode":"53970","city":"Montigné-le-Brillant","country":"France"},"contacts":{"email":"mairie.montigne.le.brillant@wanadoo.fr","telephone":"0243983827"},"horaires":"Du Lundi au Mardi : de 15h30 à 18h00\nLe Mercredi : de 09h30 à 12h00\nDu Jeudi au Vendredi : de 15h30 à 18h00\nLe Samedi : de 09h30 à 12h00\n\nFermé le 5 ième samedi du mois.","latitude":48.0078,"longitude":-0.817259,"website":"https://montignelebrillant.fr/","hasWebsite":true,"hasHoraires":true,"url":"https://lannuaire.service-public.gouv.fr/pays-de-la-loire/mayenne/5cdbe0db-bdd0-4588-bd41-ab6c7ed41002"}
{"nom":"Montjean","nomNormalise":"montjean","typeCollectivite":"Commune","region":"Pays de la Loire","departement":"Mayenne","departementCode":"53","adresse":{"street":"Square Henri-de-Monti","postalCode":"53320","city":"Montjean","country":"France"},"contacts":{"email":"contact@mairie-montjean53.fr","telephone":"0243021108"},"horaires":"Le Lundi : de 09h00 à 12h00 de 14h00 à 18h00\nDu Mardi au Jeudi : de 09h00 à 12h00\nLe Vendredi : de 09h00 à 12h00 de 14h00 à 18h00\nLe Samedi : de 09h00 à 11h45","latitude":48.0059,"longitude":-0.959525,"website":"http://www.mairie-montjean53.fr/","hasWebsite":true,"hasHoraires":true,"url":"https://lannuaire.service-public.gouv.fr/pays-de-la-loire/mayenne/ff04f81d-5d8e-4faa-a56c-2ff2f6f1fae9"}
{"nom":"Mairie déléguée - Montourtier","nomNormalise":"mairiedelegueemontourtier","typeCollectivite":"Commune","region":"Pays de la Loire","departement":"Mayenne","departementCode":"53","adresse":{"street":"Montourtier","postalCode":"53150","city":"Montsûrs","country":"France"},"contacts":{"email":"commune.montsurs@wanadoo.fr","telephone":"0243901031"},"horaires":"","latitude":48.203236,"longitude":-0.550075,"website":"","hasWebsite":false,"hasHoraires":false,"url":"https://lannuaire.service-public.gouv.fr/pays-de-la-loire/mayenne/e13fcf7a-d275-4f7c-87b8-32b217b1c053"}
{"nom":"Montreuil-Poulay","nomNormalise":"montreuilpoulay","typeCollectivite":"Commune","region":"Pays de la Loire","departement":"Mayenne","departementCode":"53","adresse":{"street":"48 rue des Artisans","postalCode":"53640","city":"Montreuil-Poulay","country":"France"},"contacts":{"email":"mairie.montreuil-poulay@wanadoo.fr","telephone":"0243008306"},"horaires":"Le Lundi : de 13h30 à 17h30\nLe Mardi : de 09h00 à 12h00 de 13h30 à 17h30\nDu Jeudi au Vendredi : de 09h00 à 12h00","latitude":48.382107,"longitude":-0.524082,"website":"","hasWebsite":false,"hasHoraires":true,"url":"https://lannuaire.service-public.gouv.fr/pays-de-la-loire/mayenne/07bfccaa-e8f6-4082-8474-9a1dcc28bfa3"}
{"nom":"Montsûrs","nomNormalise":"montsurs","typeCollectivite":"Commune","region":"Pays de la Loire","departement":"Mayenne","departementCode":"53","adresse":{"street":"151 rue Saint-Cénéré-Montsûrs","postalCode":"53150","city":"Montsûrs","country":"France"},"contacts":{"email":"commune.montsurs@wanadoo.fr","telephone":"0243010031"},"horaires":"Le Lundi : de 08h30 à 12h00 de 14h00 à 17h30\nLe Mardi : de 14h00 à 17h30\nLe Mercredi : de 08h30 à 12h00 de 14h00 à 17h30\nLe Jeudi : de 14h00 à 17h30\nLe Vendredi : de 08h30 à 12h00 de 14h00 à 17h30","latitude":48.1325,"longitude":-0.570725,"website":"https://www.montsurs.fr/","hasWebsite":true,"hasHoraires":true,"url":"https://lannuaire.service-public.gouv.fr/pays-de-la-loire/mayenne/5fed790d-d7d1-4e3a-8cc9-56a7fb394f13"}
{"nom":"Moulay","nomNormalise":"moulay","typeCollectivite":"Commune","region":"Pays de la Loire","departement":"Mayenne","departementCode":"53","adresse":{"street":"10 rue du Val-de-l'Aron","postalCode":"53100","city":"Moulay","country":"France"},"contacts":{"email":"mairie.moulay@wanadoo.fr","telephone":"0243004152"},"horaires":"Du Lundi au Mardi : de 09h00 à 12h00\nLe Mercredi : de 10h00 à 12h00\nLe Jeudi : de 09h00 à 12h00 de 13h30 à 17h00\nLe Vendredi : de 09h00 à 12h00","latitude":48.2702,"longitude":-0.630077,"website":"https://www.mairie-moulay.fr/","hasWebsite":true,"hasHoraires":true,"url":"https://lannuaire.service-public.gouv.fr/pays-de-la-loire/mayenne/07a8d7e6-4c1c-4fa1-a6c2-0adceb1bf856"}
{"nom":"Neau","nomNormalise":"neau","typeCollectivite":"Commune","region":"Pays de la Loire","departement":"Mayenne","departementCode":"53","adresse":{"street":"8 place de l'Église","postalCode":"53150","city":"Neau","country":"France"},"contacts":{"email":"contact@mairie-neau53.fr","telephone":"0243982263"},"horaires":"Le Lundi : de 09h00 à 12h30 de 14h00 à 17h30\nLe Mardi : de 09h00 à 12h30\nLe Jeudi : de 09h00 à 12h30 de 14h00 à 17h30\nLe Vendredi : de 14h00 à 17h30","latitude":48.1562,"longitude":-0.475349,"website":"https://mairie-neau53.fr/","hasWebsite":true,"hasHoraires":true,"url":"https://lannuaire.service-public.gouv.fr/pays-de-la-loire/mayenne/e4cd6704-758d-4e41-9fce-9b7b0442f756"}
{"nom":"Neuilly-le-Vendin","nomNormalise":"neuillylevendin","typeCollectivite":"Commune","region":"Pays de la Loire","departement":"Mayenne","departementCode":"53","adresse":{"street":"79 rue de Normandie","postalCode":"53250","city":"Neuilly-le-Vendin","country":"France"},"contacts":{"email":"mairie@neuillylevendin.fr","telephone":"0243038600"},"horaires":"Le Mardi : de 10h00 à 12h00\nLe Jeudi : de 10h00 à 12h00\nLe Vendredi : de 14h30 à 18h30","latitude":48.4951,"longitude":-0.340373,"website":"","hasWebsite":false,"hasHoraires":true,"url":"https://lannuaire.service-public.gouv.fr/pays-de-la-loire/mayenne/924e695c-a226-4c9e-98e9-b818c7f0c739"}
{"nom":"Niafles","nomNormalise":"niafles","typeCollectivite":"Commune","region":"Pays de la Loire","departement":"Mayenne","departementCode":"53","adresse":{"street":"2 route de la Selle-Craonnaise","postalCode":"53400","city":"Niafles","country":"France"},"contacts":{"email":"mairie@niafles.fr","telephone":"0243061945"},"horaires":"Le Mardi : de 13h30 à 17h00\nLe Jeudi : de 08h00 à 11h00\nLe Samedi : de 08h30 à 12h00","latitude":47.8461,"longitude":-1.0021766,"website":"https://www.niafles.fr/","hasWebsite":true,"hasHoraires":true,"url":"https://lannuaire.service-public.gouv.fr/pays-de-la-loire/mayenne/30b537c4-292d-4580-87a1-1cf8a3768c57"}
{"nom":"Nuillé-sur-Vicoin","nomNormalise":"nuillesurvicoin","typeCollectivite":"Commune","region":"Pays de la Loire","departement":"Mayenne","departementCode":"53","adresse":{"street":"28 rue de la Mairie","postalCode":"53970","city":"Nuillé-sur-Vicoin","country":"France"},"contacts":{"email":"nuillesurvicoin@wanadoo.fr","telephone":"0243983922"},"horaires":"Le Lundi : de 09h30 à 12h30\nLe Mercredi : de 09h30 à 12h30 de 13h30 à 18h00\nDu Jeudi au Vendredi : de 09h30 à 12h30","latitude":47.98623,"longitude":-0.7831515,"website":"https://nuillesurvicoin.fr/","hasWebsite":true,"hasHoraires":true,"url":"https://lannuaire.service-public.gouv.fr/pays-de-la-loire/mayenne/b654bc77-1b1d-4360-a4e0-4dd4f21aaa41"}
{"nom":"Oisseau","nomNormalise":"oisseau","typeCollectivite":"Commune","region":"Pays de la Loire","departement":"Mayenne","departementCode":"53","adresse":{"street":"22 place Fernand-Moisson","postalCode":"53300","city":"Oisseau","country":"France"},"contacts":{"email":"oisseau.mairie@gmail.com","telephone":"0243001121"},"horaires":"Du Lundi au Samedi : de 09h00 à 12h00","latitude":48.358475,"longitude":-0.6694,"website":"https://oisseau.fr/","hasWebsite":true,"hasHoraires":true,"url":"https://lannuaire.service-public.gouv.fr/pays-de-la-loire/mayenne/50519c14-1d90-4197-bb83-bfac43f9eb97"}
{"nom":"Olivet","nomNormalise":"olivet","typeCollectivite":"Commune","region":"Pays de la Loire","departement":"Mayenne","departementCode":"53","adresse":{"street":"4 rue du Prieuré","postalCode":"53410","city":"Olivet","country":"France"},"contacts":{"email":"mairie.olivet53@orange.fr","telephone":"0243377323"},"horaires":"Le Lundi : de 08h30 à 12h30 de 13h30 à 18h00\nLe Mardi : de 08h30 à 12h30 de 13h30 à 17h00\nLe Mercredi : de 08h30 à 12h30\nLe Vendredi : de 08h30 à 12h30 de 13h30 à 17h00","latitude":48.12113,"longitude":-0.9181846,"website":"https://mairieolivet53.fr/accueil","hasWebsite":true,"hasHoraires":true,"url":"https://lannuaire.service-public.gouv.fr/pays-de-la-loire/mayenne/eb2aae6f-ad64-42db-a48d-aa59684e56ce"}
{"nom":"Origné","nomNormalise":"origne","typeCollectivite":"Commune","region":"Pays de la Loire","departement":"Mayenne","departementCode":"53","adresse":{"street":"4 rue d'Anjou","postalCode":"53360","city":"Origné","country":"France"},"contacts":{"email":"mairie@origne53.fr","telephone":"0975845920"},"horaires":"Du Lundi au Mardi : de 14h00 à 18h00\nLe Mercredi : de 09h00 à 12h00\nLe Vendredi : de 14h00 à 18h00","latitude":47.95264,"longitude":-0.730466,"website":"https://www.origne53.fr/","hasWebsite":true,"hasHoraires":true,"url":"https://lannuaire.service-public.gouv.fr/pays-de-la-loire/mayenne/7950cbda-a87c-486c-8d37-b10569aba536"}
{"nom":"Parigné-sur-Braye","nomNormalise":"parignesurbraye","typeCollectivite":"Commune","region":"Pays de la Loire","departement":"Mayenne","departementCode":"53","adresse":{"street":"11 rue des Marronniers","postalCode":"53100","city":"Parigné-sur-Braye","country":"France"},"contacts":{"email":"parigne@wanadoo.fr","telephone":"0243003647"},"horaires":"Le Mardi : de 08h30 à 12h30\nDu Jeudi au Samedi : de 08h30 à 12h30","latitude":48.31599,"longitude":-0.6531992,"website":"http://www.cc-pays-de-mayenne.fr/","hasWebsite":true,"hasHoraires":true,"url":"https://lannuaire.service-public.gouv.fr/pays-de-la-loire/mayenne/22877a27-4b57-452e-938c-3789ab1fea33"}
{"nom":"Parné-sur-Roc","nomNormalise":"parnesurroc","typeCollectivite":"Commune","region":"Pays de la Loire","departement":"Mayenne","departementCode":"53","adresse":{"street":"1 place du Prieuré","postalCode":"53260","city":"Parné-sur-Roc","country":"France"},"contacts":{"email":"accueil@mairieparne.fr","telephone":"0243980157"},"horaires":"Du Lundi au Mardi : de 09h00 à 12h00 de 16h30 à 17h30\nLe Mercredi : de 09h00 à 12h00\nLe Jeudi : de 16h30 à 17h30\nDu Vendredi au Samedi : de 09h00 à 12h00","latitude":48.00571,"longitude":-0.6689515,"website":"https://www.parne-sur-roc.fr/","hasWebsite":true,"hasHoraires":true,"url":"https://lannuaire.service-public.gouv.fr/pays-de-la-loire/mayenne/e85481ec-df9b-4a30-8ec0-6580658bb5d7"}
{"nom":"Peuton","nomNormalise":"peuton","typeCollectivite":"Commune","region":"Pays de la Loire","departement":"Mayenne","departementCode":"53","adresse":{"street":"2 route de Quelaines","postalCode":"53360","city":"Peuton","country":"France"},"contacts":{"email":"peuton@chateaugontier.fr","telephone":"0243988800"},"horaires":"Du Lundi au Mardi : de 09h00 à 12h00\nLe Jeudi : de 09h00 à 12h00\nLe Vendredi : de 09h00 à 12h00 de 14h00 à 17h00","latitude":47.88543,"longitude":-0.8223679,"website":"https://peuton53.fr/","hasWebsite":true,"hasHoraires":true,"url":"https://lannuaire.service-public.gouv.fr/pays-de-la-loire/mayenne/7e271ef4-319c-4575-bd69-f415b2531000"}
{"nom":"Placé","nomNormalise":"place","typeCollectivite":"Commune","region":"Pays de la Loire","departement":"Mayenne","departementCode":"53","adresse":{"street":"15 rue du Prieuré","postalCode":"53240","city":"Placé","country":"France"},"contacts":{"email":"mairie.place@wanadoo.fr","telephone":"0243698470"},"horaires":"Le Lundi : de 09h00 à 12h00\nLe Mardi : de 09h00 à 12h00 de 14h00 à 17h00\nLe Jeudi : de 09h00 à 12h00 de 14h00 à 17h00\nLe Vendredi : de 09h00 à 12h00","latitude":48.253136,"longitude":-0.777581,"website":"","hasWebsite":false,"hasHoraires":true,"url":"https://lannuaire.service-public.gouv.fr/pays-de-la-loire/mayenne/eb979cf9-7387-4c7d-a630-21be1737d87e"}
{"nom":"Pommerieux","nomNormalise":"pommerieux","typeCollectivite":"Commune","region":"Pays de la Loire","departement":"Mayenne","departementCode":"53","adresse":{"street":"7 place de l'Église","postalCode":"53400","city":"Pommerieux","country":"France"},"contacts":{"email":"secretariat@pommerieux53.fr","telephone":"0243061176"},"horaires":"Le Lundi : de 09h00 à 12h30 de 17h00 à 18h00\nLe Mardi : de 09h00 à 12h30 de 17h00 à 19h00\nLe Jeudi : de 09h00 à 12h30 de 17h00 à 18h00\nLe Vendredi : de 09h00 à 12h00","latitude":47.823254,"longitude":-0.8981335,"website":"https://pommerieux53.fr/","hasWebsite":true,"hasHoraires":true,"url":"https://lannuaire.service-public.gouv.fr/pays-de-la-loire/mayenne/a34d68f3-d97a-4a9c-a6f5-12e3ae2a5aa4"}
{"nom":"Pontmain","nomNormalise":"pontmain","typeCollectivite":"Commune","region":"Pays de la Loire","departement":"Mayenne","departementCode":"53","adresse":{"street":"4 rue Sainte-Anne","postalCode":"53220","city":"Pontmain","country":"France"},"contacts":{"email":"mairie.pontmain53@gmail.com","telephone":"0243050645"},"horaires":"Du Mardi au Vendredi : de 09h00 à 12h30\nLe Samedi : de 09h00 à 11h00","latitude":48.437843,"longitude":-1.0588962,"website":"https://www.pontmain.fr/","hasWebsite":true,"hasHoraires":true,"url":"https://lannuaire.service-public.gouv.fr/pays-de-la-loire/mayenne/2d944d59-bc98-4e71-bd96-aad4048b023a"}
{"nom":"Port-Brillet","nomNormalise":"portbrillet","typeCollectivite":"Commune","region":"Pays de la Loire","departement":"Mayenne","departementCode":"53","adresse":{"street":"Parc du Docteur-Alphonse-Augeard","postalCode":"53410","city":"Port-Brillet","country":"France"},"contacts":{"email":"accueil@port-brillet.fr","telephone":"0243688257"},"horaires":"Le Lundi : de 14h30 à 17h45\nLe Mardi : de 09h00 à 12h00 de 14h30 à 17h45\nLe Mercredi : de 09h00 à 12h00\nLe Jeudi : de 14h30 à 17h45\nLe Vendredi : de 09h00 à 12h00 de 14h30 à 17h00\nLe Samedi : de 09h00 à 12h00\n\nAccueil fermé en juillet-août.","latitude":48.112972,"longitude":-0.973527,"website":"https://www.port-brillet.fr/","hasWebsite":true,"hasHoraires":true,"url":"https://lannuaire.service-public.gouv.fr/pays-de-la-loire/mayenne/1045eef8-43a5-4cc8-8f9f-ef7d573cf7a5"}
{"nom":"Préaux","nomNormalise":"preaux","typeCollectivite":"Commune","region":"Pays de la Loire","departement":"Mayenne","departementCode":"53","adresse":{"street":"1 route de Chémeré-le-Roi","postalCode":"53340","city":"Préaux","country":"France"},"contacts":{"email":"mairie-preaux@wanadoo.fr","telephone":"0243984522"},"horaires":"Le Mardi : de 09h00 à 12h00 de 14h00 à 17h00\nLe Vendredi : de 14h00 à 17h00","latitude":47.936237,"longitude":-0.466186,"website":"","hasWebsite":false,"hasHoraires":true,"url":"https://lannuaire.service-public.gouv.fr/pays-de-la-loire/mayenne/b5302df7-0c50-4c84-a761-256aae40d640"}
{"nom":"Prée-d'Anjou","nomNormalise":"preedanjou","typeCollectivite":"Commune","region":"Pays de la Loire","departement":"Mayenne","departementCode":"53","adresse":{"street":"Laigné","postalCode":"53200","city":"Prée-d'Anjou","country":"France"},"contacts":{"email":"preedanjou@chateaugontier.fr","telephone":"0243700055"},"horaires":"Du Lundi au Mardi : de 08h30 à 12h30\nLe Vendredi : de 13h30 à 18h00","latitude":47.841747,"longitude":-0.814805,"website":"https://www.preedanjou.fr/","hasWebsite":true,"hasHoraires":true,"url":"https://lannuaire.service-public.gouv.fr/pays-de-la-loire/mayenne/a0335e98-ba41-45c2-b59a-144a4d3dc0a3"}
{"nom":"Pré-en-Pail-Saint-Samson","nomNormalise":"preenpailsaintsamson","typeCollectivite":"Commune","region":"Pays de la Loire","departement":"Mayenne","departementCode":"53","adresse":{"street":"Pré-en-Pail","postalCode":"53140","city":"Pré-en-Pail-Saint-Samson","country":"France"},"contacts":{"email":"accueil@mairie-preenpailsaintsamson.fr","telephone":"0243302660"},"horaires":"Du Lundi au Vendredi : de 08h30 à 12h15 de 15h00 à 17h30\nLe Samedi : de 10h00 à 12h00\n\nLe service cartes d'identité et passeports reçoit sur rendez-vous uniquement du lundi au vendredi de 13h30 à 15h et le samedi de 8h30 à 10h, accueil fermé le samedi en août.","latitude":48.4597,"longitude":-0.198361,"website":"http://www.pre-en-pail-saint-samson.fr/","hasWebsite":true,"hasHoraires":true,"url":"https://lannuaire.service-public.gouv.fr/pays-de-la-loire/mayenne/c6e8672c-ca56-489d-84e8-b6c1d34ffa8d"}
{"nom":"Quelaines-Saint-Gault","nomNormalise":"quelainessaintgault","typeCollectivite":"Commune","region":"Pays de la Loire","departement":"Mayenne","departementCode":"53","adresse":{"street":"4 rue de la Mairie","postalCode":"53360","city":"Quelaines-Saint-Gault","country":"France"},"contacts":{"email":"mairie.quelaines@wanadoo.fr","telephone":"0243988208"},"horaires":"Le Lundi : de 09h00 à 12h00 de 14h00 à 17h30\nDu Mardi au Jeudi : de 09h00 à 12h00\nLe Vendredi : de 09h00 à 12h00 de 14h00 à 17h30\nLe Samedi : de 09h00 à 12h00","latitude":47.9228,"longitude":-0.8025113,"website":"http://www.quelaines-saint-gault.fr/","hasWebsite":true,"hasHoraires":true,"url":"https://lannuaire.service-public.gouv.fr/pays-de-la-loire/mayenne/103f7007-9235-421f-b4db-8bf6cc7b0765"}
{"nom":"Ravigny","nomNormalise":"ravigny","typeCollectivite":"Commune","region":"Pays de la Loire","departement":"Mayenne","departementCode":"53","adresse":{"street":"106 route de Champfrémont","postalCode":"53370","city":"Ravigny","country":"France"},"contacts":{"email":"mairie.ravigny@orange.fr","telephone":"0233273012"},"horaires":"Le Lundi : de 09h00 à 12h00\nLe Mardi : de 09h00 à 12h00 de 13h30 à 17h00\nLe Jeudi : de 13h30 à 17h00","latitude":48.443436,"longitude":-0.06836775,"website":"","hasWebsite":false,"hasHoraires":true,"url":"https://lannuaire.service-public.gouv.fr/pays-de-la-loire/mayenne/696ec3e4-c208-4fa7-af9b-9ad6f3a81412"}
{"nom":"Renazé","nomNormalise":"renaze","typeCollectivite":"Commune","region":"Pays de la Loire","departement":"Mayenne","departementCode":"53","adresse":{"street":"Place de l'Europe","postalCode":"53800","city":"Renazé","country":"France"},"contacts":{"email":"contact@mairie-renaze.fr","telephone":"0243064014"},"horaires":"Du Lundi au Mercredi : de 09h00 à 12h30 de 14h00 à 18h00\nDu Jeudi au Vendredi : de 09h00 à 12h30 de 14h00 à 17h00","latitude":47.7937,"longitude":-1.05569,"website":"https://renaze53.fr/","hasWebsite":true,"hasHoraires":true,"url":"https://lannuaire.service-public.gouv.fr/pays-de-la-loire/mayenne/0caea208-5977-4bf8-bab1-bf932e6fb598"}
{"nom":"Rennes-en-Grenouilles","nomNormalise":"rennesengrenouilles","typeCollectivite":"Commune","region":"Pays de la Loire","departement":"Mayenne","departementCode":"53","adresse":{"street":"4 rue Henri-Deglane","postalCode":"53110","city":"Rennes-en-Grenouilles","country":"France"},"contacts":{"email":"commune.rennesengrenouilles@wanadoo.fr","telephone":"0243085492"},"horaires":"Le Jeudi : de 14h30 à 17h30","latitude":48.4902,"longitude":0.512447,"website":"","hasWebsite":false,"hasHoraires":true,"url":"https://lannuaire.service-public.gouv.fr/pays-de-la-loire/mayenne/276e4117-aa1c-4711-b311-db4149943808"}
{"nom":"Roë","nomNormalise":"roe","typeCollectivite":"Commune","region":"Pays de la Loire","departement":"Mayenne","departementCode":"53","adresse":{"street":"11 rue des Chanoines","postalCode":"53350","city":"La Roë","country":"France"},"contacts":{"email":"la-roe@orange.fr","telephone":"0243065083"},"horaires":"Le Lundi : de 09h00 à 17h00\nLe Mercredi : de 09h00 à 12h00\nLe Jeudi : de 13h30 à 17h00","latitude":47.8952,"longitude":-1.11089,"website":"https://la-roe.com/","hasWebsite":true,"hasHoraires":true,"url":"https://lannuaire.service-public.gouv.fr/pays-de-la-loire/mayenne/ce032ef2-63fc-4eed-8737-3839afa799f4"}
{"nom":"Ruillé-Froid-Fonds","nomNormalise":"ruillefroidfonds","typeCollectivite":"Commune","region":"Pays de la Loire","departement":"Mayenne","departementCode":"53","adresse":{"street":"8 rue du Calvaire","postalCode":"53170","city":"Ruillé-Froid-Fonds","country":"France"},"contacts":{"email":"mairie@ruillefroidfonds.fr","telephone":"0243077153"},"horaires":"Le Mardi : de 09h00 à 12h00\nLe Jeudi : de 14h00 à 17h30","latitude":47.9005,"longitude":-0.641145,"website":"","hasWebsite":false,"hasHoraires":true,"url":"https://lannuaire.service-public.gouv.fr/pays-de-la-loire/mayenne/3e6774a2-0962-4c3a-a7e0-9dde7bdbec73"}
{"nom":"Sacé","nomNormalise":"sace","typeCollectivite":"Commune","region":"Pays de la Loire","departement":"Mayenne","departementCode":"53","adresse":{"street":"3 rue des Camélias","postalCode":"53470","city":"Sacé","country":"France"},"contacts":{"email":"mairie@sace.fr","telephone":"0243025490"},"horaires":"Le Lundi : de 08h30 à 12h30\nLe Mardi : de 13h15 à 18h00\nLe Mercredi : de 08h30 à 12h30","latitude":48.18583,"longitude":-0.712329,"website":"https://www.sace.fr/","hasWebsite":true,"hasHoraires":true,"url":"https://lannuaire.service-public.gouv.fr/pays-de-la-loire/mayenne/23f37de3-5687-40c1-9569-3b70166eec2a"}
{"nom":"Saint-Aignan-de-Couptrain","nomNormalise":"saintaignandecouptrain","typeCollectivite":"Commune","region":"Pays de la Loire","departement":"Mayenne","departementCode":"53","adresse":{"street":"3 place de l'Église","postalCode":"53250","city":"Saint-Aignan-de-Couptrain","country":"France"},"contacts":{"email":"mairie.st.aignan.de.couptrain@wanadoo.fr","telephone":"0243038248"},"horaires":"Le Mardi : de 08h30 à 12h30 de 14h00 à 17h00\nDu Jeudi au Vendredi : de 08h30 à 12h30","latitude":48.4178,"longitude":-0.33825,"website":"","hasWebsite":false,"hasHoraires":true,"url":"https://lannuaire.service-public.gouv.fr/pays-de-la-loire/mayenne/d8722475-9e06-44e2-bc1b-a4c2efc962cf"}
{"nom":"Saint-Aignan-sur-Roë","nomNormalise":"saintaignansurroe","typeCollectivite":"Commune","region":"Pays de la Loire","departement":"Mayenne","departementCode":"53","adresse":{"street":"8 boulevard Charles-de-Gaulle","postalCode":"53390","city":"Saint-Aignan-sur-Roë","country":"France"},"contacts":{"email":"accueilmairie@saintaignan53.com","telephone":"0243065117"},"horaires":"Le Lundi : de 08h45 à 12h30 de 13h30 à 17h30\nLe Mardi : de 08h45 à 12h30\nDu Mercredi au Vendredi : de 08h45 à 12h30 de 13h30 à 17h30","latitude":47.8398,"longitude":-1.13687,"website":"http://www.saintaignan53.com/","hasWebsite":true,"hasHoraires":true,"url":"https://lannuaire.service-public.gouv.fr/pays-de-la-loire/mayenne/232ff479-8f42-4940-b956-fecd78ea965f"}
{"nom":"Saint-Aubin-du-Désert","nomNormalise":"saintaubindudesert","typeCollectivite":"Commune","region":"Pays de la Loire","departement":"Mayenne","departementCode":"53","adresse":{"street":"4 rue des Blés-d'Or","postalCode":"53700","city":"Saint-Aubin-du-Désert","country":"France"},"contacts":{"email":"staubin2@wanadoo.fr","telephone":"0243032686"},"horaires":"Le Mardi : de 10h00 à 12h00","latitude":48.30469,"longitude":-0.194704,"website":"","hasWebsite":false,"hasHoraires":true,"url":"https://lannuaire.service-public.gouv.fr/pays-de-la-loire/mayenne/cacfea72-8a8d-4468-bea0-4e95f1f2010c"}
{"nom":"Saint-Aubin-Fosse-Louvain","nomNormalise":"saintaubinfosselouvain","typeCollectivite":"Commune","region":"Pays de la Loire","departement":"Mayenne","departementCode":"53","adresse":{"street":"4 rue du Sacré-Cur","postalCode":"53120","city":"Saint-Aubin-Fosse-Louvain","country":"France"},"contacts":{"email":"mairiedestaubin@wanadoo.fr","telephone":"0243006469"},"horaires":"Le Lundi : de 09h00 à 12h00\nLe Jeudi : de 09h00 à 16h30\nLe Samedi : de 09h00 à 12h00","latitude":48.46406,"longitude":-0.831773,"website":"","hasWebsite":false,"hasHoraires":true,"url":"https://lannuaire.service-public.gouv.fr/pays-de-la-loire/mayenne/8505c523-807b-4ddd-8409-266cb184133d"}
{"nom":"Saint-Baudelle","nomNormalise":"saintbaudelle","typeCollectivite":"Commune","region":"Pays de la Loire","departement":"Mayenne","departementCode":"53","adresse":{"street":"7 place de la Mairie","postalCode":"53100","city":"Saint-Baudelle","country":"France"},"contacts":{"email":"st-baudelle@wanadoo.fr","telephone":"0243000626"},"horaires":"Le Lundi : de 09h00 à 12h30 de 15h00 à 18h00\nDu Mardi au Jeudi : de 09h00 à 12h30\nLe Vendredi : de 09h00 à 12h30 de 15h00 à 18h00","latitude":48.2809,"longitude":-0.635327,"website":"https://www.intramuros.org/saint-baudelle","hasWebsite":true,"hasHoraires":true,"url":"https://lannuaire.service-public.gouv.fr/pays-de-la-loire/mayenne/72513155-822b-4600-a671-103d6d94f5ab"}
{"nom":"Saint-Berthevin","nomNormalise":"saintberthevin","typeCollectivite":"Commune","region":"Pays de la Loire","departement":"Mayenne","departementCode":"53","adresse":{"street":"Place de l'Europe","postalCode":"53940","city":"Saint-Berthevin","country":"France"},"contacts":{"email":"accueil.mairie@ville-saint-berthevin.fr","telephone":"0243692827"},"horaires":"Le Lundi : de 13h30 à 17h30\nDu Mardi au Mercredi : de 08h30 à 12h30 de 13h30 à 17h30\nLe Jeudi : de 08h30 à 12h30\nLe Vendredi : de 08h30 à 12h30 de 13h30 à 17h30\nLe Samedi : de 09h00 à 12h00","latitude":48.0688,"longitude":-0.8291,"website":"https://www.saint-berthevin.fr/","hasWebsite":true,"hasHoraires":true,"url":"https://lannuaire.service-public.gouv.fr/pays-de-la-loire/mayenne/12bc990f-8717-4699-8a47-e8239a89b70e"}
{"nom":"Saint-Berthevin-la-Tannière","nomNormalise":"saintberthevinlatanniere","typeCollectivite":"Commune","region":"Pays de la Loire","departement":"Mayenne","departementCode":"53","adresse":{"street":"11 rue de la Confrérie","postalCode":"53220","city":"Saint-Berthevin-la-Tannière","country":"France"},"contacts":{"email":"mairie.st.berthevin@wanadoo.fr","telephone":"0243053354"},"horaires":"Le Mardi : de 09h00 à 12h00\nLe Mercredi : de 09h00 à 13h00\nDu Jeudi au Vendredi : de 09h00 à 12h00\nLe Samedi : de 08h45 à 09h45","latitude":48.400974,"longitude":-0.9481939,"website":"https://saintberthevinlatanniere.fr/","hasWebsite":true,"hasHoraires":true,"url":"https://lannuaire.service-public.gouv.fr/pays-de-la-loire/mayenne/d3fd5f12-5774-4d1a-b12b-38d8463f9bd8"}
{"nom":"Saint-Brice","nomNormalise":"saintbrice","typeCollectivite":"Commune","region":"Pays de la Loire","departement":"Mayenne","departementCode":"53","adresse":{"street":"11 rue de l'Église","postalCode":"53290","city":"Saint-Brice","country":"France"},"contacts":{"email":"mairie-de-st-brice@wanadoo.fr","telephone":"0243708029"},"horaires":"Le Lundi : de 09h00 à 12h00 de 14h00 à 17h00\nDu Mercredi au Vendredi : de 09h00 à 12h00","latitude":47.859,"longitude":-0.441639,"website":"https://saintbrice53.fr/","hasWebsite":true,"hasHoraires":true,"url":"https://lannuaire.service-public.gouv.fr/pays-de-la-loire/mayenne/3cba9c49-f0aa-413f-bea7-b188e1959693"}
{"nom":"Saint-Calais-du-Désert","nomNormalise":"saintcalaisdudesert","typeCollectivite":"Commune","region":"Pays de la Loire","departement":"Mayenne","departementCode":"53","adresse":{"street":"16 rue de la Mairie","postalCode":"53140","city":"Saint-Calais-du-Désert","country":"France"},"contacts":{"email":"mairie.stcalaisdudesert@wanadoo.fr","telephone":"0243038436"},"horaires":"Du Lundi au Mardi : de 13h30 à 16h30\nLe Vendredi : de 13h30 à 18h00","latitude":48.48552,"longitude":-0.259915,"website":"https://saint-calais-du-desert.fr/","hasWebsite":true,"hasHoraires":true,"url":"https://lannuaire.service-public.gouv.fr/pays-de-la-loire/mayenne/af10bc0c-f623-484b-ace6-d415750ff0f3"}
{"nom":"Saint-Charles-la-Forêt","nomNormalise":"saintcharleslaforet","typeCollectivite":"Commune","region":"Pays de la Loire","departement":"Mayenne","departementCode":"53","adresse":{"street":"1 route de Longuefuye","postalCode":"53170","city":"Saint-Charles-la-Forêt","country":"France"},"contacts":{"email":"mairie.st-charles-la-foret@orange.fr","telephone":"0243984417"},"horaires":"Le Lundi : de 09h00 à 12h30 de 14h00 à 17h00\nDu Mardi au Jeudi : de 09h00 à 12h30\nLe Vendredi : de 09h00 à 12h30 de 14h00 à 17h00","latitude":47.9166,"longitude":-0.55688,"website":"https://saintcharleslaforet.fr/","hasWebsite":true,"hasHoraires":true,"url":"https://lannuaire.service-public.gouv.fr/pays-de-la-loire/mayenne/fbe6ee54-51a7-42f4-ac95-96a117476f4b"}
{"nom":"Mairie déléguée - Saint-Christophe-du-Luat","nomNormalise":"mairiedelegueesaintchristopheduluat","typeCollectivite":"Commune","region":"Pays de la Loire","departement":"Mayenne","departementCode":"53","adresse":{"street":"Saint-Christophe-du-Luat","postalCode":"53600","city":"Évron","country":"France"},"contacts":{"email":"saintchristopheduluat@evron.fr","telephone":"0243663200"},"horaires":"Le Lundi : de 15h30 à 18h30\nDu Mardi au Mercredi : de 08h15 à 12h30\nLe Jeudi : de 14h15 à 17h30\nLe Vendredi : de 08h15 à 12h30","latitude":48.144497,"longitude":-0.416651,"website":"https://www.evron.fr/","hasWebsite":true,"hasHoraires":true,"url":"https://lannuaire.service-public.gouv.fr/pays-de-la-loire/mayenne/36c5049c-9ff8-4706-8385-589bfa622b4f"}
{"nom":"Saint-Cyr-en-Pail","nomNormalise":"saintcyrenpail","typeCollectivite":"Commune","region":"Pays de la Loire","departement":"Mayenne","departementCode":"53","adresse":{"street":"16 place de l'Église","postalCode":"53140","city":"Saint-Cyr-en-Pail","country":"France"},"contacts":{"email":"mairie.saintcyrenpail@orange.fr","telephone":"0243030272"},"horaires":"Le Mardi : de 09h30 à 12h00\nLe Jeudi : de 13h00 à 18h30","latitude":48.4411,"longitude":-0.243763,"website":"https://st-cyr-en-pail.fr/home","hasWebsite":true,"hasHoraires":true,"url":"https://lannuaire.service-public.gouv.fr/pays-de-la-loire/mayenne/732b47b9-c8a5-4c18-b822-7fa29aa64d56"}
{"nom":"Saint-Cyr-le-Gravelais","nomNormalise":"saintcyrlegravelais","typeCollectivite":"Commune","region":"Pays de la Loire","departement":"Mayenne","departementCode":"53","adresse":{"street":"3 Place de l'Église","postalCode":"53320","city":"Saint-Cyr-le-Gravelais","country":"France"},"contacts":{"email":"mairie@saintcyrlegravelais.fr","telephone":"0243021228"},"horaires":"Le Mardi : de 09h00 à 12h30 de 14h00 à 18h30\nLe Jeudi : de 09h00 à 12h30\nLe Vendredi : de 09h00 à 12h30 de 14h00 à 18h30","latitude":48.03554,"longitude":-1.0280277,"website":"","hasWebsite":false,"hasHoraires":true,"url":"https://lannuaire.service-public.gouv.fr/pays-de-la-loire/mayenne/3348ac3f-ac2b-46dd-91ea-f65d11a6f627"}
{"nom":"Saint-Denis-d'Anjou","nomNormalise":"saintdenisdanjou","typeCollectivite":"Commune","region":"Pays de la Loire","departement":"Mayenne","departementCode":"53","adresse":{"street":"6 route d'Angers","postalCode":"53290","city":"Saint-Denis-d'Anjou","country":"France"},"contacts":{"email":"communestdenisdanjou@orange.fr","telephone":"0243705219"},"horaires":"Le Lundi : de 09h00 à 12h30 de 14h00 à 17h30\nDu Mardi au Mercredi : de 09h00 à 12h30\nLe Jeudi : de 09h00 à 12h30 de 14h00 à 17h30\nDu Vendredi au Samedi : de 09h00 à 12h30","latitude":47.790565,"longitude":-0.4434588,"website":"https://www.saintdenisdanjou.com/","hasWebsite":true,"hasHoraires":true,"url":"https://lannuaire.service-public.gouv.fr/pays-de-la-loire/mayenne/f67234a8-c960-49b9-ba2a-8531fe92244e"}
{"nom":"Saint-Denis-de-Gastines","nomNormalise":"saintdenisdegastines","typeCollectivite":"Commune","region":"Pays de la Loire","departement":"Mayenne","departementCode":"53","adresse":{"street":"50 bis rue de Bretagne","postalCode":"53500","city":"Saint-Denis-de-Gastines","country":"France"},"contacts":{"email":"accueil@sddg53.fr","telephone":"0243005214"},"horaires":"Du Mardi au Jeudi : de 09h00 à 12h30 de 14h00 à 18h00\nLe Vendredi : de 08h30 à 12h30 de 13h30 à 16h30","latitude":48.34222,"longitude":-0.860028,"website":"https://www.st-denis-de-gastines.fr/","hasWebsite":true,"hasHoraires":true,"url":"https://lannuaire.service-public.gouv.fr/pays-de-la-loire/mayenne/16a2fed4-7c0a-40c2-a4a7-15b4cc933fc5"}
{"nom":"Saint-Denis-du-Maine","nomNormalise":"saintdenisdumaine","typeCollectivite":"Commune","region":"Pays de la Loire","departement":"Mayenne","departementCode":"53","adresse":{"street":"5 place de l'Église","postalCode":"53170","city":"Saint-Denis-du-Maine","country":"France"},"contacts":{"email":"stdenisdumaine@orange.fr","telephone":"0243984094"},"horaires":"Du Lundi au Mardi : de 08h45 à 12h00 de 13h00 à 17h00\nLe Jeudi : de 08h45 à 12h00 de 13h00 à 17h00","latitude":48.0017,"longitude":-0.48705,"website":"https://stdenisdumaine.fr/","hasWebsite":true,"hasHoraires":true,"url":"https://lannuaire.service-public.gouv.fr/pays-de-la-loire/mayenne/d5d679df-caf4-4a78-9ee0-f649df67ba6b"}
{"nom":"Sainte-Gemmes-le-Robert","nomNormalise":"saintegemmeslerobert","typeCollectivite":"Commune","region":"Pays de la Loire","departement":"Mayenne","departementCode":"53","adresse":{"street":"12 avenue des Sports","postalCode":"53600","city":"Sainte-Gemmes-le-Robert","country":"France"},"contacts":{"email":"contact@saintegemmeslerobert.fr","telephone":"0243906179"},"horaires":"Le Lundi : de 09h00 à 12h00 de 15h30 à 18h00\nLe Mercredi : de 10h00 à 12h00 de 15h30 à 17h30\nLe Jeudi : de 08h30 à 12h00 de 15h30 à 17h30\nLe Vendredi : de 09h00 à 12h30","latitude":48.1944,"longitude":-0.375696,"website":"http://www.saintegemmeslerobert.fr/","hasWebsite":true,"hasHoraires":true,"url":"https://lannuaire.service-public.gouv.fr/pays-de-la-loire/mayenne/b4fefa76-a96e-48fe-a5b4-34d101859430"}
{"nom":"Saint-Ellier-du-Maine","nomNormalise":"saintellierdumaine","typeCollectivite":"Commune","region":"Pays de la Loire","departement":"Mayenne","departementCode":"53","adresse":{"street":"1 place de la Mairie","postalCode":"53220","city":"Saint-Ellier-du-Maine","country":"France"},"contacts":{"email":"contact@saintellierdumaine.fr","telephone":"0243050347"},"horaires":"Le Lundi : de 08h45 à 12h45 de 14h00 à 17h00\nLe Mardi : de 08h45 à 12h45\nLe Mercredi : de 08h45 à 12h45 de 14h00 à 17h00\nLe Jeudi : de 08h45 à 12h45\nLe Vendredi : de 08h45 à 12h45 de 14h00 à 17h00","latitude":48.4006,"longitude":-1.04691,"website":"https://www.saintellierdumaine.fr/","hasWebsite":true,"hasHoraires":true,"url":"https://lannuaire.service-public.gouv.fr/pays-de-la-loire/mayenne/8119f080-29d4-4a89-92a2-c2ce86b1ce8e"}
{"nom":"Sainte-Marie-du-Bois","nomNormalise":"saintemariedubois","typeCollectivite":"Commune","region":"Pays de la Loire","departement":"Mayenne","departementCode":"53","adresse":{"street":"11 rue Jacques-François-Dujarié","postalCode":"53110","city":"Sainte-Marie-du-Bois","country":"France"},"contacts":{"email":"mairie.ste-marie-du-bois@wanadoo.fr","telephone":"0243047463"},"horaires":"Le Lundi : de 09h00 à 12h00\nLe Jeudi : de 14h00 à 17h00","latitude":48.465015,"longitude":-0.481518,"website":"","hasWebsite":false,"hasHoraires":true,"url":"https://lannuaire.service-public.gouv.fr/pays-de-la-loire/mayenne/cc36e4fe-df84-4b3c-bf1d-a7cbcc6bf88b"}
{"nom":"Saint-Erblon","nomNormalise":"sainterblon","typeCollectivite":"Commune","region":"Pays de la Loire","departement":"Mayenne","departementCode":"53","adresse":{"street":"1 rue de la Promenade","postalCode":"53390","city":"Saint-Erblon","country":"France"},"contacts":{"email":"st-erblon.commune@orange.fr","telephone":"0243064440"},"horaires":"Le Lundi : de 09h00 à 12h30 de 13h30 à 17h00\nLe Jeudi : de 09h00 à 12h30 de 13h30 à 17h00","latitude":47.787327,"longitude":-1.165909,"website":"","hasWebsite":false,"hasHoraires":true,"url":"https://lannuaire.service-public.gouv.fr/pays-de-la-loire/mayenne/df99e250-9bd6-44fc-80f6-4c0c7f23fdba"}
{"nom":"Sainte-Suzanne-et-Chammes","nomNormalise":"saintesuzanneetchammes","typeCollectivite":"Commune","region":"Pays de la Loire","departement":"Mayenne","departementCode":"53","adresse":{"street":"1 bis rue Jean-de-Bueil","postalCode":"53270","city":"Sainte-Suzanne-et-Chammes","country":"France"},"contacts":{"email":"contact@ste-suzanne.com","telephone":"0243014010"},"horaires":"Le Mardi : de 09h00 à 12h30 de 13h30 à 17h00\nLe Jeudi : de 09h00 à 12h30\nLe Vendredi : de 09h00 à 12h30 de 13h30 à 17h00","latitude":48.0974,"longitude":-0.349498,"website":"https://www.ste-suzanne.com/","hasWebsite":true,"hasHoraires":true,"url":"https://lannuaire.service-public.gouv.fr/pays-de-la-loire/mayenne/35bd4f3b-5077-4740-89a6-3e9a57f2646c"}
{"nom":"Mairie déléguée - Saint-Fort","nomNormalise":"mairiedelegueesaintfort","typeCollectivite":"Commune","region":"Pays de la Loire","departement":"Mayenne","departementCode":"53","adresse":{"street":"Saint-Fort","postalCode":"53200","city":"Château-Gontier-sur-Mayenne","country":"France"},"contacts":{"email":"saintfort@chateaugontier.fr","telephone":"0243702600"},"horaires":"Le Lundi : de 08h30 à 12h00 de 13h30 à 18h00\nLe Mercredi : de 08h30 à 12h00 de 13h30 à 18h00\nLe Vendredi : de 08h30 à 12h00 de 13h30 à 17h00","latitude":47.798378,"longitude":-0.720078,"website":"http://www.saintfort.fr/","hasWebsite":true,"hasHoraires":true,"url":"https://lannuaire.service-public.gouv.fr/pays-de-la-loire/mayenne/6f85c596-7c1a-4afc-b4b8-25e898dfaf77"}
{"nom":"Saint-Fraimbault-de-Prières","nomNormalise":"saintfraimbaultdeprieres","typeCollectivite":"Commune","region":"Pays de la Loire","departement":"Mayenne","departementCode":"53","adresse":{"street":"3 place de l'Église","postalCode":"53300","city":"Saint-Fraimbault-de-Prières","country":"France"},"contacts":{"email":"mairiestfraimbaultdeprieres@orange.fr","telephone":"0243008778"},"horaires":"Le Lundi : de 08h15 à 12h15\nLe Mardi : de 08h15 à 12h15 de 13h30 à 18h00\nLe Mercredi : de 08h30 à 12h00 de 13h30 à 18h00\nLe Jeudi : de 08h15 à 12h15 de 13h30 à 18h00\nLe Vendredi : de 08h15 à 12h15\nLe Samedi : de 08h30 à 12h00","latitude":48.3501,"longitude":-0.581279,"website":"http://www.saintfraimbaultdeprieres.com/","hasWebsite":true,"hasHoraires":true,"url":"https://lannuaire.service-public.gouv.fr/pays-de-la-loire/mayenne/928b8581-1d5c-4783-80f1-e10a2325512e"}
{"nom":"Saint-Georges-Buttavent","nomNormalise":"saintgeorgesbuttavent","typeCollectivite":"Commune","region":"Pays de la Loire","departement":"Mayenne","departementCode":"53","adresse":{"street":"12 place de l'Église","postalCode":"53100","city":"Saint-Georges-Buttavent","country":"France"},"contacts":{"email":"mairie.sgb@orange.fr","telephone":"0243003039"},"horaires":"Le Lundi : de 09h00 à 12h30 de 13h45 à 16h30\nLe Mardi : de 13h45 à 16h30\nDu Mercredi au Vendredi : de 09h00 à 12h30 de 13h45 à 16h30\nLe Samedi : de 09h00 à 12h00","latitude":48.312332,"longitude":-0.693042,"website":"https://www.saint-georges-buttavent.fr/","hasWebsite":true,"hasHoraires":true,"url":"https://lannuaire.service-public.gouv.fr/pays-de-la-loire/mayenne/c7c3c4b3-4c31-486f-9548-6772313966e9"}
{"nom":"Saint-Georges-le-Fléchard","nomNormalise":"saintgeorgesleflechard","typeCollectivite":"Commune","region":"Pays de la Loire","departement":"Mayenne","departementCode":"53","adresse":{"street":"7 rue des Marmousets","postalCode":"53480","city":"Saint-Georges-le-Fléchard","country":"France"},"contacts":{"email":"mairie.st.georges.le.flechard@wanadoo.fr","telephone":"0243905062"},"horaires":"Le Mercredi : de 09h15 à 11h45 de 13h30 à 16h00\nLe Vendredi : de 13h30 à 16h00","latitude":48.03689,"longitude":-0.510453,"website":"https://saint-georges-le-flechard.fr/","hasWebsite":true,"hasHoraires":true,"url":"https://lannuaire.service-public.gouv.fr/pays-de-la-loire/mayenne/001ef9c8-fd52-4a98-a467-41ca69ba67c8"}
{"nom":"Saint-Georges-sur-Erve","nomNormalise":"saintgeorgessurerve","typeCollectivite":"Commune","region":"Pays de la Loire","departement":"Mayenne","departementCode":"53","adresse":{"street":"1 place Saint-Georges","postalCode":"53600","city":"Saint-Georges-sur-Erve","country":"France"},"contacts":{"email":"mairie.stgeorgessurerve@orange.fr","telephone":"0243016432"},"horaires":"Le Lundi : de 08h00 à 12h00\nLe Mardi : de 13h30 à 17h00\nLe Jeudi : de 13h00 à 17h00","latitude":48.1622,"longitude":-0.313336,"website":"","hasWebsite":false,"hasHoraires":true,"url":"https://lannuaire.service-public.gouv.fr/pays-de-la-loire/mayenne/d1d9cd35-4258-4338-bba0-302b53248c1c"}
{"nom":"Saint-Germain-d'Anxure","nomNormalise":"saintgermaindanxure","typeCollectivite":"Commune","region":"Pays de la Loire","departement":"Mayenne","departementCode":"53","adresse":{"street":"9 rue de la Mairie","postalCode":"53240","city":"Saint-Germain-d'Anxure","country":"France"},"contacts":{"email":"mairie-anxure@wanadoo.fr","telephone":"0243698257"},"horaires":"Attention les horaires changent suivant les semaines se renseigner sur Intramuros, répondeur téléphonique (02.43.69.82.57) et affichage à la porte de la mairie.","latitude":48.22165,"longitude":-0.734718,"website":"https://www.intramuros.org/saintgermaindanxure","hasWebsite":true,"hasHoraires":true,"url":"https://lannuaire.service-public.gouv.fr/pays-de-la-loire/mayenne/0afca379-488b-4f0c-a7f2-0daffca277c3"}
{"nom":"Saint-Germain-de-Coulamer","nomNormalise":"saintgermaindecoulamer","typeCollectivite":"Commune","region":"Pays de la Loire","departement":"Mayenne","departementCode":"53","adresse":{"street":"16 rue de la Forge","postalCode":"53700","city":"Saint-Germain-de-Coulamer","country":"France"},"contacts":{"email":"mairie.coulamer@wanadoo.fr","telephone":"0243032750"},"horaires":"Le Mardi : de 09h00 à 12h30 de 14h15 à 17h30\nLe Mercredi : de 10h30 à 12h30\nLe Vendredi : de 09h00 à 12h30\nLe Samedi : de 09h00 à 12h00\n\nAccueil ouvert uniquement les 1er et 3e samedis du mois.","latitude":48.263676,"longitude":-0.17226,"website":"","hasWebsite":false,"hasHoraires":true,"url":"https://lannuaire.service-public.gouv.fr/pays-de-la-loire/mayenne/008c35d8-0904-4299-a07c-17d5fba0f17d"}
{"nom":"Saint-Germain-le-Fouilloux","nomNormalise":"saintgermainlefouilloux","typeCollectivite":"Commune","region":"Pays de la Loire","departement":"Mayenne","departementCode":"53","adresse":{"street":"4 rue de l'Église","postalCode":"53240","city":"Saint-Germain-le-Fouilloux","country":"France"},"contacts":{"email":"mairie.saintgermainlefouilloux@orange.fr","telephone":"0243011161"},"horaires":"Le Lundi : de 08h30 à 12h00\nLe Mardi : de 08h30 à 12h00 de 15h00 à 18h00\nDu Jeudi au Vendredi : de 08h30 à 12h00","latitude":48.136475,"longitude":-0.7896992,"website":"https://saintgermainlefouilloux.fr/","hasWebsite":true,"hasHoraires":true,"url":"https://lannuaire.service-public.gouv.fr/pays-de-la-loire/mayenne/2eb5dc2b-e6fe-45ea-bdea-4d4e063ed73f"}
{"nom":"Saint-Germain-le-Guillaume","nomNormalise":"saintgermainleguillaume","typeCollectivite":"Commune","region":"Pays de la Loire","departement":"Mayenne","departementCode":"53","adresse":{"street":"2 rue de la Bigottière","postalCode":"53240","city":"Saint-Germain-le-Guillaume","country":"France"},"contacts":{"email":"mairie.st.germain.le.guillaume@wanadoo.fr","telephone":"0243027203"},"horaires":"Du Lundi au Mardi : de 08h30 à 12h30 de 13h30 à 17h00\nLe Mercredi : de 08h30 à 12h00\nDu Jeudi au Vendredi : de 08h30 à 12h30 de 13h30 à 17h00","latitude":48.2072,"longitude":-0.824492,"website":"","hasWebsite":false,"hasHoraires":true,"url":"https://lannuaire.service-public.gouv.fr/pays-de-la-loire/mayenne/32e0de93-e52b-4200-9d6b-3b064b5b32f2"}
{"nom":"Saint-Hilaire-du-Maine","nomNormalise":"sainthilairedumaine","typeCollectivite":"Commune","region":"Pays de la Loire","departement":"Mayenne","departementCode":"53","adresse":{"street":"18 rue des Landes","postalCode":"53380","city":"Saint-Hilaire-du-Maine","country":"France"},"contacts":{"email":"mairie@sthilairedumaine.fr","telephone":"0243027265"},"horaires":"Le Lundi : de 08h30 à 12h00 de 14h00 à 17h00\nLe Mardi : de 08h30 à 12h00\nLe Jeudi : de 08h30 à 12h00\nLe Vendredi : de 08h30 à 12h00 de 14h00 à 18h00\nLe Samedi : de 09h00 à 12h00\n\nAccueil ouvert le 1er et 3e samedi du mois.","latitude":48.22632,"longitude":-0.929822,"website":"https://sthilairedumaine.fr/","hasWebsite":true,"hasHoraires":true,"url":"https://lannuaire.service-public.gouv.fr/pays-de-la-loire/mayenne/3aa83b6f-1671-47fd-a92c-a0d82220252e"}
{"nom":"Saint-Jean-sur-Mayenne","nomNormalise":"saintjeansurmayenne","typeCollectivite":"Commune","region":"Pays de la Loire","departement":"Mayenne","departementCode":"53","adresse":{"street":"36 rue Maurice-Courcelle","postalCode":"53240","city":"Saint-Jean-sur-Mayenne","country":"France"},"contacts":{"email":"mairie@stjeansurmayenne.com","telephone":"0243011115"},"horaires":"Du Lundi au Vendredi : de 09h00 à 12h00 de 14h00 à 18h00\nLe Samedi : de 09h00 à 12h00","latitude":48.1319,"longitude":-0.751468,"website":"https://stjeansurmayenne.fr/","hasWebsite":true,"hasHoraires":true,"url":"https://lannuaire.service-public.gouv.fr/pays-de-la-loire/mayenne/89f40306-0ffe-4871-9d3f-00b56cf236cc"}
{"nom":"Saint-Julien-du-Terroux","nomNormalise":"saintjulienduterroux","typeCollectivite":"Commune","region":"Pays de la Loire","departement":"Mayenne","departementCode":"53","adresse":{"street":"42 rue Réaumur","postalCode":"53110","city":"Saint-Julien-du-Terroux","country":"France"},"contacts":{"email":"mairie.st.julien.du.terroux@wanadoo.fr","telephone":"0243085615"},"horaires":"Le Lundi : de 10h00 à 12h00\nLe Jeudi : de 17h00 à 19h00","latitude":48.479267,"longitude":-0.409337,"website":"","hasWebsite":false,"hasHoraires":true,"url":"https://lannuaire.service-public.gouv.fr/pays-de-la-loire/mayenne/01a6cfde-a7dc-4c10-824e-ffeedde1b684"}
{"nom":"Mairie déléguée - Saint-Laurent-des-Mortiers","nomNormalise":"mairiedelegueesaintlaurentdesmortiers","typeCollectivite":"Commune","region":"Pays de la Loire","departement":"Mayenne","departementCode":"53","adresse":{"street":"Saint-Laurent-des-Mortiers","postalCode":"53290","city":"Bierné-les-Villages","country":"France"},"contacts":{"email":"biernelesvillages@chateaugontier.fr","telephone":"0966981500"},"horaires":"Le Vendredi : de 08h30 à 12h30","latitude":47.771725,"longitude":-0.547413,"website":"","hasWebsite":false,"hasHoraires":true,"url":"https://lannuaire.service-public.gouv.fr/pays-de-la-loire/mayenne/d44864cf-4317-42d5-9dd5-b89d27e6cce3"}
{"nom":"Saint-Léger-en-Charnie","nomNormalise":"saintlegerencharnie","typeCollectivite":"Commune","region":"Pays de la Loire","departement":"Mayenne","departementCode":"53","adresse":{"street":"4 route de Sainte Suzanne","postalCode":"53480","city":"Saint-Léger-en-Charnie","country":"France"},"contacts":{"email":"mairie-st-leger-en-charnie@wanadoo.fr","telephone":"0243905133"},"horaires":"Le Vendredi : de 09h00 à 12h30\nLe Samedi : de 09h00 à 12h30","latitude":48.0829,"longitude":-0.45423,"website":"","hasWebsite":false,"hasHoraires":true,"url":"https://lannuaire.service-public.gouv.fr/pays-de-la-loire/mayenne/37acfb35-ff3e-44c8-8453-37c0e055d350"}
{"nom":"Saint-Loup-du-Dorat","nomNormalise":"saintloupdudorat","typeCollectivite":"Commune","region":"Pays de la Loire","departement":"Mayenne","departementCode":"53","adresse":{"street":"8 rue Principale","postalCode":"53290","city":"Saint-Loup-du-Dorat","country":"France"},"contacts":{"email":"saintloupdudorat@orange.fr","telephone":"0243708378"},"horaires":"Le Mardi : de 09h00 à 12h00\nLe Vendredi : de 09h00 à 12h00 de 14h00 à 17h00","latitude":47.890007,"longitude":-0.415834,"website":"","hasWebsite":false,"hasHoraires":true,"url":"https://lannuaire.service-public.gouv.fr/pays-de-la-loire/mayenne/ae548fb7-70cd-4067-a987-28ca9a93238a"}
{"nom":"Saint-Loup-du-Gast","nomNormalise":"saintloupdugast","typeCollectivite":"Commune","region":"Pays de la Loire","departement":"Mayenne","departementCode":"53","adresse":{"street":"2 place de la Mairie","postalCode":"53300","city":"Saint-Loup-du-Gast","country":"France"},"contacts":{"email":"mairie-de-st-loup-du-gast@wanadoo.fr","telephone":"0243008061"},"horaires":"Le Mardi : de 09h00 à 12h00\nLe Jeudi : de 13h30 à 17h00\nLe Vendredi : de 09h00 à 12h00 de 13h30 à 15h00\nLe Samedi : de 09h15 à 11h45\n\n2 ème samedi de chaque mois","latitude":48.384666,"longitude":-0.586488,"website":"https://www.mairie-saint-loup-du-gast.fr/","hasWebsite":true,"hasHoraires":true,"url":"https://lannuaire.service-public.gouv.fr/pays-de-la-loire/mayenne/61df052a-c8b7-4085-8b5e-f05f41196505"}
{"nom":"Saint-Mars-du-Désert","nomNormalise":"saintmarsdudesert","typeCollectivite":"Commune","region":"Pays de la Loire","departement":"Mayenne","departementCode":"53","adresse":{"street":"5 sentier du Néflier","postalCode":"53700","city":"Saint-Mars-du-Désert","country":"France"},"contacts":{"email":"mairie.stmarsdudesert@wanadoo.fr","telephone":"0243032730"},"horaires":"Le Lundi : de 09h00 à 12h00\nLe Mardi : de 14h00 à 17h30\nLe Mercredi : de 09h00 à 12h00\nLe Jeudi : de 14h00 à 17h30","latitude":48.293762,"longitude":-0.159296,"website":"","hasWebsite":false,"hasHoraires":true,"url":"https://lannuaire.service-public.gouv.fr/pays-de-la-loire/mayenne/c6e5e777-a99a-447f-b836-24f945cc4a6c"}
{"nom":"Saint-Mars-sur-Colmont","nomNormalise":"saintmarssurcolmont","typeCollectivite":"Commune","region":"Pays de la Loire","departement":"Mayenne","departementCode":"53","adresse":{"street":"2 rue d'Oisseau","postalCode":"53300","city":"Saint-Mars-sur-Colmont","country":"France"},"contacts":{"email":"mairie.stmarssurcolmont@orange.fr","telephone":"0243001626"},"horaires":"Du Lundi au Mardi : de 14h00 à 18h00\nDu Jeudi au Vendredi : de 14h00 à 18h00","latitude":48.3736,"longitude":-0.694304,"website":"","hasWebsite":false,"hasHoraires":true,"url":"https://lannuaire.service-public.gouv.fr/pays-de-la-loire/mayenne/22b5aff6-f39d-4e2f-b71c-0320d611ff21"}
{"nom":"Saint-Mars-sur-la-Futaie","nomNormalise":"saintmarssurlafutaie","typeCollectivite":"Commune","region":"Pays de la Loire","departement":"Mayenne","departementCode":"53","adresse":{"street":"20 rue de Bretagne","postalCode":"53220","city":"Saint-Mars-sur-la-Futaie","country":"France"},"contacts":{"email":"mairie@stmarssurlafutaie.fr","telephone":"0243050059"},"horaires":"Du Lundi au Vendredi : de 09h00 à 12h30","latitude":48.432095,"longitude":-1.0158353,"website":"","hasWebsite":false,"hasHoraires":true,"url":"https://lannuaire.service-public.gouv.fr/pays-de-la-loire/mayenne/806aca88-984e-448b-b327-ad620695c973"}
{"nom":"Mairie déléguée - Saint-Martin-de-Connée","nomNormalise":"mairiedelegueesaintmartindeconnee","typeCollectivite":"Commune","region":"Pays de la Loire","departement":"Mayenne","departementCode":"53","adresse":{"street":"Saint-Martin-de-Connée","postalCode":"53160","city":"Vimartin-sur-Orthe","country":"France"},"contacts":{"email":"mairie@vimartin.fr","telephone":"0243374258"},"horaires":"Le Lundi : de 08h00 à 12h00\nLe Mercredi : de 08h00 à 12h00\nLe Jeudi : de 13h30 à 17h00","latitude":48.21399,"longitude":-0.217685,"website":"https://vimartin-sur-orthe.fr/","hasWebsite":true,"hasHoraires":true,"url":"https://lannuaire.service-public.gouv.fr/pays-de-la-loire/mayenne/4693a239-0cac-47c9-a2ef-c79d50355781"}
{"nom":"Saint-Martin-du-Limet","nomNormalise":"saintmartindulimet","typeCollectivite":"Commune","region":"Pays de la Loire","departement":"Mayenne","departementCode":"53","adresse":{"street":"4 route de Nantes","postalCode":"53800","city":"Saint-Martin-du-Limet","country":"France"},"contacts":{"email":"mairie@stmartindulimet.fr","telephone":"0243064302"},"horaires":"Le Lundi : de 08h30 à 12h30 de 13h00 à 17h00\nLe Mardi : de 13h00 à 17h00\nDu Mercredi au Vendredi : de 08h30 à 12h30","latitude":47.814816,"longitude":-1.021635,"website":"https://www.intramuros.org/saint-martin-du-limet","hasWebsite":true,"hasHoraires":true,"url":"https://lannuaire.service-public.gouv.fr/pays-de-la-loire/mayenne/501e9f72-b5cb-4f27-b08f-c7ac0a545c8c"}
{"nom":"Mairie déléguée - Saint-Michel-de-Feins","nomNormalise":"mairiedelegueesaintmicheldefeins","typeCollectivite":"Commune","region":"Pays de la Loire","departement":"Mayenne","departementCode":"53","adresse":{"street":"Grand'rue","postalCode":"53290","city":"Bierné-les-Villages","country":"France"},"contacts":{"email":"st_michel_de_feins@chateaugontier.fr","telephone":"0243705518"},"horaires":"Le Lundi : de 08h00 à 12h30\nLe Mercredi : de 08h00 à 12h30\nLe Vendredi : de 08h00 à 12h30","latitude":47.77654,"longitude":-0.568996,"website":"","hasWebsite":false,"hasHoraires":true,"url":"https://lannuaire.service-public.gouv.fr/pays-de-la-loire/mayenne/2c2ec998-4714-42ca-a29a-39817701edd9"}
{"nom":"Saint-Michel-de-la-Roë","nomNormalise":"saintmicheldelaroe","typeCollectivite":"Commune","region":"Pays de la Loire","departement":"Mayenne","departementCode":"53","adresse":{"street":"4 rue Notre-Dame-de-la-Salette","postalCode":"53350","city":"Saint-Michel-de-la-Roë","country":"France"},"contacts":{"email":"mairie.stmicheldelaroe@wanadoo.fr","telephone":"0243065023"},"horaires":"Le Mardi : de 09h00 à 12h00\nLe Jeudi : de 09h00 à 12h00 de 14h00 à 17h00","latitude":47.8792,"longitude":-1.12807,"website":"https://saintmicheldelaroe.fr/","hasWebsite":true,"hasHoraires":true,"url":"https://lannuaire.service-public.gouv.fr/pays-de-la-loire/mayenne/0fe14723-fa00-47a5-a0cb-9ad4bfa94065"}
{"nom":"Saint-Ouën-des-Toits","nomNormalise":"saintouendestoits","typeCollectivite":"Commune","region":"Pays de la Loire","departement":"Mayenne","departementCode":"53","adresse":{"street":"7 place de l'Église","postalCode":"53410","city":"Saint-Ouën-des-Toits","country":"France"},"contacts":{"email":"mairie@saintouendestoits.fr","telephone":"0243377331"},"horaires":"Du Lundi au Mardi : de 09h00 à 12h00\nLe Mercredi : de 09h00 à 12h00 de 13h30 à 17h30\nLe Jeudi : de 09h00 à 12h00\nLe Vendredi : de 09h00 à 12h00 de 13h30 à 17h30","latitude":48.1373,"longitude":-0.907838,"website":"http://www.saintouendestoits.fr/","hasWebsite":true,"hasHoraires":true,"url":"https://lannuaire.service-public.gouv.fr/pays-de-la-loire/mayenne/a599fff8-efb8-4d56-bde2-99dabfc122f3"}
{"nom":"Saint-Pierre-des-Landes","nomNormalise":"saintpierredeslandes","typeCollectivite":"Commune","region":"Pays de la Loire","departement":"Mayenne","departementCode":"53","adresse":{"street":"31 rue d'Ernée","postalCode":"53500","city":"Saint-Pierre-des-Landes","country":"France"},"contacts":{"email":"mairie@saintpierredeslandes.fr","telephone":"0252210913"},"horaires":"Le Mardi : de 09h00 à 12h00\nLe Mercredi : de 09h00 à 12h00 de 13h30 à 17h00\nLe Jeudi : de 09h00 à 12h00\nLe Vendredi : de 09h00 à 12h00 de 13h30 à 17h00\nLe Samedi : de 09h00 à 12h00\n\nPermanence avec un adjoint le samedi sur rendez-vous de 10h à 12h et les mardis et jeudis de 15h à 19h.","latitude":48.27471,"longitude":-1.0261658,"website":"https://www.saintpierredeslandes.fr/","hasWebsite":true,"hasHoraires":true,"url":"https://lannuaire.service-public.gouv.fr/pays-de-la-loire/mayenne/6898d2ce-7c1b-40b0-a9fc-aff1bed1ff80"}
{"nom":"Saint-Pierre-des-Nids","nomNormalise":"saintpierredesnids","typeCollectivite":"Commune","region":"Pays de la Loire","departement":"Mayenne","departementCode":"53","adresse":{"street":"21 rue du Docteur-Poirier","postalCode":"53370","city":"Saint-Pierre-des-Nids","country":"France"},"contacts":{"email":"commune@stpierredesnids53.com","telephone":"0243035013"},"horaires":"Du Lundi au Mercredi : de 09h00 à 12h00 de 15h00 à 17h00\nLe Jeudi : de 15h00 à 18h00\nLe Vendredi : de 09h00 à 12h00 de 15h00 à 17h00\nLe Samedi : de 09h00 à 12h00","latitude":48.3983,"longitude":-0.101405,"website":"https://www.stpierredesnids53.com/","hasWebsite":true,"hasHoraires":true,"url":"https://lannuaire.service-public.gouv.fr/pays-de-la-loire/mayenne/fd577222-ea8a-4af0-aa39-ed0634ed1484"}
{"nom":"Saint-Pierre-la-Cour","nomNormalise":"saintpierrelacour","typeCollectivite":"Commune","region":"Pays de la Loire","departement":"Mayenne","departementCode":"53","adresse":{"street":"22 rue des Provinces","postalCode":"53410","city":"Saint-Pierre-la-Cour","country":"France"},"contacts":{"email":"mairie@saintpierrelacour.fr","telephone":"0243018012"},"horaires":"Du Lundi au Mercredi : de 09h00 à 12h00 de 14h00 à 17h30\nLe Vendredi : de 09h00 à 12h00 de 14h00 à 17h30\nLe Samedi : de 09h00 à 12h00","latitude":48.114353,"longitude":-1.026034,"website":"https://www.saintpierrelacour.fr/","hasWebsite":true,"hasHoraires":true,"url":"https://lannuaire.service-public.gouv.fr/pays-de-la-loire/mayenne/d52e21f1-b734-4ab8-9802-d20adf8c7845"}
{"nom":"Saint-Pierre-sur-Erve","nomNormalise":"saintpierresurerve","typeCollectivite":"Commune","region":"Pays de la Loire","departement":"Mayenne","departementCode":"53","adresse":{"street":"8 rue des Tisserands","postalCode":"53270","city":"Saint-Pierre-sur-Erve","country":"France"},"contacts":{"email":"mairie@saint-pierre-sur-erve.fr","telephone":"0243902573"},"horaires":"Le Mardi : de 13h30 à 17h30\nLe Vendredi : de 09h00 à 12h00","latitude":48.0083,"longitude":-0.395752,"website":"https://saint-pierre-sur-erve.fr/","hasWebsite":true,"hasHoraires":true,"url":"https://lannuaire.service-public.gouv.fr/pays-de-la-loire/mayenne/09f8a956-caf6-4172-a387-654ee6a8874c"}
{"nom":"Saint-Poix","nomNormalise":"saintpoix","typeCollectivite":"Commune","region":"Pays de la Loire","departement":"Mayenne","departementCode":"53","adresse":{"street":"17 rue de Bretagne","postalCode":"53540","city":"Saint-Poix","country":"France"},"contacts":{"email":"mairie-st.poix@wanadoo.fr","telephone":"0243988207"},"horaires":"Le Lundi : de 09h00 à 12h00\nLe Jeudi : de 09h00 à 12h00\nLe Vendredi : de 09h00 à 12h00","latitude":47.9665,"longitude":-1.05815,"website":"https://saintpoix.fr/","hasWebsite":true,"hasHoraires":true,"url":"https://lannuaire.service-public.gouv.fr/pays-de-la-loire/mayenne/7272963f-08b4-49e3-9d18-39fbbc932f34"}
{"nom":"Saint-Quentin-les-Anges","nomNormalise":"saintquentinlesanges","typeCollectivite":"Commune","region":"Pays de la Loire","departement":"Mayenne","departementCode":"53","adresse":{"street":"7 rue de Mortiercrolles","postalCode":"53400","city":"Saint-Quentin-les-Anges","country":"France"},"contacts":{"email":"mairie@stquentinlesanges.fr","telephone":"0243061953"},"horaires":"Du Lundi au Mardi : de 08h30 à 12h00\nLe Jeudi : de 08h30 à 12h00 de 16h00 à 18h00","latitude":47.773,"longitude":-0.886719,"website":"https://stquentinlesanges.fr/","hasWebsite":true,"hasHoraires":true,"url":"https://lannuaire.service-public.gouv.fr/pays-de-la-loire/mayenne/a76eddcb-d930-4f28-9c87-0adec28c8554"}
{"nom":"Saint-Saturnin-du-Limet","nomNormalise":"saintsaturnindulimet","typeCollectivite":"Commune","region":"Pays de la Loire","departement":"Mayenne","departementCode":"53","adresse":{"street":"7 rue Principale","postalCode":"53800","city":"Saint-Saturnin-du-Limet","country":"France"},"contacts":{"email":"saint-saturnin-du-limet@wanadoo.fr","telephone":"0243064353"},"horaires":"Le Lundi : de 09h00 à 12h00 de 13h30 à 17h30\nDu Mercredi au Jeudi : de 09h00 à 12h00\nLe Vendredi : de 09h00 à 12h00 de 13h30 à 17h30","latitude":47.812004,"longitude":-1.067958,"website":"https://saintsaturnindulimet.fr/","hasWebsite":true,"hasHoraires":true,"url":"https://lannuaire.service-public.gouv.fr/pays-de-la-loire/mayenne/73ead775-5ae4-4154-b3cb-5a3d7b39f1dc"}
{"nom":"Saint-Thomas-de-Courceriers","nomNormalise":"saintthomasdecourceriers","typeCollectivite":"Commune","region":"Pays de la Loire","departement":"Mayenne","departementCode":"53","adresse":{"street":"2 rue de la Mairie","postalCode":"53160","city":"Saint-Thomas-de-Courceriers","country":"France"},"contacts":{"email":"mairie.stthomas@wanadoo.fr","telephone":"0243379305"},"horaires":"Le Lundi : de 14h15 à 17h15\nLe Vendredi : de 14h15 à 17h15\nLe Samedi : de 10h00 à 12h00\n\nAccueil ouvert uniquement le 4e samedi du mois.","latitude":48.3085,"longitude":-0.249761,"website":"","hasWebsite":false,"hasHoraires":true,"url":"https://lannuaire.service-public.gouv.fr/pays-de-la-loire/mayenne/e2db7e85-a4cc-46f5-9cb2-e20eec6ad164"}
{"nom":"Saulges","nomNormalise":"saulges","typeCollectivite":"Commune","region":"Pays de la Loire","departement":"Mayenne","departementCode":"53","adresse":{"street":"4 place Jacques-Favrot","postalCode":"53340","city":"Saulges","country":"France"},"contacts":{"email":"mairie.saulges@wanadoo.fr","telephone":"0243905235"},"horaires":"Le Lundi : de 09h00 à 12h30 de 13h30 à 17h00\nLe Mardi : de 09h00 à 12h30 de 13h30 à 18h00\nDu Jeudi au Vendredi : de 09h00 à 12h30\nLe Samedi : de 09h00 à 12h00","latitude":47.9825,"longitude":-0.406752,"website":"https://mairie-saulges53.fr/","hasWebsite":true,"hasHoraires":true,"url":"https://lannuaire.service-public.gouv.fr/pays-de-la-loire/mayenne/56665b8b-7602-4589-9f80-53e2d723e855"}
{"nom":"Senonnes","nomNormalise":"senonnes","typeCollectivite":"Commune","region":"Pays de la Loire","departement":"Mayenne","departementCode":"53","adresse":{"street":"1 rue de la Poste","postalCode":"53390","city":"Senonnes","country":"France"},"contacts":{"email":"mairie.senonnes@wanadoo.fr","telephone":"0243064415"},"horaires":"Le Lundi : de 14h00 à 16h00\nLe Mardi : de 10h00 à 12h00\nLe Jeudi : de 10h00 à 12h00\nLe Vendredi : de 14h30 à 18h30","latitude":47.79823,"longitude":-1.203223,"website":"","hasWebsite":false,"hasHoraires":true,"url":"https://lannuaire.service-public.gouv.fr/pays-de-la-loire/mayenne/5b56dc8d-4c54-463d-9794-7d59d5d6179d"}
{"nom":"Simplé","nomNormalise":"simple","typeCollectivite":"Commune","region":"Pays de la Loire","departement":"Mayenne","departementCode":"53","adresse":{"street":"4 place de la Mairie","postalCode":"53360","city":"Simplé","country":"France"},"contacts":{"email":"mairie.simple@orange.fr","telephone":"0243988157"},"horaires":"Le Lundi : de 09h00 à 12h00\nLe Mercredi : de 09h00 à 12h00\nLe Jeudi : de 14h30 à 17h30\nLe Samedi : de 09h00 à 12h00\n\nAccueil ouvert uniquement le 1er samedi du mois sur rendez-vous.","latitude":47.887768,"longitude":-0.8509545,"website":"https://simple53.fr/","hasWebsite":true,"hasHoraires":true,"url":"https://lannuaire.service-public.gouv.fr/pays-de-la-loire/mayenne/9fcc9321-ab87-4a25-afd5-c5e21b9258b4"}
{"nom":"Soucé","nomNormalise":"souce","typeCollectivite":"Commune","region":"Pays de la Loire","departement":"Mayenne","departementCode":"53","adresse":{"street":"8 rue de Bretagne","postalCode":"53300","city":"Soucé","country":"France"},"contacts":{"email":"mairie-souce@wanadoo.fr","telephone":"0243089047"},"horaires":"Le Mardi : de 14h00 à 17h00\nLe Vendredi : de 14h00 à 17h00","latitude":48.473972,"longitude":-0.664036,"website":"","hasWebsite":false,"hasHoraires":true,"url":"https://lannuaire.service-public.gouv.fr/pays-de-la-loire/mayenne/ddd99cbb-fcf9-4839-b77f-2caed6210ee6"}
{"nom":"Soulgé-sur-Ouette","nomNormalise":"soulgesurouette","typeCollectivite":"Commune","region":"Pays de la Loire","departement":"Mayenne","departementCode":"53","adresse":{"street":"16 rue d'Évron","postalCode":"53210","city":"Soulgé-sur-Ouette","country":"France"},"contacts":{"email":"mairie@soulgesurouette.fr","telephone":"0243023031"},"horaires":"Le Lundi : de 08h30 à 12h30 de 14h00 à 18h00\nLe Mardi : de 14h00 à 17h00\nLe Mercredi : de 08h30 à 12h00 de 14h00 à 18h00\nLe Jeudi : de 14h00 à 18h00\nLe Vendredi : de 08h30 à 12h30 de 14h00 à 16h00","latitude":48.064663,"longitude":-0.5650751,"website":"http://www.soulgesurouette.fr/","hasWebsite":true,"hasHoraires":true,"url":"https://lannuaire.service-public.gouv.fr/pays-de-la-loire/mayenne/3bbda827-062a-494e-b33a-a3dbc63fa395"}
{"nom":"Thorigné-en-Charnie","nomNormalise":"thorigneencharnie","typeCollectivite":"Commune","region":"Pays de la Loire","departement":"Mayenne","departementCode":"53","adresse":{"street":"1 rue de la Charnie","postalCode":"53270","city":"Thorigné-en-Charnie","country":"France"},"contacts":{"email":"commune.thorigne-en-charnie@wanadoo.fr","telephone":"0243902642"},"horaires":"Le Lundi : de 09h30 à 12h00 de 13h30 à 17h00\nLe Jeudi : de 09h30 à 12h00 de 13h30 à 17h30","latitude":47.99992,"longitude":-0.35922,"website":"https://mairiethorigne53.fr/","hasWebsite":true,"hasHoraires":true,"url":"https://lannuaire.service-public.gouv.fr/pays-de-la-loire/mayenne/3f6837eb-899a-4455-9358-4b1dac80971f"}
{"nom":"Thubœuf","nomNormalise":"thubuf","typeCollectivite":"Commune","region":"Pays de la Loire","departement":"Mayenne","departementCode":"53","adresse":{"street":"8 rue des Sept-Forges","postalCode":"53110","city":"Thubœuf","country":"France"},"contacts":{"email":"communethuboeuf@wanadoo.fr","telephone":"0243085816"},"horaires":"Le Mardi : de 09h00 à 12h00\nLe Vendredi : de 09h00 à 12h00","latitude":48.50275,"longitude":-0.453809,"website":"","hasWebsite":false,"hasHoraires":true,"url":"https://lannuaire.service-public.gouv.fr/pays-de-la-loire/mayenne/7d430643-6abd-4a77-b95c-bf6b94ad875e"}
{"nom":"Torcé-Viviers-en-Charnie","nomNormalise":"torceviviersencharnie","typeCollectivite":"Commune","region":"Pays de la Loire","departement":"Mayenne","departementCode":"53","adresse":{"street":"6 rue de la Mairie","postalCode":"53270","city":"Torcé-Viviers-en-Charnie","country":"France"},"contacts":{"email":"mairie.torceviviersencharnie@wanadoo.fr","telephone":"0243904515"},"horaires":"Le Lundi : de 08h30 à 12h15\nLe Mardi : de 08h30 à 12h15 de 13h15 à 16h45\nLe Jeudi : de 08h30 à 12h15\nLe Vendredi : de 08h30 à 12h15 de 13h15 à 16h45","latitude":48.0983,"longitude":-0.261625,"website":"https://www.coevrons.fr/","hasWebsite":true,"hasHoraires":true,"url":"https://lannuaire.service-public.gouv.fr/pays-de-la-loire/mayenne/4aec9881-793e-4ef0-91cd-c8fdfd48676b"}
{"nom":"Trans","nomNormalise":"trans","typeCollectivite":"Commune","region":"Pays de la Loire","departement":"Mayenne","departementCode":"53","adresse":{"street":"8 rue des Loisirs","postalCode":"53160","city":"Trans","country":"France"},"contacts":{"email":"mairietrans@wanadoo.fr","telephone":"0243379334"},"horaires":"Le Lundi : de 09h30 à 12h30\nLe Jeudi : de 09h30 à 12h30\nLe Samedi : de 10h00 à 12h00\n\nAccueil ouvert uniquement le 2e samedi du mois.","latitude":48.274384,"longitude":-0.307946,"website":"","hasWebsite":false,"hasHoraires":true,"url":"https://lannuaire.service-public.gouv.fr/pays-de-la-loire/mayenne/99123b31-7304-4e3e-af43-0109e9d5dc08"}
{"nom":"Vaiges","nomNormalise":"vaiges","typeCollectivite":"Commune","region":"Pays de la Loire","departement":"Mayenne","departementCode":"53","adresse":{"street":"1 route de la Bazouge","postalCode":"53480","city":"Vaiges","country":"France"},"contacts":{"email":"mairie.vaiges@wanadoo.fr","telephone":"0243905006"},"horaires":"Du Lundi au Mardi : de 09h00 à 12h00 de 14h00 à 17h00\nLe Mercredi : de 09h00 à 12h00\nLe Jeudi : de 09h00 à 12h00 de 14h00 à 17h00\nLe Vendredi : de 09h00 à 12h00","latitude":48.04158,"longitude":-0.480618,"website":"https://www.mairiedevaiges.fr/","hasWebsite":true,"hasHoraires":true,"url":"https://lannuaire.service-public.gouv.fr/pays-de-la-loire/mayenne/0d9ca4ba-0734-4199-962d-448dad6cb815"}
{"nom":"Val-du-Maine","nomNormalise":"valdumaine","typeCollectivite":"Commune","region":"Pays de la Loire","departement":"Mayenne","departementCode":"53","adresse":{"street":"27 rue du Maréchal-Leclerc","postalCode":"53340","city":"Val-du-Maine","country":"France"},"contacts":{"email":"mairie@valdumaine.fr","telephone":"0243984234"},"horaires":"Le Lundi : de 09h00 à 12h30 de 14h00 à 17h00\nLe Mardi : de 09h00 à 12h30 de 14h00 à 18h30\nLe Mercredi : de 09h00 à 12h30 de 14h00 à 17h00\nLe Jeudi : de 09h00 à 12h30\nLe Vendredi : de 09h00 à 12h30\nLe Samedi : de 10h00 à 12h00","latitude":47.93288,"longitude":-0.4168863,"website":"https://www.mairiedevaldumaine.fr/","hasWebsite":true,"hasHoraires":true,"url":"https://lannuaire.service-public.gouv.fr/pays-de-la-loire/mayenne/0a89b786-53df-41d6-88a7-077bd1f7e8a9"}
{"nom":"Vautorte","nomNormalise":"vautorte","typeCollectivite":"Commune","region":"Pays de la Loire","departement":"Mayenne","departementCode":"53","adresse":{"street":"1 place de la Mairie","postalCode":"53500","city":"Vautorte","country":"France"},"contacts":{"email":"mairie@vautorte.fr","telephone":"0243005751"},"horaires":"Du Lundi au Mardi : de 09h00 à 12h00 de 13h30 à 16h30\nLe Jeudi : de 09h00 à 12h00 de 13h30 à 16h30\nDu Vendredi au Samedi : de 09h00 à 12h00\n\nAccueil ouvert les 1er et 3e samedi du mois.","latitude":48.30024,"longitude":-0.831931,"website":"https://www.vautorte.fr/","hasWebsite":true,"hasHoraires":true,"url":"https://lannuaire.service-public.gouv.fr/pays-de-la-loire/mayenne/883a9c0e-01e7-4ac1-8b72-8fcdcb33ca8a"}
{"nom":"Vieuvy","nomNormalise":"vieuvy","typeCollectivite":"Commune","region":"Pays de la Loire","departement":"Mayenne","departementCode":"53","adresse":{"street":"1 la Cour-d'École","postalCode":"53120","city":"Vieuvy","country":"France"},"contacts":{"email":"mairie.vieuvy@wanadoo.fr","telephone":"0243006052"},"horaires":"Le Lundi : de 14h00 à 18h00\nLe Jeudi : de 09h00 à 12h30 de 14h00 à 18h00","latitude":48.443535,"longitude":-0.863714,"website":"","hasWebsite":false,"hasHoraires":true,"url":"https://lannuaire.service-public.gouv.fr/pays-de-la-loire/mayenne/c81b2d3b-1ea3-4803-9a41-35f1e933824a"}
{"nom":"Villaines-la-Juhel","nomNormalise":"villaineslajuhel","typeCollectivite":"Commune","region":"Pays de la Loire","departement":"Mayenne","departementCode":"53","adresse":{"street":"10 rue Gervaiseau","postalCode":"53700","city":"Villaines-la-Juhel","country":"France"},"contacts":{"email":"mairie@mairie-villaines-la-juhel.fr","telephone":"0243304550"},"horaires":"Du Lundi au Vendredi : de 09h00 à 12h00 de 14h00 à 17h00\nLe Samedi : de 09h00 à 12h00","latitude":48.346,"longitude":-0.2783769,"website":"http://www.villaines-la-juhel.fr/","hasWebsite":true,"hasHoraires":true,"url":"https://lannuaire.service-public.gouv.fr/pays-de-la-loire/mayenne/add73993-7c6d-4685-9506-d2b249a2ce6b"}
{"nom":"Villepail","nomNormalise":"villepail","typeCollectivite":"Commune","region":"Pays de la Loire","departement":"Mayenne","departementCode":"53","adresse":{"street":"1 rue de l'Église","postalCode":"53250","city":"Villepail","country":"France"},"contacts":{"email":"mairie-villepail@orange.fr","telephone":"0243032607"},"horaires":"Le Lundi : de 13h30 à 17h30\nLe Mercredi : de 14h30 à 17h30\nLe Vendredi : de 08h30 à 13h00","latitude":48.397945,"longitude":-0.2637904,"website":"","hasWebsite":false,"hasHoraires":true,"url":"https://lannuaire.service-public.gouv.fr/pays-de-la-loire/mayenne/7873e819-8f6f-4b0a-801f-96fa429ee1c2"}
{"nom":"Villiers-Charlemagne","nomNormalise":"villierscharlemagne","typeCollectivite":"Commune","region":"Pays de la Loire","departement":"Mayenne","departementCode":"53","adresse":{"street":"7 rue Saint-Martin","postalCode":"53170","city":"Villiers-Charlemagne","country":"France"},"contacts":{"email":"secretaire@villiers-charlemagne.fr","telephone":"0243077016"},"horaires":"Du Lundi au Mardi : de 09h00 à 12h15\nLe Mercredi : de 09h00 à 12h15 de 14h00 à 17h00\nDu Jeudi au Vendredi : de 09h00 à 12h15","latitude":47.92183,"longitude":-0.676979,"website":"http://www.villiers-charlemagne.com/","hasWebsite":true,"hasHoraires":true,"url":"https://lannuaire.service-public.gouv.fr/pays-de-la-loire/mayenne/d5d30d81-9f8f-4ca4-898f-758c7bfd878c"}
{"nom":"Mairie déléguée - Vimarcé","nomNormalise":"mairiedelegueevimarce","typeCollectivite":"Commune","region":"Pays de la Loire","departement":"Mayenne","departementCode":"53","adresse":{"street":"2 rue Henri-de-Gastines","postalCode":"53160","city":"Vimarcé","country":"France"},"contacts":{"email":"mairie@vimartin.fr","telephone":"0243374265"},"horaires":"Le Mardi : de 08h30 à 12h00\nLe Vendredi : de 13h30 à 17h00\n\nsur rendez-vous uniquement","latitude":48.194874,"longitude":-0.217882,"website":"https://vimartin-sur-orthe.fr/","hasWebsite":true,"hasHoraires":true,"url":"https://lannuaire.service-public.gouv.fr/pays-de-la-loire/mayenne/2666c6ee-df20-495f-ba6b-ae0636c78ef3"}
{"nom":"Vimartin-sur-Orthe","nomNormalise":"vimartinsurorthe","typeCollectivite":"Commune","region":"Pays de la Loire","departement":"Mayenne","departementCode":"53","adresse":{"street":"Saint-Pierre-sur-Orthe","postalCode":"53160","city":"Vimartin-sur-Orthe","country":"France"},"contacts":{"email":"mairie@vimartin.fr","telephone":"0243374205"},"horaires":"Du Lundi au Mardi : de 08h00 à 12h00 de 13h30 à 17h00\nDu Mercredi au Vendredi : de 08h00 à 12h00\n\nSur rendez-vous le vendredi après-midi","latitude":48.211075,"longitude":-0.206032,"website":"https://vimartin-sur-orthe.fr/","hasWebsite":true,"hasHoraires":true,"url":"https://lannuaire.service-public.gouv.fr/pays-de-la-loire/mayenne/eeb8300b-7962-409f-a5a9-22dac241627d"}
{"nom":"Voutré","nomNormalise":"voutre","typeCollectivite":"Commune","region":"Pays de la Loire","departement":"Mayenne","departementCode":"53","adresse":{"street":"Espace Paul-Hainry","postalCode":"53600","city":"Voutré","country":"France"},"contacts":{"email":"mairie.voutre@wanadoo.fr","telephone":"0243016711"},"horaires":"Le Lundi : de 08h30 à 12h15\nLe Mardi : de 08h30 à 12h15 de 13h30 à 17h45\nLe Jeudi : de 08h30 à 12h15\nLe Vendredi : de 08h30 à 12h15 de 13h30 à 16h15","latitude":48.137363,"longitude":-0.291214,"website":"","hasWebsite":false,"hasHoraires":true,"url":"https://lannuaire.service-public.gouv.fr/pays-de-la-loire/mayenne/374bc993-2b50-44f4-81c1-87d873f07eb7"}
