{"nom":"Allaire","nomNormalise":"allaire","typeCollectivite":"Commune","region":"Bretagne","departement":"Morbihan","departementCode":"56","adresse":{"street":"Place de la Mairie","postalCode":"56350","city":"Allaire","country":"France"},"contacts":{"email":"mairie@allaire.info","telephone":"0299719109"},"horaires":"Du Lundi au Mercredi : de 08h00 à 12h00 de 13h30 à 17h30\nLe Jeudi : de 08h00 à 12h00\nLe Vendredi : de 08h00 à 12h00 de 13h30 à 17h30\nLe Samedi : de 09h00 à 12h00","latitude":47.6372,"longitude":-2.16206,"website":"http://www.allaire.fr/","hasWebsite":true,"hasHoraires":true,"url":"https://lannuaire.service-public.gouv.fr/bretagne/morbihan/eae40655-e0ed-4aa2-a27c-1b70091f3600"}
{"nom":"Ambon","nomNormalise":"ambon","typeCollectivite":"Commune","region":"Bretagne","departement":"Morbihan","departementCode":"56","adresse":{"street":"1 rue Pré-Demoiselle","postalCode":"56190","city":"Ambon","country":"France"},"contacts":{"email":"mairie@ambon.fr","telephone":"0297411206"},"horaires":"Du Lundi au Mardi : de 09h00 à 12h00 de 13h30 à 17h30\nDu Jeudi au Vendredi : de 09h00 à 12h00 de 13h30 à 17h30","latitude":47.554993,"longitude":-2.559785,"website":"http://www.ambon.fr/","hasWebsite":true,"hasHoraires":true,"url":"https://lannuaire.service-public.gouv.fr/bretagne/morbihan/e0c17a64-f3e6-4df6-97bd-b0c07a463092"}
{"nom":"Arradon","nomNormalise":"arradon","typeCollectivite":"Commune","region":"Bretagne","departement":"Morbihan","departementCode":"56","adresse":{"street":"2 place de l'Église","postalCode":"56610","city":"Arradon","country":"France"},"contacts":{"email":"mairie@arradon.fr","telephone":"0297440156"},"horaires":"Du Lundi au Vendredi : de 09h00 à 12h30 de 13h30 à 17h00\n\nPendant la crise sanitaire le service urbanisme est ouvert uniquement sur rendez-vous.\nLe Samedi : de 09h00 à 12h00\n\nAccueil ouvert uniquement pour l'état civil.","latitude":47.626972,"longitude":-2.822921,"website":"https://www.arradon.com/","hasWebsite":true,"hasHoraires":true,"url":"https://lannuaire.service-public.gouv.fr/bretagne/morbihan/0f9b77ae-2514-44f0-b303-325417bd0ae5"}
{"nom":"Arzal","nomNormalise":"arzal","typeCollectivite":"Commune","region":"Bretagne","departement":"Morbihan","departementCode":"56","adresse":{"street":"17 place de l'Église","postalCode":"56190","city":"Arzal","country":"France"},"contacts":{"email":"accueil@arzal.bzh","telephone":"0297450492"},"horaires":"Le Lundi : de 08h30 à 12h00\nLe Mardi : de 08h30 à 12h15 de 13h30 à 17h00\nLe Mercredi : de 08h30 à 12h00\nDu Jeudi au Vendredi : de 08h30 à 12h15 de 13h30 à 17h00\nLe Samedi : de 08h30 à 12h15","latitude":47.5163,"longitude":-2.37644,"website":"https://www.arzal.bzh/","hasWebsite":true,"hasHoraires":true,"url":"https://lannuaire.service-public.gouv.fr/bretagne/morbihan/71f78abe-e536-4d24-ad38-ede073abb6ea"}
{"nom":"Arzon","nomNormalise":"arzon","typeCollectivite":"Commune","region":"Bretagne","departement":"Morbihan","departementCode":"56","adresse":{"street":"19 rue de la Poste","postalCode":"56640","city":"Arzon","country":"France"},"contacts":{"email":"mairie@arzon.fr","telephone":"0297534460"},"horaires":"Du Lundi au Vendredi : de 09h00 à 12h30 de 14h00 à 17h00","latitude":47.547935,"longitude":-2.891529,"website":"http://www.arzon.fr/","hasWebsite":true,"hasHoraires":true,"url":"https://lannuaire.service-public.gouv.fr/bretagne/morbihan/eca07833-2ef4-452d-a03d-562038d3859a"}
{"nom":"Augan","nomNormalise":"augan","typeCollectivite":"Commune","region":"Bretagne","departement":"Morbihan","departementCode":"56","adresse":{"street":"Place Saint-Marc","postalCode":"56800","city":"Augan","country":"France"},"contacts":{"email":"mairie@augan.fr","telephone":"0297934506"},"horaires":"Le Lundi : de 09h00 à 12h30 de 13h30 à 17h30\nLe Mercredi : de 09h00 à 12h30 de 13h30 à 17h30\nLe Vendredi : de 09h00 à 12h30 de 13h30 à 17h30\nMardis et jeudis : accueil uniquement sur RDV / standard téléphonique ouvert les matins","latitude":47.9198,"longitude":-2.27824,"website":"https://augan.bzh/","hasWebsite":true,"hasHoraires":true,"url":"https://lannuaire.service-public.gouv.fr/bretagne/morbihan/2e2558c0-3809-4f1b-aab1-f71289dc2ad2"}
{"nom":"Auray","nomNormalise":"auray","typeCollectivite":"Commune","region":"Bretagne","departement":"Morbihan","departementCode":"56","adresse":{"street":"Hôtel de Ville","postalCode":"56400","city":"Auray","country":"France"},"contacts":{"email":"courrier.mairie@ville-auray.fr","telephone":"0297240123"},"horaires":"Du Lundi au Vendredi : de 08h30 à 12h30 de 13h30 à 17h30\nLe Samedi : de 09h30 à 11h30\n\nAccueil ouvert uniquement pour les renseignements généraux et permanence de l'état civil, pendant le crise sanitaire retrait des pièces d'identité sur rendez-vous uniquement.","latitude":47.666573,"longitude":-2.983842,"website":"https://www.auray.fr/","hasWebsite":true,"hasHoraires":true,"url":"https://lannuaire.service-public.gouv.fr/bretagne/morbihan/d99e2825-62fd-4e73-b490-e5a6d015d42d"}
{"nom":"Baden","nomNormalise":"baden","typeCollectivite":"Commune","region":"Bretagne","departement":"Morbihan","departementCode":"56","adresse":{"street":"3 place Weilheim","postalCode":"56870","city":"Baden","country":"France"},"contacts":{"email":"mairie@baden.fr","telephone":"0297570095"},"horaires":"Le Lundi : de 08h45 à 12h00 de 13h30 à 17h30\nLe Mardi : de 08h45 à 12h00 de 14h30 à 17h30\nDu Mercredi au Jeudi : de 08h45 à 12h00 de 13h30 à 17h30\nLe Vendredi : de 08h45 à 12h00 de 13h30 à 17h00\nLe Samedi : de 09h15 à 12h00","latitude":47.619576,"longitude":-2.9189675,"website":"http://www.baden.fr/","hasWebsite":true,"hasHoraires":true,"url":"https://lannuaire.service-public.gouv.fr/bretagne/morbihan/fb32bab4-cd88-439b-8ff3-2147f40fdab2"}
{"nom":"Bangor","nomNormalise":"bangor","typeCollectivite":"Commune","region":"Bretagne","departement":"Morbihan","departementCode":"56","adresse":{"street":"202 rue Claude-Monet","postalCode":"56360","city":"Bangor","country":"France"},"contacts":{"email":"mairie@bangor.fr","telephone":"0297318406"},"horaires":"Le Lundi : de 08h30 à 12h00 de 13h30 à 17h30\nDu Mardi au Vendredi : de 08h30 à 12h00","latitude":47.31574,"longitude":-3.188146,"website":"http://www.bangor.fr/","hasWebsite":true,"hasHoraires":true,"url":"https://lannuaire.service-public.gouv.fr/bretagne/morbihan/603d1ebc-0652-4ca2-8685-a05d596fd2d3"}
{"nom":"Baud","nomNormalise":"baud","typeCollectivite":"Commune","region":"Bretagne","departement":"Morbihan","departementCode":"56","adresse":{"street":"Place Mathurin-Martin","postalCode":"56150","city":"Baud","country":"France"},"contacts":{"email":"accueil@mairie-baud.fr","telephone":"0297510229"},"horaires":"Du Mardi au Vendredi : de 08h45 à 12h30 de 13h45 à 18h00\n\nPendant la crise sanitaire service urbanisme sur rendez-vous uniquement.\nLe Samedi : de 08h30 à 12h00\n\nPendant la crise sanitaire service urbanisme sur rendez-vous uniquement.","latitude":47.8742,"longitude":-3.02093,"website":"http://www.mairie-baud.fr/","hasWebsite":true,"hasHoraires":true,"url":"https://lannuaire.service-public.gouv.fr/bretagne/morbihan/387ffacd-3a60-42de-8f37-fdc52a7303d6"}
{"nom":"Béganne","nomNormalise":"beganne","typeCollectivite":"Commune","region":"Bretagne","departement":"Morbihan","departementCode":"56","adresse":{"street":"Rue du Buisson-Rond","postalCode":"56350","city":"Béganne","country":"France"},"contacts":{"email":"mairie.beganne@orange.fr","telephone":"0299918157"},"horaires":"Du Lundi au Mardi : de 08h45 à 12h00\nLe Mercredi : de 08h45 à 12h00 de 13h45 à 17h15\nDu Jeudi au Vendredi : de 08h45 à 12h00\nLe Samedi : de 09h00 à 12h00","latitude":47.5958,"longitude":-2.24117,"website":"http://www.beganne.fr/","hasWebsite":true,"hasHoraires":true,"url":"https://lannuaire.service-public.gouv.fr/bretagne/morbihan/9f2a3ffe-356e-45e7-af5a-d4efa257ec53"}
{"nom":"Beignon","nomNormalise":"beignon","typeCollectivite":"Commune","region":"Bretagne","departement":"Morbihan","departementCode":"56","adresse":{"street":"2 rue des Perrières","postalCode":"56380","city":"Beignon","country":"France"},"contacts":{"email":"mairie@beignon.fr","telephone":"0297757355"},"horaires":"Du Mardi au Vendredi : de 08h00 à 12h15\nLe Samedi : de 08h00 à 12h00","latitude":47.97032,"longitude":-2.1712828,"website":"http://www.beignon.fr/","hasWebsite":true,"hasHoraires":true,"url":"https://lannuaire.service-public.gouv.fr/bretagne/morbihan/9f07c02a-6ae2-43be-8265-8bb5800a684c"}
{"nom":"Belz","nomNormalise":"belz","typeCollectivite":"Commune","region":"Bretagne","departement":"Morbihan","departementCode":"56","adresse":{"street":"34 rue du Général-de-Gaulle","postalCode":"56550","city":"Belz","country":"France"},"contacts":{"email":"accueil@mairiebelz.com","telephone":"0297553313"},"horaires":"Du Lundi au Vendredi : de 08h30 à 12h00 de 14h00 à 17h00\nLe Samedi : de 08h30 à 12h00","latitude":47.6757,"longitude":-3.16906,"website":"https://www.mairie-belz.fr/","hasWebsite":true,"hasHoraires":true,"url":"https://lannuaire.service-public.gouv.fr/bretagne/morbihan/36e7d5ce-55ba-4fee-b347-684ab8ec03bc"}
{"nom":"Berné","nomNormalise":"berne","typeCollectivite":"Commune","region":"Bretagne","departement":"Morbihan","departementCode":"56","adresse":{"street":"5 place de la Mairie","postalCode":"56240","city":"Berné","country":"France"},"contacts":{"email":"mairie.berne@wanadoo.fr","telephone":"0297342165"},"horaires":"Le Lundi : de 08h30 à 12h00 de 14h00 à 17h30\nLe Mardi : de 08h30 à 12h00\nLe Mercredi : de 08h30 à 12h00 de 14h00 à 17h30\nLe Jeudi : de 08h30 à 12h00\nLe Vendredi : de 08h30 à 12h00 de 14h00 à 17h30\nLe Samedi : de 09h00 à 12h00","latitude":47.9954,"longitude":-3.39275,"website":"https://www.berne.bzh/","hasWebsite":true,"hasHoraires":true,"url":"https://lannuaire.service-public.gouv.fr/bretagne/morbihan/9d95a980-f2ab-44b8-9b7f-f00a21d4f1cf"}
{"nom":"Berric","nomNormalise":"berric","typeCollectivite":"Commune","region":"Bretagne","departement":"Morbihan","departementCode":"56","adresse":{"street":"16 place de l'Église","postalCode":"56230","city":"Berric","country":"France"},"contacts":{"email":"mairie@berric.fr","telephone":"0297670137"},"horaires":"Du Lundi au Mardi : de 09h00 à 12h00 de 13h30 à 17h30\nLe Mercredi : de 09h00 à 12h00\nLe Jeudi : de 09h00 à 12h00 de 13h30 à 17h30\nLe Vendredi : de 09h00 à 12h00 de 13h30 à 16h30","latitude":47.632874,"longitude":-2.525483,"website":"https://www.berric.fr/","hasWebsite":true,"hasHoraires":true,"url":"https://lannuaire.service-public.gouv.fr/bretagne/morbihan/43bfd5d4-6937-4308-83d0-1baa65f3064d"}
{"nom":"Mairie déléguée - Bieuzy","nomNormalise":"mairiedelegueebieuzy","typeCollectivite":"Commune","region":"Bretagne","departement":"Morbihan","departementCode":"56","adresse":{"street":"Bieuzy","postalCode":"56310","city":"Pluméliau-Bieuzy","country":"France"},"contacts":{"email":"accueil.bieuzy@plumeliau-bieuzy.bzh","telephone":"0297395576"},"horaires":"Le Lundi : de 13h30 à 16h30\nLe Mercredi : de 08h30 à 12h00 de 13h30 à 16h30\nLe Vendredi : de 08h30 à 12h00","latitude":47.983173,"longitude":-3.0641394,"website":"http://www.plumeliau-bieuzy.bzh/","hasWebsite":true,"hasHoraires":true,"url":"https://lannuaire.service-public.gouv.fr/bretagne/morbihan/8ed82aa0-2664-41e8-b7cc-e6acbde7b491"}
{"nom":"Bignan","nomNormalise":"bignan","typeCollectivite":"Commune","region":"Bretagne","departement":"Morbihan","departementCode":"56","adresse":{"street":"2 rue Georges-Cadoudal","postalCode":"56500","city":"Bignan","country":"France"},"contacts":{"email":"mairie@bignan.bzh","telephone":"0297600298"},"horaires":"Du Lundi au Jeudi : de 09h00 à 12h00 de 14h00 à 17h30\nLe Vendredi : de 09h00 à 12h00 de 14h00 à 17h00\nLe Samedi : de 09h00 à 12h00\n\nAccueil fermé en juillet-août.","latitude":47.8793,"longitude":-2.7726,"website":"https://betamairiebignan.wordpress.com/","hasWebsite":true,"hasHoraires":true,"url":"https://lannuaire.service-public.gouv.fr/bretagne/morbihan/c7d51298-b760-4311-a639-167768043a50"}
{"nom":"Billiers","nomNormalise":"billiers","typeCollectivite":"Commune","region":"Bretagne","departement":"Morbihan","departementCode":"56","adresse":{"street":"26 rue du Penher","postalCode":"56190","city":"Billiers","country":"France"},"contacts":{"email":"mairiedebilliers@orange.fr","telephone":"0297416423"},"horaires":"Le Lundi : de 14h00 à 16h00\nDu Mardi au Vendredi : de 09h00 à 12h15 de 14h00 à 16h00\nLe Samedi : de 09h00 à 12h00","latitude":47.53047,"longitude":-2.4886668,"website":"http://www.billiers.fr/","hasWebsite":true,"hasHoraires":true,"url":"https://lannuaire.service-public.gouv.fr/bretagne/morbihan/d5dd5ac9-1659-4d42-bc55-2b24e9fc05f9"}
{"nom":"Billio","nomNormalise":"billio","typeCollectivite":"Commune","region":"Bretagne","departement":"Morbihan","departementCode":"56","adresse":{"street":"1 rue de la Fontaine","postalCode":"56420","city":"Billio","country":"France"},"contacts":{"email":"mairie.billio@wanadoo.fr","telephone":"0297422818"},"horaires":"Du Lundi au Mercredi : de 13h30 à 17h00\nLe Vendredi : de 13h30 à 17h00","latitude":47.868767,"longitude":-2.63248,"website":"http://www.billio.fr/","hasWebsite":true,"hasHoraires":true,"url":"https://lannuaire.service-public.gouv.fr/bretagne/morbihan/09f7bd4b-bcf3-4e44-a9d8-5208bf29bfe0"}
{"nom":"Bohal","nomNormalise":"bohal","typeCollectivite":"Commune","region":"Bretagne","departement":"Morbihan","departementCode":"56","adresse":{"street":"Place des Tilleuls","postalCode":"56140","city":"Bohal","country":"France"},"contacts":{"email":"contact@bohal.fr","telephone":"0297751425"},"horaires":"Le Lundi : de 08h00 à 12h00\nDu Mardi au Jeudi : de 08h00 à 12h00 de 14h00 à 17h00\nLe Vendredi : de 08h00 à 12h00\nLe Samedi : de 11h00 à 12h00\n\nPermanence des adjoints uniquement.","latitude":47.7808,"longitude":-2.43742,"website":"http://www.bohal.fr/","hasWebsite":true,"hasHoraires":true,"url":"https://lannuaire.service-public.gouv.fr/bretagne/morbihan/c836b676-492e-413a-ad0b-5ebe9f8af2f4"}
{"nom":"Brandérion","nomNormalise":"branderion","typeCollectivite":"Commune","region":"Bretagne","departement":"Morbihan","departementCode":"56","adresse":{"street":"3 rue Vincent-Renaud","postalCode":"56700","city":"Brandérion","country":"France"},"contacts":{"email":"mairie@branderion.com","telephone":"0297329237"},"horaires":"Le Lundi : de 08h30 à 12h00 de 14h00 à 17h00\nLe Mardi : de 08h30 à 12h00\nLe Mercredi : de 08h30 à 12h00 de 14h00 à 17h00\nLe Jeudi : de 08h30 à 12h00\nLe Vendredi : de 08h30 à 12h00 de 14h00 à 17h00\nLe Samedi : de 09h00 à 12h00","latitude":47.79373,"longitude":-3.1943586,"website":"http://www.branderion.com/","hasWebsite":true,"hasHoraires":true,"url":"https://lannuaire.service-public.gouv.fr/bretagne/morbihan/1c9e2c3b-ab7c-4714-b738-54dc0b5f93d6"}
{"nom":"Brandivy","nomNormalise":"brandivy","typeCollectivite":"Commune","region":"Bretagne","departement":"Morbihan","departementCode":"56","adresse":{"street":"4 place de l'Église","postalCode":"56390","city":"Brandivy","country":"France"},"contacts":{"email":"mairie@brandivy.fr","telephone":"0297560374"},"horaires":"Le Lundi : de 08h30 à 12h00 de 13h30 à 17h30\nDu Mardi au Jeudi : de 08h00 à 12h00\nLe Vendredi : de 08h00 à 12h00 de 13h30 à 17h00","latitude":47.77472,"longitude":-2.945943,"website":"http://www.brandivy.fr/","hasWebsite":true,"hasHoraires":true,"url":"https://lannuaire.service-public.gouv.fr/bretagne/morbihan/4b5c354b-febf-4174-a11a-cb189241e773"}
{"nom":"Brech","nomNormalise":"brech","typeCollectivite":"Commune","region":"Bretagne","departement":"Morbihan","departementCode":"56","adresse":{"street":"9 rue Georges-Cadoudal","postalCode":"56400","city":"Brech","country":"France"},"contacts":{"email":"accueil@brech.fr","telephone":"0297577990"},"horaires":"Du Lundi au Vendredi : de 08h45 à 12h00 de 13h45 à 17h30\nLe Samedi : de 09h00 à 12h00","latitude":47.7206,"longitude":-2.997,"website":"http://www.brech.fr/","hasWebsite":true,"hasHoraires":true,"url":"https://lannuaire.service-public.gouv.fr/bretagne/morbihan/efd4ee84-ea74-4110-a836-aacd148a60b8"}
{"nom":"Bréhan","nomNormalise":"brehan","typeCollectivite":"Commune","region":"Bretagne","departement":"Morbihan","departementCode":"56","adresse":{"street":"4 rue Saint-Louis","postalCode":"56580","city":"Bréhan","country":"France"},"contacts":{"email":"brehan.mairie@wanadoo.fr","telephone":"0297388131"},"horaires":"Du Lundi au Vendredi : de 08h30 à 12h00 de 14h00 à 17h00\nLe Samedi : de 11h00 à 12h00","latitude":48.0629,"longitude":-2.68706,"website":"http://www.brehan.fr/","hasWebsite":true,"hasHoraires":true,"url":"https://lannuaire.service-public.gouv.fr/bretagne/morbihan/d1b48cdb-8b6d-4119-8f05-02208d8501bd"}
{"nom":"Brignac","nomNormalise":"brignac","typeCollectivite":"Commune","region":"Bretagne","departement":"Morbihan","departementCode":"56","adresse":{"street":"1 place du Souvenir","postalCode":"56430","city":"Brignac","country":"France"},"contacts":{"email":"mairie.brignac@wanadoo.fr","telephone":"0297228088"},"horaires":"Du Mardi au Mercredi : de 14h00 à 17h30\nLe Jeudi : de 09h30 à 11h30 de 14h00 à 17h30\n\nPermanence des élus uniquement de 9h30 à 11h30.\nLe Vendredi : de 14h00 à 17h30\nLe Samedi : de 10h00 à 11h00","latitude":48.12273,"longitude":-2.3876686,"website":"http://www.brignac.bzh/","hasWebsite":true,"hasHoraires":true,"url":"https://lannuaire.service-public.gouv.fr/bretagne/morbihan/42e56eba-09e4-4cbf-a88e-1eede4ac9718"}
{"nom":"Bubry","nomNormalise":"bubry","typeCollectivite":"Commune","region":"Bretagne","departement":"Morbihan","departementCode":"56","adresse":{"street":"Place de Macroom","postalCode":"56310","city":"Bubry","country":"France"},"contacts":{"email":"accueil@bubry.fr","telephone":"0297517007"},"horaires":"Du Lundi au Mercredi : de 09h00 à 12h00 de 14h00 à 17h00\nLe Jeudi : de 09h00 à 12h00\nLe Vendredi : de 09h00 à 12h00 de 14h00 à 17h00\nLe Samedi : de 09h00 à 12h00\n\nAccueil fermé le samedi pendant les vacances scolaires.","latitude":47.964302,"longitude":-3.1726964,"website":"https://www.bubry.fr/","hasWebsite":true,"hasHoraires":true,"url":"https://lannuaire.service-public.gouv.fr/bretagne/morbihan/5ea0bc4d-1bef-45de-9e12-e24a4fdc4bb3"}
{"nom":"Buléon","nomNormalise":"buleon","typeCollectivite":"Commune","region":"Bretagne","departement":"Morbihan","departementCode":"56","adresse":{"street":"1 rue de la Mairie","postalCode":"56420","city":"Buléon","country":"France"},"contacts":{"email":"mairie.buleon@wanadoo.fr","telephone":"0297753394"},"horaires":"Du Lundi au Mardi : de 09h00 à 12h00 de 13h30 à 16h00\nDu Mercredi au Jeudi : de 08h00 à 12h00\nLe Vendredi : de 09h00 à 12h00 de 13h30 à 16h00\nLe Samedi : de 09h00 à 12h00\n\nLe 1er samedi du mois.","latitude":47.935215,"longitude":-2.676838,"website":"http://www.buleon.fr/","hasWebsite":true,"hasHoraires":true,"url":"https://lannuaire.service-public.gouv.fr/bretagne/morbihan/f730d5a5-3d9d-44e2-8b27-7ac2f542c8c7"}
{"nom":"Caden","nomNormalise":"caden","typeCollectivite":"Commune","region":"Bretagne","departement":"Morbihan","departementCode":"56","adresse":{"street":"9 rue de la Mairie","postalCode":"56220","city":"Caden","country":"France"},"contacts":{"email":"mairie.caden@wanadoo.fr","telephone":"0297678220"},"horaires":"Du Lundi au Mardi : de 08h00 à 12h00 de 13h30 à 17h00\nDu Mercredi au Jeudi : de 08h00 à 12h00\nLe Vendredi : de 08h00 à 12h00 de 13h30 à 17h00\nLe Samedi : de 08h00 à 12h00","latitude":47.63118,"longitude":-2.2852798,"website":"http://www.caden.questembert-communaute.fr/","hasWebsite":true,"hasHoraires":true,"url":"https://lannuaire.service-public.gouv.fr/bretagne/morbihan/e0e30d6f-80db-4307-8b72-c4891206d50d"}
{"nom":"Calan","nomNormalise":"calan","typeCollectivite":"Commune","region":"Bretagne","departement":"Morbihan","departementCode":"56","adresse":{"street":"2 place de l'Église","postalCode":"56240","city":"Calan","country":"France"},"contacts":{"email":"contactmairie@calan56.fr","telephone":"0297333385"},"horaires":"Le Lundi : de 09h00 à 12h30\nLe Mardi : de 09h00 à 12h30 de 14h00 à 17h30\nLe Mercredi : de 09h00 à 12h00\nLe Jeudi : de 09h00 à 12h30\nLe Vendredi : de 09h00 à 12h30 de 14h00 à 17h30\nLe Samedi : de 09h00 à 12h00","latitude":47.874916,"longitude":-3.3234484,"website":"http://www.calan56.fr/","hasWebsite":true,"hasHoraires":true,"url":"https://lannuaire.service-public.gouv.fr/bretagne/morbihan/bb1895d0-2c0c-46c9-af63-336f4be6c666"}
{"nom":"Camoël","nomNormalise":"camoel","typeCollectivite":"Commune","region":"Bretagne","departement":"Morbihan","departementCode":"56","adresse":{"street":"1 place de la Mairie","postalCode":"56130","city":"Camoël","country":"France"},"contacts":{"email":"accueil@camoel.fr","telephone":"0299900076"},"horaires":"Du Lundi au Samedi : de 09h00 à 12h00\n\nSans rendez-vous de 9h à 12h. Accueil sur rendez-vous pour la Mairie l'après-midi : (sauf mercredi)","latitude":47.480946,"longitude":-2.3972027,"website":"https://www.camoel.fr/","hasWebsite":true,"hasHoraires":true,"url":"https://lannuaire.service-public.gouv.fr/bretagne/morbihan/11d747dc-77b0-47a1-b19a-eb9d2c8b318f"}
{"nom":"Camors","nomNormalise":"camors","typeCollectivite":"Commune","region":"Bretagne","departement":"Morbihan","departementCode":"56","adresse":{"street":"Place de la Liberté","postalCode":"56330","city":"Camors","country":"France"},"contacts":{"email":"accueil@camors.fr","telephone":"0297392206"},"horaires":"Du Lundi au Mardi : de 08h30 à 12h30 de 13h30 à 17h30\nLe Mercredi : de 08h30 à 12h30\nLe Jeudi : de 08h30 à 12h30 de 13h30 à 17h30\nLe Vendredi : de 08h30 à 12h30\nLe Samedi : de 09h00 à 12h00","latitude":47.84605,"longitude":-2.9994643,"website":"https://camors.fr/","hasWebsite":true,"hasHoraires":true,"url":"https://lannuaire.service-public.gouv.fr/bretagne/morbihan/453f98ac-da58-4704-bd57-3fc6d7b2b085"}
{"nom":"Campénéac","nomNormalise":"campeneac","typeCollectivite":"Commune","region":"Bretagne","departement":"Morbihan","departementCode":"56","adresse":{"street":"10 place de la Mairie","postalCode":"56800","city":"Campénéac","country":"France"},"contacts":{"email":"mairie@campeneac.fr","telephone":"0297934039"},"horaires":"Du Mardi au Samedi : de 08h30 à 12h30","latitude":47.956696,"longitude":-2.293105,"website":"https://www.campeneac.fr/","hasWebsite":true,"hasHoraires":true,"url":"https://lannuaire.service-public.gouv.fr/bretagne/morbihan/5d317510-ea89-4bfc-aecc-19883d4d01d3"}
{"nom":"Carentoir","nomNormalise":"carentoir","typeCollectivite":"Commune","region":"Bretagne","departement":"Morbihan","departementCode":"56","adresse":{"street":"1 boulevard Gicquel","postalCode":"56910","city":"Carentoir","country":"France"},"contacts":{"email":"mairie@carentoir.bzh","telephone":"0299088407"},"horaires":"Le Lundi : de 08h30 à 12h30 de 13h30 à 17h30\nLe Mardi : de 09h30 à 12h30 de 13h30 à 17h30\nDu Mercredi au Vendredi : de 08h30 à 12h30 de 13h30 à 17h30","latitude":47.814182,"longitude":-2.131981,"website":"https://www.carentoir.com/","hasWebsite":true,"hasHoraires":true,"url":"https://lannuaire.service-public.gouv.fr/bretagne/morbihan/1509240c-6eaf-4a8c-99c3-af1fe8994af8"}
{"nom":"Carnac","nomNormalise":"carnac","typeCollectivite":"Commune","region":"Bretagne","departement":"Morbihan","departementCode":"56","adresse":{"street":"Place de la Chapelle","postalCode":"56341","city":"Carnac Cedex","country":"France"},"contacts":{"email":"accueil@carnac.fr","telephone":"0297520686"},"horaires":"Du Lundi au Vendredi : de 08h30 à 12h30 de 13h30 à 17h00\nLe Samedi : de 10h00 à 12h00\n\nAccueil ouvert le samedi uniquement d'avril à septembre.","latitude":47.5846,"longitude":-3.07896,"website":"https://www.carnac.fr/","hasWebsite":true,"hasHoraires":true,"url":"https://lannuaire.service-public.gouv.fr/bretagne/morbihan/e85c23ae-1bb3-4f18-8d31-d62a3aa5f4f6"}
{"nom":"Caro","nomNormalise":"caro","typeCollectivite":"Commune","region":"Bretagne","departement":"Morbihan","departementCode":"56","adresse":{"street":"4 rue Saint-Nicolas","postalCode":"56140","city":"Caro","country":"France"},"contacts":{"email":"accueil@caro.bzh","telephone":"0297746139"},"horaires":"Du Mardi au Mercredi : de 08h30 à 12h00 de 13h30 à 17h00\nLe Jeudi : de 08h30 à 12h00\nLe Vendredi : de 08h30 à 12h00 de 13h30 à 17h00\nLe Samedi : de 08h30 à 12h00","latitude":47.864117,"longitude":-2.318941,"website":"https://www.caro.bzh/","hasWebsite":true,"hasHoraires":true,"url":"https://lannuaire.service-public.gouv.fr/bretagne/morbihan/f81ebbe0-4ce3-48e2-9e18-048bcd6f943a"}
{"nom":"Caudan","nomNormalise":"caudan","typeCollectivite":"Commune","region":"Bretagne","departement":"Morbihan","departementCode":"56","adresse":{"street":"Place Le-Léannec","postalCode":"56854","city":"Caudan Cedex","country":"France"},"contacts":{"email":"mairie@caudan.fr","telephone":"0297805920"},"horaires":"Du Lundi au Jeudi : de 08h30 à 12h15 de 13h15 à 17h30\nLe Vendredi : de 08h30 à 12h15 de 13h15 à 16h30\nLe Samedi : de 09h00 à 11h00\n\nAccueil ouvert uniquement pour l'état civil.","latitude":47.8101,"longitude":-3.34074,"website":"http://www.caudan.fr/","hasWebsite":true,"hasHoraires":true,"url":"https://lannuaire.service-public.gouv.fr/bretagne/morbihan/3bec404c-a143-4ca4-8952-7f314c86ab49"}
{"nom":"Cléguer","nomNormalise":"cleguer","typeCollectivite":"Commune","region":"Bretagne","departement":"Morbihan","departementCode":"56","adresse":{"street":"19 rue Félix-le-Gleut","postalCode":"56620","city":"Cléguer","country":"France"},"contacts":{"email":"mairie@cleguer.fr","telephone":"0297801888"},"horaires":"Le Lundi : de 08h30 à 12h00 de 13h30 à 17h30\nLe Mardi : de 08h30 à 12h00\nDu Mercredi au Vendredi : de 08h30 à 12h00 de 13h30 à 17h30\nLe Samedi : de 08h00 à 12h00\n\nAccueil ouvert uniquement pour l'état civil.","latitude":47.8534,"longitude":-3.3846474,"website":"http://www.cleguer.fr/","hasWebsite":true,"hasHoraires":true,"url":"https://lannuaire.service-public.gouv.fr/bretagne/morbihan/cbe9c0d6-c139-4342-9984-14f5bdf2e534"}
{"nom":"Cléguérec","nomNormalise":"cleguerec","typeCollectivite":"Commune","region":"Bretagne","departement":"Morbihan","departementCode":"56","adresse":{"street":"10 place Pobéguin","postalCode":"56480","city":"Cléguérec","country":"France"},"contacts":{"email":"contact@cleguerec.bzh","telephone":"0297380015"},"horaires":"Du Lundi au Mercredi : de 08h30 à 12h00 de 13h30 à 17h00\nLe Jeudi : de 08h30 à 12h00\nLe Vendredi : de 08h30 à 12h00 de 13h30 à 17h00\nLe Samedi : de 09h30 à 12h00","latitude":48.124638,"longitude":-3.069361,"website":"https://cleguerec.fr/","hasWebsite":true,"hasHoraires":true,"url":"https://lannuaire.service-public.gouv.fr/bretagne/morbihan/60b57e81-a7f7-4091-a506-397376d0dbf4"}
{"nom":"Colpo","nomNormalise":"colpo","typeCollectivite":"Commune","region":"Bretagne","departement":"Morbihan","departementCode":"56","adresse":{"street":"12 avenue de la Princesse","postalCode":"56390","city":"Colpo","country":"France"},"contacts":{"email":"mairie@colpo.fr","telephone":"0297668208"},"horaires":"Le Lundi : de 09h00 à 12h00 de 14h00 à 17h00\nLe Mardi : de 09h00 à 12h00\nDu Mercredi au Vendredi : de 09h00 à 12h00 de 14h00 à 17h00\nLe Samedi : de 09h00 à 12h00\n\nAccueil fermé en juillet-août, pendant la crise sanitaire accueil sur rendez-vous uniquement.","latitude":47.8183,"longitude":-2.81138,"website":"http://www.colpo.fr/","hasWebsite":true,"hasHoraires":true,"url":"https://lannuaire.service-public.gouv.fr/bretagne/morbihan/90ee3945-2bd3-4651-b350-a955d0ffc2f0"}
{"nom":"Concoret","nomNormalise":"concoret","typeCollectivite":"Commune","region":"Bretagne","departement":"Morbihan","departementCode":"56","adresse":{"street":"1 place de l'Audience","postalCode":"56430","city":"Concoret","country":"France"},"contacts":{"email":"mairie@concoret.fr","telephone":"0297226119"},"horaires":"Le Lundi : de 09h00 à 12h00\nLe Mardi : de 09h00 à 12h00 de 15h00 à 17h00\nLe Jeudi : de 09h00 à 12h00 de 15h00 à 17h00\nLe Vendredi : de 09h00 à 12h00\nLe Samedi : de 09h00 à 11h45","latitude":48.064354,"longitude":-2.207848,"website":"http://www.concoret.fr/","hasWebsite":true,"hasHoraires":true,"url":"https://lannuaire.service-public.gouv.fr/bretagne/morbihan/988f9e52-b6ad-497f-9f87-abe42e4bfb13"}
{"nom":"Cournon","nomNormalise":"cournon","typeCollectivite":"Commune","region":"Bretagne","departement":"Morbihan","departementCode":"56","adresse":{"street":"1 rue de la Juberde","postalCode":"56200","city":"Cournon","country":"France"},"contacts":{"email":"mairie@cournon.bzh","telephone":"0299081276"},"horaires":"Du Lundi au Mercredi : de 09h00 à 12h00\nLe Vendredi : de 09h00 à 12h00\nLe Samedi : de 09h00 à 11h30\n\nPendant la crise sanitaire accueil fermé le jeudi.","latitude":47.746265,"longitude":-2.1046,"website":"https://www.cournon.bzh/","hasWebsite":true,"hasHoraires":true,"url":"https://lannuaire.service-public.gouv.fr/bretagne/morbihan/ee36fdbc-4f77-4b11-a083-e6a52728bb21"}
{"nom":"Crach","nomNormalise":"crach","typeCollectivite":"Commune","region":"Bretagne","departement":"Morbihan","departementCode":"56","adresse":{"street":"Place René-le-Mené","postalCode":"56950","city":"Crach","country":"France"},"contacts":{"email":"accueil@crach.bzh","telephone":"0297550317"},"horaires":"Le Lundi : de 14h00 à 17h00\nDu Mardi au Mercredi : de 09h00 à 12h00 de 14h00 à 17h00\nLe Jeudi : de 09h00 à 12h00\nLe Vendredi : de 09h00 à 12h00 de 14h00 à 17h00\nLe Samedi : de 09h00 à 12h00","latitude":47.6162,"longitude":-3.00054,"website":"https://www.ville-crach.fr/","hasWebsite":true,"hasHoraires":true,"url":"https://lannuaire.service-public.gouv.fr/bretagne/morbihan/cebabe26-f69a-4f40-a61b-baeefd544572"}
{"nom":"Crédin","nomNormalise":"credin","typeCollectivite":"Commune","region":"Bretagne","departement":"Morbihan","departementCode":"56","adresse":{"street":"45 place Abbé-Royer","postalCode":"56580","city":"Crédin","country":"France"},"contacts":{"email":"mairie@credin.bzh","telephone":"0297389733"},"horaires":"Le Lundi : de 13h45 à 16h00\nDu Mardi au Vendredi : de 09h00 à 12h30 de 13h45 à 16h00\nLe Samedi : de 09h00 à 12h30","latitude":48.03438,"longitude":-2.7673647,"website":"https://credin.bzh/fr/","hasWebsite":true,"hasHoraires":true,"url":"https://lannuaire.service-public.gouv.fr/bretagne/morbihan/ed6d90e2-4f9c-43bd-9d79-6ceb6404fdb7"}
{"nom":"Mairie déléguée - Croixanvec","nomNormalise":"mairiedelegueecroixanvec","typeCollectivite":"Commune","region":"Bretagne","departement":"Morbihan","departementCode":"56","adresse":{"street":"Croixanvec","postalCode":"56920","city":"Saint-Gérand-Croixanvec","country":"France"},"contacts":{"email":"mairie@saint-gerand-croixanvec.bzh","telephone":"0297514191"},"horaires":"Le Vendredi : de 15h00 à 18h00","latitude":48.13876,"longitude":-2.870264,"website":"","hasWebsite":false,"hasHoraires":true,"url":"https://lannuaire.service-public.gouv.fr/bretagne/morbihan/bdbacb31-863c-4915-a945-540429cfd998"}
{"nom":"Cruguel","nomNormalise":"cruguel","typeCollectivite":"Commune","region":"Bretagne","departement":"Morbihan","departementCode":"56","adresse":{"street":"17 rue de la Mairie","postalCode":"56420","city":"Cruguel","country":"France"},"contacts":{"email":"contact@mairiecruguel.fr","telephone":"0297730148"},"horaires":"Le Lundi : de 08h30 à 12h30 de 14h00 à 18h00\nLe Mardi : de 08h30 à 12h30\nDu Jeudi au Vendredi : de 08h30 à 12h30 de 14h00 à 18h00","latitude":47.878452,"longitude":-2.597683,"website":"https://www.cruguel.fr/","hasWebsite":true,"hasHoraires":true,"url":"https://lannuaire.service-public.gouv.fr/bretagne/morbihan/54fa4252-e91e-45f9-aa21-e0256884351a"}
{"nom":"Damgan","nomNormalise":"damgan","typeCollectivite":"Commune","region":"Bretagne","departement":"Morbihan","departementCode":"56","adresse":{"street":"40 rue Fidèle-Habert","postalCode":"56750","city":"Damgan","country":"France"},"contacts":{"email":"mairie@damgan.fr","telephone":"0297411019"},"horaires":"Le Lundi : de 09h00 à 12h00 de 14h00 à 16h30\nLe Mardi : de 09h00 à 12h00\nLe Mercredi : de 09h00 à 12h00 de 14h00 à 16h30\nLe Jeudi : de 09h00 à 13h00 de 14h00 à 18h00\nLe Vendredi : de 09h00 à 12h00 de 14h00 à 16h30\nLe Samedi : de 09h00 à 12h00","latitude":47.519848,"longitude":-2.57881,"website":"https://www.damgan.fr/","hasWebsite":true,"hasHoraires":true,"url":"https://lannuaire.service-public.gouv.fr/bretagne/morbihan/05b1eb34-4235-463d-8b57-3590eb9b613c"}
{"nom":"Elven","nomNormalise":"elven","typeCollectivite":"Commune","region":"Bretagne","departement":"Morbihan","departementCode":"56","adresse":{"street":"Place de Verdun","postalCode":"56250","city":"Elven","country":"France"},"contacts":{"email":"mairie@elven.fr","telephone":"0297533113"},"horaires":"Du Lundi au Vendredi : de 08h30 à 12h30 de 13h30 à 17h30\nLe Samedi : de 08h30 à 12h30","latitude":47.73277,"longitude":-2.589949,"website":"http://www.elven.fr/","hasWebsite":true,"hasHoraires":true,"url":"https://lannuaire.service-public.gouv.fr/bretagne/morbihan/1bfdbabc-87b5-4f38-95b1-4a6a99b448ff"}
{"nom":"Erdeven","nomNormalise":"erdeven","typeCollectivite":"Commune","region":"Bretagne","departement":"Morbihan","departementCode":"56","adresse":{"street":"Place de la Mairie","postalCode":"56410","city":"Erdeven","country":"France"},"contacts":{"email":"mairieaccueil@erdeven.fr","telephone":"0297556462"},"horaires":"Du Lundi au Vendredi : de 09h00 à 12h00 de 14h00 à 17h00\nLe Samedi : de 09h00 à 12h00","latitude":47.6416,"longitude":-3.1557,"website":"http://www.erdeven.fr/","hasWebsite":true,"hasHoraires":true,"url":"https://lannuaire.service-public.gouv.fr/bretagne/morbihan/8033f8d2-0124-49cc-a19c-d648ca090b3e"}
{"nom":"Étel","nomNormalise":"etel","typeCollectivite":"Commune","region":"Bretagne","departement":"Morbihan","departementCode":"56","adresse":{"street":"3 place de la République","postalCode":"56410","city":"Étel","country":"France"},"contacts":{"email":"accueil@mairie-etel.fr","telephone":"0297553519"},"horaires":"Du Lundi au Mardi : de 09h00 à 12h00 de 14h00 à 17h00\nDu Mardi au Mercredi : de 09h00 à 12h00\nLe Jeudi : de 09h00 à 12h00 de 14h00 à 17h00\nLe Vendredi : de 09h00 à 12h00","latitude":47.657135,"longitude":-3.201829,"website":"https://www.mairie-etel.fr/","hasWebsite":true,"hasHoraires":true,"url":"https://lannuaire.service-public.gouv.fr/bretagne/morbihan/8e092e20-4c71-4ab0-bfc3-49c262d64593"}
{"nom":"Évellys","nomNormalise":"evellys","typeCollectivite":"Commune","region":"Bretagne","departement":"Morbihan","departementCode":"56","adresse":{"street":"Naizin","postalCode":"56500","city":"Évellys","country":"France"},"contacts":{"email":"accueil@evellys.bzh","telephone":"0297274327"},"horaires":"Du Mardi au Vendredi : de 09h00 à 12h00 de 13h30 à 17h30\nLe Samedi : de 09h00 à 12h00","latitude":47.9895,"longitude":-2.83207,"website":"https://www.evellys.bzh/","hasWebsite":true,"hasHoraires":true,"url":"https://lannuaire.service-public.gouv.fr/bretagne/morbihan/7891348d-605a-4646-b0ec-1a1b77836fc0"}
{"nom":"Évriguet","nomNormalise":"evriguet","typeCollectivite":"Commune","region":"Bretagne","departement":"Morbihan","departementCode":"56","adresse":{"street":"1 place René-Marcadé","postalCode":"56490","city":"Évriguet","country":"France"},"contacts":{"email":"mairie.evriguet@wanadoo.fr","telephone":"0297228047"},"horaires":"Du Mardi au Vendredi : de 09h00 à 12h00","latitude":48.077934,"longitude":-2.410223,"website":"","hasWebsite":false,"hasHoraires":true,"url":"https://lannuaire.service-public.gouv.fr/bretagne/morbihan/20588ac0-0d29-4e18-bd6c-5b7c5c2d1c1e"}
{"nom":"Férel","nomNormalise":"ferel","typeCollectivite":"Commune","region":"Bretagne","departement":"Morbihan","departementCode":"56","adresse":{"street":"1 place de la Mairie","postalCode":"56130","city":"Férel","country":"France"},"contacts":{"email":"info@ferel.fr","telephone":"0299900106"},"horaires":"Le Lundi : de 09h00 à 12h30\nDu Mardi au Mercredi : de 09h00 à 12h30 de 14h00 à 17h30\nLe Jeudi : de 09h00 à 12h30\nLe Vendredi : de 09h00 à 12h30 de 14h00 à 17h00\nLe Samedi : de 09h00 à 12h00","latitude":47.4819,"longitude":-2.34284,"website":"http://www.mairie-ferel.fr/","hasWebsite":true,"hasHoraires":true,"url":"https://lannuaire.service-public.gouv.fr/bretagne/morbihan/edf0db69-e40f-4fb7-b28d-7b64bb188fcf"}
{"nom":"Forges de Lanouée","nomNormalise":"forgesdelanouee","typeCollectivite":"Commune","region":"Bretagne","departement":"Morbihan","departementCode":"56","adresse":{"street":"2 place de la Mairie","postalCode":"56120","city":"Forges-de-Lanouée","country":"France"},"contacts":{"email":"mairie@forgesdelanouee.fr","telephone":"0297753483"},"horaires":"Du Mardi au Vendredi : de 08h00 à 12h00 de 13h30 à 17h30\n\nFermé au public mercredi et vendredi après-midi.\nLe Samedi : de 08h00 à 12h00","latitude":48.002018,"longitude":-2.582845,"website":"https://www.forgesdelanouee.fr/","hasWebsite":true,"hasHoraires":true,"url":"https://lannuaire.service-public.gouv.fr/bretagne/morbihan/7eccc5d0-4440-4faa-afeb-9f5304f75272"}
{"nom":"Gâvres","nomNormalise":"gavres","typeCollectivite":"Commune","region":"Bretagne","departement":"Morbihan","departementCode":"56","adresse":{"street":"Avenue des Sardiniers","postalCode":"56680","city":"Gâvres","country":"France"},"contacts":{"email":"mairie.gavres@orange.fr","telephone":"0297824655"},"horaires":"Du Lundi au Vendredi : de 09h00 à 12h00 de 14h00 à 17h00","latitude":47.69646,"longitude":-3.3532586,"website":"http://www.gavres.fr/","hasWebsite":true,"hasHoraires":true,"url":"https://lannuaire.service-public.gouv.fr/bretagne/morbihan/3859736d-5e7c-4ec1-ba04-0069ab683069"}
{"nom":"Gestel","nomNormalise":"gestel","typeCollectivite":"Commune","region":"Bretagne","departement":"Morbihan","departementCode":"56","adresse":{"street":"1 place Colonel-Muller","postalCode":"56530","city":"Gestel","country":"France"},"contacts":{"email":"dgs@gestel.fr","telephone":"0297801244"},"horaires":"Le Lundi : de 09h30 à 12h00 de 13h30 à 17h00\nDu Mardi au Vendredi : de 08h30 à 12h00 de 13h30 à 17h00\nLe Samedi : de 09h00 à 12h00\n\nAccueil fermé en juillet-août.\nAccueil fermé le samedi en juillet-août.","latitude":47.8039,"longitude":-3.44287,"website":"https://gestel.fr/","hasWebsite":true,"hasHoraires":true,"url":"https://lannuaire.service-public.gouv.fr/bretagne/morbihan/6c80b12d-53b9-4c07-b4f8-136d19fdff6b"}
{"nom":"Mairie déléguée - Glénac","nomNormalise":"mairiedelegueeglenac","typeCollectivite":"Commune","region":"Bretagne","departement":"Morbihan","departementCode":"56","adresse":{"street":"Glénac","postalCode":"56200","city":"La Gacilly","country":"France"},"contacts":{"email":"accueil.glenac@lagacilly.fr","telephone":"0299081365"},"horaires":"Le Lundi : de 13h30 à 17h00\nDu Jeudi au Vendredi : de 08h30 à 12h30","latitude":47.727066,"longitude":-2.133686,"website":"https://www.la-gacilly.fr/","hasWebsite":true,"hasHoraires":true,"url":"https://lannuaire.service-public.gouv.fr/bretagne/morbihan/47e9c1ad-f38c-46dd-aafd-c862c21d4e3c"}
{"nom":"Gourhel","nomNormalise":"gourhel","typeCollectivite":"Commune","region":"Bretagne","departement":"Morbihan","departementCode":"56","adresse":{"street":"17 rue de la Libération","postalCode":"56800","city":"Gourhel","country":"France"},"contacts":{"email":"mairie@gourhel.com","telephone":"0297740045"},"horaires":"Du Lundi au Jeudi : de 08h00 à 12h00\nLe Vendredi : de 08h00 à 12h00 de 14h00 à 17h00","latitude":47.938305,"longitude":-2.356294,"website":"https://www.ploermelcommunaute.bzh/","hasWebsite":true,"hasHoraires":true,"url":"https://lannuaire.service-public.gouv.fr/bretagne/morbihan/9819d63e-817d-4dcc-8a03-781f570ab35b"}
{"nom":"Gourin","nomNormalise":"gourin","typeCollectivite":"Commune","region":"Bretagne","departement":"Morbihan","departementCode":"56","adresse":{"street":"24 rue Jacques-Rodallec","postalCode":"56110","city":"Gourin","country":"France"},"contacts":{"email":"mairie@gourin.bzh","telephone":"0297234037"},"horaires":"Le Lundi : de 08h30 à 12h00 de 13h30 à 18h00\nDu Mardi au Vendredi : de 08h30 à 12h00 de 13h30 à 17h00\nLe Samedi : de 09h00 à 12h00","latitude":48.1394,"longitude":-3.607,"website":"https://www.gourin.bzh/","hasWebsite":true,"hasHoraires":true,"url":"https://lannuaire.service-public.gouv.fr/bretagne/morbihan/a2d8ed66-b4c2-4120-8f12-006e9a747091"}
{"nom":"Grand-Champ","nomNormalise":"grandchamp","typeCollectivite":"Commune","region":"Bretagne","departement":"Morbihan","departementCode":"56","adresse":{"street":"Place de la Mairie","postalCode":"56390","city":"Grand-Champ","country":"France"},"contacts":{"email":"mairie@grandchamp.fr","telephone":"0297667711"},"horaires":"Le Lundi : de 08h30 à 12h00 de 14h30 à 17h30\nLe Mardi : de 08h30 à 12h00\nLe Mercredi : de 08h30 à 12h00 de 14h30 à 19h00\nDu Jeudi au Vendredi : de 08h30 à 12h00 de 14h30 à 17h30","latitude":47.7579,"longitude":-2.84317,"website":"http://www.grandchamp.fr/","hasWebsite":true,"hasHoraires":true,"url":"https://lannuaire.service-public.gouv.fr/bretagne/morbihan/4af1991e-2899-4c21-ac05-550ce94def9e"}
{"nom":"Groix","nomNormalise":"groix","typeCollectivite":"Commune","region":"Bretagne","departement":"Morbihan","departementCode":"56","adresse":{"street":"13 place Joseph-Yvon","postalCode":"56590","city":"Groix","country":"France"},"contacts":{"email":"mairie@groix.fr","telephone":"0297868015"},"horaires":"Du Lundi au Vendredi : de 08h30 à 12h00 de 13h30 à 16h30","latitude":47.6394,"longitude":-3.4536,"website":"http://www.groix.fr/","hasWebsite":true,"hasHoraires":true,"url":"https://lannuaire.service-public.gouv.fr/bretagne/morbihan/99d2402e-a486-42d9-b586-238fb01cebcb"}
{"nom":"Guégon","nomNormalise":"guegon","typeCollectivite":"Commune","region":"Bretagne","departement":"Morbihan","departementCode":"56","adresse":{"street":"1 place du Général-de-Gaulle","postalCode":"56120","city":"Guégon","country":"France"},"contacts":{"email":"mairie@guegon.fr","telephone":"0297222064"},"horaires":"Le Lundi : de 10h30 à 12h30 de 13h30 à 17h30\nDu Mardi au Vendredi : de 08h30 à 12h30 de 13h30 à 17h30\nLe Samedi : de 09h00 à 12h00","latitude":47.9386,"longitude":-2.56579,"website":"http://www.guegon.fr/","hasWebsite":true,"hasHoraires":true,"url":"https://lannuaire.service-public.gouv.fr/bretagne/morbihan/6a640b3f-0f18-45ed-99c3-503ad6a9c28f"}
{"nom":"Guéhenno","nomNormalise":"guehenno","typeCollectivite":"Commune","region":"Bretagne","departement":"Morbihan","departementCode":"56","adresse":{"street":"4 rue Nationale","postalCode":"56420","city":"Guéhenno","country":"France"},"contacts":{"email":"accueil@guehenno.bzh","telephone":"0297422989"},"horaires":"Le Lundi : de 09h00 à 12h00\nLe Mardi : de 09h00 à 12h00 de 14h00 à 17h00\nLe Mercredi : de 09h00 à 12h00\nLe Jeudi : de 09h00 à 12h00 de 14h00 à 17h00\nDu Vendredi au Samedi : de 09h00 à 12h00","latitude":47.8933,"longitude":-2.6390548,"website":"https://www.guehenno.fr/","hasWebsite":true,"hasHoraires":true,"url":"https://lannuaire.service-public.gouv.fr/bretagne/morbihan/d864c629-8af9-45b1-ae87-935888cc4e95"}
{"nom":"Gueltas","nomNormalise":"gueltas","typeCollectivite":"Commune","region":"Bretagne","departement":"Morbihan","departementCode":"56","adresse":{"street":"2 place de la Résistance","postalCode":"56920","city":"Gueltas","country":"France"},"contacts":{"email":"accueil@mairie-gueltas.fr","telephone":"0297515334"},"horaires":"Le Lundi : de 08h30 à 12h30\nDu Mardi au Mercredi : de 08h30 à 12h30 de 13h30 à 17h00\nLe Jeudi : de 08h30 à 12h30\nLe Vendredi : de 08h30 à 12h30 de 13h30 à 17h00","latitude":48.094044,"longitude":-2.795597,"website":"http://www.gueltas.fr/","hasWebsite":true,"hasHoraires":true,"url":"https://lannuaire.service-public.gouv.fr/bretagne/morbihan/bc0836f8-81e9-4ed3-911d-6cbd39679017"}
{"nom":"Guémené-sur-Scorff","nomNormalise":"guemenesurscorff","typeCollectivite":"Commune","region":"Bretagne","departement":"Morbihan","departementCode":"56","adresse":{"street":"Place du Château","postalCode":"56160","city":"Guémené-sur-Scorff","country":"France"},"contacts":{"email":"mairieguemene.surscorff@wanadoo.fr","telephone":"0297512023"},"horaires":"Du Lundi au Vendredi : de 08h30 à 12h00 de 13h30 à 17h00","latitude":48.0669,"longitude":-3.20744,"website":"http://guemene-sur-scorff.com/","hasWebsite":true,"hasHoraires":true,"url":"https://lannuaire.service-public.gouv.fr/bretagne/morbihan/5e1fcbdb-872c-4b32-8194-4ec058ee42d0"}
{"nom":"Guénin","nomNormalise":"guenin","typeCollectivite":"Commune","region":"Bretagne","departement":"Morbihan","departementCode":"56","adresse":{"street":"2 rue du Maneguen","postalCode":"56150","city":"Guénin","country":"France"},"contacts":{"email":"mairie@guenin56.fr","telephone":"0297390909"},"horaires":"Le Lundi : de 13h30 à 17h00\nLe Mardi : de 09h00 à 12h00 de 13h30 à 17h30\nDu Mercredi au Jeudi : de 09h00 à 12h00\nLe Vendredi : de 09h00 à 12h00 de 13h30 à 17h00\nLe Samedi : de 09h00 à 12h00","latitude":47.907467,"longitude":-2.980031,"website":"https://www.guenin56.fr/","hasWebsite":true,"hasHoraires":true,"url":"https://lannuaire.service-public.gouv.fr/bretagne/morbihan/cdf8fb92-2c54-42e2-b742-e4196807faa7"}
{"nom":"Guer","nomNormalise":"guer","typeCollectivite":"Commune","region":"Bretagne","departement":"Morbihan","departementCode":"56","adresse":{"street":"Place de l'Hôtel-de-Ville","postalCode":"56382","city":"Guer Cedex","country":"France"},"contacts":{"email":"contactmairie@ville-guer.fr","telephone":"0297225700"},"horaires":"Le Lundi : de 09h00 à 12h00 de 14h00 à 17h00\nLe Mardi : de 09h00 à 12h00 de 14h00 à 18h00\nLe Mercredi : de 09h00 à 12h00 de 14h00 à 17h00\nLe Jeudi : de 09h00 à 12h00 de 14h00 à 18h00\nLe Vendredi : de 09h00 à 12h00 de 13h30 à 17h00","latitude":47.90379,"longitude":-2.120054,"website":"https://www.ville-guer.fr/","hasWebsite":true,"hasHoraires":true,"url":"https://lannuaire.service-public.gouv.fr/bretagne/morbihan/cac1b372-6abb-41b7-8b30-ec7ca8d39cfa"}
{"nom":"Guern","nomNormalise":"guern","typeCollectivite":"Commune","region":"Bretagne","departement":"Morbihan","departementCode":"56","adresse":{"street":"4 rue de la Vallée","postalCode":"56310","city":"Guern","country":"France"},"contacts":{"email":"guern@orange.fr","telephone":"0297277008"},"horaires":"Le Lundi : de 08h30 à 12h00\nDu Mardi au Mercredi : de 08h30 à 12h00 de 13h30 à 17h30\nLe Jeudi : de 13h30 à 17h30\nLe Vendredi : de 08h30 à 12h00 de 13h30 à 17h00","latitude":48.0298,"longitude":-3.0914,"website":"https://guern.fr/","hasWebsite":true,"hasHoraires":true,"url":"https://lannuaire.service-public.gouv.fr/bretagne/morbihan/d4542fac-e681-4bc4-820f-5e994af4e528"}
{"nom":"Guidel","nomNormalise":"guidel","typeCollectivite":"Commune","region":"Bretagne","departement":"Morbihan","departementCode":"56","adresse":{"street":"11 place de Polignac","postalCode":"56520","city":"Guidel","country":"France"},"contacts":{"email":"maire@mairie-guidel.fr","telephone":"0297029696"},"horaires":"Du Lundi au Jeudi : de 08h30 à 12h00 de 13h30 à 17h30\nLe Vendredi : de 08h30 à 12h00 de 13h30 à 17h00\nLe Samedi : de 09h30 à 12h00\n\nAccueil ouvert uniquement pour l'état civil.","latitude":47.7893,"longitude":-3.4878,"website":"https://www.guidel.com/","hasWebsite":true,"hasHoraires":true,"url":"https://lannuaire.service-public.gouv.fr/bretagne/morbihan/0983f866-d72b-488a-95ea-6daaa7f10bff"}
{"nom":"Guillac","nomNormalise":"guillac","typeCollectivite":"Commune","region":"Bretagne","departement":"Morbihan","departementCode":"56","adresse":{"street":"1 place de la Mairie","postalCode":"56800","city":"Guillac","country":"France"},"contacts":{"email":"mairie@guillac.fr","telephone":"0297741162"},"horaires":"Le Mardi : de 08h00 à 12h30 de 13h30 à 17h30\nLe Mercredi : de 08h00 à 12h30 de 13h30 à 17h00\nLe Jeudi : de 08h00 à 12h30\nLe Vendredi : de 08h00 à 12h30 de 13h30 à 17h00\nLe Samedi : de 08h00 à 12h00","latitude":47.910736,"longitude":-2.466245,"website":"https://www.guillac.fr/","hasWebsite":true,"hasHoraires":true,"url":"https://lannuaire.service-public.gouv.fr/bretagne/morbihan/5488965c-d9ad-4a62-bfd8-1b74cf48e121"}
{"nom":"Guilliers","nomNormalise":"guilliers","typeCollectivite":"Commune","region":"Bretagne","departement":"Morbihan","departementCode":"56","adresse":{"street":"1 rue de la Mairie","postalCode":"56490","city":"Guilliers","country":"France"},"contacts":{"email":"mairieguilliers2@orange.fr","telephone":"0297744015"},"horaires":"Du Lundi au Mardi : de 09h00 à 12h15 de 13h30 à 17h00\nLe Mercredi : de 09h00 à 12h15\nDu Jeudi au Vendredi : de 09h00 à 12h15 de 13h30 à 17h00","latitude":48.0414,"longitude":-2.40436,"website":"","hasWebsite":false,"hasHoraires":true,"url":"https://lannuaire.service-public.gouv.fr/bretagne/morbihan/959b76cb-7c3b-4ded-96e9-a89cbe55fe78"}
{"nom":"Guiscriff","nomNormalise":"guiscriff","typeCollectivite":"Commune","region":"Bretagne","departement":"Morbihan","departementCode":"56","adresse":{"street":"Place de la Mairie","postalCode":"56560","city":"Guiscriff","country":"France"},"contacts":{"email":"mairie.guiscriff@gmail.com","telephone":"0297340056"},"horaires":"Du Lundi au Vendredi : de 09h00 à 12h00 de 13h30 à 17h15\nLe Samedi : de 09h00 à 12h00","latitude":48.0485,"longitude":-3.64398,"website":"http://www.guiscriff.fr/","hasWebsite":true,"hasHoraires":true,"url":"https://lannuaire.service-public.gouv.fr/bretagne/morbihan/6291fc88-5e0a-4395-b737-2f5fa1d5b0b3"}
{"nom":"Helléan","nomNormalise":"hellean","typeCollectivite":"Commune","region":"Bretagne","departement":"Morbihan","departementCode":"56","adresse":{"street":"Rue de Tihel","postalCode":"56120","city":"Helléan","country":"France"},"contacts":{"email":"mairie@hellean.bzh","telephone":"0297935278"},"horaires":"Le Lundi : de 08h45 à 13h00 de 13h30 à 18h00\nLe Mercredi : de 08h30 à 12h00\nLe Jeudi : de 08h45 à 13h00 de 13h30 à 18h00","latitude":47.971817,"longitude":-2.474757,"website":"https://www.hellean.com/","hasWebsite":true,"hasHoraires":true,"url":"https://lannuaire.service-public.gouv.fr/bretagne/morbihan/3a9ef261-c5be-4d02-a2b7-f8fbab766e04"}
{"nom":"Hennebont","nomNormalise":"hennebont","typeCollectivite":"Commune","region":"Bretagne","departement":"Morbihan","departementCode":"56","adresse":{"street":"13 place Maréchal-Foch","postalCode":"56704","city":"Hennebont Cedex","country":"France"},"contacts":{"email":"contact@mairie-hennebont.fr","telephone":"0297851616"},"horaires":"Du Lundi au Vendredi : de 08h30 à 12h00 de 13h30 à 17h30","latitude":47.805523,"longitude":-3.2750242,"website":"https://www.hennebont.bzh/","hasWebsite":true,"hasHoraires":true,"url":"https://lannuaire.service-public.gouv.fr/bretagne/morbihan/e8b4df9e-2e97-4d7a-91b2-1d76b7d61820"}
{"nom":"Hœdic","nomNormalise":"hdic","typeCollectivite":"Commune","region":"Bretagne","departement":"Morbihan","departementCode":"56","adresse":{"street":"2 route du Fort","postalCode":"56170","city":"Île d'Hoedic","country":"France"},"contacts":{"email":"secretariat@mairie-hoedic.fr","telephone":"0297524888"},"horaires":"Du Lundi au Vendredi : de 09h00 à 12h00 de 14h00 à 17h00","latitude":47.339718,"longitude":-2.879322,"website":"https://www.hoedic.net/","hasWebsite":true,"hasHoraires":true,"url":"https://lannuaire.service-public.gouv.fr/bretagne/morbihan/34c8e367-2936-479b-9a5d-76fbeb27d5ee"}
{"nom":"Île-aux-Moines","nomNormalise":"ileauxmoines","typeCollectivite":"Commune","region":"Bretagne","departement":"Morbihan","departementCode":"56","adresse":{"street":"Rue de la Mairie","postalCode":"56780","city":"Île-aux-Moines","country":"France"},"contacts":{"email":"mairie@mairie-ileauxmoines.fr","telephone":"0297263261"},"horaires":"Du Lundi au Vendredi : de 09h00 à 12h00","latitude":47.5975,"longitude":-2.8433,"website":"http://www.mairie-ileauxmoines.fr/","hasWebsite":true,"hasHoraires":true,"url":"https://lannuaire.service-public.gouv.fr/bretagne/morbihan/6c16fdd1-e6d8-484d-a360-0483da101a53"}
{"nom":"Île-d'Arz","nomNormalise":"iledarz","typeCollectivite":"Commune","region":"Bretagne","departement":"Morbihan","departementCode":"56","adresse":{"street":"Le Prieuré","postalCode":"56840","city":"Île-d'Arz","country":"France"},"contacts":{"email":"secretariat@mairie-iledarz.fr","telephone":"0297443114"},"horaires":"Du Lundi au Mardi : de 09h30 à 12h30\nDu Jeudi au Vendredi : de 09h30 à 12h30","latitude":47.5892,"longitude":-2.80426,"website":"http://www.mairie-iledarz.fr/","hasWebsite":true,"hasHoraires":true,"url":"https://lannuaire.service-public.gouv.fr/bretagne/morbihan/43643f02-8be3-420a-a4ca-4b33db9a9ddb"}
{"nom":"Île-d'Houat","nomNormalise":"iledhouat","typeCollectivite":"Commune","region":"Bretagne","departement":"Morbihan","departementCode":"56","adresse":{"street":"Le Bourg","postalCode":"56170","city":"Île-d'Houat","country":"France"},"contacts":{"email":"accueil@mairiedehouat.fr","telephone":"0297306804"},"horaires":"Du Lundi au Vendredi : de 10h00 à 12h00 de 14h00 à 17h00","latitude":47.6224,"longitude":-2.83128,"website":"https://www.mairiedehouat.fr/","hasWebsite":true,"hasHoraires":true,"url":"https://lannuaire.service-public.gouv.fr/bretagne/morbihan/d920e0f5-8949-4469-b05e-7a7baaa3660e"}
{"nom":"Inguiniel","nomNormalise":"inguiniel","typeCollectivite":"Commune","region":"Bretagne","departement":"Morbihan","departementCode":"56","adresse":{"street":"1 rue Louis-le-Moënic","postalCode":"56240","city":"Inguiniel","country":"France"},"contacts":{"email":"mairie@inguiniel.bzh","telephone":"0297320812"},"horaires":"Du Lundi au Vendredi : de 09h00 à 12h00 de 14h00 à 17h00\nLe Samedi : de 10h00 à 11h30","latitude":47.976105,"longitude":-3.282488,"website":"https://www.inguiniel.fr/","hasWebsite":true,"hasHoraires":true,"url":"https://lannuaire.service-public.gouv.fr/bretagne/morbihan/028cd6a9-bfff-42ec-b4a4-317f87c2a0e4"}
{"nom":"Inzinzac-Lochrist","nomNormalise":"inzinzaclochrist","typeCollectivite":"Commune","region":"Bretagne","departement":"Morbihan","departementCode":"56","adresse":{"street":"Place Charles-de-Gaulle","postalCode":"56650","city":"Inzinzac-Lochrist","country":"France"},"contacts":{"email":"contact.mairie@inzinzac-lochrist.fr","telephone":"0297853030"},"horaires":"Du Lundi au Mardi : de 09h00 à 12h00 de 13h30 à 17h00\nLe Mercredi : de 09h00 à 12h00\nDu Jeudi au Vendredi : de 09h00 à 12h00 de 13h30 à 17h00","latitude":47.8434,"longitude":-3.26654,"website":"http://www.inzinzac-lochrist.fr/","hasWebsite":true,"hasHoraires":true,"url":"https://lannuaire.service-public.gouv.fr/bretagne/morbihan/b539bc27-3679-433c-b981-87c12a750db5"}
{"nom":"Josselin","nomNormalise":"josselin","typeCollectivite":"Commune","region":"Bretagne","departement":"Morbihan","departementCode":"56","adresse":{"street":"Place Alain-de-Rohan","postalCode":"56120","city":"Josselin","country":"France"},"contacts":{"email":"mairie@josselin.com","telephone":"0297222417"},"horaires":"Le Lundi : de 14h00 à 17h30\nDu Mardi au Jeudi : de 09h00 à 12h30 de 14h00 à 17h30\nLe Vendredi : de 09h00 à 12h30 de 14h30 à 17h30\nLe Samedi : de 09h00 à 12h00\n\nAccueil sur rendez-vous uniquement pour les cartes d'identité et passeports.","latitude":47.95383,"longitude":-2.546427,"website":"http://www.josselin.com/","hasWebsite":true,"hasHoraires":true,"url":"https://lannuaire.service-public.gouv.fr/bretagne/morbihan/767bce3c-37c6-4a8b-b8b1-a144d865acfe"}
{"nom":"Kerfourn","nomNormalise":"kerfourn","typeCollectivite":"Commune","region":"Bretagne","departement":"Morbihan","departementCode":"56","adresse":{"street":"16 rue de l'Argoat","postalCode":"56920","city":"Kerfourn","country":"France"},"contacts":{"email":"mairie@kerfourn.bzh","telephone":"0297383603"},"horaires":"Du Lundi au Jeudi : de 08h30 à 12h30 de 13h30 à 18h00\nLe Vendredi : de 08h30 à 12h00\nLe Samedi : de 09h00 à 12h00","latitude":48.0431,"longitude":-2.83363,"website":"https://kerfourn.fr/","hasWebsite":true,"hasHoraires":true,"url":"https://lannuaire.service-public.gouv.fr/bretagne/morbihan/4afc0aba-2d79-4d8d-9741-d49bdb3cfad6"}
{"nom":"Kergrist","nomNormalise":"kergrist","typeCollectivite":"Commune","region":"Bretagne","departement":"Morbihan","departementCode":"56","adresse":{"street":"16 rue de la Paix","postalCode":"56300","city":"Kergrist","country":"France"},"contacts":{"email":"mairie@kergrist.fr","telephone":"0297396228"},"horaires":"Le Lundi : de 09h00 à 12h30 de 14h00 à 17h30\nLe Mardi : de 09h00 à 12h30\nLe Mercredi : de 09h00 à 12h30 de 14h00 à 17h30\nLe Jeudi : de 09h00 à 12h30\nLe Vendredi : de 09h00 à 12h30 de 14h00 à 17h30","latitude":48.1462,"longitude":-2.95581,"website":"http://www.kergrist.fr/","hasWebsite":true,"hasHoraires":true,"url":"https://lannuaire.service-public.gouv.fr/bretagne/morbihan/4fe6ad33-ad91-41fd-a60d-ef05752e430e"}
{"nom":"Kernascléden","nomNormalise":"kernascleden","typeCollectivite":"Commune","region":"Bretagne","departement":"Morbihan","departementCode":"56","adresse":{"street":"5 rue de Brissac","postalCode":"56540","city":"Kernascléden","country":"France"},"contacts":{"email":"mairie.kernascleden@wanadoo.fr","telephone":"0297516116"},"horaires":"Du Lundi au Mardi : de 09h15 à 12h15 de 13h15 à 17h30\nLe Mercredi : de 09h00 à 13h15\nLe Jeudi : de 09h00 à 12h15\nLe Vendredi : de 09h15 à 12h15 de 13h30 à 18h30\n\nAccueil possible sur rendez-vous le jeudi après midi.","latitude":48.0056,"longitude":-3.32032,"website":"http://www.kernascleden.com/","hasWebsite":true,"hasHoraires":true,"url":"https://lannuaire.service-public.gouv.fr/bretagne/morbihan/0a6acb6e-2ac6-4904-9919-3fe98b652f36"}
{"nom":"Kervignac","nomNormalise":"kervignac","typeCollectivite":"Commune","region":"Bretagne","departement":"Morbihan","departementCode":"56","adresse":{"street":"Esplanade de la Mairie","postalCode":"56700","city":"Kervignac","country":"France"},"contacts":{"email":"mairie@kervignac.com","telephone":"0297657706"},"horaires":"Du Lundi au Vendredi : de 09h00 à 12h00 de 14h00 à 17h00\nLe Samedi : de 09h00 à 12h00","latitude":47.764427,"longitude":-3.24002,"website":"https://www.kervignac.bzh/","hasWebsite":true,"hasHoraires":true,"url":"https://lannuaire.service-public.gouv.fr/bretagne/morbihan/8683abdc-cf3a-4dc5-bad1-d48caa853bb1"}
{"nom":"La Chapelle-Caro","nomNormalise":"lachapellecaro","typeCollectivite":"Commune","region":"Bretagne","departement":"Morbihan","departementCode":"56","adresse":{"street":"La Chapelle-Caro","postalCode":"56460","city":"Val d'Oust","country":"France"},"contacts":{"email":"accueil-lachapellecaro@mairie-valdoust.fr","telephone":"0297749153"},"horaires":"Du Lundi au Vendredi : de 08h30 à 12h30 de 13h30 à 17h30","latitude":47.866688,"longitude":-2.4225776,"website":"http://www.mairie-valdoust.fr/","hasWebsite":true,"hasHoraires":true,"url":"https://lannuaire.service-public.gouv.fr/bretagne/morbihan/71e50337-2565-4c84-aeef-9e1ab3e1fb61"}
{"nom":"Mairie déléguée - La Chapelle-Gaceline","nomNormalise":"mairiedelegueelachapellegaceline","typeCollectivite":"Commune","region":"Bretagne","departement":"Morbihan","departementCode":"56","adresse":{"street":"La Chapelle-Gaceline","postalCode":"56200","city":"La Gacilly","country":"France"},"contacts":{"email":"accueil.chapelle@lagacilly.fr","telephone":"0299081280"},"horaires":"Du Lundi au Mardi : de 08h30 à 12h30\nLe Vendredi : de 13h30 à 17h00","latitude":47.78501,"longitude":-2.10706,"website":"https://www.la-gacilly.fr/","hasWebsite":true,"hasHoraires":true,"url":"https://lannuaire.service-public.gouv.fr/bretagne/morbihan/0f8cb255-da90-4544-aa75-9407fd8ca95f"}
{"nom":"La Chapelle-Neuve","nomNormalise":"lachapelleneuve","typeCollectivite":"Commune","region":"Bretagne","departement":"Morbihan","departementCode":"56","adresse":{"street":"14 rue Principale","postalCode":"56500","city":"La Chapelle-Neuve","country":"France"},"contacts":{"email":"mairie.la.chapelle.neuve@wanadoo.fr","telephone":"0297272004"},"horaires":"Le Lundi : de 09h00 à 12h00\nLe Mardi : de 09h00 à 12h00 de 14h00 à 17h00\nDu Jeudi au Vendredi : de 09h00 à 12h00 de 14h00 à 17h00\nUn samedi sur deux, fermé pendant les vacances scolaires.","latitude":47.86476,"longitude":-2.9418056,"website":"","hasWebsite":false,"hasHoraires":true,"url":"https://lannuaire.service-public.gouv.fr/bretagne/morbihan/6c0b9864-5bd2-4b0f-a029-7249c67cafe3"}
{"nom":"La Croix-Helléan","nomNormalise":"lacroixhellean","typeCollectivite":"Commune","region":"Bretagne","departement":"Morbihan","departementCode":"56","adresse":{"street":"Place de la Mairie","postalCode":"56120","city":"La Croix-Helléan","country":"France"},"contacts":{"email":"contact@lacroixhellean.bzh","telephone":"0297222415"},"horaires":"Du Lundi au Vendredi : de 08h30 à 12h00\nLe Samedi : de 09h30 à 12h00\n\nPermanence des élus.","latitude":47.95739,"longitude":-2.500754,"website":"https://lacroixhellean.fr/","hasWebsite":true,"hasHoraires":true,"url":"https://lannuaire.service-public.gouv.fr/bretagne/morbihan/867fc698-e5b1-49f4-ac97-38e28bd5474c"}
{"nom":"La Gacilly","nomNormalise":"lagacilly","typeCollectivite":"Commune","region":"Bretagne","departement":"Morbihan","departementCode":"56","adresse":{"street":"Rue de l'Hôtel-de-Ville","postalCode":"56204","city":"La Gacilly Cedex","country":"France"},"contacts":{"email":"accueil@lagacilly.fr","telephone":"0299081018"},"horaires":"Du Lundi au Vendredi : de 09h00 à 12h00 de 14h00 à 17h00","latitude":47.766,"longitude":-2.13347,"website":"https://www.la-gacilly.fr/","hasWebsite":true,"hasHoraires":true,"url":"https://lannuaire.service-public.gouv.fr/bretagne/morbihan/1835c1d5-9500-4932-a35d-b43401e6bc9b"}
{"nom":"La Grée-Saint-Laurent","nomNormalise":"lagreesaintlaurent","typeCollectivite":"Commune","region":"Bretagne","departement":"Morbihan","departementCode":"56","adresse":{"street":"10 rue de la Mairie","postalCode":"56120","city":"La Grée-Saint-Laurent","country":"France"},"contacts":{"email":"mairielagreestlaurent@wanadoo.fr","telephone":"0297755137"},"horaires":"Le Mardi : de 08h30 à 12h30 de 13h30 à 18h00\nDu Jeudi au Vendredi : de 08h30 à 12h30 de 13h30 à 18h00\nLe Samedi : de 09h00 à 12h15","latitude":47.99535,"longitude":-2.498762,"website":"http://www.lagreesaintlaurent.fr/","hasWebsite":true,"hasHoraires":true,"url":"https://lannuaire.service-public.gouv.fr/bretagne/morbihan/05605d56-cc3a-402d-a2b9-51433fc0168b"}
{"nom":"Landaul","nomNormalise":"landaul","typeCollectivite":"Commune","region":"Bretagne","departement":"Morbihan","departementCode":"56","adresse":{"street":"1 place de la Mairie","postalCode":"56690","city":"Landaul","country":"France"},"contacts":{"email":"urba.landaul@orange.fr","telephone":"0297246005"},"horaires":"Du Lundi au Mardi : de 09h00 à 12h00 de 14h00 à 17h30\nLe Mercredi : de 09h00 à 12h00\nDu Jeudi au Vendredi : de 09h00 à 12h00 de 14h00 à 17h30\nLe Samedi : de 09h00 à 12h00","latitude":47.7482,"longitude":-3.07595,"website":"http://www.landaul.fr/","hasWebsite":true,"hasHoraires":true,"url":"https://lannuaire.service-public.gouv.fr/bretagne/morbihan/a56df958-c68e-4f27-90f7-93550eeb2954"}
{"nom":"Landévant","nomNormalise":"landevant","typeCollectivite":"Commune","region":"Bretagne","departement":"Morbihan","departementCode":"56","adresse":{"street":"15 rue Nationale","postalCode":"56690","city":"Landévant","country":"France"},"contacts":{"email":"accueil@landevant.bzh","telephone":"0297569300"},"horaires":"Du Lundi au Mardi : de 09h00 à 12h00 de 14h00 à 17h00\nLe Mercredi : de 09h00 à 12h00\nDu Jeudi au Vendredi : de 09h00 à 12h00 de 14h00 à 17h00\nLe Samedi : de 09h30 à 12h00","latitude":47.76509,"longitude":-3.122951,"website":"https://landevant.bzh/","hasWebsite":true,"hasHoraires":true,"url":"https://lannuaire.service-public.gouv.fr/bretagne/morbihan/a799c157-6089-491c-a529-4ecb68baa2fa"}
{"nom":"Lanester","nomNormalise":"lanester","typeCollectivite":"Commune","region":"Bretagne","departement":"Morbihan","departementCode":"56","adresse":{"street":"1 rue Louis-Aragon","postalCode":"5660","city":"Lanester Cedex","country":"France"},"contacts":{"email":"mairie@ville-lanester.fr","telephone":"0297768181"},"horaires":"Du Lundi au Mercredi : de 08h30 à 12h00 de 13h30 à 17h00\nLe Jeudi : de 10h00 à 12h00 de 13h30 à 18h30\nLe Vendredi : de 08h30 à 12h00 de 13h30 à 17h00\nLe Samedi : de 09h00 à 11h45\n\nAccueil ouvert uniquement pour l'état civil, pendant la crise sanitaire accueil sur rendez-vous uniquement pour les services état civil, élections, urbanisme et services techniques.","latitude":47.763535,"longitude":-3.346828,"website":"https://www.lanester.bzh/","hasWebsite":true,"hasHoraires":true,"url":"https://lannuaire.service-public.gouv.fr/bretagne/morbihan/dd8095ee-cb89-43ed-b310-bdb7609a0592"}
{"nom":"Langoëlan","nomNormalise":"langoelan","typeCollectivite":"Commune","region":"Bretagne","departement":"Morbihan","departementCode":"56","adresse":{"street":"44 rue Duchelas","postalCode":"56160","city":"Langoëlan","country":"France"},"contacts":{"email":"langoelan.mairie@wanadoo.fr","telephone":"0297512554"},"horaires":"Du Lundi au Mercredi : de 09h00 à 12h30 de 14h00 à 17h30\nLe Jeudi : de 09h00 à 12h30\nLe Vendredi : de 09h00 à 12h00 de 14h00 à 17h00","latitude":48.121742,"longitude":-3.23486,"website":"http://www.langoelan.fr/","hasWebsite":true,"hasHoraires":true,"url":"https://lannuaire.service-public.gouv.fr/bretagne/morbihan/5148cd5b-cc45-4cfe-a2d9-e0406b757946"}
{"nom":"Langonnet","nomNormalise":"langonnet","typeCollectivite":"Commune","region":"Bretagne","departement":"Morbihan","departementCode":"56","adresse":{"street":"1 place Morvan","postalCode":"56630","city":"Langonnet","country":"France"},"contacts":{"email":"mairie@langonnet.bzh","telephone":"0297239634"},"horaires":"Du Lundi au Mardi : de 08h30 à 12h00 de 13h30 à 17h30\nLe Mercredi : de 08h30 à 12h00\nDu Jeudi au Vendredi : de 08h30 à 12h00 de 13h30 à 17h30\nLe Samedi : de 08h30 à 12h00","latitude":48.1034,"longitude":-3.49171,"website":"http://www.langonnet.bzh/","hasWebsite":true,"hasHoraires":true,"url":"https://lannuaire.service-public.gouv.fr/bretagne/morbihan/d8626cf9-365e-42de-9b76-0ef581113d6c"}
{"nom":"Languidic","nomNormalise":"languidic","typeCollectivite":"Commune","region":"Bretagne","departement":"Morbihan","departementCode":"56","adresse":{"street":"2 rue de la Mairie","postalCode":"56440","city":"Languidic","country":"France"},"contacts":{"email":"mairie@languidic.fr","telephone":"0297651919"},"horaires":"Du Lundi au Vendredi : de 08h30 à 12h00 de 14h00 à 17h00\n\nPendant la crise sanitaire accueil sur rendez-vous de préférence.","latitude":47.833855,"longitude":-3.158351,"website":"http://www.languidic.fr/","hasWebsite":true,"hasHoraires":true,"url":"https://lannuaire.service-public.gouv.fr/bretagne/morbihan/e1073692-c11d-402d-83ef-870f67051f2a"}
{"nom":"Lantillac","nomNormalise":"lantillac","typeCollectivite":"Commune","region":"Bretagne","departement":"Morbihan","departementCode":"56","adresse":{"street":"6 place de la Mairie","postalCode":"56120","city":"Lantillac","country":"France"},"contacts":{"email":"mairie.lantillac@orange.fr","telephone":"0297753550"},"horaires":"Le Lundi : de 09h00 à 12h00 de 14h30 à 16h30\nLe Mardi : de 09h00 à 12h00\nLe Jeudi : de 09h00 à 12h00 de 14h30 à 17h30\nLe Vendredi : de 09h00 à 12h00","latitude":47.956974,"longitude":-2.651324,"website":"","hasWebsite":false,"hasHoraires":true,"url":"https://lannuaire.service-public.gouv.fr/bretagne/morbihan/b03917de-844d-44b0-a032-bb126157fddf"}
{"nom":"Lanvaudan","nomNormalise":"lanvaudan","typeCollectivite":"Commune","region":"Bretagne","departement":"Morbihan","departementCode":"56","adresse":{"street":"1 place de la Mairie","postalCode":"56240","city":"Lanvaudan","country":"France"},"contacts":{"email":"mairie.lanvaudan@wanadoo.fr","telephone":"0297333308"},"horaires":"Le Mardi : de 08h30 à 12h00 de 14h00 à 18h30\nDu Mercredi au Jeudi : de 08h30 à 12h00\nLe Vendredi : de 08h30 à 12h00 de 14h00 à 17h00\nLe Samedi : de 08h30 à 12h00","latitude":47.89953,"longitude":-3.2614677,"website":"","hasWebsite":false,"hasHoraires":true,"url":"https://lannuaire.service-public.gouv.fr/bretagne/morbihan/37f94063-6362-4fee-bdd2-e1d61271ab14"}
{"nom":"Lanvénégen","nomNormalise":"lanvenegen","typeCollectivite":"Commune","region":"Bretagne","departement":"Morbihan","departementCode":"56","adresse":{"street":"16 rue de la Mairie","postalCode":"56320","city":"Lanvénégen","country":"France"},"contacts":{"email":"accueil@lanvenegen.bzh","telephone":"0297344010"},"horaires":"Du Lundi au Mardi : de 09h00 à 12h00 de 14h00 à 17h30\nLe Mercredi : de 09h00 à 12h00\nLe Jeudi : de 09h00 à 12h00 de 14h00 à 17h30\nLe Vendredi : de 09h00 à 12h00 de 14h00 à 17h00\nLe Samedi : de 09h00 à 12h00","latitude":47.997597,"longitude":-3.540313,"website":"http://www.lanvenegen.fr/","hasWebsite":true,"hasHoraires":true,"url":"https://lannuaire.service-public.gouv.fr/bretagne/morbihan/e18aa956-fe22-4390-8580-ec2866f2b2f9"}
{"nom":"Larmor-Baden","nomNormalise":"larmorbaden","typeCollectivite":"Commune","region":"Bretagne","departement":"Morbihan","departementCode":"56","adresse":{"street":"Place de l'Église","postalCode":"56870","city":"Larmor-Baden","country":"France"},"contacts":{"email":"accueil@larmorbaden.com","telephone":"0297570538"},"horaires":"Du Mardi au Jeudi : de 09h00 à 12h00\nLe Vendredi : de 09h00 à 12h00 de 14h00 à 16h30\nLe Samedi : de 09h00 à 12h00\n\nPermanence téléphonique les mardis, jeudis et vendredis de 9h à 12h et de 14h à 16h30.","latitude":47.5871,"longitude":-2.89668,"website":"http://www.larmorbaden.com/","hasWebsite":true,"hasHoraires":true,"url":"https://lannuaire.service-public.gouv.fr/bretagne/morbihan/ce477ec7-a4d0-4d77-b693-29ea1ca3436e"}
{"nom":"Larmor-Plage","nomNormalise":"larmorplage","typeCollectivite":"Commune","region":"Bretagne","departement":"Morbihan","departementCode":"56","adresse":{"street":"4 rue des Quatre-Frères-LeRoy-Queret","postalCode":"56260","city":"Larmor-Plage","country":"France"},"contacts":{"email":"mairie@larmor-plage.com","telephone":"0297842626"},"horaires":"Du Lundi au Vendredi : de 08h30 à 12h00 de 13h30 à 17h00","latitude":47.706432,"longitude":-3.383333,"website":"http://www.larmor-plage.bzh/","hasWebsite":true,"hasHoraires":true,"url":"https://lannuaire.service-public.gouv.fr/bretagne/morbihan/13440953-2fbf-4eeb-87da-284ecae7df8a"}
{"nom":"La Roche-Bernard","nomNormalise":"larochebernard","typeCollectivite":"Commune","region":"Bretagne","departement":"Morbihan","departementCode":"56","adresse":{"street":"Place Louis-Lévesque","postalCode":"56130","city":"La Roche-Bernard","country":"France"},"contacts":{"email":"contact@laroche-bernard.bzh","telephone":"0299906051"},"horaires":"Le Lundi : de 09h00 à 12h00\nDu Mardi au Mercredi : de 09h00 à 12h00 de 13h30 à 17h00\nLe Jeudi : de 09h00 à 12h00\nLe Vendredi : de 09h00 à 12h00 de 13h30 à 17h00\nLe Samedi : de 09h00 à 12h00\n\nAccueil ouvert uniquement les semaines paires.","latitude":47.518692,"longitude":-2.3030658,"website":"http://www.laroche-bernard.com/","hasWebsite":true,"hasHoraires":true,"url":"https://lannuaire.service-public.gouv.fr/bretagne/morbihan/34924168-153c-451a-8a42-6f4c4c1503e0"}
{"nom":"Larré","nomNormalise":"larre","typeCollectivite":"Commune","region":"Bretagne","departement":"Morbihan","departementCode":"56","adresse":{"street":"1 place Guillaume-Pichon","postalCode":"56230","city":"Larré","country":"France"},"contacts":{"email":"accueil@mairielarre.fr","telephone":"0297672050"},"horaires":"Le Lundi : de 08h30 à 12h30 de 14h00 à 17h00\nLe Mardi : de 08h30 à 12h30\nLe Mercredi : de 08h30 à 12h30 de 14h00 à 17h00\nLe Jeudi : de 08h30 à 12h30\nLe Vendredi : de 08h30 à 12h30 de 14h00 à 17h00\nLe Samedi : de 09h00 à 12h30","latitude":47.7116,"longitude":-2.51581,"website":"https://larre.questembert-communaute.fr/accueil/bienvenue/","hasWebsite":true,"hasHoraires":true,"url":"https://lannuaire.service-public.gouv.fr/bretagne/morbihan/c6d00cc8-8af4-4e3c-b022-d15bdb2ccb12"}
{"nom":"La Trinité-Porhoët","nomNormalise":"latriniteporhoet","typeCollectivite":"Commune","region":"Bretagne","departement":"Morbihan","departementCode":"56","adresse":{"street":"Place du Martray","postalCode":"56490","city":"La Trinité-Porhoët","country":"France"},"contacts":{"email":"mairie@la-trinite-porhoet.bzh","telephone":"0297939200"},"horaires":"Le Lundi : de 08h30 à 12h00 de 14h00 à 18h00\nLe Mardi : de 08h30 à 12h00\nLe Mercredi : de 08h30 à 12h00 de 14h00 à 17h00\nLe Jeudi : de 08h30 à 12h00\nLe Vendredi : de 08h30 à 12h00 de 14h00 à 17h30","latitude":48.0978,"longitude":-2.54727,"website":"https://www.la-trinite-porhoet.bzh/","hasWebsite":true,"hasHoraires":true,"url":"https://lannuaire.service-public.gouv.fr/bretagne/morbihan/b905862f-9aa9-4f93-b589-2c941e8812ca"}
{"nom":"La Trinité-sur-Mer","nomNormalise":"latrinitesurmer","typeCollectivite":"Commune","region":"Bretagne","departement":"Morbihan","departementCode":"56","adresse":{"street":"Place Yvonne-Sarcey","postalCode":"56470","city":"La Trinité-sur-Mer","country":"France"},"contacts":{"email":"accueil@latrinitesurmer.fr","telephone":"0297557219"},"horaires":"Le Lundi : de 09h00 à 12h00\nDu Mardi au Vendredi : de 09h00 à 12h00 de 14h00 à 17h00\nLe Samedi : de 09h00 à 12h00\n\nAccueil ouvert uniquement en juillet et en août.","latitude":47.58495,"longitude":-3.0271184,"website":"http://www.la-trinite-sur-mer.fr/","hasWebsite":true,"hasHoraires":true,"url":"https://lannuaire.service-public.gouv.fr/bretagne/morbihan/59f7976f-1c33-4a39-ad09-533aaa821ca7"}
{"nom":"La Trinité-Surzur","nomNormalise":"latrinitesurzur","typeCollectivite":"Commune","region":"Bretagne","departement":"Morbihan","departementCode":"56","adresse":{"street":"18 route d'Armorique","postalCode":"56190","city":"La Trinité-Surzur","country":"France"},"contacts":{"email":"accueil@mairie-latrinitesurzur.fr","telephone":"0297421602"},"horaires":"Du Lundi au Mardi : de 08h30 à 12h00 de 13h30 à 17h30\nLe Mercredi : de 08h30 à 12h00\nDu Jeudi au Vendredi : de 08h30 à 12h00 de 13h30 à 17h30\nLe Samedi : de 09h00 à 12h00\n\nAccueil ouvert uniquement les 2e et 4e samedis du mois.","latitude":47.6031,"longitude":-2.58775,"website":"https://www.latrinitesurzur.fr/","hasWebsite":true,"hasHoraires":true,"url":"https://lannuaire.service-public.gouv.fr/bretagne/morbihan/a187188a-af8a-4af3-881e-ac9c9691b9d6"}
{"nom":"Lauzach","nomNormalise":"lauzach","typeCollectivite":"Commune","region":"Bretagne","departement":"Morbihan","departementCode":"56","adresse":{"street":"1 plasenn an Ti-Kêr","postalCode":"56190","city":"Lauzach","country":"France"},"contacts":{"email":"mairie@lauzach.fr","telephone":"0297670500"},"horaires":"Du Lundi au Mardi : de 08h30 à 12h30 de 13h30 à 17h30\nLe Mercredi : de 08h30 à 12h30\nDu Jeudi au Vendredi : de 08h30 à 12h30 de 13h30 à 17h30","latitude":47.613117,"longitude":-2.5349464,"website":"https://lauzach.questembert-communaute.fr/","hasWebsite":true,"hasHoraires":true,"url":"https://lannuaire.service-public.gouv.fr/bretagne/morbihan/9ec6aa64-3286-4863-85bf-bd3ff6ee3449"}
{"nom":"La Vraie-Croix","nomNormalise":"lavraiecroix","typeCollectivite":"Commune","region":"Bretagne","departement":"Morbihan","departementCode":"56","adresse":{"street":"1 rue du Grand-Chêne","postalCode":"56250","city":"La Vraie-Croix","country":"France"},"contacts":{"email":"secretariat@lavraiecroix.com","telephone":"0297672362"},"horaires":"Le Lundi : de 09h00 à 12h00 de 14h00 à 17h00\nLe Mardi : de 09h00 à 12h00\nDu Mercredi au Vendredi : de 09h00 à 12h00 de 14h00 à 17h00","latitude":47.690456,"longitude":-2.5446222,"website":"https://www.lavraiecroix.bzh/","hasWebsite":true,"hasHoraires":true,"url":"https://lannuaire.service-public.gouv.fr/bretagne/morbihan/b75ee0d5-2c23-45c3-a4b9-60d2063f4caf"}
{"nom":"Le Bono","nomNormalise":"lebono","typeCollectivite":"Commune","region":"Bretagne","departement":"Morbihan","departementCode":"56","adresse":{"street":"Place Joseph-le-Clanche","postalCode":"56400","city":"Bono","country":"France"},"contacts":{"email":"accueil@lebono.fr","telephone":"0297578898"},"horaires":"Le Lundi : de 08h30 à 12h00 de 14h00 à 17h00\nLe Mardi : de 08h30 à 12h00\nDu Mercredi au Vendredi : de 08h30 à 12h00 de 14h00 à 17h00\nLe Samedi : de 09h00 à 12h00\n\nAccueil ouvert uniquement pour l'état civil.","latitude":47.639736,"longitude":-2.948042,"website":"http://www.lebono.fr/","hasWebsite":true,"hasHoraires":true,"url":"https://lannuaire.service-public.gouv.fr/bretagne/morbihan/5abe55ba-8ad5-4aa6-99b2-ed627adb9136"}
{"nom":"Le Cours","nomNormalise":"lecours","typeCollectivite":"Commune","region":"Bretagne","departement":"Morbihan","departementCode":"56","adresse":{"street":"8 rue de l'Arz","postalCode":"56230","city":"Le Cours","country":"France"},"contacts":{"email":"mairie.lecours@orange.fr","telephone":"0297672172"},"horaires":"Du Lundi au Vendredi : de 14h00 à 17h30","latitude":47.741814,"longitude":-2.501395,"website":"https://le-cours.questembert-communaute.fr/","hasWebsite":true,"hasHoraires":true,"url":"https://lannuaire.service-public.gouv.fr/bretagne/morbihan/13626bd1-46fb-46f4-84bb-7622d0dc2c0a"}
{"nom":"Le Croisty","nomNormalise":"lecroisty","typeCollectivite":"Commune","region":"Bretagne","departement":"Morbihan","departementCode":"56","adresse":{"street":"4 rue des Écoles","postalCode":"56540","city":"Le Croisty","country":"France"},"contacts":{"email":"mairie-le-croisty@wanadoo.fr","telephone":"0297516003"},"horaires":"Du Mardi au Vendredi : de 09h00 à 12h00 de 14h00 à 17h00\nLe Samedi : de 09h00 à 12h00","latitude":48.0647,"longitude":-3.36334,"website":"","hasWebsite":false,"hasHoraires":true,"url":"https://lannuaire.service-public.gouv.fr/bretagne/morbihan/b1f0e1d1-9ee0-4476-90e4-566c2d5c5e15"}
{"nom":"Le Faouët","nomNormalise":"lefaouet","typeCollectivite":"Commune","region":"Bretagne","departement":"Morbihan","departementCode":"56","adresse":{"street":"9 rue Victor-Robic","postalCode":"56320","city":"Le Faouët","country":"France"},"contacts":{"email":"accueil@lefaouet.fr","telephone":"0297230768"},"horaires":"Du Lundi au Vendredi : de 09h00 à 12h00 de 14h00 à 17h30\nLe Samedi : de 09h00 à 12h00\n\nAccueil fermé le samedi en juillet-août.","latitude":48.032,"longitude":-3.48931,"website":"http://www.lefaouet.fr/","hasWebsite":true,"hasHoraires":true,"url":"https://lannuaire.service-public.gouv.fr/bretagne/morbihan/f5875616-2744-42f1-a5c5-f38e01553b37"}
{"nom":"Le Guerno","nomNormalise":"leguerno","typeCollectivite":"Commune","region":"Bretagne","departement":"Morbihan","departementCode":"56","adresse":{"street":"4 rue de la Mairie","postalCode":"56190","city":"Le Guerno","country":"France"},"contacts":{"email":"mairie.leguerno@wanadoo.fr","telephone":"0297429476"},"horaires":"Le Lundi : de 08h00 à 12h00 de 13h30 à 17h15\nDu Mardi au Jeudi : de 08h00 à 12h00\nLe Vendredi : de 08h00 à 12h00 de 13h30 à 17h15","latitude":47.584866,"longitude":-2.407692,"website":"https://www.leguerno.fr/","hasWebsite":true,"hasHoraires":true,"url":"https://lannuaire.service-public.gouv.fr/bretagne/morbihan/eb684f0a-1b91-4fb5-a7b6-b7cbae951064"}
{"nom":"Le Hézo","nomNormalise":"lehezo","typeCollectivite":"Commune","region":"Bretagne","departement":"Morbihan","departementCode":"56","adresse":{"street":"15 rue Saint-Vincent","postalCode":"56450","city":"Le Hézo","country":"France"},"contacts":{"email":"accueil@lehezo.fr","telephone":"0297264487"},"horaires":"Du Lundi au Vendredi : de 09h00 à 12h00","latitude":47.585682,"longitude":-2.701784,"website":"http://www.lehezo.com/","hasWebsite":true,"hasHoraires":true,"url":"https://lannuaire.service-public.gouv.fr/bretagne/morbihan/fd75f146-c580-4fb3-b420-742aabdd0235"}
{"nom":"Le Palais","nomNormalise":"lepalais","typeCollectivite":"Commune","region":"Bretagne","departement":"Morbihan","departementCode":"56","adresse":{"street":"2 Passage de l'Hôtel-de-Ville","postalCode":"56360","city":"Le Palais","country":"France"},"contacts":{"email":"mairie@lepalais.fr","telephone":"0297318016"},"horaires":"Du Lundi au Vendredi : de 08h30 à 12h00","latitude":47.3474,"longitude":-3.15676,"website":"https://www.lepalais.fr/","hasWebsite":true,"hasHoraires":true,"url":"https://lannuaire.service-public.gouv.fr/bretagne/morbihan/f1ba74c7-9524-408f-a2c3-cab753d43570"}
{"nom":"Le Saint","nomNormalise":"lesaint","typeCollectivite":"Commune","region":"Bretagne","departement":"Morbihan","departementCode":"56","adresse":{"street":"10 rue de la Mairie","postalCode":"56110","city":"Le Saint","country":"France"},"contacts":{"email":"mairie.le.saint@gmail.com","telephone":"0297347149"},"horaires":"Le Lundi : de 09h00 à 12h30 de 14h00 à 17h00\nDu Mercredi au Jeudi : de 09h00 à 12h30\nLe Vendredi : de 09h00 à 12h30 de 14h00 à 17h00","latitude":48.089436,"longitude":-3.561757,"website":"https://www.lesaint56110.fr/","hasWebsite":true,"hasHoraires":true,"url":"https://lannuaire.service-public.gouv.fr/bretagne/morbihan/2b75b4b9-8f15-4ff3-80b5-4d5312979c10"}
{"nom":"Mairie déléguée - Les Forges","nomNormalise":"mairiedelegueelesforges","typeCollectivite":"Commune","region":"Bretagne","departement":"Morbihan","departementCode":"56","adresse":{"street":"Les Forges","postalCode":"56120","city":"Forges de Lanouée","country":"France"},"contacts":{"email":"mairie.forgesdelanouee@orange.fr","telephone":"0297753173"},"horaires":"Le Mercredi : de 08h00 à 12h00\nLe Vendredi : de 08h00 à 12h00","latitude":48.01755,"longitude":-2.646488,"website":"http://www.forgesdelanouee.fr/","hasWebsite":true,"hasHoraires":true,"url":"https://lannuaire.service-public.gouv.fr/bretagne/morbihan/fc86f5c4-b305-41d4-b196-ea5955981614"}
{"nom":"Les Fougerêts","nomNormalise":"lesfougerets","typeCollectivite":"Commune","region":"Bretagne","departement":"Morbihan","departementCode":"56","adresse":{"street":"15 rue de l'Oust","postalCode":"56200","city":"Les Fougerêts","country":"France"},"contacts":{"email":"accueil@lesfougerets.fr","telephone":"0299915442"},"horaires":"Du Mardi au Samedi : de 09h00 à 12h00\nSur rendez-vous uniquement l'après-midi.","latitude":47.73954,"longitude":-2.212769,"website":"","hasWebsite":false,"hasHoraires":true,"url":"https://lannuaire.service-public.gouv.fr/bretagne/morbihan/bdfba1a6-39dc-4e38-8775-b671d5089d8b"}
{"nom":"Le Sourn","nomNormalise":"lesourn","typeCollectivite":"Commune","region":"Bretagne","departement":"Morbihan","departementCode":"56","adresse":{"street":"26 rue du Commerce","postalCode":"56300","city":"Le Sourn","country":"France"},"contacts":{"email":"mairie@lesourn.bzh","telephone":"0297251252"},"horaires":"Du Lundi au Jeudi : de 08h30 à 12h30 de 13h30 à 17h30\nLe Vendredi : de 08h30 à 12h30 de 13h30 à 17h00","latitude":48.0455,"longitude":-2.98589,"website":"http://www.lesourn.fr/","hasWebsite":true,"hasHoraires":true,"url":"https://lannuaire.service-public.gouv.fr/bretagne/morbihan/04634913-5774-4481-9a4e-a3516fa88662"}
{"nom":"Le Tour-du-Parc","nomNormalise":"letourduparc","typeCollectivite":"Commune","region":"Bretagne","departement":"Morbihan","departementCode":"56","adresse":{"street":"1 rue de la Mairie","postalCode":"56370","city":"Le Tour-du-Parc","country":"France"},"contacts":{"email":"mairie.letourduparc@wanadoo.fr","telephone":"0297673001"},"horaires":"Du Lundi au Mercredi : de 08h45 à 12h00 de 13h30 à 17h15\n\nPendant la crise sanitaire accueil ouvert uniquement le matin.\nLe Jeudi : de 08h45 à 12h00\n\nPendant la crise sanitaire accueil ouvert uniquement le matin.\nLe Vendredi : de 08h45 à 12h00 de 13h30 à 17h15\n\nPendant la crise sanitaire accueil ouvert uniquement le matin.","latitude":47.526093,"longitude":-2.6447587,"website":"https://www.letourduparc.fr/","hasWebsite":true,"hasHoraires":true,"url":"https://lannuaire.service-public.gouv.fr/bretagne/morbihan/d24192b0-2b65-4dfb-aca2-fb6801c30b6a"}
{"nom":"Lignol","nomNormalise":"lignol","typeCollectivite":"Commune","region":"Bretagne","departement":"Morbihan","departementCode":"56","adresse":{"street":"6 rue de la Mairie","postalCode":"56160","city":"Lignol","country":"France"},"contacts":{"email":"mairie@lignol.fr","telephone":"0297270085"},"horaires":"Du Lundi au Mardi : de 09h00 à 12h00 de 13h30 à 17h00\nLe Mercredi : de 09h00 à 12h00\nDu Jeudi au Vendredi : de 09h00 à 12h00 de 13h30 à 17h00","latitude":48.0362,"longitude":-3.27362,"website":"","hasWebsite":false,"hasHoraires":true,"url":"https://lannuaire.service-public.gouv.fr/bretagne/morbihan/abed3947-a8cd-419c-af14-95aec8e920d2"}
{"nom":"Limerzel","nomNormalise":"limerzel","typeCollectivite":"Commune","region":"Bretagne","departement":"Morbihan","departementCode":"56","adresse":{"street":"12 rue de la Mairie","postalCode":"56220","city":"Limerzel","country":"France"},"contacts":{"email":"mairie.limerzel@wanadoo.fr","telephone":"0297662052"},"horaires":"Du Lundi au Mardi : de 08h30 à 12h30 de 13h30 à 17h30\nLe Mercredi : de 08h30 à 12h30\nLe Jeudi : de 08h30 à 12h30 de 13h30 à 17h30\nLe Vendredi : de 08h30 à 12h30 de 13h30 à 17h00","latitude":47.636635,"longitude":-2.354775,"website":"http://www.limerzel.fr/","hasWebsite":true,"hasHoraires":true,"url":"https://lannuaire.service-public.gouv.fr/bretagne/morbihan/4c336387-a901-48cd-a2fb-66bd7466e60a"}
{"nom":"Lizio","nomNormalise":"lizio","typeCollectivite":"Commune","region":"Bretagne","departement":"Morbihan","departementCode":"56","adresse":{"street":"4 rue des Forges","postalCode":"56460","city":"Lizio","country":"France"},"contacts":{"email":"mairie@lizio.fr","telephone":"0297749267"},"horaires":"Le Lundi : de 13h30 à 17h00\nDu Mardi au Mercredi : de 08h30 à 12h00 de 13h30 à 17h00\nLe Jeudi : de 08h30 à 12h00\nLe Vendredi : de 08h30 à 12h00 de 13h30 à 16h30","latitude":47.859924,"longitude":-2.5292659,"website":"https://www.lizio.fr/","hasWebsite":true,"hasHoraires":true,"url":"https://lannuaire.service-public.gouv.fr/bretagne/morbihan/cb4059d1-2b05-4d80-8828-1fe322742913"}
{"nom":"Locmalo","nomNormalise":"locmalo","typeCollectivite":"Commune","region":"Bretagne","departement":"Morbihan","departementCode":"56","adresse":{"street":"2 rue de Porharch","postalCode":"56160","city":"Locmalo","country":"France"},"contacts":{"email":"contact@locmalo.bzh","telephone":"0297512204"},"horaires":"Le Lundi : de 09h00 à 12h00\nDu Mardi au Vendredi : de 09h00 à 12h30 de 13h30 à 17h30\nLe Samedi : de 09h00 à 12h00\n\nContacter la mairie pour connaître les horaires d'ouverture.","latitude":48.071796,"longitude":-3.187704,"website":"https://www.locmalo.bzh/","hasWebsite":true,"hasHoraires":true,"url":"https://lannuaire.service-public.gouv.fr/bretagne/morbihan/b17a7d5c-789a-4f36-af20-7f3f0c8c8f50"}
{"nom":"Locmaria","nomNormalise":"locmaria","typeCollectivite":"Commune","region":"Bretagne","departement":"Morbihan","departementCode":"56","adresse":{"street":"Rue des Acadiens","postalCode":"56360","city":"Locmaria","country":"France"},"contacts":{"email":"locmaria-belle-ile@wanadoo.fr","telephone":"0297317092"},"horaires":"Du Lundi au Vendredi : de 09h00 à 12h00","latitude":47.2937,"longitude":-3.08423,"website":"http://www.locmaria-belle-ile.fr/","hasWebsite":true,"hasHoraires":true,"url":"https://lannuaire.service-public.gouv.fr/bretagne/morbihan/6f0443d9-1d9a-4d2c-8097-64b823c4736f"}
{"nom":"Locmaria-Grand-Champ","nomNormalise":"locmariagrandchamp","typeCollectivite":"Commune","region":"Bretagne","departement":"Morbihan","departementCode":"56","adresse":{"street":"1 rue des Hortensias","postalCode":"56390","city":"Locmaria-Grand-Champ","country":"France"},"contacts":{"email":"mairie.locmaria.gd.ch@wanadoo.fr","telephone":"0297666049"},"horaires":"Le Lundi : de 08h30 à 12h30 de 13h30 à 17h30\n\nPendant la crise sanitaire accueil urbanisme et état civil sur rendez-vous uniquement.\nLe Mardi : de 08h30 à 12h30\n\nPendant la crise sanitaire accueil urbanisme et état civil sur rendez-vous uniquement.\nLe Mercredi : de 08h30 à 12h00\n\nPendant la crise sanitaire accueil urbanisme et état civil sur rendez-vous uniquement.\nLe Jeudi : de 08h30 à 12h30\n\nPendant la crise sanitaire accueil urbanisme et état civil sur rendez-vous uniquement.\nLe Vendredi : de 08h30 à 12h30 de 13h30 à 17h30\n\nPendant la crise sanitaire accueil urbanisme et état civil sur rendez-vous uniquement.\nLe Samedi : de 09h00 à 12h00\n\nPendant la crise sanitaire accueil urbanisme et état civil sur rendez-vous uniquement.","latitude":47.757355,"longitude":-2.788252,"website":"http://www.locmariagrandchamp.fr/","hasWebsite":true,"hasHoraires":true,"url":"https://lannuaire.service-public.gouv.fr/bretagne/morbihan/a03fe38d-02d3-484d-9a27-c19f88f02ff0"}
{"nom":"Locmariaquer","nomNormalise":"locmariaquer","typeCollectivite":"Commune","region":"Bretagne","departement":"Morbihan","departementCode":"56","adresse":{"street":"1 place de la Mairie","postalCode":"56740","city":"Locmariaquer","country":"France"},"contacts":{"email":"accueil@locmariaquer.fr","telephone":"0297573232"},"horaires":"Du Lundi au Vendredi : de 08h30 à 12h00 de 13h30 à 17h00\n\nPendant la crise sanitaire accueil le matin uniquement.","latitude":47.5696,"longitude":-2.94503,"website":"http://www.locmariaquer.fr/","hasWebsite":true,"hasHoraires":true,"url":"https://lannuaire.service-public.gouv.fr/bretagne/morbihan/83685df5-31f9-4060-a5a0-cacb633dbe4c"}
{"nom":"Locminé","nomNormalise":"locmine","typeCollectivite":"Commune","region":"Bretagne","departement":"Morbihan","departementCode":"56","adresse":{"street":"28 rue du Général-de-Gaulle","postalCode":"56501","city":"Locminé Cedex","country":"France"},"contacts":{"email":"accueil@locmine.bzh","telephone":"0297600037"},"horaires":"Du Lundi au Mercredi : de 09h00 à 12h00 de 14h00 à 17h00\nLe Jeudi : de 09h00 à 17h00\n\nAccueil ouvert de 12h à 14h exclusivement pour le service passeport et carte d'identité.\nLe Vendredi : de 09h00 à 12h00 de 14h00 à 17h00\nLe Samedi : de 09h00 à 12h00\n\nAccueil ouvert uniquement pour l'état civil, passeport et carte d'identité.","latitude":47.889072,"longitude":-2.83584,"website":"https://www.locmine.bzh/","hasWebsite":true,"hasHoraires":true,"url":"https://lannuaire.service-public.gouv.fr/bretagne/morbihan/e6138e45-c368-4c47-8ba0-3b61b4f4fb7f"}
{"nom":"Locmiquélic","nomNormalise":"locmiquelic","typeCollectivite":"Commune","region":"Bretagne","departement":"Morbihan","departementCode":"56","adresse":{"street":"27 rue de la Mairie","postalCode":"56570","city":"Locmiquélic","country":"France"},"contacts":{"email":"mairie@mairie-locmiquelic.fr","telephone":"0297334224"},"horaires":"Le Lundi : de 08h45 à 12h15 de 13h15 à 18h15\nLe Mardi : de 10h00 à 12h15 de 13h15 à 18h15\nDu Mercredi au Jeudi : de 08h45 à 12h15 de 13h15 à 18h15\nLe Vendredi : de 08h45 à 12h15 de 13h15 à 17h15\nJuillet et Août Lundi - Mercredi - Jeudi - Vendredi : de 08h45 à 12h15 de 13h15 à 17h15 Le Mardi : de 10h00 à 12h15 de 13h15 à 17h15","latitude":47.726044,"longitude":-3.34127,"website":"https://www.ville-locmiquelic.fr/","hasWebsite":true,"hasHoraires":true,"url":"https://lannuaire.service-public.gouv.fr/bretagne/morbihan/1988cf90-7d01-499b-be26-ab873a2e4445"}
{"nom":"Locoal-Mendon","nomNormalise":"locoalmendon","typeCollectivite":"Commune","region":"Bretagne","departement":"Morbihan","departementCode":"56","adresse":{"street":"4 place du Général-de-Gaulle","postalCode":"56550","city":"Locoal-Mendon","country":"France"},"contacts":{"email":"accueil@locoal-mendon.fr","telephone":"0297246087"},"horaires":"Du Lundi au Mardi : de 08h30 à 12h00 de 14h00 à 17h00\nLe Mercredi : de 09h00 à 12h00\nLe Jeudi : de 08h30 à 12h00 de 14h00 à 17h00\nLe Vendredi : de 08h30 à 12h00\nLe Samedi : de 09h00 à 12h00\n\nPendant la crise sanitaire accueil sur rendez-vous de préférence.\nPendant la crise sanitaire accueil sur rendez-vous de préférence.","latitude":47.712303,"longitude":-3.1063843,"website":"https://www.locoal-mendon.fr/","hasWebsite":true,"hasHoraires":true,"url":"https://lannuaire.service-public.gouv.fr/bretagne/morbihan/37b13921-bbc9-4b60-bf7c-1d4dbda13c38"}
{"nom":"Locqueltas","nomNormalise":"locqueltas","typeCollectivite":"Commune","region":"Bretagne","departement":"Morbihan","departementCode":"56","adresse":{"street":"12 place de la Mairie","postalCode":"56390","city":"Locqueltas","country":"France"},"contacts":{"email":"accueil.mairie@locqueltas.fr","telephone":"0297666015"},"horaires":"Le Lundi : de 08h30 à 12h00 de 13h30 à 17h00\nLe Mardi : de 08h30 à 12h00\nLe Mercredi : de 08h30 à 12h00 de 13h30 à 17h00\nLe Jeudi : de 08h30 à 12h00\nLe Vendredi : de 08h30 à 12h00 de 13h30 à 17h00\nLe Samedi : de 09h00 à 12h00\n\nAccueil fermé en juillet-août le samedi.","latitude":47.7582,"longitude":-2.76662,"website":"http://www.locqueltas.fr/","hasWebsite":true,"hasHoraires":true,"url":"https://lannuaire.service-public.gouv.fr/bretagne/morbihan/e7bcb0f1-225e-419c-8670-d31a840b127d"}
{"nom":"Lorient","nomNormalise":"lorient","typeCollectivite":"Commune","region":"Bretagne","departement":"Morbihan","departementCode":"56","adresse":{"street":"2 boulevard Général-Leclerc","postalCode":"56310","city":"Lorient","country":"France"},"contacts":{"email":"contact@lorient.bzh","telephone":"0297022200"},"horaires":"Du Lundi au Vendredi : de 08h30 à 17h15\nLe Samedi : de 09h00 à 12h00\n\nAccueil ouvert uniquement pour l'état civil et les formalités administratives.","latitude":47.748253,"longitude":-3.370245,"website":"https://www.lorient.bzh/","hasWebsite":true,"hasHoraires":true,"url":"https://lannuaire.service-public.gouv.fr/bretagne/morbihan/43b5b876-7d83-4e9b-997e-b5638a989921"}
{"nom":"Loyat","nomNormalise":"loyat","typeCollectivite":"Commune","region":"Bretagne","departement":"Morbihan","departementCode":"56","adresse":{"street":"11 rue de la Mairie","postalCode":"56800","city":"Loyat","country":"France"},"contacts":{"email":"accueil@loyat.fr","telephone":"0297930233"},"horaires":"Le Lundi : de 14h00 à 17h30\nLe Mardi : de 08h30 à 12h30 de 14h00 à 17h30\nLe Mercredi : de 14h00 à 17h30\nDu Jeudi au Vendredi : de 08h30 à 12h30 de 14h00 à 17h30","latitude":47.98859,"longitude":-4.1315,"website":"http://www.loyat.fr/","hasWebsite":true,"hasHoraires":true,"url":"https://lannuaire.service-public.gouv.fr/bretagne/morbihan/834389c8-0627-4d4d-bf03-677cb3c3874d"}
{"nom":"Malansac","nomNormalise":"malansac","typeCollectivite":"Commune","region":"Bretagne","departement":"Morbihan","departementCode":"56","adresse":{"street":"4 rue du Puits-de-Bas","postalCode":"56220","city":"Malansac","country":"France"},"contacts":{"email":"mairie@malansac.fr","telephone":"0297662114"},"horaires":"Le Lundi : de 08h30 à 12h30\nDu Mardi au Mercredi : de 08h30 à 12h30 de 13h30 à 17h30\nLe Jeudi : de 08h30 à 12h30\nLe Vendredi : de 08h30 à 12h30 de 13h30 à 17h30\nLe Samedi : de 09h00 à 12h00","latitude":47.6772,"longitude":-2.2975,"website":"http://www.malansac.fr/","hasWebsite":true,"hasHoraires":true,"url":"https://lannuaire.service-public.gouv.fr/bretagne/morbihan/cf212be9-1ae9-41ec-8b9c-52b91964f8a6"}
{"nom":"Malestroit","nomNormalise":"malestroit","typeCollectivite":"Commune","region":"Bretagne","departement":"Morbihan","departementCode":"56","adresse":{"street":"1 rue Edmond-Besson","postalCode":"56140","city":"Malestroit","country":"France"},"contacts":{"email":"mairie@malestroit.bzh","telephone":"0297751175"},"horaires":"Du Lundi au Jeudi : de 09h00 à 12h15 de 13h30 à 17h30\nLe Vendredi : de 09h00 à 12h15 de 13h30 à 16h15","latitude":47.810234,"longitude":-2.383505,"website":"https://www.malestroit.bzh/","hasWebsite":true,"hasHoraires":true,"url":"https://lannuaire.service-public.gouv.fr/bretagne/morbihan/e5fa3424-888b-426b-ab90-49470faeb0df"}
{"nom":"Malguénac","nomNormalise":"malguenac","typeCollectivite":"Commune","region":"Bretagne","departement":"Morbihan","departementCode":"56","adresse":{"street":"18 rue du Château-d'Eau","postalCode":"56300","city":"Malguénac","country":"France"},"contacts":{"email":"mairie@malguenac.bzh","telephone":"0297273070"},"horaires":"Le Lundi : de 08h30 à 12h30 de 13h30 à 17h00\nLe Mardi : de 13h30 à 17h00\nLe Mercredi : de 08h30 à 12h30 de 13h30 à 17h00\nLe Jeudi : de 13h30 à 17h00\nLe Vendredi : de 08h30 à 12h30 de 13h30 à 17h00","latitude":48.08104,"longitude":3.053354,"website":"https://malguenac.fr/","hasWebsite":true,"hasHoraires":true,"url":"https://lannuaire.service-public.gouv.fr/bretagne/morbihan/0a8e253b-6bdc-41b1-af72-41e72239dbc0"}
{"nom":"Marzan","nomNormalise":"marzan","typeCollectivite":"Commune","region":"Bretagne","departement":"Morbihan","departementCode":"56","adresse":{"street":"2 rue de la Mairie","postalCode":"56130","city":"Marzan","country":"France"},"contacts":{"email":"mairie@marzan.fr","telephone":"0299906302"},"horaires":"Le Lundi : de 08h30 à 12h00\nLe Mardi : de 08h30 à 12h00 de 14h00 à 17h30\nDu Mercredi au Jeudi : de 08h30 à 12h00\nLe Vendredi : de 08h30 à 12h00 de 14h00 à 17h30\nLe Samedi : de 08h30 à 12h00","latitude":47.5415,"longitude":-2.32661,"website":"http://www.marzan.fr/","hasWebsite":true,"hasHoraires":true,"url":"https://lannuaire.service-public.gouv.fr/bretagne/morbihan/dcbec7b3-e638-4df9-bf8c-34165e51061d"}
{"nom":"Mauron","nomNormalise":"mauron","typeCollectivite":"Commune","region":"Bretagne","departement":"Morbihan","departementCode":"56","adresse":{"street":"Place Henri-Thébault","postalCode":"56430","city":"Mauron","country":"France"},"contacts":{"email":"accueil@mauron.fr","telephone":"0297226024"},"horaires":"Le Lundi : de 14h00 à 17h00\nDu Mardi au Vendredi : de 09h00 à 12h15 de 14h00 à 17h00","latitude":48.08379,"longitude":-2.2839084,"website":"http://www.mauron.fr/","hasWebsite":true,"hasHoraires":true,"url":"https://lannuaire.service-public.gouv.fr/bretagne/morbihan/c4ae585d-f4ce-42ac-be23-04f35753256b"}
{"nom":"Melrand","nomNormalise":"melrand","typeCollectivite":"Commune","region":"Bretagne","departement":"Morbihan","departementCode":"56","adresse":{"street":"9 rue de la Mairie","postalCode":"56310","city":"Melrand","country":"France"},"contacts":{"email":"mairie@melrand.fr","telephone":"0297395461"},"horaires":"Le Lundi : de 14h00 à 18h00\nDu Mardi au Mercredi : de 09h00 à 12h00\nLe Jeudi : de 09h00 à 12h00 de 14h00 à 18h00\nDu Vendredi au Samedi : de 09h00 à 12h00","latitude":47.9802,"longitude":-3.11089,"website":"https://www.melrand.fr/","hasWebsite":true,"hasHoraires":true,"url":"https://lannuaire.service-public.gouv.fr/bretagne/morbihan/4776df81-7b11-49e4-af97-659fd0238b1b"}
{"nom":"Ménéac","nomNormalise":"meneac","typeCollectivite":"Commune","region":"Bretagne","departement":"Morbihan","departementCode":"56","adresse":{"street":"10 rue de la République","postalCode":"56490","city":"Ménéac","country":"France"},"contacts":{"email":"dgs@meneac.bzh","telephone":"0297933068"},"horaires":"Le Lundi : de 09h00 à 12h30\nLe Mardi : de 09h00 à 12h30 de 13h30 à 17h30\nLe Mercredi : de 09h00 à 12h30\nDu Jeudi au Vendredi : de 09h00 à 12h30 de 13h30 à 17h30\nLe Samedi : de 09h00 à 12h00","latitude":48.1395,"longitude":-2.46089,"website":"","hasWebsite":false,"hasHoraires":true,"url":"https://lannuaire.service-public.gouv.fr/bretagne/morbihan/04d04792-e4ad-4e02-9b2f-a66b59530e80"}
{"nom":"Merlevenez","nomNormalise":"merlevenez","typeCollectivite":"Commune","region":"Bretagne","departement":"Morbihan","departementCode":"56","adresse":{"street":"2 rue de la Mairie","postalCode":"56700","city":"Merlevenez","country":"France"},"contacts":{"email":"secretariat@merlevenez.com","telephone":"0297657508"},"horaires":"Du Lundi au Mardi : de 08h30 à 12h00 de 14h00 à 17h30\nLe Mercredi : de 08h30 à 12h00\nLe Jeudi : de 08h30 à 12h00 de 14h00 à 17h30\nLe Samedi : de 08h30 à 12h00","latitude":47.7364,"longitude":-3.23457,"website":"http://www.merlevenez.com/","hasWebsite":true,"hasHoraires":true,"url":"https://lannuaire.service-public.gouv.fr/bretagne/morbihan/fe238bfc-ed5b-43f8-93f9-69e17960c0a0"}
{"nom":"Meslan","nomNormalise":"meslan","typeCollectivite":"Commune","region":"Bretagne","departement":"Morbihan","departementCode":"56","adresse":{"street":"15 rue Joseph-le-Gallo","postalCode":"56320","city":"Meslan","country":"France"},"contacts":{"email":"mairie@meslan.fr","telephone":"0297342576"},"horaires":"Du Lundi au Mardi : de 09h00 à 12h00 de 14h00 à 17h00\nDu Mercredi au Jeudi : de 09h00 à 12h00\nLe Vendredi : de 09h00 à 12h00 de 14h00 à 17h00\nLe Samedi : de 09h00 à 12h00\nEt sur rendez-vous le jeudi de 14h à 17h.","latitude":47.993217,"longitude":-3.43197,"website":"http://www.meslan.fr/","hasWebsite":true,"hasHoraires":true,"url":"https://lannuaire.service-public.gouv.fr/bretagne/morbihan/27c21b78-cdbb-4b8d-8fd7-74d35e82f400"}
{"nom":"Meucon","nomNormalise":"meucon","typeCollectivite":"Commune","region":"Bretagne","departement":"Morbihan","departementCode":"56","adresse":{"street":"1 route de Pontivy","postalCode":"56890","city":"Meucon","country":"France"},"contacts":{"email":"mairie@meucon.fr","telephone":"0297607431"},"horaires":"Le Lundi : de 08h30 à 11h45 de 13h30 à 17h00\nLe Mardi : de 08h30 à 11h45\nLe Mercredi : de 08h30 à 11h45 de 13h30 à 17h00\nLe Jeudi : de 08h30 à 11h45\nLe Vendredi : de 08h30 à 16h00\nLe Samedi : de 08h30 à 11h45\n\nFermé pendant les vacances scolaires.","latitude":47.71694,"longitude":-2.763995,"website":"http://www.meucon.fr/","hasWebsite":true,"hasHoraires":true,"url":"https://lannuaire.service-public.gouv.fr/bretagne/morbihan/05278296-0502-495b-bb6c-7a8baaeba0f3"}
{"nom":"Missiriac","nomNormalise":"missiriac","typeCollectivite":"Commune","region":"Bretagne","departement":"Morbihan","departementCode":"56","adresse":{"street":"6 rue Édouard-Rolland","postalCode":"56140","city":"Missiriac","country":"France"},"contacts":{"email":"accueil@missiriac.fr","telephone":"0297751614"},"horaires":"Du Lundi au Vendredi : de 09h00 à 12h00 de 14h00 à 17h00\n\nAccueil fermé le mercredi après-midi les semaines paires.","latitude":47.835766,"longitude":-2.350601,"website":"https://mairiemissiriac.fr/","hasWebsite":true,"hasHoraires":true,"url":"https://lannuaire.service-public.gouv.fr/bretagne/morbihan/3342b844-ede4-4d0e-a423-b86a8b65da21"}
{"nom":"Mohon","nomNormalise":"mohon","typeCollectivite":"Commune","region":"Bretagne","departement":"Morbihan","departementCode":"56","adresse":{"street":"1 place de la Mairie","postalCode":"56490","city":"Mohon","country":"France"},"contacts":{"email":"accueil@56490mohon.com","telephone":"0297939420"},"horaires":"Du Lundi au Mardi : de 09h00 à 12h00 de 14h00 à 17h30\nLe Mercredi : de 09h00 à 12h00\nLe Jeudi : de 09h00 à 12h00 de 14h00 à 17h30\nLe Vendredi : de 09h00 à 12h00","latitude":48.052563,"longitude":-2.525587,"website":"https://www.mohon.fr/","hasWebsite":true,"hasHoraires":true,"url":"https://lannuaire.service-public.gouv.fr/bretagne/morbihan/bfb24776-0f03-40fb-bc02-5feafcb0c4b1"}
{"nom":"Molac","nomNormalise":"molac","typeCollectivite":"Commune","region":"Bretagne","departement":"Morbihan","departementCode":"56","adresse":{"street":"8 rue Jollivet","postalCode":"56230","city":"Molac","country":"France"},"contacts":{"email":"commune.molac@wanadoo.fr","telephone":"0297457235"},"horaires":"Le Lundi : de 09h00 à 12h00\nLe Mardi : de 09h00 à 12h00 de 14h00 à 17h30\nDu Jeudi au Vendredi : de 09h00 à 12h00 de 14h00 à 17h30\nLe Samedi : de 09h00 à 12h00\n\nAccueil fermé en juillet-août.","latitude":47.7308,"longitude":-2.43515,"website":"http://www.molac.questembert-communaute.fr/","hasWebsite":true,"hasHoraires":true,"url":"https://lannuaire.service-public.gouv.fr/bretagne/morbihan/6875770f-ccbd-43c4-b7d9-f193d516b412"}
{"nom":"Monteneuf","nomNormalise":"monteneuf","typeCollectivite":"Commune","region":"Bretagne","departement":"Morbihan","departementCode":"56","adresse":{"street":"Place Saint Nicodème","postalCode":"56380","city":"Monteneuf","country":"France"},"contacts":{"email":"commune@monteneuf.com","telephone":"0297932120"},"horaires":"Du Mardi au Jeudi : de 09h00 à 12h00\nLe Vendredi : de 14h00 à 18h00","latitude":47.872555,"longitude":-2.2089958,"website":"","hasWebsite":false,"hasHoraires":true,"url":"https://lannuaire.service-public.gouv.fr/bretagne/morbihan/2efdc614-059a-4d99-9b86-c0c1524760d5"}
{"nom":"Monterblanc","nomNormalise":"monterblanc","typeCollectivite":"Commune","region":"Bretagne","departement":"Morbihan","departementCode":"56","adresse":{"street":"5 place de la Mairie","postalCode":"56250","city":"Monterblanc","country":"France"},"contacts":{"email":"mairie@monterblanc.fr","telephone":"0297459003"},"horaires":"Du Lundi au Mercredi : de 08h30 à 12h15 de 13h00 à 17h00\nLe Jeudi : de 08h30 à 12h15\nLe Vendredi : de 08h30 à 12h15 de 13h00 à 17h00","latitude":47.7433,"longitude":-2.68,"website":"http://www.monterblanc.fr/","hasWebsite":true,"hasHoraires":true,"url":"https://lannuaire.service-public.gouv.fr/bretagne/morbihan/50241f52-2fde-4d5e-9c7d-0bc5e5afba9c"}
{"nom":"Montertelot","nomNormalise":"montertelot","typeCollectivite":"Commune","region":"Bretagne","departement":"Morbihan","departementCode":"56","adresse":{"street":"2 rue des Forges","postalCode":"56800","city":"Montertelot","country":"France"},"contacts":{"email":"mairie.montertelot@ploermelcommunaute.bzh","telephone":"0297749239"},"horaires":"Le Lundi : de 09h00 à 13h00 de 13h30 à 16h00\nLe Mardi : de 08h30 à 13h00 de 14h00 à 18h00\nLe Mercredi : de 09h00 à 13h00 de 13h30 à 17h30\nLe Jeudi : de 14h00 à 18h00\nLe Vendredi : de 09h00 à 12h30","latitude":47.88114,"longitude":-2.422098,"website":"https://montertelot.fr/","hasWebsite":true,"hasHoraires":true,"url":"https://lannuaire.service-public.gouv.fr/bretagne/morbihan/5e0c77d9-dd8b-4395-934f-e68dcd6eb025"}
{"nom":"Moréac","nomNormalise":"moreac","typeCollectivite":"Commune","region":"Bretagne","departement":"Morbihan","departementCode":"56","adresse":{"street":"Rue de la Fontaine","postalCode":"56500","city":"Moréac","country":"France"},"contacts":{"email":"mairie@moreac.fr","telephone":"0297600444"},"horaires":"Le Lundi : de 09h00 à 12h30 de 13h30 à 17h00\nLe Mardi : de 10h00 à 12h30 de 13h30 à 17h00\nDu Mercredi au Vendredi : de 09h00 à 12h30 de 13h30 à 17h00\nLe Samedi : de 09h00 à 12h00","latitude":47.9185,"longitude":-2.81888,"website":"http://www.moreac.fr/","hasWebsite":true,"hasHoraires":true,"url":"https://lannuaire.service-public.gouv.fr/bretagne/morbihan/162b5258-ee0c-4974-9ca6-1cd14c9c9b1e"}
{"nom":"Moustoir-Ac","nomNormalise":"moustoirac","typeCollectivite":"Commune","region":"Bretagne","departement":"Morbihan","departementCode":"56","adresse":{"street":"11 rue de la Maillette","postalCode":"56500","city":"Moustoir-Ac","country":"France"},"contacts":{"email":"mairie@moustoir-ac.bzh","telephone":"0297441173"},"horaires":"Le Lundi : de 09h00 à 12h00\nLe Mardi : de 10h00 à 12h00 de 14h00 à 17h00\nLe Mercredi : de 09h00 à 12h00\nDu Jeudi au Vendredi : de 09h00 à 12h00 de 14h00 à 17h00\nLe Samedi : de 09h00 à 12h00\n\nL'été, la Mairie est fermée le samedi matin.","latitude":47.856007,"longitude":-2.833785,"website":"https://moustoir-ac.fr/","hasWebsite":true,"hasHoraires":true,"url":"https://lannuaire.service-public.gouv.fr/bretagne/morbihan/04cbcb09-f703-46a4-b14c-c2782baf7c1f"}
{"nom":"Muzillac","nomNormalise":"muzillac","typeCollectivite":"Commune","region":"Bretagne","departement":"Morbihan","departementCode":"56","adresse":{"street":"Allée Raymond-le-Duigou","postalCode":"56190","city":"Muzillac","country":"France"},"contacts":{"email":"mairie@muzillac.fr","telephone":"0297416625"},"horaires":"Le Lundi : de 09h00 à 12h00\nDu Mardi au Vendredi : de 09h00 à 12h00 de 14h00 à 17h30","latitude":47.5546,"longitude":-2.48275,"website":"http://www.muzillac.fr/","hasWebsite":true,"hasHoraires":true,"url":"https://lannuaire.service-public.gouv.fr/bretagne/morbihan/23e7cc65-05d2-41a4-a79c-b944b07e82f0"}
{"nom":"Néant-sur-Yvel","nomNormalise":"neantsuryvel","typeCollectivite":"Commune","region":"Bretagne","departement":"Morbihan","departementCode":"56","adresse":{"street":"2 place de la Liberté","postalCode":"56430","city":"Néant-sur-Yvel","country":"France"},"contacts":{"email":"mairie-neant-sur-yvel@orange.fr","telephone":"0297930463"},"horaires":"Du Lundi au Mardi : de 09h00 à 12h00 de 13h30 à 17h00\nLe Mercredi : de 09h00 à 12h00\nDu Jeudi au Vendredi : de 09h00 à 12h00 de 13h30 à 17h00\nLe Samedi : de 09h00 à 12h00","latitude":48.0139,"longitude":-2.32957,"website":"","hasWebsite":false,"hasHoraires":true,"url":"https://lannuaire.service-public.gouv.fr/bretagne/morbihan/a1528e6e-04f3-49a3-a578-6778334a2520"}
{"nom":"Neulliac","nomNormalise":"neulliac","typeCollectivite":"Commune","region":"Bretagne","departement":"Morbihan","departementCode":"56","adresse":{"street":"Rue de la Mairie","postalCode":"56300","city":"Neulliac","country":"France"},"contacts":{"email":"mairie@neulliac.bzh","telephone":"0297396014"},"horaires":"Le Lundi : de 08h30 à 12h00 de 13h00 à 17h00\nLe Mardi : de 08h30 à 12h00\nLe Mercredi : de 08h30 à 12h00 de 13h00 à 17h00\nLe Jeudi : de 08h30 à 12h00\nLe Vendredi : de 08h30 à 12h00 de 13h00 à 17h00","latitude":48.12856,"longitude":-2.9838564,"website":"https://www.neulliac.fr/","hasWebsite":true,"hasHoraires":true,"url":"https://lannuaire.service-public.gouv.fr/bretagne/morbihan/a48243c2-5e49-4e6e-acf2-ce85b6bfb575"}
{"nom":"Nivillac","nomNormalise":"nivillac","typeCollectivite":"Commune","region":"Bretagne","departement":"Morbihan","departementCode":"56","adresse":{"street":"3 rue Joseph-Dano","postalCode":"56130","city":"Nivillac","country":"France"},"contacts":{"email":"mairie@nivillac.fr","telephone":"0299906275"},"horaires":"Le Lundi : de 08h30 à 12h00 de 13h30 à 17h30\nLe Mardi : de 08h30 à 12h00\nLe Mercredi : de 08h30 à 12h00 de 13h30 à 17h30\nLe Jeudi : de 08h30 à 12h00\nLe Vendredi : de 08h30 à 12h00 de 13h30 à 17h30\nLe Samedi : de 09h00 à 12h00\n\nAccueil fermé pendant les vacances scolaires juillet-août.","latitude":47.532394,"longitude":-2.283569,"website":"http://www.nivillac.fr/","hasWebsite":true,"hasHoraires":true,"url":"https://lannuaire.service-public.gouv.fr/bretagne/morbihan/b23e29eb-c6b4-4c79-bcf5-2238a38aeb28"}
{"nom":"Nostang","nomNormalise":"nostang","typeCollectivite":"Commune","region":"Bretagne","departement":"Morbihan","departementCode":"56","adresse":{"street":"2 rue Paul-Le-Roux","postalCode":"56690","city":"Nostang","country":"France"},"contacts":{"email":"mairie@nostang.fr","telephone":"0297657543"},"horaires":"Du Lundi au Mercredi : de 09h00 à 12h00 de 14h00 à 17h00\nLe Vendredi : de 09h00 à 12h00 de 14h00 à 17h00\nLe Samedi : de 09h00 à 12h00","latitude":47.749958,"longitude":-3.1856577,"website":"http://www.nostang.fr/","hasWebsite":true,"hasHoraires":true,"url":"https://lannuaire.service-public.gouv.fr/bretagne/morbihan/abab1796-c044-436b-a347-781d94b886e2"}
{"nom":"Noyal-Muzillac","nomNormalise":"noyalmuzillac","typeCollectivite":"Commune","region":"Bretagne","departement":"Morbihan","departementCode":"56","adresse":{"street":"Place de la Mairie","postalCode":"56190","city":"Noyal-Muzillac","country":"France"},"contacts":{"email":"accueil@noyal-muzillac.fr","telephone":"0297416547"},"horaires":"Du Lundi au Jeudi : de 09h00 à 12h00 de 13h30 à 17h15\nLe Vendredi : de 09h00 à 12h00 de 13h30 à 16h30\nLe Samedi : de 09h00 à 12h00","latitude":47.59207,"longitude":-2.457148,"website":"http://www.noyal-muzillac.fr/","hasWebsite":true,"hasHoraires":true,"url":"https://lannuaire.service-public.gouv.fr/bretagne/morbihan/c84bb7f0-0233-4b39-8e49-b0299f49b68f"}
{"nom":"Noyal-Pontivy","nomNormalise":"noyalpontivy","typeCollectivite":"Commune","region":"Bretagne","departement":"Morbihan","departementCode":"56","adresse":{"street":"Place du Manoir","postalCode":"56920","city":"Noyal-Pontivy","country":"France"},"contacts":{"email":"mairie@noyal-pontivy.fr","telephone":"0297383066"},"horaires":"Du Lundi au Vendredi : de 08h30 à 12h00 de 13h30 à 17h30\nLe Samedi : de 09h00 à 12h00","latitude":48.067303,"longitude":-2.881496,"website":"https://www.noyal-pontivy.fr/","hasWebsite":true,"hasHoraires":true,"url":"https://lannuaire.service-public.gouv.fr/bretagne/morbihan/9e446a43-ae39-481f-9eb2-b91fb22c45c9"}
{"nom":"Péaule","nomNormalise":"peaule","typeCollectivite":"Commune","region":"Bretagne","departement":"Morbihan","departementCode":"56","adresse":{"street":"Rue Saint-Michel","postalCode":"56130","city":"Péaule","country":"France"},"contacts":{"email":"mairie@peaule.fr","telephone":"0297429114"},"horaires":"Le Lundi : de 09h00 à 12h00\nDu Mardi au Mercredi : de 09h00 à 12h00 de 14h00 à 17h00\nLe Jeudi : de 09h00 à 12h00\nLe Vendredi : de 09h00 à 12h00 de 14h00 à 17h00\nLe Samedi : de 09h00 à 12h00","latitude":47.5785,"longitude":-2.35704,"website":"https://www.peaule.fr/","hasWebsite":true,"hasHoraires":true,"url":"https://lannuaire.service-public.gouv.fr/bretagne/morbihan/84276807-ada3-42f9-a738-40757e1ba9b1"}
{"nom":"Peillac","nomNormalise":"peillac","typeCollectivite":"Commune","region":"Bretagne","departement":"Morbihan","departementCode":"56","adresse":{"street":"6 rue de la Mairie","postalCode":"56220","city":"Peillac","country":"France"},"contacts":{"email":"mairie@peillac.fr","telephone":"0299912676"},"horaires":"Le Lundi : de 09h00 à 12h00 de 13h30 à 17h30\nLe Mardi : de 09h00 à 12h00\nLe Mercredi : de 09h00 à 12h00 de 13h30 à 17h30\nLe Jeudi : de 09h00 à 12h00\nLe Vendredi : de 09h00 à 12h00 de 13h30 à 16h30\nLe Samedi : de 09h00 à 12h00\n\nAccueil fermé en juillet-août.","latitude":47.7132,"longitude":-2.21925,"website":"http://www.peillac.fr/","hasWebsite":true,"hasHoraires":true,"url":"https://lannuaire.service-public.gouv.fr/bretagne/morbihan/b7e1cabf-a6c0-4182-9cc6-71ece53cdb0e"}
{"nom":"Pénestin","nomNormalise":"penestin","typeCollectivite":"Commune","region":"Bretagne","departement":"Morbihan","departementCode":"56","adresse":{"street":"44 rue du Calvaire","postalCode":"56760","city":"Pénestin","country":"France"},"contacts":{"email":"accueil@penestin.fr","telephone":"0223100300"},"horaires":"Le Lundi : de 09h00 à 12h00\nDu Mardi au Mercredi : de 09h00 à 12h00 de 14h00 à 16h45\nLe Jeudi : de 09h00 à 12h00\nLe Vendredi : de 09h00 à 12h00 de 14h00 à 16h45\nLe Samedi : de 09h00 à 12h00\n\nAccueil ouvert uniquement pour la permanence de l'état civil.","latitude":47.482037,"longitude":-2.475471,"website":"https://www.penestin.fr/","hasWebsite":true,"hasHoraires":true,"url":"https://lannuaire.service-public.gouv.fr/bretagne/morbihan/189f27e9-833d-4a3b-a968-206bb0529ae2"}
{"nom":"Persquen","nomNormalise":"persquen","typeCollectivite":"Commune","region":"Bretagne","departement":"Morbihan","departementCode":"56","adresse":{"street":"11 rue Laurent-Bigoin","postalCode":"56160","city":"Persquen","country":"France"},"contacts":{"email":"mairie.persquen@wanadoo.fr","telephone":"0297512257"},"horaires":"Du Lundi au Mardi : de 09h00 à 12h00 de 13h30 à 17h00\nLe Mercredi : de 09h00 à 12h00\nDu Jeudi au Vendredi : de 09h00 à 12h00 de 13h30 à 17h00","latitude":48.03083,"longitude":-3.195553,"website":"https://www.persquen.bzh/","hasWebsite":true,"hasHoraires":true,"url":"https://lannuaire.service-public.gouv.fr/bretagne/morbihan/2fb9b25e-4628-40b7-80cc-70c90737907c"}
{"nom":"Plaudren","nomNormalise":"plaudren","typeCollectivite":"Commune","region":"Bretagne","departement":"Morbihan","departementCode":"56","adresse":{"street":"5 place de la Mairie","postalCode":"56420","city":"Plaudren","country":"France"},"contacts":{"email":"mairie@plaudren.fr","telephone":"0297459062"},"horaires":"Du Lundi au Mardi : de 09h00 à 12h00 de 14h00 à 17h00\nDu Mercredi au Jeudi : de 09h00 à 12h00\nLe Vendredi : de 09h00 à 12h00 de 14h00 à 17h00\nLe Samedi : de 09h00 à 12h00\n\nPendant la crise sanitaire accueil sur rendez-vous uniquement.","latitude":47.7787,"longitude":-2.69322,"website":"http://www.plaudren.fr/","hasWebsite":true,"hasHoraires":true,"url":"https://lannuaire.service-public.gouv.fr/bretagne/morbihan/5cb76680-a6ea-4c4c-a157-2af87741e67c"}
{"nom":"Plescop","nomNormalise":"plescop","typeCollectivite":"Commune","region":"Bretagne","departement":"Morbihan","departementCode":"56","adresse":{"street":"2 place Marianne","postalCode":"56890","city":"Plescop","country":"France"},"contacts":{"email":"accueil@plescop.bzh","telephone":"0297444344"},"horaires":"Du Lundi au Vendredi : de 08h30 à 12h00 de 13h30 à 17h30","latitude":47.69803,"longitude":-2.8050554,"website":"https://www.plescop.bzh/","hasWebsite":true,"hasHoraires":true,"url":"https://lannuaire.service-public.gouv.fr/bretagne/morbihan/cd2d5b88-83b0-4fb1-b3c1-39717b567186"}
{"nom":"Pleucadeuc","nomNormalise":"pleucadeuc","typeCollectivite":"Commune","region":"Bretagne","departement":"Morbihan","departementCode":"56","adresse":{"street":"5 avenue des Sports","postalCode":"56140","city":"Pleucadeuc","country":"France"},"contacts":{"email":"accueil@pleucadeuc.fr","telephone":"0297269227"},"horaires":"Le Lundi : de 09h00 à 12h00\nLe Mardi : de 09h00 à 12h00 de 14h00 à 16h30\nLe Mercredi : de 09h00 à 12h00 de 15h00 à 17h30\nLe Jeudi : de 09h00 à 12h00 de 14h00 à 16h30\nLe Vendredi : de 09h00 à 12h00 de 15h00 à 17h00\nLe Samedi : de 09h00 à 12h00","latitude":47.7589,"longitude":-2.37363,"website":"https://www.pleucadeuc.fr/","hasWebsite":true,"hasHoraires":true,"url":"https://lannuaire.service-public.gouv.fr/bretagne/morbihan/02e50116-109b-4a77-9695-8936af7325c0"}
{"nom":"Pleugriffet","nomNormalise":"pleugriffet","typeCollectivite":"Commune","region":"Bretagne","departement":"Morbihan","departementCode":"56","adresse":{"street":"4 place de l'Église","postalCode":"56120","city":"Pleugriffet","country":"France"},"contacts":{"email":"mairie.pleugriffet@wanadoo.fr","telephone":"0297224434"},"horaires":"Du Lundi au Samedi : de 08h30 à 12h30","latitude":47.99007,"longitude":-2.685574,"website":"http://pleugriffet.bzh/","hasWebsite":true,"hasHoraires":true,"url":"https://lannuaire.service-public.gouv.fr/bretagne/morbihan/2acfddea-409f-4429-b8a0-a916846a2d5c"}
{"nom":"Ploemel","nomNormalise":"ploemel","typeCollectivite":"Commune","region":"Bretagne","departement":"Morbihan","departementCode":"56","adresse":{"street":"Allée Abbé-Martin-Kercret","postalCode":"56400","city":"Ploemel","country":"France"},"contacts":{"email":"mairie@ploemel.fr","telephone":"0297568425"},"horaires":"Du Lundi au Mardi : de 08h30 à 12h00 de 14h00 à 17h00\nLe Mercredi : de 08h30 à 12h00\nLe Jeudi : de 08h30 à 12h00 de 14h00 à 17h00\nLe Vendredi : de 08h30 à 12h00\nLe Samedi : de 09h00 à 12h00","latitude":47.65102,"longitude":-3.071644,"website":"http://www.ploemel.com/","hasWebsite":true,"hasHoraires":true,"url":"https://lannuaire.service-public.gouv.fr/bretagne/morbihan/7bfc5ef5-11c4-4315-8d78-39a400b84db7"}
{"nom":"Ploemeur","nomNormalise":"ploemeur","typeCollectivite":"Commune","region":"Bretagne","departement":"Morbihan","departementCode":"56","adresse":{"street":"1 rue des Écoles","postalCode":"56274","city":"Ploemeur Cedex","country":"France"},"contacts":{"email":"mairie@ploemeur.net","telephone":"0297864040"},"horaires":"Du Lundi au Vendredi : de 08h30 à 12h30 de 13h30 à 17h00\nLe Samedi : de 09h00 à 12h00\n\nAccueil ouvert le samedi uniquement pour l'état civil, compte tenu du contexte sanitaire actuel et jusqu'à nouvel ordre l'accueil est fermé le samedi matin.","latitude":47.7367,"longitude":-3.42627,"website":"https://www.ploemeur.com/","hasWebsite":true,"hasHoraires":true,"url":"https://lannuaire.service-public.gouv.fr/bretagne/morbihan/ee2b556e-7228-42ec-9c54-38518eb4de58"}
{"nom":"Ploërdut","nomNormalise":"ploerdut","typeCollectivite":"Commune","region":"Bretagne","departement":"Morbihan","departementCode":"56","adresse":{"street":"4 place de la République","postalCode":"56160","city":"Ploërdut","country":"France"},"contacts":{"email":"ploerdut.mairie@wanadoo.fr","telephone":"0297394443"},"horaires":"Le Lundi : de 09h00 à 12h00 de 13h30 à 17h30\nLe Mardi : de 09h00 à 12h00 de 15h00 à 17h30\nLe Mercredi : de 09h00 à 12h00 de 13h30 à 17h30\nLe Jeudi : de 09h00 à 12h00 de 15h00 à 17h30\nLe Vendredi : de 09h00 à 12h00 de 13h30 à 17h00\nLe Samedi : de 10h00 à 12h00","latitude":48.0869,"longitude":-3.28706,"website":"http://www.ploerdut.fr/","hasWebsite":true,"hasHoraires":true,"url":"https://lannuaire.service-public.gouv.fr/bretagne/morbihan/3097ac0b-4ce3-478f-b0a3-b013ed790aaf"}
{"nom":"Ploeren","nomNormalise":"ploeren","typeCollectivite":"Commune","region":"Bretagne","departement":"Morbihan","departementCode":"56","adresse":{"street":"1 place de la Mairie","postalCode":"56880","city":"Ploeren","country":"France"},"contacts":{"email":"population@ploeren.bzh","telephone":"0297400181"},"horaires":"Du Lundi au Mercredi : de 09h00 à 12h15 de 13h30 à 17h30\nLe Jeudi : de 09h00 à 12h15\nLe Vendredi : de 09h00 à 12h15 de 13h30 à 17h30","latitude":47.6543,"longitude":-2.86833,"website":"http://www.ploeren.com/","hasWebsite":true,"hasHoraires":true,"url":"https://lannuaire.service-public.gouv.fr/bretagne/morbihan/58ede905-d036-498a-b70a-e34e0718cd31"}
{"nom":"Ploërmel","nomNormalise":"ploermel","typeCollectivite":"Commune","region":"Bretagne","departement":"Morbihan","departementCode":"56","adresse":{"street":"Place de l'Hôtel-de-Ville","postalCode":"56804","city":"Ploërmel Cedex","country":"France"},"contacts":{"email":"contact@ploermel.bzh","telephone":"0297732073"},"horaires":"Du Lundi au Vendredi : de 09h00 à 12h00 de 13h30 à 17h30\nFusion depuis le 1er janvier 2020 avec la commune de Monterrein","latitude":47.93172,"longitude":-2.39781,"website":"https://www.ploermel.bzh/","hasWebsite":true,"hasHoraires":true,"url":"https://lannuaire.service-public.gouv.fr/bretagne/morbihan/06328544-b6b1-4d56-bec4-ea5242e673e7"}
{"nom":"Plouay","nomNormalise":"plouay","typeCollectivite":"Commune","region":"Bretagne","departement":"Morbihan","departementCode":"56","adresse":{"street":"4 place de la Mairie","postalCode":"56240","city":"Plouay","country":"France"},"contacts":{"email":"contact@plouay.fr","telephone":"0297333151"},"horaires":"Du Lundi au Mercredi : de 08h30 à 12h00 de 13h30 à 17h00\nLe Jeudi : de 08h30 à 12h00\nLe Vendredi : de 09h00 à 12h00 de 13h30 à 17h00\nLe Samedi : de 09h00 à 12h00\n\nPermanence de l'état civil uniquement, contacter l'accueil pour vérifier l'ouverture du service, pendant la crise sanitaire téléphoner avant de se déplacer.","latitude":47.91549,"longitude":-3.334662,"website":"https://www.plouay.fr/","hasWebsite":true,"hasHoraires":true,"url":"https://lannuaire.service-public.gouv.fr/bretagne/morbihan/156336af-9b44-40f9-809b-270473e1341d"}
{"nom":"Plougoumelen","nomNormalise":"plougoumelen","typeCollectivite":"Commune","region":"Bretagne","departement":"Morbihan","departementCode":"56","adresse":{"street":"5 rue Yves-de-Pont-Sal","postalCode":"56400","city":"Plougoumelen","country":"France"},"contacts":{"email":"mairie@plougoumelen.fr","telephone":"0297578474"},"horaires":"Le Lundi : de 09h00 à 12h00 de 14h00 à 17h30\nLe Mardi : de 09h00 à 12h00\nDu Mercredi au Vendredi : de 09h00 à 12h00 de 14h00 à 17h30\nLe Samedi : de 09h00 à 12h00","latitude":47.6527,"longitude":-2.91727,"website":"https://www.plougoumelen.bzh/","hasWebsite":true,"hasHoraires":true,"url":"https://lannuaire.service-public.gouv.fr/bretagne/morbihan/5e401de7-453c-4b3f-b33b-cb98f6193f5f"}
{"nom":"Plouharnel","nomNormalise":"plouharnel","typeCollectivite":"Commune","region":"Bretagne","departement":"Morbihan","departementCode":"56","adresse":{"street":"2 place Saint-Armel","postalCode":"56340","city":"Plouharnel","country":"France"},"contacts":{"email":"accueil@mairieplouharnel.fr","telephone":"0297523090"},"horaires":"Du Lundi au Mercredi : de 09h00 à 12h30 de 13h30 à 17h00\nLe Jeudi : de 09h00 à 12h30\nLe Vendredi : de 09h00 à 12h30 de 13h30 à 17h00","latitude":47.5979,"longitude":-3.11262,"website":"http://mairieplouharnel.fr/","hasWebsite":true,"hasHoraires":true,"url":"https://lannuaire.service-public.gouv.fr/bretagne/morbihan/c3f39ac7-e6e1-4885-bb23-95c66b642810"}
{"nom":"Plouhinec","nomNormalise":"plouhinec","typeCollectivite":"Commune","region":"Bretagne","departement":"Morbihan","departementCode":"56","adresse":{"street":"1 rue du Général-de-Gaulle","postalCode":"56680","city":"Plouhinec","country":"France"},"contacts":{"email":"accueil@plouhinec.com","telephone":"0297858877"},"horaires":"Du Lundi au Vendredi : de 09h00 à 12h00 de 14h00 à 17h00\nLe Samedi : de 09h00 à 12h00\n\nAccueil ouvert uniquement pour l'état civil.","latitude":47.69745,"longitude":-3.2522092,"website":"https://www.plouhinec.com/","hasWebsite":true,"hasHoraires":true,"url":"https://lannuaire.service-public.gouv.fr/bretagne/morbihan/82cda2cc-9047-44cd-9fad-8974d8f077b9"}
{"nom":"Plouray","nomNormalise":"plouray","typeCollectivite":"Commune","region":"Bretagne","departement":"Morbihan","departementCode":"56","adresse":{"street":"9 rue de l'Ellé","postalCode":"56770","city":"Plouray","country":"France"},"contacts":{"email":"mairie@plouray.bzh","telephone":"0297348075"},"horaires":"Du Lundi au Vendredi : de 09h00 à 12h00 de 13h30 à 17h00\nLe Samedi : de 09h00 à 12h00","latitude":48.14548,"longitude":-3.3883462,"website":"https://www.plouray.bzh/","hasWebsite":true,"hasHoraires":true,"url":"https://lannuaire.service-public.gouv.fr/bretagne/morbihan/d87d354a-3c44-4e27-9b55-40c6ab21aeeb"}
{"nom":"Pluherlin","nomNormalise":"pluherlin","typeCollectivite":"Commune","region":"Bretagne","departement":"Morbihan","departementCode":"56","adresse":{"street":"3 rue Saint-Hernin","postalCode":"56220","city":"Pluherlin","country":"France"},"contacts":{"email":"mairie@pluherlin.fr","telephone":"0297433135"},"horaires":"Du Lundi au Vendredi : de 08h30 à 12h00 de 13h30 à 17h00\n\nFermé le jeudi après-midi\nLe Samedi : de 08h30 à 12h00","latitude":47.6963,"longitude":-2.36257,"website":"","hasWebsite":false,"hasHoraires":true,"url":"https://lannuaire.service-public.gouv.fr/bretagne/morbihan/fc0b08a8-9ad1-4dc0-80ea-9b1e2beb3503"}
{"nom":"Plumelec","nomNormalise":"plumelec","typeCollectivite":"Commune","region":"Bretagne","departement":"Morbihan","departementCode":"56","adresse":{"street":"19 place de l'Église","postalCode":"56420","city":"Plumelec","country":"France"},"contacts":{"email":"accueil.mairie@plumelec.fr","telephone":"0297422427"},"horaires":"Du Lundi au Jeudi : de 08h30 à 12h00 de 13h30 à 18h00\nLe Vendredi : de 08h30 à 12h00 de 13h30 à 17h00\nLe Samedi : de 08h30 à 12h00\n\nAccueil fermé le samedi en juillet-août.","latitude":47.8377,"longitude":-2.639409,"website":"https://www.plumelec.org/","hasWebsite":true,"hasHoraires":true,"url":"https://lannuaire.service-public.gouv.fr/bretagne/morbihan/fc108f8a-add7-40e1-a0c0-2ebdb3f92cb4"}
{"nom":"Pluméliau-Bieuzy","nomNormalise":"plumeliaubieuzy","typeCollectivite":"Commune","region":"Bretagne","departement":"Morbihan","departementCode":"56","adresse":{"street":"Pluméliau","postalCode":"56930","city":"Pluméliau-Bieuzy","country":"France"},"contacts":{"email":"accueil@plumeliau-bieuzy.bzh","telephone":"0297518028"},"horaires":"Du Lundi au Vendredi : de 08h30 à 12h00 de 13h30 à 16h00\nLe Samedi : de 08h30 à 12h00\n\nAccueil possible sur rendez-vous en dehors de ces horaires.","latitude":47.95807,"longitude":-2.97272,"website":"http://www.plumeliau-bieuzy.bzh/","hasWebsite":true,"hasHoraires":true,"url":"https://lannuaire.service-public.gouv.fr/bretagne/morbihan/945a7c81-6b0f-41e3-a2dd-fea9aee1c72f"}
{"nom":"Plumelin","nomNormalise":"plumelin","typeCollectivite":"Commune","region":"Bretagne","departement":"Morbihan","departementCode":"56","adresse":{"street":"6 bis rue de la Mairie","postalCode":"56500","city":"Plumelin","country":"France"},"contacts":{"email":"accueil@plumelin.bzh","telephone":"0297441075"},"horaires":"Le Lundi : de 09h00 à 12h00 de 13h30 à 17h30\nLe Mardi : de 10h00 à 12h00 de 13h30 à 17h30\nLe Mercredi : de 09h00 à 12h00\nDu Jeudi au Vendredi : de 09h00 à 12h00 de 13h30 à 17h30\nLe Samedi : de 09h00 à 12h00","latitude":47.861443,"longitude":-2.887228,"website":"https://www.plumelin.bzh/","hasWebsite":true,"hasHoraires":true,"url":"https://lannuaire.service-public.gouv.fr/bretagne/morbihan/f2271b2b-04af-4bb4-a4f0-50311e9ca03b"}
{"nom":"Plumergat","nomNormalise":"plumergat","typeCollectivite":"Commune","region":"Bretagne","departement":"Morbihan","departementCode":"56","adresse":{"street":"Place du Castil","postalCode":"56400","city":"Plumergat","country":"France"},"contacts":{"email":"accueil.mairie@plumergat.fr","telephone":"0297561456"},"horaires":"Du Lundi au Vendredi : de 08h30 à 12h00 de 14h30 à 17h00\nLe Samedi : de 09h00 à 12h00\n\nFermé Juillet - Août","latitude":47.741493,"longitude":-2.918385,"website":"http://www.plumergat.fr/","hasWebsite":true,"hasHoraires":true,"url":"https://lannuaire.service-public.gouv.fr/bretagne/morbihan/e1439d21-a963-402d-bb95-36ffbcebd145"}
{"nom":"Pluneret","nomNormalise":"pluneret","typeCollectivite":"Commune","region":"Bretagne","departement":"Morbihan","departementCode":"56","adresse":{"street":"7 place Vincent-Jollivet","postalCode":"56400","city":"Pluneret","country":"France"},"contacts":{"email":"accueil@pluneret.fr","telephone":"0297240106"},"horaires":"Du Lundi au Vendredi : de 08h30 à 12h00 de 13h30 à 17h30\n\nPermanence téléphonique uniquement le mardi après-midi.","latitude":47.6752,"longitude":-2.95856,"website":"http://www.pluneret.fr/","hasWebsite":true,"hasHoraires":true,"url":"https://lannuaire.service-public.gouv.fr/bretagne/morbihan/a029e764-ad77-40a8-994b-43215b5a36d5"}
{"nom":"Pluvigner","nomNormalise":"pluvigner","typeCollectivite":"Commune","region":"Bretagne","departement":"Morbihan","departementCode":"56","adresse":{"street":"Place Saint-Michel","postalCode":"56330","city":"Pluvigner","country":"France"},"contacts":{"email":"mairie@pluvigner.fr","telephone":"0297247134"},"horaires":"Du Lundi au Vendredi : de 08h45 à 12h00 de 13h45 à 17h30\nLe Samedi : de 08h45 à 12h00\n\nPendant la crise sanitaire accueil sur rendez-vous uniquement.","latitude":47.777283,"longitude":-3.009527,"website":"https://www.pluvigner.fr/","hasWebsite":true,"hasHoraires":true,"url":"https://lannuaire.service-public.gouv.fr/bretagne/morbihan/17ee789d-1ec6-4a5a-aa97-ab74486a1c40"}
{"nom":"Pontivy","nomNormalise":"pontivy","typeCollectivite":"Commune","region":"Bretagne","departement":"Morbihan","departementCode":"56","adresse":{"street":"8 rue François-Mitterrand","postalCode":"56300","city":"Pontivy","country":"France"},"contacts":{"email":"secretariat.general@ville-pontivy.bzh","telephone":"0297250033"},"horaires":"Du Lundi au Jeudi : de 08h30 à 12h00 de 13h30 à 17h30\nLe Vendredi : de 08h30 à 12h00 de 13h30 à 17h00\nLe Samedi : de 08h30 à 12h00\n\nOuverture uniquement de l'accueil, état civil fermé et fermé pendant les congés scolaires sauf le 1er samedi des vacances.","latitude":48.06444,"longitude":-2.9676714,"website":"https://ville-pontivy.bzh/","hasWebsite":true,"hasHoraires":true,"url":"https://lannuaire.service-public.gouv.fr/bretagne/morbihan/a15919b1-f2b4-44a2-9bfb-18b6a118a851"}
{"nom":"Pont-Scorff","nomNormalise":"pontscorff","typeCollectivite":"Commune","region":"Bretagne","departement":"Morbihan","departementCode":"56","adresse":{"street":"4 place de la Maison des Princes","postalCode":"56620","city":"Pont-Scorff","country":"France"},"contacts":{"email":"contact@pontscorff.bzh","telephone":"0297326037"},"horaires":"Du Lundi au Vendredi : de 08h45 à 12h00 de 13h30 à 17h15\nLe Samedi : de 09h00 à 12h00","latitude":47.835,"longitude":-3.398969,"website":"http://www.pontscorff.com/","hasWebsite":true,"hasHoraires":true,"url":"https://lannuaire.service-public.gouv.fr/bretagne/morbihan/f4f8aa3d-5e0b-45fa-a785-47ea549474ed"}
{"nom":"Porcaro","nomNormalise":"porcaro","typeCollectivite":"Commune","region":"Bretagne","departement":"Morbihan","departementCode":"56","adresse":{"street":"Place de la Mairie","postalCode":"56380","city":"Porcaro","country":"France"},"contacts":{"email":"mairie.porcaro@orange.fr","telephone":"0297220638"},"horaires":"Le Mardi : de 09h00 à 12h00 de 14h00 à 17h00\nDu Mercredi au Samedi : de 09h00 à 12h00","latitude":47.9094,"longitude":-2.199,"website":"https://porcaro.fr/","hasWebsite":true,"hasHoraires":true,"url":"https://lannuaire.service-public.gouv.fr/bretagne/morbihan/394b6976-0905-4139-a839-0f166a09bcbc"}
{"nom":"Port-Louis","nomNormalise":"portlouis","typeCollectivite":"Commune","region":"Bretagne","departement":"Morbihan","departementCode":"56","adresse":{"street":"Place Notre-Dame","postalCode":"56290","city":"Port-Louis","country":"France"},"contacts":{"email":"accueil@ville-portlouis.fr","telephone":"0297825959"},"horaires":"Du Lundi au Mardi : de 08h30 à 12h15 de 13h30 à 17h30\nLe Mercredi : de 08h30 à 12h15\nDu Jeudi au Vendredi : de 08h30 à 12h15 de 13h30 à 17h30\nLe Samedi : de 09h00 à 12h00\n\nAccueil le samedi uniquement pour l'état civil.","latitude":47.7085,"longitude":-3.35588,"website":"http://www.ville-portlouis.fr/","hasWebsite":true,"hasHoraires":true,"url":"https://lannuaire.service-public.gouv.fr/bretagne/morbihan/6e37bbf9-6223-4f81-a8f4-67ff90e54d37"}
{"nom":"Priziac","nomNormalise":"priziac","typeCollectivite":"Commune","region":"Bretagne","departement":"Morbihan","departementCode":"56","adresse":{"street":"1 place de l'Église","postalCode":"56320","city":"Priziac","country":"France"},"contacts":{"email":"mairie@priziac.com","telephone":"0297346126"},"horaires":"Du Lundi au Mardi : de 08h30 à 12h00 de 14h00 à 17h00\nLe Mercredi : de 08h30 à 12h00\nLe Jeudi : de 08h30 à 12h00 de 15h30 à 17h00\nLe Vendredi : de 08h30 à 12h00 de 14h00 à 17h00\nLe Samedi : de 09h00 à 12h00","latitude":48.0602,"longitude":-3.41016,"website":"http://priziac.com/","hasWebsite":true,"hasHoraires":true,"url":"https://lannuaire.service-public.gouv.fr/bretagne/morbihan/149f5dfa-b4e9-4a23-b1f8-341c5152905a"}
{"nom":"Mairie déléguée - Quelneuc","nomNormalise":"mairiedelegueequelneuc","typeCollectivite":"Commune","region":"Bretagne","departement":"Morbihan","departementCode":"56","adresse":{"street":"Quelneuc","postalCode":"56910","city":"Carentoir","country":"France"},"contacts":{"email":"quelneuc@carentoir.bzh","telephone":"0299088461"},"horaires":"Le Lundi : de 08h30 à 12h00\nLe Mercredi : de 08h30 à 12h00\nLe Vendredi : de 14h00 à 16h30\nCarentoir est une commune née le 1er janvier 2017 de la fusion de l'ancienne commune de Carentoir et de la commune de Quelneuc.","latitude":47.823105,"longitude":-2.067435,"website":"http://www.carentoir.com/","hasWebsite":true,"hasHoraires":true,"url":"https://lannuaire.service-public.gouv.fr/bretagne/morbihan/17f0a946-f09c-4e1a-90ba-5e1dee0cae23"}
{"nom":"Questembert","nomNormalise":"questembert","typeCollectivite":"Commune","region":"Bretagne","departement":"Morbihan","departementCode":"56","adresse":{"street":"Place du Général-de-Gaulle","postalCode":"56231","city":"Questembert Cedex","country":"France"},"contacts":{"email":"accueil@mairiequestembert.bzh","telephone":"0297261138"},"horaires":"Du Lundi au Vendredi : de 08h45 à 12h15 de 14h00 à 17h00\nLe Samedi : de 09h00 à 12h00\n\nAccueil ouvert le samedi uniquement pour l'état civil, et tous les jours sur rendez-vous uniquement pour les cartes d'identité et passeports.","latitude":47.660103,"longitude":-2.4506578,"website":"http://www.mairie-questembert.fr/","hasWebsite":true,"hasHoraires":true,"url":"https://lannuaire.service-public.gouv.fr/bretagne/morbihan/e9575c55-7df5-466b-b1ad-aec4c78e320a"}
{"nom":"Quéven","nomNormalise":"queven","typeCollectivite":"Commune","region":"Bretagne","departement":"Morbihan","departementCode":"56","adresse":{"street":"Place Pierre-Quinio","postalCode":"56530","city":"Quéven","country":"France"},"contacts":{"email":"mairie@mairie-queven.fr","telephone":"0297801414"},"horaires":"Du Lundi au Vendredi : de 09h00 à 12h00 de 13h30 à 17h00\nLe Samedi : de 09h00 à 12h00\n\nAccueil ouvert uniquement pour l'état civil.","latitude":47.787647,"longitude":-3.418031,"website":"http://www.queven.com/","hasWebsite":true,"hasHoraires":true,"url":"https://lannuaire.service-public.gouv.fr/bretagne/morbihan/fed32fd1-cbad-4152-ac27-f075a98cd18c"}
{"nom":"Quiberon","nomNormalise":"quiberon","typeCollectivite":"Commune","region":"Bretagne","departement":"Morbihan","departementCode":"56","adresse":{"street":"7 rue de Verdun","postalCode":"56178","city":"Quiberon Cedex","country":"France"},"contacts":{"email":"quiberon@ville-quiberon.fr","telephone":"0297302400"},"horaires":"Du Lundi au Vendredi : de 09h00 à 12h30 de 14h00 à 17h30\nLe Samedi : de 09h00 à 12h00\n\nAccueil ouvert uniquement pour l'état civil.","latitude":47.48635,"longitude":-3.119258,"website":"http://www.ville-quiberon.fr/","hasWebsite":true,"hasHoraires":true,"url":"https://lannuaire.service-public.gouv.fr/bretagne/morbihan/94a6634d-e7c7-4865-afb0-a36bd26d1f0e"}
{"nom":"Quily","nomNormalise":"quily","typeCollectivite":"Commune","region":"Bretagne","departement":"Morbihan","departementCode":"56","adresse":{"street":"1 rue de l'Église","postalCode":"56800","city":"Quily","country":"France"},"contacts":{"email":"mairie.quily@gmail.com","telephone":"0297749276"},"horaires":"Du Lundi au Mardi : de 09h00 à 12h00\nDu Jeudi au Vendredi : de 09h00 à 12h00\nContacter la mairie pour connaître les horaires d'ouverture, pendant la crise sanitaire contact par téléphone ou mail de préférence.","latitude":47.89149,"longitude":-2.46787,"website":"https://www.mairie-valdoust.fr/","hasWebsite":true,"hasHoraires":true,"url":"https://lannuaire.service-public.gouv.fr/bretagne/morbihan/42ec7167-4d7e-4797-982b-1169e4203b10"}
{"nom":"Quistinic","nomNormalise":"quistinic","typeCollectivite":"Commune","region":"Bretagne","departement":"Morbihan","departementCode":"56","adresse":{"street":"Leur-Izel","postalCode":"56310","city":"Quistinic","country":"France"},"contacts":{"email":"contact@quistinic.fr","telephone":"0297397108"},"horaires":"Le Lundi : de 09h00 à 12h00 de 14h00 à 17h00\nLe Mardi : de 08h30 à 12h30\nLe Mercredi : de 08h30 à 12h30 de 13h30 à 17h00\nLe Jeudi : de 08h30 à 12h30\nLe Vendredi : de 08h30 à 12h30 de 13h30 à 17h00\nLe Samedi : de 09h00 à 12h00\n\nAccueil fermé en juillet-août.","latitude":47.9048,"longitude":-3.13381,"website":"https://www.quistinic.fr/","hasWebsite":true,"hasHoraires":true,"url":"https://lannuaire.service-public.gouv.fr/bretagne/morbihan/0d1e1936-a9b1-458c-9c41-f6f78ef2f1c8"}
{"nom":"Radenac","nomNormalise":"radenac","typeCollectivite":"Commune","region":"Bretagne","departement":"Morbihan","departementCode":"56","adresse":{"street":"15 rue Anne-de-Bretagne","postalCode":"56500","city":"Radenac","country":"France"},"contacts":{"email":"mairie@radenac.bzh","telephone":"0297224319"},"horaires":"Du Mardi au Samedi : de 09h00 à 12h30","latitude":47.96164,"longitude":-2.713885,"website":"https://radenac.bzh/","hasWebsite":true,"hasHoraires":true,"url":"https://lannuaire.service-public.gouv.fr/bretagne/morbihan/0e8f5691-daef-455b-ab12-1230ff8cac50"}
{"nom":"Réguiny","nomNormalise":"reguiny","typeCollectivite":"Commune","region":"Bretagne","departement":"Morbihan","departementCode":"56","adresse":{"street":"3 rue du Général-de-Gaulle","postalCode":"56500","city":"Réguiny","country":"France"},"contacts":{"email":"mairie@reguiny.bzh","telephone":"0297386611"},"horaires":"Le Lundi : de 14h00 à 16h00\nLe Mardi : de 08h30 à 12h30 de 14h00 à 16h00\nLe Mercredi : de 08h30 à 12h30\nDu Jeudi au Vendredi : de 08h30 à 12h30 de 14h00 à 16h00\nLe Samedi : de 08h30 à 12h00","latitude":47.9763,"longitude":-2.74545,"website":"https://www.reguiny.com/","hasWebsite":true,"hasHoraires":true,"url":"https://lannuaire.service-public.gouv.fr/bretagne/morbihan/308038d6-9191-4544-8485-c0c9581e10bb"}
{"nom":"Réminiac","nomNormalise":"reminiac","typeCollectivite":"Commune","region":"Bretagne","departement":"Morbihan","departementCode":"56","adresse":{"street":"3 route du Moulin","postalCode":"56140","city":"Réminiac","country":"France"},"contacts":{"email":"maire.reminiac@orange.fr","telephone":"0297932283"},"horaires":"Le Lundi : de 09h00 à 12h00\nLe Mardi : de 09h00 à 12h00 de 14h00 à 17h45\nDu Jeudi au Vendredi : de 09h00 à 12h00","latitude":47.8601,"longitude":-2.238127,"website":"https://reminiac.fr/","hasWebsite":true,"hasHoraires":true,"url":"https://lannuaire.service-public.gouv.fr/bretagne/morbihan/1aa1350e-1a4e-40fd-8a7f-8e411d45825b"}
{"nom":"Riantec","nomNormalise":"riantec","typeCollectivite":"Commune","region":"Bretagne","departement":"Morbihan","departementCode":"56","adresse":{"street":"Place de la Mairie","postalCode":"56670","city":"Riantec","country":"France"},"contacts":{"email":"contact@mairie-riantec.bzh","telephone":"0297339810"},"horaires":"Du Lundi au Mardi : de 08h45 à 12h00 de 14h00 à 17h00\nLe Mercredi : de 08h45 à 12h00\nDu Jeudi au Vendredi : de 08h45 à 12h00 de 14h00 à 17h00","latitude":47.72009,"longitude":-3.304275,"website":"http://www.riantec.com/","hasWebsite":true,"hasHoraires":true,"url":"https://lannuaire.service-public.gouv.fr/bretagne/morbihan/858f0d6f-9193-4d7a-b208-d39084ef80f3"}
{"nom":"Rieux","nomNormalise":"rieux","typeCollectivite":"Commune","region":"Bretagne","departement":"Morbihan","departementCode":"56","adresse":{"street":"Place de l'Église","postalCode":"56350","city":"Rieux","country":"France"},"contacts":{"email":"contact@mairiederieux.fr","telephone":"0299919069"},"horaires":"Le Lundi : de 09h00 à 12h00\nLe Mardi : de 09h00 à 12h00 de 13h30 à 17h00\nDu Mercredi au Jeudi : de 09h00 à 12h00\nLe Vendredi : de 09h00 à 12h00 de 13h30 à 17h00\nLe Samedi : de 09h00 à 12h00","latitude":47.598,"longitude":-2.10771,"website":"http://www.rieux-morbihan.fr/","hasWebsite":true,"hasHoraires":true,"url":"https://lannuaire.service-public.gouv.fr/bretagne/morbihan/c99dd0e1-7286-4139-a850-7cecc005c97c"}
{"nom":"Rochefort-en-Terre","nomNormalise":"rochefortenterre","typeCollectivite":"Commune","region":"Bretagne","departement":"Morbihan","departementCode":"56","adresse":{"street":"1 place des Halles","postalCode":"56220","city":"Rochefort-en-Terre","country":"France"},"contacts":{"email":"mairie.rochefort-en-terre@wanadoo.fr","telephone":"0297433281"},"horaires":"Le Lundi : de 09h00 à 12h00\nLe Mardi : de 09h00 à 12h00 de 14h00 à 17h00\nLe Mercredi : de 09h00 à 12h00\nLe Jeudi : de 09h00 à 12h00 de 14h00 à 17h00\nLe Vendredi : de 09h00 à 12h00 de 14h00 à 16h30","latitude":47.699223,"longitude":-2.336332,"website":"http://www.rochefort-en-terre.fr/","hasWebsite":true,"hasHoraires":true,"url":"https://lannuaire.service-public.gouv.fr/bretagne/morbihan/88195fd6-757b-40f9-97c0-d9d432d7d368"}
{"nom":"Rohan","nomNormalise":"rohan","typeCollectivite":"Commune","region":"Bretagne","departement":"Morbihan","departementCode":"56","adresse":{"street":"11 place de la Mairie","postalCode":"56580","city":"Rohan","country":"France"},"contacts":{"email":"mairie@rohan.fr","telephone":"0297515033"},"horaires":"Du Lundi au Vendredi : de 09h00 à 12h00 de 14h00 à 16h00\nLe Samedi : de 09h00 à 12h00\n\nAccueil fermé le samedi en juillet et en août, sur rendez-vous uniquement pour les cartes d'identité et passeports.","latitude":48.06966,"longitude":-2.752306,"website":"http://www.rohan.fr/","hasWebsite":true,"hasHoraires":true,"url":"https://lannuaire.service-public.gouv.fr/bretagne/morbihan/16d5976e-2b08-496c-bf6e-e55a996689bd"}
{"nom":"Roudouallec","nomNormalise":"roudouallec","typeCollectivite":"Commune","region":"Bretagne","departement":"Morbihan","departementCode":"56","adresse":{"street":"15 rue Nicolas le Grand","postalCode":"56110","city":"Roudouallec","country":"France"},"contacts":{"email":"mairie.roudouallec@wanadoo.fr","telephone":"0297345053"},"horaires":"Le Lundi : de 09h00 à 12h00\nLe Mardi : de 09h00 à 12h00\n\nsur rendez-vous de 14h00 à 17h00.\nLe Mercredi : de 09h00 à 12h00\nLe Jeudi : de 09h00 à 12h00\n\nsur rendez-vous de 14h00 à 17h00.\nLe Vendredi : de 09h00 à 12h00 de 14h00 à 17h00","latitude":48.1262,"longitude":-3.71964,"website":"http://www.roudouallec.fr/","hasWebsite":true,"hasHoraires":true,"url":"https://lannuaire.service-public.gouv.fr/bretagne/morbihan/88bb6420-bf1b-49b0-b1b2-c9208e190b36"}
{"nom":"Ruffiac","nomNormalise":"ruffiac","typeCollectivite":"Commune","region":"Bretagne","departement":"Morbihan","departementCode":"56","adresse":{"street":"11 place Louis-Guillemot","postalCode":"56140","city":"Ruffiac","country":"France"},"contacts":{"email":"mairie-ruffiac@wanadoo.fr","telephone":"0297937342"},"horaires":"Du Mardi au Mercredi : de 08h30 à 12h30 de 14h00 à 17h30\nLe Jeudi : de 08h30 à 12h30\nLe Vendredi : de 08h30 à 12h30 de 14h00 à 17h30\nLe Samedi : de 09h00 à 12h00","latitude":47.818787,"longitude":-2.281829,"website":"http://www.ruffiac.fr/","hasWebsite":true,"hasHoraires":true,"url":"https://lannuaire.service-public.gouv.fr/bretagne/morbihan/c4232a2b-93d1-4aea-9aba-3a2bf6fc5b9f"}
{"nom":"Saint-Abraham","nomNormalise":"saintabraham","typeCollectivite":"Commune","region":"Bretagne","departement":"Morbihan","departementCode":"56","adresse":{"street":"4 rue de la Mairie","postalCode":"56140","city":"Saint-Abraham","country":"France"},"contacts":{"email":"secretariat@saint-abraham.fr","telephone":"0297749155"},"horaires":"Le Lundi : de 09h00 à 12h30 de 13h30 à 17h00\nLe Mardi : de 09h00 à 12h30\nLe Mercredi : de 09h00 à 12h30 de 13h30 à 17h30\nLe Vendredi : de 09h00 à 12h30 de 13h30 à 16h30","latitude":47.8564,"longitude":-2.41125,"website":"http://www.saint-abraham.fr/","hasWebsite":true,"hasHoraires":true,"url":"https://lannuaire.service-public.gouv.fr/bretagne/morbihan/9c1454a1-4e0d-492d-b9d8-609f7bf23495"}
{"nom":"Saint-Aignan","nomNormalise":"saintaignan","typeCollectivite":"Commune","region":"Bretagne","departement":"Morbihan","departementCode":"56","adresse":{"street":"10 rue de la Mairie","postalCode":"56480","city":"Saint-Aignan","country":"France"},"contacts":{"email":"mairie@saint-aignan.bzh","telephone":"0297275020"},"horaires":"Le Lundi : de 09h00 à 12h00 de 14h00 à 17h00\nDu Mardi au Mercredi : de 09h00 à 12h00\nLe Jeudi : de 09h00 à 12h00 de 14h00 à 17h00\nLe Vendredi : de 09h00 à 12h00","latitude":48.18149,"longitude":-3.0150192,"website":"https://www.saint-aignan56.fr/","hasWebsite":true,"hasHoraires":true,"url":"https://lannuaire.service-public.gouv.fr/bretagne/morbihan/075b5f6c-9ed7-44a6-b231-b127afce2cc8"}
{"nom":"Saint-Allouestre","nomNormalise":"saintallouestre","typeCollectivite":"Commune","region":"Bretagne","departement":"Morbihan","departementCode":"56","adresse":{"street":"1 place Joseph-Marot","postalCode":"56500","city":"Saint-Allouestre","country":"France"},"contacts":{"email":"mairie.stallouestre@wanadoo.fr","telephone":"0297603112"},"horaires":"Du Lundi au Mardi : de 08h30 à 12h30 de 13h30 à 16h00\nDu Jeudi au Vendredi : de 08h30 à 12h30 de 13h30 à 16h00\nLe Samedi : de 08h00 à 11h30\n\nFermé en juillet-août.","latitude":47.9105,"longitude":-2.72314,"website":"http://www.stallouestre.fr/","hasWebsite":true,"hasHoraires":true,"url":"https://lannuaire.service-public.gouv.fr/bretagne/morbihan/e9a134a7-1678-46fd-bb5b-e0dc23bdcb49"}
{"nom":"Saint-Armel","nomNormalise":"saintarmel","typeCollectivite":"Commune","region":"Bretagne","departement":"Morbihan","departementCode":"56","adresse":{"street":"30 rue de la Mairie","postalCode":"56450","city":"Saint-Armel","country":"France"},"contacts":{"email":"contact-mairie@saint-armel.fr","telephone":"0297264072"},"horaires":"Du Lundi au Vendredi : de 09h00 à 12h00","latitude":47.5718,"longitude":-2.71088,"website":"https://www.saint-armel56.fr/","hasWebsite":true,"hasHoraires":true,"url":"https://lannuaire.service-public.gouv.fr/bretagne/morbihan/a2c894d1-8ec8-4c53-a225-59843e06b96d"}
{"nom":"Saint-Avé","nomNormalise":"saintave","typeCollectivite":"Commune","region":"Bretagne","departement":"Morbihan","departementCode":"56","adresse":{"street":"Place de l'Hôtel-de-Ville","postalCode":"56891","city":"Saint-Avé Cedex","country":"France"},"contacts":{"email":"","telephone":"0297607010"},"horaires":"Du Lundi au Vendredi : de 08h30 à 12h00 de 13h30 à 17h30\nLe Samedi : de 08h30 à 12h00","latitude":47.68981,"longitude":-2.73568,"website":"http://www.saint-ave.fr/","hasWebsite":true,"hasHoraires":true,"url":"https://lannuaire.service-public.gouv.fr/bretagne/morbihan/d9c98f63-799b-4284-ab19-774b821daec8"}
{"nom":"Saint-Barthélémy","nomNormalise":"saintbarthelemy","typeCollectivite":"Commune","region":"Bretagne","departement":"Morbihan","departementCode":"56","adresse":{"street":"Rue de la Mairie","postalCode":"56150","city":"Saint-Barthélémy","country":"France"},"contacts":{"email":"contact@saint-barthelemy56.fr","telephone":"0297271088"},"horaires":"Le Lundi : de 09h00 à 12h00\nLe Mardi : de 09h00 à 12h00 de 14h00 à 17h00\nLe Mercredi : de 09h00 à 12h00\nDu Jeudi au Vendredi : de 09h00 à 12h00 de 14h00 à 17h00\nLe Samedi : de 09h00 à 12h00","latitude":47.926662,"longitude":-3.040992,"website":"https://saint-barthelemy56.fr/","hasWebsite":true,"hasHoraires":true,"url":"https://lannuaire.service-public.gouv.fr/bretagne/morbihan/8ac13aea-3099-4d25-ba6d-fabba0f0685b"}
{"nom":"Saint-Brieuc-de-Mauron","nomNormalise":"saintbrieucdemauron","typeCollectivite":"Commune","region":"Bretagne","departement":"Morbihan","departementCode":"56","adresse":{"street":"10 rue de Camet","postalCode":"56430","city":"Saint-Brieuc-de-Mauron","country":"France"},"contacts":{"email":"mairie.saint.brieuc.de.mauron@orange.fr","telephone":"0297226075"},"horaires":"Le Mardi : de 09h00 à 12h30\nLe Jeudi : de 09h00 à 12h30\nLe Samedi : de 09h00 à 12h30","latitude":48.08995,"longitude":-2.3645382,"website":"","hasWebsite":false,"hasHoraires":true,"url":"https://lannuaire.service-public.gouv.fr/bretagne/morbihan/1c855455-2586-450b-ac9d-58601b9401b2"}
{"nom":"Saint-Caradec-Trégomel","nomNormalise":"saintcaradectregomel","typeCollectivite":"Commune","region":"Bretagne","departement":"Morbihan","departementCode":"56","adresse":{"street":"7 rue de la Mairie","postalCode":"56540","city":"Saint-Caradec-Trégomel","country":"France"},"contacts":{"email":"mairie-de-st-caradec-tregomel@wanadoo.fr","telephone":"0297516052"},"horaires":"Du Lundi au Mardi : de 08h30 à 12h30 de 13h30 à 17h30\nLe Mercredi : de 08h30 à 12h30\nDu Jeudi au Vendredi : de 08h30 à 12h30 de 13h30 à 17h30","latitude":48.040504,"longitude":-3.363389,"website":"","hasWebsite":false,"hasHoraires":true,"url":"https://lannuaire.service-public.gouv.fr/bretagne/morbihan/96fe9985-08ff-496d-8263-ef4078284ee2"}
{"nom":"Saint-Congard","nomNormalise":"saintcongard","typeCollectivite":"Commune","region":"Bretagne","departement":"Morbihan","departementCode":"56","adresse":{"street":"9 route de Redon","postalCode":"56140","city":"Saint-Congard","country":"France"},"contacts":{"email":"accueil@saint-congard.bzh","telephone":"0297435013"},"horaires":"Du Lundi au Mardi : de 09h00 à 12h00 de 14h00 à 16h00\nLe Mercredi : de 09h00 à 12h00\nDu Jeudi au Vendredi : de 09h00 à 12h00 de 14h00 à 16h00\nEt sur rendez-vous l'après-midi.","latitude":47.770134,"longitude":-2.3175323,"website":"https://saint-congard.bzh/","hasWebsite":true,"hasHoraires":true,"url":"https://lannuaire.service-public.gouv.fr/bretagne/morbihan/eb26d63b-5674-4b92-9d60-b67c8bfc3025"}
{"nom":"Saint-Dolay","nomNormalise":"saintdolay","typeCollectivite":"Commune","region":"Bretagne","departement":"Morbihan","departementCode":"56","adresse":{"street":"1 place de l'Église","postalCode":"56130","city":"Saint-Dolay","country":"France"},"contacts":{"email":"mairie@saintdolay.fr","telephone":"0299902069"},"horaires":"Le Lundi : de 08h15 à 12h00 de 13h30 à 17h30\nLe Mardi : de 08h15 à 12h00\nLe Mercredi : de 08h15 à 12h00 de 13h30 à 17h30\nLe Jeudi : de 08h15 à 12h00\nLe Vendredi : de 08h15 à 12h00 de 13h30 à 17h30\nLe Samedi : de 09h00 à 12h00","latitude":47.5448,"longitude":-2.15475,"website":"http://www.saintdolay.fr/","hasWebsite":true,"hasHoraires":true,"url":"https://lannuaire.service-public.gouv.fr/bretagne/morbihan/5bba88f4-f87f-4029-9a9c-ce22bb016ecc"}
{"nom":"Sainte-Anne-d'Auray","nomNormalise":"sainteannedauray","typeCollectivite":"Commune","region":"Bretagne","departement":"Morbihan","departementCode":"56","adresse":{"street":"10 place Nicolazic","postalCode":"56411","city":"Sainte-Anne-d'Auray Cedex","country":"France"},"contacts":{"email":"contact@sainte-anne-auray.com","telephone":"0297576391"},"horaires":"Le Lundi : de 08h30 à 12h00\nDu Mardi au Vendredi : de 08h30 à 12h00 de 13h30 à 17h30","latitude":47.703617,"longitude":-2.95051,"website":"http://www.sainte-anne-auray.com/","hasWebsite":true,"hasHoraires":true,"url":"https://lannuaire.service-public.gouv.fr/bretagne/morbihan/340b996a-5bcc-4a5f-9b36-89a6694014da"}
{"nom":"Sainte-Brigitte","nomNormalise":"saintebrigitte","typeCollectivite":"Commune","region":"Bretagne","departement":"Morbihan","departementCode":"56","adresse":{"street":"14 rue de l'Église","postalCode":"56480","city":"Sainte-Brigitte","country":"France"},"contacts":{"email":"mairie@sainte-brigitte.bzh","telephone":"0297276169"},"horaires":"Du Lundi au Mardi : de 09h00 à 12h30 de 13h00 à 16h30\nDu Jeudi au Vendredi : de 09h00 à 12h30 de 13h00 à 16h30","latitude":48.16429,"longitude":-3.129087,"website":"http://www.sainte-brigitte.fr/","hasWebsite":true,"hasHoraires":true,"url":"https://lannuaire.service-public.gouv.fr/bretagne/morbihan/d0217a07-98c9-4018-a39c-cdf39ec92cbd"}
{"nom":"Sainte-Hélène","nomNormalise":"saintehelene","typeCollectivite":"Commune","region":"Bretagne","departement":"Morbihan","departementCode":"56","adresse":{"street":"Rue du 11-Septembre-1944","postalCode":"56700","city":"Sainte-Hélène","country":"France"},"contacts":{"email":"mairie@saintehelenesurmer.bzh","telephone":"0297366436"},"horaires":"Du Lundi au Vendredi : de 09h00 à 12h30\nLe Samedi : de 09h00 à 12h00","latitude":47.7194,"longitude":-3.20533,"website":"https://saintehelenesurmer.bzh/","hasWebsite":true,"hasHoraires":true,"url":"https://lannuaire.service-public.gouv.fr/bretagne/morbihan/a0d74c79-d3b1-49e8-aa33-fe9c355585bc"}
{"nom":"Saint-Gérand-Croixanvec","nomNormalise":"saintgerandcroixanvec","typeCollectivite":"Commune","region":"Bretagne","departement":"Morbihan","departementCode":"56","adresse":{"street":"3 rue du Presbytère","postalCode":"56920","city":"Saint-Gérand-Croixanvec","country":"France"},"contacts":{"email":"mairie@saint-gerand-croixanvec.bzh","telephone":"0297514009"},"horaires":"Le Lundi : de 09h00 à 12h30\nLe Mardi : de 09h00 à 12h30 de 14h30 à 17h00\nLe Mercredi : de 09h00 à 12h30\nDu Jeudi au Vendredi : de 09h00 à 12h30 de 14h30 à 17h00","latitude":48.109104,"longitude":-2.886761,"website":"https://www.st-gerand.fr/","hasWebsite":true,"hasHoraires":true,"url":"https://lannuaire.service-public.gouv.fr/bretagne/morbihan/251ce2ac-040a-4ce8-a3c4-93ee2d9d14dd"}
{"nom":"Saint-Gildas-de-Rhuys","nomNormalise":"saintgildasderhuys","typeCollectivite":"Commune","region":"Bretagne","departement":"Morbihan","departementCode":"56","adresse":{"street":"Rue Saint-Goustan","postalCode":"56730","city":"Saint-Gildas-de-Rhuys","country":"France"},"contacts":{"email":"contact@saint-gildas-de-rhuys.fr","telephone":"0297452315"},"horaires":"Du Lundi au Vendredi : de 09h00 à 12h00 de 14h00 à 17h00\n\nLe service urbanisme est ouvert du lundi au vendredi de 9h à 12h, pendant la crise sanitaire contact par téléphone de préférence.","latitude":47.5009,"longitude":-2.83421,"website":"http://www.saint-gildas-de-rhuys.fr/","hasWebsite":true,"hasHoraires":true,"url":"https://lannuaire.service-public.gouv.fr/bretagne/morbihan/9c1ce94b-837f-4160-8734-9b9b3fa59fba"}
{"nom":"Saint-Gonnery","nomNormalise":"saintgonnery","typeCollectivite":"Commune","region":"Bretagne","departement":"Morbihan","departementCode":"56","adresse":{"street":"14 rue des Deux-Ponts","postalCode":"56920","city":"Saint-Gonnery","country":"France"},"contacts":{"email":"mairie@stgonnery.bzh","telephone":"0297384105"},"horaires":"Du Lundi au Mardi : de 08h30 à 12h30 de 13h30 à 17h30\nDu Jeudi au Vendredi : de 08h30 à 12h30 de 13h30 à 17h30\nLe Samedi : de 09h00 à 12h00","latitude":48.124912,"longitude":-2.819904,"website":"http://www.stgonnery.fr/","hasWebsite":true,"hasHoraires":true,"url":"https://lannuaire.service-public.gouv.fr/bretagne/morbihan/ea4a9b91-455c-4d59-8b8e-7030e3be68c0"}
{"nom":"Saint-Gorgon","nomNormalise":"saintgorgon","typeCollectivite":"Commune","region":"Bretagne","departement":"Morbihan","departementCode":"56","adresse":{"street":"2 rue de la Mairie","postalCode":"56350","city":"Saint-Gorgon","country":"France"},"contacts":{"email":"mairie-st.gorgon@wanadoo.fr","telephone":"0299719205"},"horaires":"Du Lundi au Mardi : de 09h00 à 12h30 de 13h30 à 17h30\nLe Jeudi : de 09h00 à 12h30 de 13h30 à 17h30\nDu Vendredi au Samedi : de 09h00 à 12h30","latitude":47.6331,"longitude":-2.26125,"website":"","hasWebsite":false,"hasHoraires":true,"url":"https://lannuaire.service-public.gouv.fr/bretagne/morbihan/ad2a5bc5-1ac9-4116-ac34-99fa34d23b07"}
{"nom":"Saint-Gravé","nomNormalise":"saintgrave","typeCollectivite":"Commune","region":"Bretagne","departement":"Morbihan","departementCode":"56","adresse":{"street":"16 route de Rochefort-en-Terre","postalCode":"56220","city":"Saint-Gravé","country":"France"},"contacts":{"email":"mairie@saint-grave.fr","telephone":"0297435245"},"horaires":"Du Lundi au Mardi : de 08h45 à 12h30\nLe Mercredi : de 09h00 à 12h00 de 13h00 à 16h15\nDu Jeudi au Vendredi : de 08h45 à 12h30","latitude":47.726086,"longitude":-2.281963,"website":"https://www.saint-grave.fr/","hasWebsite":true,"hasHoraires":true,"url":"https://lannuaire.service-public.gouv.fr/bretagne/morbihan/c02fc9fc-e547-4a70-83b6-6d0ff9d222e4"}
{"nom":"Saint-Guyomard","nomNormalise":"saintguyomard","typeCollectivite":"Commune","region":"Bretagne","departement":"Morbihan","departementCode":"56","adresse":{"street":"1 rue de la Chapelle","postalCode":"56460","city":"Saint-Guyomard","country":"France"},"contacts":{"email":"secretariat@saint-guyomard.bzh","telephone":"0297759424"},"horaires":"Le Lundi : de 13h30 à 16h30\nLe Mardi : de 08h00 à 12h00\nLe Mercredi : de 08h00 à 12h00 de 13h30 à 16h30\nLe Jeudi : de 08h00 à 12h00\nLe Vendredi : de 08h00 à 12h00 de 13h30 à 16h30\nLe Samedi : de 08h00 à 12h00","latitude":47.781475,"longitude":-2.50824,"website":"https://www.saint-guyomard.fr/accueil-saint-guyomard","hasWebsite":true,"hasHoraires":true,"url":"https://lannuaire.service-public.gouv.fr/bretagne/morbihan/b269ff31-12b8-47f6-bfa2-f2494b09e980"}
{"nom":"Saint-Jacut-les-Pins","nomNormalise":"saintjacutlespins","typeCollectivite":"Commune","region":"Bretagne","departement":"Morbihan","departementCode":"56","adresse":{"street":"1 rue des Moulins","postalCode":"56220","city":"Saint-Jacut-les-Pins","country":"France"},"contacts":{"email":"mairie@st-jacut-les-pins.fr","telephone":"0299912865"},"horaires":"Du Lundi au Mardi : de 13h30 à 17h00\nLe Mercredi : de 08h00 à 12h00 de 13h30 à 17h00\nLe Jeudi : de 13h30 à 17h00\nLe Vendredi : de 08h00 à 12h00 de 13h30 à 17h00\nLe Samedi : de 09h00 à 12h00","latitude":47.68473,"longitude":2.215052,"website":"https://www.st-jacut-les-pins.fr/","hasWebsite":true,"hasHoraires":true,"url":"https://lannuaire.service-public.gouv.fr/bretagne/morbihan/8a2480ee-014f-498a-a2ec-9d1b74901740"}
{"nom":"Saint-Jean-Brevelay","nomNormalise":"saintjeanbrevelay","typeCollectivite":"Commune","region":"Bretagne","departement":"Morbihan","departementCode":"56","adresse":{"street":"11 rue de Rennes","postalCode":"56660","city":"Saint-Jean-Brevelay","country":"France"},"contacts":{"email":"mairie@brevelay.bzh","telephone":"0297603013"},"horaires":"Du Lundi au Vendredi : de 09h00 à 12h00 de 14h00 à 17h00\nLe Samedi : de 09h00 à 12h00\n\nAccueil ouvert uniquement pour l'état civil et fermé en juillet-août.","latitude":47.8451,"longitude":-2.72048,"website":"http://www.mairie-saint-jean-brevelay.fr/","hasWebsite":true,"hasHoraires":true,"url":"https://lannuaire.service-public.gouv.fr/bretagne/morbihan/d55eb4b9-93e0-4985-9a4f-e60675b1a8c6"}
{"nom":"Saint-Jean-la-Poterie","nomNormalise":"saintjeanlapoterie","typeCollectivite":"Commune","region":"Bretagne","departement":"Morbihan","departementCode":"56","adresse":{"street":"17 rue de la Mairie","postalCode":"56350","city":"Saint-Jean-la-Poterie","country":"France"},"contacts":{"email":"mairiestjeanpot@wanadoo.fr","telephone":"0299711903"},"horaires":"Du Lundi au Mardi : de 08h00 à 12h00 de 15h00 à 18h00\nLe Mercredi : de 09h00 à 12h00\nLe Jeudi : de 08h00 à 12h00 de 15h00 à 18h00\nLe Vendredi : de 08h00 à 12h00 de 15h00 à 17h30","latitude":47.636795,"longitude":-2.126292,"website":"http://www.saintjeanlapoterie.fr/","hasWebsite":true,"hasHoraires":true,"url":"https://lannuaire.service-public.gouv.fr/bretagne/morbihan/297ce866-75ef-4229-b282-b8bb65c2d680"}
{"nom":"Saint-Laurent-sur-Oust","nomNormalise":"saintlaurentsuroust","typeCollectivite":"Commune","region":"Bretagne","departement":"Morbihan","departementCode":"56","adresse":{"street":"1 rue du Savino","postalCode":"56140","city":"Saint-Laurent-sur-Oust","country":"France"},"contacts":{"email":"mairie@stlaurentsuroust.fr","telephone":"0297750242"},"horaires":"Le Lundi : de 09h00 à 12h30 de 13h30 à 18h45\nLe Mardi : de 09h00 à 12h30\nLe Jeudi : de 09h00 à 12h30 de 13h30 à 18h45\nLe Vendredi : de 09h00 à 12h30","latitude":47.79445,"longitude":-2.319388,"website":"http://www.saintlaurentsuroust.fr/","hasWebsite":true,"hasHoraires":true,"url":"https://lannuaire.service-public.gouv.fr/bretagne/morbihan/42557484-b036-4a9d-b345-aa09e4d92c87"}
{"nom":"Saint-Léry","nomNormalise":"saintlery","typeCollectivite":"Commune","region":"Bretagne","departement":"Morbihan","departementCode":"56","adresse":{"street":"6 rue de la Mairie","postalCode":"56430","city":"Saint-Léry","country":"France"},"contacts":{"email":"mairie.st.lery@wanadoo.fr","telephone":"0297226876"},"horaires":"Du Lundi au Mardi : de 09h15 à 12h00 de 14h00 à 17h00\nDu Jeudi au Vendredi : de 09h15 à 12h00 de 14h00 à 17h00","latitude":48.090374,"longitude":-2.2550833,"website":"","hasWebsite":false,"hasHoraires":true,"url":"https://lannuaire.service-public.gouv.fr/bretagne/morbihan/ba9f072c-36e4-40ca-8f1a-852521fde44e"}
{"nom":"Saint-Malo-de-Beignon","nomNormalise":"saintmalodebeignon","typeCollectivite":"Commune","region":"Bretagne","departement":"Morbihan","departementCode":"56","adresse":{"street":"24 rue de la République","postalCode":"56380","city":"Saint-Malo-de-Beignon","country":"France"},"contacts":{"email":"mairie.stmalodebeignon@wanadoo.fr","telephone":"0297757616"},"horaires":"Du Mardi au Mercredi : de 14h00 à 17h00\nLe Vendredi : de 14h00 à 17h00\nLe Samedi : de 09h00 à 12h00","latitude":47.9579,"longitude":-2.1517,"website":"","hasWebsite":false,"hasHoraires":true,"url":"https://lannuaire.service-public.gouv.fr/bretagne/morbihan/9b23ee5b-46f9-4e28-b94d-1cfb3e5dea8c"}
{"nom":"Saint-Malo-des-Trois-Fontaines","nomNormalise":"saintmalodestroisfontaines","typeCollectivite":"Commune","region":"Bretagne","departement":"Morbihan","departementCode":"56","adresse":{"street":"20 avenue du Porhoët","postalCode":"56490","city":"Saint-Malo-des-Trois-Fontaines","country":"France"},"contacts":{"email":"accueilmairiestmalo3f@orange.fr","telephone":"0297755078"},"horaires":"Le Mercredi : de 09h00 à 12h30 de 15h30 à 18h00\nLe Jeudi : de 09h00 à 12h30\nLe Vendredi : de 09h00 à 12h30 de 14h00 à 16h00","latitude":48.013657,"longitude":-2.472373,"website":"","hasWebsite":false,"hasHoraires":true,"url":"https://lannuaire.service-public.gouv.fr/bretagne/morbihan/76653c22-fea5-427b-8a02-5c9c83e27dae"}
{"nom":"Saint-Marcel","nomNormalise":"saintmarcel","typeCollectivite":"Commune","region":"Bretagne","departement":"Morbihan","departementCode":"56","adresse":{"street":"1 place des AFN","postalCode":"56140","city":"Saint-Marcel","country":"France"},"contacts":{"email":"mairie@saint-marcel.bzh","telephone":"0297751741"},"horaires":"Le Lundi : de 08h30 à 12h00 de 13h30 à 17h30\nLe Mardi : de 13h30 à 17h30\nLe Mercredi : de 08h30 à 12h00 de 13h30 à 17h30\nLe Jeudi : de 08h30 à 12h00\nLe Vendredi : de 08h30 à 12h00 de 13h30 à 17h30","latitude":47.80434,"longitude":-2.4182215,"website":"","hasWebsite":false,"hasHoraires":true,"url":"https://lannuaire.service-public.gouv.fr/bretagne/morbihan/8772cbf3-3180-4153-8897-7fc79aa02ca3"}
{"nom":"Saint-Martin-sur-Oust","nomNormalise":"saintmartinsuroust","typeCollectivite":"Commune","region":"Bretagne","departement":"Morbihan","departementCode":"56","adresse":{"street":"6 place de la Motte","postalCode":"56200","city":"Saint-Martin-sur-Oust","country":"France"},"contacts":{"email":"st-martin-oust@wanadoo.fr","telephone":"0299915576"},"horaires":"Du Mardi au Vendredi : de 09h00 à 12h00 de 14h00 à 17h00\nLe Samedi : de 09h00 à 12h00","latitude":47.745113,"longitude":-2.2533543,"website":"http://www.st-martin-sur-oust.fr/","hasWebsite":true,"hasHoraires":true,"url":"https://lannuaire.service-public.gouv.fr/bretagne/morbihan/94cc7827-2555-4dc8-9da4-2cea68f51cde"}
{"nom":"Saint-Nicolas-du-Tertre","nomNormalise":"saintnicolasdutertre","typeCollectivite":"Commune","region":"Bretagne","departement":"Morbihan","departementCode":"56","adresse":{"street":"1 place de la Mairie","postalCode":"56910","city":"Saint-Nicolas-du-Tertre","country":"France"},"contacts":{"email":"mairie.st-nicolas-tertre@wanadoo.fr","telephone":"0297937157"},"horaires":"Le Mardi : de 09h00 à 12h30\nDu Jeudi au Vendredi : de 09h00 à 12h30\nLe Samedi : de 09h00 à 12h00","latitude":47.802742,"longitude":-2.220603,"website":"http://www.saint-nicolas-du-tertre.fr/","hasWebsite":true,"hasHoraires":true,"url":"https://lannuaire.service-public.gouv.fr/bretagne/morbihan/44ccecb3-8143-4047-9c81-af9ccd28a05d"}
{"nom":"Saint-Nolff","nomNormalise":"saintnolff","typeCollectivite":"Commune","region":"Bretagne","departement":"Morbihan","departementCode":"56","adresse":{"street":"1 Place Pedrajas-de-San-Esteban","postalCode":"56250","city":"Saint-Nolff","country":"France"},"contacts":{"email":"mairie@saint-nolff.fr","telephone":"0297454759"},"horaires":"Le Lundi : de 09h00 à 12h15 de 13h30 à 17h15\nLe Mardi : de 13h30 à 17h15\nDu Mercredi au Vendredi : de 08h30 à 12h15 de 13h30 à 17h15","latitude":47.702885,"longitude":-2.651779,"website":"http://www.saint-nolff.fr/","hasWebsite":true,"hasHoraires":true,"url":"https://lannuaire.service-public.gouv.fr/bretagne/morbihan/85c4fd0c-53d8-4f7d-9c95-df8f686b2cfc"}
{"nom":"Saint-Perreux","nomNormalise":"saintperreux","typeCollectivite":"Commune","region":"Bretagne","departement":"Morbihan","departementCode":"56","adresse":{"street":"1 rue de la Mairie","postalCode":"56350","city":"Saint-Perreux","country":"France"},"contacts":{"email":"mairie-st-perreux@wanadoo.fr","telephone":"0299711981"},"horaires":"Du Lundi au Mardi : de 08h30 à 12h00 de 15h00 à 17h30\nLe Mercredi : de 08h30 à 12h00\nLe Vendredi : de 08h30 à 12h00 de 15h00 à 17h30","latitude":47.6368,"longitude":-2.12645,"website":"http://www.saint-perreux.fr/","hasWebsite":true,"hasHoraires":true,"url":"https://lannuaire.service-public.gouv.fr/bretagne/morbihan/a616292c-a418-492c-ba94-19f718e720e5"}
{"nom":"Saint-Philibert","nomNormalise":"saintphilibert","typeCollectivite":"Commune","region":"Bretagne","departement":"Morbihan","departementCode":"56","adresse":{"street":"Place des Trois-Otages","postalCode":"56470","city":"Saint-Philibert","country":"France"},"contacts":{"email":"contact@stphilibert.fr","telephone":"0297300700"},"horaires":"Le Lundi : de 09h00 à 12h00 de 13h30 à 17h30\nDu Mardi au Jeudi : de 09h00 à 12h00\nLe Vendredi : de 09h00 à 12h00 de 13h30 à 17h30\nLe Samedi : de 09h00 à 12h00\n\nUniquement en période estivale","latitude":47.587902,"longitude":-2.999449,"website":"http://www.saintphilibert.fr/","hasWebsite":true,"hasHoraires":true,"url":"https://lannuaire.service-public.gouv.fr/bretagne/morbihan/36e84519-ffe0-4082-8045-6c5ee0e080dd"}
{"nom":"Saint-Pierre-Quiberon","nomNormalise":"saintpierrequiberon","typeCollectivite":"Commune","region":"Bretagne","departement":"Morbihan","departementCode":"56","adresse":{"street":"70 rue du Docteur-le-Gall","postalCode":"56510","city":"Saint-Pierre-Quiberon","country":"France"},"contacts":{"email":"mairie@saintpierrequiberon.fr","telephone":"0297309200"},"horaires":"Le Lundi : de 08h15 à 12h00 de 13h30 à 17h15\nLe Mardi : de 08h15 à 12h00\nDu Mercredi au Jeudi : de 08h15 à 12h00 de 13h30 à 17h15\nLe Vendredi : de 08h15 à 12h00 de 13h30 à 16h30","latitude":47.5205,"longitude":-3.13013,"website":"http://www.saintpierrequiberon.fr/","hasWebsite":true,"hasHoraires":true,"url":"https://lannuaire.service-public.gouv.fr/bretagne/morbihan/9f6749f1-f1a5-420d-9a9d-e47a9bf838c9"}
{"nom":"Saint-Servant","nomNormalise":"saintservant","typeCollectivite":"Commune","region":"Bretagne","departement":"Morbihan","departementCode":"56","adresse":{"street":"1 rue Saint-Servais","postalCode":"56120","city":"Saint-Servant","country":"France"},"contacts":{"email":"mairie@saintservant56.fr","telephone":"0297222425"},"horaires":"Du Lundi au Vendredi : de 08h30 à 12h30 de 13h15 à 18h00\n\nOuverture le mercredi des semaines paires uniquement de 8h30 à 12h30.","latitude":47.9167,"longitude":-2.5172753,"website":"https://saintservant56.fr/","hasWebsite":true,"hasHoraires":true,"url":"https://lannuaire.service-public.gouv.fr/bretagne/morbihan/804486e3-5209-414d-85b0-6fdedbdbd9b1"}
{"nom":"Saint-Thuriau","nomNormalise":"saintthuriau","typeCollectivite":"Commune","region":"Bretagne","departement":"Morbihan","departementCode":"56","adresse":{"street":"Place de l'Église","postalCode":"56300","city":"Saint-Thuriau","country":"France"},"contacts":{"email":"mairie@saint-thuriau.bzh","telephone":"0297398313"},"horaires":"Le Lundi : de 09h00 à 12h30 de 15h30 à 17h30\nDu Mardi au Vendredi : de 08h30 à 12h30 de 15h30 à 17h30\nLe Samedi : de 09h00 à 12h30","latitude":47.94451,"longitude":-3.0495856,"website":"https://www.saint-thuriau.fr/","hasWebsite":true,"hasHoraires":true,"url":"https://lannuaire.service-public.gouv.fr/bretagne/morbihan/fe3800b5-03ac-41ed-afb3-7327daf3ce9a"}
{"nom":"Saint-Tugdual","nomNormalise":"sainttugdual","typeCollectivite":"Commune","region":"Bretagne","departement":"Morbihan","departementCode":"56","adresse":{"street":"1 place Vincent Sivy","postalCode":"56540","city":"Saint-Tugdual","country":"France"},"contacts":{"email":"mairie.st-tugdual@wanadoo.fr","telephone":"0297394106"},"horaires":"Du Lundi au Vendredi : de 08h30 à 12h00 de 14h00 à 17h30","latitude":48.099594,"longitude":-3.33916,"website":"http://www.saint-tugdual.fr/","hasWebsite":true,"hasHoraires":true,"url":"https://lannuaire.service-public.gouv.fr/bretagne/morbihan/7abf47fe-b1ec-42d0-9277-b08507a6133b"}
{"nom":"Saint-Vincent-sur-Oust","nomNormalise":"saintvincentsuroust","typeCollectivite":"Commune","region":"Bretagne","departement":"Morbihan","departementCode":"56","adresse":{"street":"13 place de la Mairie","postalCode":"56350","city":"Saint-Vincent-sur-Oust","country":"France"},"contacts":{"email":"mairie.st.vincent.sur.oust@wanadoo.fr","telephone":"0299912434"},"horaires":"Du Mardi au Mercredi : de 09h00 à 12h30 de 14h30 à 18h00\nLe Jeudi : de 09h00 à 12h30\nLe Vendredi : de 09h00 à 12h30 de 14h30 à 17h00\nLe Samedi : de 09h00 à 12h00","latitude":47.7,"longitude":-2.14607,"website":"http://www.saint-vincent-sur-oust.fr/","hasWebsite":true,"hasHoraires":true,"url":"https://lannuaire.service-public.gouv.fr/bretagne/morbihan/7cdbb7e8-8690-4cf7-b011-cc57da527ce2"}
{"nom":"Sarzeau","nomNormalise":"sarzeau","typeCollectivite":"Commune","region":"Bretagne","departement":"Morbihan","departementCode":"56","adresse":{"street":"1 place Richemont","postalCode":"56370","city":"Sarzeau","country":"France"},"contacts":{"email":"contact@sarzeau.fr","telephone":"0297418515"},"horaires":"Du Lundi au Vendredi : de 08h30 à 12h00 de 13h30 à 17h00\n\nPendant la crise sanitaire service urbanisme sur rendez-vous uniquement.\nLe Samedi : de 09h00 à 12h00\n\nPendant la crise sanitaire service urbanisme sur rendez-vous uniquement.","latitude":47.52779,"longitude":-2.768621,"website":"https://www.sarzeau.fr/","hasWebsite":true,"hasHoraires":true,"url":"https://lannuaire.service-public.gouv.fr/bretagne/morbihan/7f06a910-76d2-427d-8112-1dec4a3c78ce"}
{"nom":"Sauzon","nomNormalise":"sauzon","typeCollectivite":"Commune","region":"Bretagne","departement":"Morbihan","departementCode":"56","adresse":{"street":"Rue du Lieutenant-Riou","postalCode":"56360","city":"Sauzon","country":"France"},"contacts":{"email":"mairie@sauzon.fr","telephone":"0297316279"},"horaires":"Du Lundi au Vendredi : de 09h00 à 12h00\n\nAccueil téléphonique du lundi au vendredi de 13h30 à 17h30 sauf le mercredi.","latitude":47.371128,"longitude":-3.22332,"website":"http://www.sauzon.fr/","hasWebsite":true,"hasHoraires":true,"url":"https://lannuaire.service-public.gouv.fr/bretagne/morbihan/49965d9d-1df4-4d56-b61e-c9b12e1934dc"}
{"nom":"Séglien","nomNormalise":"seglien","typeCollectivite":"Commune","region":"Bretagne","departement":"Morbihan","departementCode":"56","adresse":{"street":"1 rue Yves-le-Calvé","postalCode":"56160","city":"Séglien","country":"France"},"contacts":{"email":"mairie@seglien.bzh","telephone":"0297280066"},"horaires":"Du Lundi au Mardi : de 08h30 à 12h00 de 13h30 à 17h00\nDu Mercredi au Jeudi : de 08h30 à 12h00\nLe Vendredi : de 08h30 à 12h00 de 13h30 à 17h00","latitude":48.10702,"longitude":-3.159376,"website":"https://seglien.fr/fr/","hasWebsite":true,"hasHoraires":true,"url":"https://lannuaire.service-public.gouv.fr/bretagne/morbihan/cb171668-f9ae-4018-bb40-78c530fb6671"}
{"nom":"Séné","nomNormalise":"sene","typeCollectivite":"Commune","region":"Bretagne","departement":"Morbihan","departementCode":"56","adresse":{"street":"Place de la Fraternité","postalCode":"56860","city":"Séné","country":"France"},"contacts":{"email":"contact@sene.bzh","telephone":"0297669062"},"horaires":"Du Lundi au Vendredi : de 08h30 à 12h00 de 13h30 à 17h30\nLe Samedi : de 09h00 à 12h00\n\nAccueil ouvert pour l'état civil uniquement.","latitude":47.61943,"longitude":-2.7368908,"website":"https://www.sene.bzh/","hasWebsite":true,"hasHoraires":true,"url":"https://lannuaire.service-public.gouv.fr/bretagne/morbihan/38ba0a00-fa32-490b-ba3e-96805a63917f"}
{"nom":"Sérent","nomNormalise":"serent","typeCollectivite":"Commune","region":"Bretagne","departement":"Morbihan","departementCode":"56","adresse":{"street":"15 rue du Général-de-Kerhué","postalCode":"56460","city":"Sérent","country":"France"},"contacts":{"email":"mairie@serent.fr","telephone":"0297759357"},"horaires":"Du Lundi au Vendredi : de 08h30 à 12h15 de 13h30 à 17h00\nLe Samedi : de 08h30 à 12h00","latitude":47.822575,"longitude":-2.506211,"website":"https://www.serent.fr/","hasWebsite":true,"hasHoraires":true,"url":"https://lannuaire.service-public.gouv.fr/bretagne/morbihan/cd7be933-b8f5-4802-8300-587092abffda"}
{"nom":"Silfiac","nomNormalise":"silfiac","typeCollectivite":"Commune","region":"Bretagne","departement":"Morbihan","departementCode":"56","adresse":{"street":"1 rue Paul-le-Bourlay","postalCode":"56480","city":"Silfiac","country":"France"},"contacts":{"email":"mairie@silfiac.fr","telephone":"0297276013"},"horaires":"Du Lundi au Mardi : de 09h00 à 12h30 de 14h00 à 17h00\nLe Mercredi : de 09h00 à 12h00\nLe Jeudi : de 09h00 à 12h30 de 14h00 à 17h00\nLe Vendredi : de 09h00 à 12h30","latitude":48.149124,"longitude":-3.157594,"website":"http://www.silfiac.fr/","hasWebsite":true,"hasHoraires":true,"url":"https://lannuaire.service-public.gouv.fr/bretagne/morbihan/40cfa976-736a-4d61-b8c3-71da8929d5d3"}
{"nom":"Sulniac","nomNormalise":"sulniac","typeCollectivite":"Commune","region":"Bretagne","departement":"Morbihan","departementCode":"56","adresse":{"street":"2 rue René-Cassin","postalCode":"56250","city":"Sulniac","country":"France"},"contacts":{"email":"accueil@mairie-sulniac.fr","telephone":"0297532302"},"horaires":"Le Lundi : de 09h00 à 12h00 de 13h30 à 17h30\nLe Mardi : de 09h00 à 12h00\nDu Mercredi au Vendredi : de 09h00 à 12h00 de 13h30 à 17h30\nLe Samedi : de 09h00 à 12h00","latitude":47.6758,"longitude":-2.57156,"website":"http://www.sulniac.fr/","hasWebsite":true,"hasHoraires":true,"url":"https://lannuaire.service-public.gouv.fr/bretagne/morbihan/075449f5-5b0d-46c3-b94a-9d18a0533bab"}
{"nom":"Surzur","nomNormalise":"surzur","typeCollectivite":"Commune","region":"Bretagne","departement":"Morbihan","departementCode":"56","adresse":{"street":"1 place Xavier-de-Langlais","postalCode":"56450","city":"Surzur","country":"France"},"contacts":{"email":"mairie@surzur.fr","telephone":"0297421252"},"horaires":"Le Lundi : de 08h15 à 12h30 de 14h00 à 17h00\nLe Mardi : de 08h15 à 12h30\nDu Mercredi au Vendredi : de 08h15 à 12h30 de 14h00 à 17h00\nLe 1er samedi de chaque mois de 9h à 12h.","latitude":47.5776,"longitude":-2.6288078,"website":"https://www.surzur.fr/","hasWebsite":true,"hasHoraires":true,"url":"https://lannuaire.service-public.gouv.fr/bretagne/morbihan/fd439f44-ce71-4261-9a39-2bc3a40a2748"}
{"nom":"Taupont","nomNormalise":"taupont","typeCollectivite":"Commune","region":"Bretagne","departement":"Morbihan","departementCode":"56","adresse":{"street":"1 rue de la Mairie","postalCode":"56800","city":"Taupont","country":"France"},"contacts":{"email":"mairie@taupont.com","telephone":"0297935417"},"horaires":"Du Lundi au Mardi : de 09h00 à 12h00 de 14h00 à 17h00\nLe Mercredi : de 09h00 à 12h00\nDu Jeudi au Vendredi : de 09h00 à 12h00 de 14h00 à 17h00\nLe Samedi : de 09h00 à 12h00","latitude":47.88083,"longitude":-2.358814,"website":"http://www.taupont.fr/","hasWebsite":true,"hasHoraires":true,"url":"https://lannuaire.service-public.gouv.fr/bretagne/morbihan/17751f48-cdfa-4ef0-b12e-6c743dde6405"}
{"nom":"Théhillac","nomNormalise":"thehillac","typeCollectivite":"Commune","region":"Bretagne","departement":"Morbihan","departementCode":"56","adresse":{"street":"1 rue de la Mairie","postalCode":"56130","city":"Théhillac","country":"France"},"contacts":{"email":"mairie@thehillac.fr","telephone":"0299902379"},"horaires":"Du Lundi au Samedi : de 09h00 à 12h00","latitude":47.5705,"longitude":-2.1113,"website":"http://www.thehillac.fr/","hasWebsite":true,"hasHoraires":true,"url":"https://lannuaire.service-public.gouv.fr/bretagne/morbihan/8fa63aa4-7cac-4e94-a1be-ccdaf03387aa"}
{"nom":"Theix-Noyalo","nomNormalise":"theixnoyalo","typeCollectivite":"Commune","region":"Bretagne","departement":"Morbihan","departementCode":"56","adresse":{"street":"Place du Général-de-Gaulle","postalCode":"56450","city":"Theix-Noyalo","country":"France"},"contacts":{"email":"mairie@theix-noyalo.fr","telephone":"0297430110"},"horaires":"Du Lundi au Mercredi : de 08h30 à 12h00 de 13h30 à 17h30\nLe Jeudi : de 08h30 à 17h30\nLe Vendredi : de 08h30 à 12h00 de 13h30 à 17h30\n\nPendant la crise sanitaire accueil sur rendez-vous de préférence.","latitude":47.6296,"longitude":-2.65042,"website":"http://www.theix-noyalo.fr/","hasWebsite":true,"hasHoraires":true,"url":"https://lannuaire.service-public.gouv.fr/bretagne/morbihan/68a78dd3-2f84-4791-b648-2614986aaf18"}
{"nom":"Tréal","nomNormalise":"treal","typeCollectivite":"Commune","region":"Bretagne","departement":"Morbihan","departementCode":"56","adresse":{"street":"36 rue de la Villio","postalCode":"56140","city":"Tréal","country":"France"},"contacts":{"email":"mairie.treal@wanadoo.fr","telephone":"0299088482"},"horaires":"Le Lundi : de 09h00 à 12h00 de 14h00 à 17h00\nLe Mardi : de 09h00 à 12h00\nLe Mercredi : de 14h00 à 17h00\nDu Jeudi au Vendredi : de 09h00 à 12h00 de 14h00 à 17h00","latitude":47.83873,"longitude":-2.223756,"website":"http://www.treal.fr/","hasWebsite":true,"hasHoraires":true,"url":"https://lannuaire.service-public.gouv.fr/bretagne/morbihan/22789492-78d1-4ee3-b4d2-dec06be53c43"}
{"nom":"Trédion","nomNormalise":"tredion","typeCollectivite":"Commune","region":"Bretagne","departement":"Morbihan","departementCode":"56","adresse":{"street":"Place Saint-Christophe","postalCode":"56250","city":"Trédion","country":"France"},"contacts":{"email":"mairie.tredion@wanadoo.fr","telephone":"0297671133"},"horaires":"Du Lundi au Vendredi : de 09h00 à 12h00 de 14h00 à 17h00","latitude":47.79282,"longitude":-2.591677,"website":"http://www.tredion.fr/","hasWebsite":true,"hasHoraires":true,"url":"https://lannuaire.service-public.gouv.fr/bretagne/morbihan/0d369d97-60a3-45b6-98ce-0a566160e1a8"}
{"nom":"Treffléan","nomNormalise":"trefflean","typeCollectivite":"Commune","region":"Bretagne","departement":"Morbihan","departementCode":"56","adresse":{"street":"Place de la Giettaz","postalCode":"56250","city":"Treffléan","country":"France"},"contacts":{"email":"mairie@trefflean.com","telephone":"0297532778"},"horaires":"Le Lundi : de 09h00 à 12h30 de 13h30 à 17h00\nLe Mardi : de 09h00 à 12h30\nDu Mercredi au Vendredi : de 09h00 à 12h30 de 13h30 à 17h00","latitude":47.6811,"longitude":-2.61393,"website":"http://www.trefflean.com/","hasWebsite":true,"hasHoraires":true,"url":"https://lannuaire.service-public.gouv.fr/bretagne/morbihan/da01a4af-6fc1-4139-9aee-bf067279ed63"}
{"nom":"Tréhorenteuc","nomNormalise":"trehorenteuc","typeCollectivite":"Commune","region":"Bretagne","departement":"Morbihan","departementCode":"56","adresse":{"street":"3 rue de Brocéliande","postalCode":"56430","city":"Tréhorenteuc","country":"France"},"contacts":{"email":"mairietrehorenteuc@orange.fr","telephone":"0297930501"},"horaires":"Le Mardi : de 08h30 à 12h30 de 13h30 à 17h00\nLe Jeudi : de 08h30 à 12h30 de 13h30 à 17h00","latitude":48.008705,"longitude":-2.2879994,"website":"","hasWebsite":false,"hasHoraires":true,"url":"https://lannuaire.service-public.gouv.fr/bretagne/morbihan/8751f333-3d07-407b-b2e8-226f5e6bb055"}
{"nom":"Val-d'Oust","nomNormalise":"valdoust","typeCollectivite":"Commune","region":"Bretagne","departement":"Morbihan","departementCode":"56","adresse":{"street":"1 rue Nationale","postalCode":"56460","city":"Val-d'Oust","country":"France"},"contacts":{"email":"contact@mairie-valdoust.fr","telephone":"0297749353"},"horaires":"Du Lundi au Mercredi : de 09h00 à 12h00 de 14h00 à 17h00\nLe Jeudi : de 09h00 à 12h00\nLe Vendredi : de 09h00 à 12h00 de 14h00 à 17h00\nLe Samedi : de 09h00 à 12h00","latitude":47.86414,"longitude":-2.44878,"website":"http://www.mairie-valdoust.fr/","hasWebsite":true,"hasHoraires":true,"url":"https://lannuaire.service-public.gouv.fr/bretagne/morbihan/114a1668-d6d8-4809-b8f6-2f5e29acfcab"}
{"nom":"Vannes","nomNormalise":"vannes","typeCollectivite":"Commune","region":"Bretagne","departement":"Morbihan","departementCode":"56","adresse":{"street":"Place Maurice-Marchais","postalCode":"56000","city":"Vannes","country":"France"},"contacts":{"email":"contact@mairie-vannes.fr","telephone":"0297016000"},"horaires":"Du Lundi au Vendredi : de 08h00 à 12h15 de 13h15 à 17h00","latitude":47.65835,"longitude":-2.76097,"website":"https://www.mairie-vannes.fr/","hasWebsite":true,"hasHoraires":true,"url":"https://lannuaire.service-public.gouv.fr/bretagne/morbihan/ec276398-973e-4918-b8bd-2ce76908c62b"}
