{"nom":"Alénya","nomNormalise":"alenya","typeCollectivite":"Commune","region":"Occitanie","departement":"Pyrénées-Orientales","departementCode":"66","adresse":{"street":"Place de la République","postalCode":"66200","city":"Alénya","country":"France"},"contacts":{"email":"mairie@alenya.fr","telephone":"0468373800"},"horaires":"Du Lundi au Jeudi : de 09h30 à 12h00 de 17h00 à 19h00\nLe Vendredi : de 09h30 à 12h00 de 14h00 à 17h00","latitude":42.638145,"longitude":2.980952,"website":"https://www.alenya.fr/","hasWebsite":true,"hasHoraires":true,"url":"https://lannuaire.service-public.gouv.fr/occitanie/pyrenees-orientales/3d86ba65-ca25-4bea-8fe4-b29378d9efb4"}
{"nom":"Amélie-les-Bains-Palalda","nomNormalise":"amelielesbainspalalda","typeCollectivite":"Commune","region":"Occitanie","departement":"Pyrénées-Orientales","departementCode":"66","adresse":{"street":"5 rue des Thermes","postalCode":"66110","city":"Amélie-les-Bains-Palalda","country":"France"},"contacts":{"email":"contactmairie@amelie-les-bains.fr","telephone":"0468390024"},"horaires":"Du Lundi au Vendredi : de 08h30 à 12h00 de 13h30 à 17h00\nLe Samedi : de 09h00 à 12h00","latitude":42.472794,"longitude":2.669577,"website":"https://www.mairie-amelie.com/","hasWebsite":true,"hasHoraires":true,"url":"https://lannuaire.service-public.gouv.fr/occitanie/pyrenees-orientales/c07642fd-c065-442c-ba25-c8850f5d6f51"}
{"nom":"Angoustrine-Villeneuve-les-Escaldes","nomNormalise":"angoustrinevilleneuvelesescaldes","typeCollectivite":"Commune","region":"Occitanie","departement":"Pyrénées-Orientales","departementCode":"66","adresse":{"street":"39 route des Pyrénées","postalCode":"66760","city":"Angoustrine-Villeneuve-Escaldes","country":"France"},"contacts":{"email":"contact@angoustrine.fr","telephone":"0468302289"},"horaires":"Du Lundi au Vendredi : de 08h30 à 12h00","latitude":42.4798,"longitude":1.95741,"website":"https://www.angoustrine.info/","hasWebsite":true,"hasHoraires":true,"url":"https://lannuaire.service-public.gouv.fr/occitanie/pyrenees-orientales/6cc13df6-fb12-4ff8-9999-1af6543ba9ca"}
{"nom":"Ansignan","nomNormalise":"ansignan","typeCollectivite":"Commune","region":"Occitanie","departement":"Pyrénées-Orientales","departementCode":"66","adresse":{"street":"14 avenue de l'Hôtel-de-Ville","postalCode":"66220","city":"Ansignan","country":"France"},"contacts":{"email":"mairie.ansignan@wanadoo.fr","telephone":"0468590994"},"horaires":"Du Lundi au Jeudi : de 08h15 à 12h15 de 13h30 à 16h30\nLe Vendredi : de 08h15 à 12h15","latitude":42.7615,"longitude":2.51542,"website":"http://www.ansignan.fr/","hasWebsite":true,"hasHoraires":true,"url":"https://lannuaire.service-public.gouv.fr/occitanie/pyrenees-orientales/399f9567-9c23-4d9b-90ea-b91356e2e190"}
{"nom":"Arboussols","nomNormalise":"arboussols","typeCollectivite":"Commune","region":"Occitanie","departement":"Pyrénées-Orientales","departementCode":"66","adresse":{"street":"Place de la Mairie","postalCode":"66320","city":"Arboussols","country":"France"},"contacts":{"email":"mairie.arboussols@orange.fr","telephone":"0468960140"},"horaires":"Du Lundi au Mercredi : de 09h00 à 12h00\nLe Vendredi : de 09h00 à 12h00","latitude":42.66326,"longitude":2.486197,"website":"https://arboussols.fr/fr/","hasWebsite":true,"hasHoraires":true,"url":"https://lannuaire.service-public.gouv.fr/occitanie/pyrenees-orientales/816410ce-0434-4fae-91c8-c53f7612b3e3"}
{"nom":"Argelès-sur-Mer","nomNormalise":"argelessurmer","typeCollectivite":"Commune","region":"Occitanie","departement":"Pyrénées-Orientales","departementCode":"66","adresse":{"street":"Allée Ferdinand-Buisson","postalCode":"66700","city":"Argelès-sur-Mer Cedex","country":"France"},"contacts":{"email":"mairie@ville-argelessurmer.fr","telephone":"0468953458"},"horaires":"Du Lundi au Vendredi : de 08h00 à 12h00 de 14h00 à 18h00","latitude":42.549103,"longitude":3.021004,"website":"https://www.ville-argelessurmer.fr/","hasWebsite":true,"hasHoraires":true,"url":"https://lannuaire.service-public.gouv.fr/occitanie/pyrenees-orientales/afeeaca0-85b1-4513-b561-23315e6b55b6"}
{"nom":"Arles-sur-Tech","nomNormalise":"arlessurtech","typeCollectivite":"Commune","region":"Occitanie","departement":"Pyrénées-Orientales","departementCode":"66","adresse":{"street":"Baills de la Mairie","postalCode":"66150","city":"Arles-sur-Tech","country":"France"},"contacts":{"email":"mairie@arles-sur-tech.fr","telephone":"0468391222"},"horaires":"Du Lundi au Vendredi : de 09h00 à 12h00 de 13h30 à 17h00\nDu 25 juin au 31 Août 2025 : du lundi au vendredi de 8h à 15h (non-stop).","latitude":42.4559,"longitude":2.63557,"website":"http://www.ville-arles-sur-tech.fr/","hasWebsite":true,"hasHoraires":true,"url":"https://lannuaire.service-public.gouv.fr/occitanie/pyrenees-orientales/a4ae1854-804f-4d86-b805-e9d06607e111"}
{"nom":"Ayguatébia-Talau","nomNormalise":"ayguatebiatalau","typeCollectivite":"Commune","region":"Occitanie","departement":"Pyrénées-Orientales","departementCode":"66","adresse":{"street":"10 rue de la Mairie","postalCode":"66360","city":"Ayguatébia-Talau","country":"France"},"contacts":{"email":"mairie.ayguatebia-talau@wanadoo.fr","telephone":"0468970619"},"horaires":"Le Mercredi : de 09h00 à 12h00 de 14h00 à 16h00","latitude":42.57221,"longitude":2.183084,"website":"https://www.ayguatebia-talau.fr/","hasWebsite":true,"hasHoraires":true,"url":"https://lannuaire.service-public.gouv.fr/occitanie/pyrenees-orientales/f1e81c5b-8fe8-405b-92ed-3add458fb8f9"}
{"nom":"Bages","nomNormalise":"bages","typeCollectivite":"Commune","region":"Occitanie","departement":"Pyrénées-Orientales","departementCode":"66","adresse":{"street":"22 avenue Jean-Jaurès","postalCode":"66670","city":"Bages","country":"France"},"contacts":{"email":"mairie@bages66.fr","telephone":"0468217125"},"horaires":"Du Lundi au Mercredi : de 08h00 à 12h00 de 13h30 à 17h30\nLe Jeudi : de 08h00 à 12h00\nLe Vendredi : de 08h00 à 12h00 de 13h30 à 16h30","latitude":42.605824,"longitude":2.8921776,"website":"https://www.bages66.fr/","hasWebsite":true,"hasHoraires":true,"url":"https://lannuaire.service-public.gouv.fr/occitanie/pyrenees-orientales/aee85c4e-0e83-43cd-abbc-90e2d0b7009d"}
{"nom":"Baho","nomNormalise":"baho","typeCollectivite":"Commune","region":"Occitanie","departement":"Pyrénées-Orientales","departementCode":"66","adresse":{"street":"Place du 8-Mai-1945","postalCode":"66540","city":"Baho","country":"France"},"contacts":{"email":"mairie.baho@wanadoo.fr","telephone":"0468922061"},"horaires":"Du Lundi au Jeudi : de 08h00 à 12h00 de 14h00 à 18h00\nLe Vendredi : de 08h00 à 12h00 de 14h00 à 17h00\nLe Samedi : de 09h00 à 12h00","latitude":42.682384,"longitude":2.7914984,"website":"https://www.baho.fr/","hasWebsite":true,"hasHoraires":true,"url":"https://lannuaire.service-public.gouv.fr/occitanie/pyrenees-orientales/f1c8dc0a-8472-4aea-a37c-d0dce9464025"}
{"nom":"Baillestavy","nomNormalise":"baillestavy","typeCollectivite":"Commune","region":"Occitanie","departement":"Pyrénées-Orientales","departementCode":"66","adresse":{"street":"Place Nova","postalCode":"66320","city":"Baillestavy","country":"France"},"contacts":{"email":"commune-de-baillestavy@orange.fr","telephone":"0468059296"},"horaires":"Le Mercredi : de 09h00 à 12h30","latitude":42.56452,"longitude":2.526572,"website":"https://www.baillestavy.fr/","hasWebsite":true,"hasHoraires":true,"url":"https://lannuaire.service-public.gouv.fr/occitanie/pyrenees-orientales/8138de40-3bab-4f61-95f2-c23752178cac"}
{"nom":"Baixas","nomNormalise":"baixas","typeCollectivite":"Commune","region":"Occitanie","departement":"Pyrénées-Orientales","departementCode":"66","adresse":{"street":"1 boulevard de la République","postalCode":"66390","city":"Baixas","country":"France"},"contacts":{"email":"mairie@baixas.fr","telephone":"0468642202"},"horaires":"Le Lundi : de 09h30 à 12h00 de 15h30 à 19h00\nLe Mardi : de 09h30 à 12h00 de 15h30 à 17h30\nLe Mercredi : de 09h30 à 12h00\nDu Jeudi au Vendredi : de 09h30 à 12h00 de 15h30 à 17h30","latitude":42.751167,"longitude":2.8116808,"website":"https://www.baixas.fr/","hasWebsite":true,"hasHoraires":true,"url":"https://lannuaire.service-public.gouv.fr/occitanie/pyrenees-orientales/ed4ca9b6-1069-4164-999a-8509194b3e85"}
{"nom":"Banyuls-dels-Aspres","nomNormalise":"banyulsdelsaspres","typeCollectivite":"Commune","region":"Occitanie","departement":"Pyrénées-Orientales","departementCode":"66","adresse":{"street":"2 rue des Vendanges","postalCode":"66300","city":"Banyuls-dels-Aspres","country":"France"},"contacts":{"email":"accueil@banyulsdelsaspres.fr","telephone":"0468217217"},"horaires":"Du Lundi au Jeudi : de 09h00 à 12h30 de 13h30 à 17h00\nLe Vendredi : de 09h30 à 12h30","latitude":42.56603,"longitude":2.867571,"website":"https://banyulsdelsaspres.fr/","hasWebsite":true,"hasHoraires":true,"url":"https://lannuaire.service-public.gouv.fr/occitanie/pyrenees-orientales/d9f5241f-fd5f-4322-9836-aafcdcdca8f7"}
{"nom":"Banyuls-sur-Mer","nomNormalise":"banyulssurmer","typeCollectivite":"Commune","region":"Occitanie","departement":"Pyrénées-Orientales","departementCode":"66","adresse":{"street":"6 avenue de la République","postalCode":"66650","city":"Banyuls-sur-Mer","country":"France"},"contacts":{"email":"contact@banyuls-sur-mer.com","telephone":"0468880062"},"horaires":"Du Lundi au Jeudi : de 08h30 à 12h00 de 13h30 à 17h30\nLe Vendredi : de 08h30 à 12h00 de 13h30 à 17h00","latitude":42.482903,"longitude":3.1290097,"website":"https://www.banyuls-sur-mer.com/","hasWebsite":true,"hasHoraires":true,"url":"https://lannuaire.service-public.gouv.fr/occitanie/pyrenees-orientales/fee6644c-7587-4e75-b7fa-c86b3ab4de92"}
{"nom":"Bélesta","nomNormalise":"belesta","typeCollectivite":"Commune","region":"Occitanie","departement":"Pyrénées-Orientales","departementCode":"66","adresse":{"street":"1 place de la Mairie","postalCode":"66720","city":"Bélesta","country":"France"},"contacts":{"email":"mairie.belesta66@orange.fr","telephone":"0468845173"},"horaires":"Le Mardi : de 09h00 à 12h00 de 13h00 à 16h00\nLe Jeudi : de 09h00 à 12h00 de 13h00 à 16h00","latitude":42.71729,"longitude":2.6069953,"website":"http://www.belesta.fr/","hasWebsite":true,"hasHoraires":true,"url":"https://lannuaire.service-public.gouv.fr/occitanie/pyrenees-orientales/961c7fa2-f81f-4b6b-a36e-4e6e836fe1fb"}
{"nom":"Bolquère","nomNormalise":"bolquere","typeCollectivite":"Commune","region":"Occitanie","departement":"Pyrénées-Orientales","departementCode":"66","adresse":{"street":"Casa de la Vila de Bolquera","postalCode":"66210","city":"Bolquère","country":"France"},"contacts":{"email":"accueil@mairiedebolquere.fr","telephone":"0468300553"},"horaires":"Du Lundi au Vendredi : de 09h00 à 12h00\nLes après-midi sur rendez-vous.","latitude":42.502724,"longitude":2.078453,"website":"https://bolquere.fr/","hasWebsite":true,"hasHoraires":true,"url":"https://lannuaire.service-public.gouv.fr/occitanie/pyrenees-orientales/f22f09ff-c128-400a-b39e-66ad176ae70c"}
{"nom":"Bompas","nomNormalise":"bompas","typeCollectivite":"Commune","region":"Occitanie","departement":"Pyrénées-Orientales","departementCode":"66","adresse":{"street":"12 avenue de la Salanque","postalCode":"66430","city":"Bompas","country":"France"},"contacts":{"email":"villedebompas@bompas.fr","telephone":"0468632608"},"horaires":"Du Lundi au Vendredi : de 08h30 à 12h00 de 14h00 à 17h00","latitude":42.73029,"longitude":2.935526,"website":"https://www.bompas.fr/","hasWebsite":true,"hasHoraires":true,"url":"https://lannuaire.service-public.gouv.fr/occitanie/pyrenees-orientales/0386b046-1e5e-44f3-82ea-1a2eb4060646"}
{"nom":"Boule d'Amont","nomNormalise":"bouledamont","typeCollectivite":"Commune","region":"Occitanie","departement":"Pyrénées-Orientales","departementCode":"66","adresse":{"street":"El Montado","postalCode":"66130","city":"Boule d'Amont","country":"France"},"contacts":{"email":"mairie.bouledamont@orange.fr","telephone":"0468848787"},"horaires":"Le Mardi : de 09h00 à 17h00\nLe Jeudi : de 09h00 à 17h00\nLe Samedi : de 09h00 à 12h00","latitude":42.578987,"longitude":2.614283,"website":"http://www.boule-damont.fr/","hasWebsite":true,"hasHoraires":true,"url":"https://lannuaire.service-public.gouv.fr/occitanie/pyrenees-orientales/2817b4d4-60b4-4b3f-ad56-9ade885e99d4"}
{"nom":"Bouleternère","nomNormalise":"bouleternere","typeCollectivite":"Commune","region":"Occitanie","departement":"Pyrénées-Orientales","departementCode":"66","adresse":{"street":"6 bis Cami-Réal","postalCode":"66130","city":"Bouleternère","country":"France"},"contacts":{"email":"accueil@bouleternere.fr","telephone":"0468847274"},"horaires":"Le Lundi : de 08h30 à 12h30 de 14h30 à 17h30\nLe Mardi : de 08h30 à 12h30\nLe Mercredi : de 08h30 à 12h30 de 14h30 à 17h30\nLe Jeudi : de 08h30 à 12h30\nLe Vendredi : de 08h30 à 12h30 de 14h30 à 17h30","latitude":42.649418,"longitude":2.585496,"website":"https://www.bouleternere.fr/","hasWebsite":true,"hasHoraires":true,"url":"https://lannuaire.service-public.gouv.fr/occitanie/pyrenees-orientales/bd3b5aa6-8c77-4902-9759-c38191a7ee0f"}
{"nom":"Bourg-Madame","nomNormalise":"bourgmadame","typeCollectivite":"Commune","region":"Occitanie","departement":"Pyrénées-Orientales","departementCode":"66","adresse":{"street":"1 place de Catalogne","postalCode":"66760","city":"Bourg-Madame","country":"France"},"contacts":{"email":"mairie.bourgmadame@orange.fr","telephone":"0468045241"},"horaires":"Le Lundi : de 08h30 à 12h00 de 13h30 à 17h00\nLe Mardi : de 08h30 à 12h00\nLe Mercredi : de 08h30 à 12h00 de 13h30 à 17h00\nLe Jeudi : de 08h30 à 12h00\nLe Vendredi : de 08h30 à 12h00 de 13h30 à 17h00","latitude":42.4342,"longitude":1.94433,"website":"https://www.bourg-madame.fr/","hasWebsite":true,"hasHoraires":true,"url":"https://lannuaire.service-public.gouv.fr/occitanie/pyrenees-orientales/994f5000-f760-447a-ae3f-94788c8b126c"}
{"nom":"Brouilla","nomNormalise":"brouilla","typeCollectivite":"Commune","region":"Occitanie","departement":"Pyrénées-Orientales","departementCode":"66","adresse":{"street":"7 rue Julien-Panchot","postalCode":"66620","city":"Brouilla","country":"France"},"contacts":{"email":"mairie@brouilla.fr","telephone":"0468953311"},"horaires":"Du Lundi au Vendredi : de 10h00 à 12h30 de 16h30 à 18h00","latitude":42.566185,"longitude":2.903537,"website":"https://www.brouilla.fr/","hasWebsite":true,"hasHoraires":true,"url":"https://lannuaire.service-public.gouv.fr/occitanie/pyrenees-orientales/34191940-0b7b-43d6-9f55-c2cd638f8210"}
{"nom":"Cabestany","nomNormalise":"cabestany","typeCollectivite":"Commune","region":"Occitanie","departement":"Pyrénées-Orientales","departementCode":"66","adresse":{"street":"3 place des Droits-de-l'Homme","postalCode":"66330","city":"Cabestany","country":"France"},"contacts":{"email":"sg@cabestany.com","telephone":"0468663600"},"horaires":"Du Lundi au Vendredi : de 08h00 à 12h00 de 13h00 à 17h00","latitude":42.67889,"longitude":2.937431,"website":"https://www.ville-cabestany.fr/","hasWebsite":true,"hasHoraires":true,"url":"https://lannuaire.service-public.gouv.fr/occitanie/pyrenees-orientales/724ba901-efd8-455c-a9b9-117d1519cc17"}
{"nom":"Caixas","nomNormalise":"caixas","typeCollectivite":"Commune","region":"Occitanie","departement":"Pyrénées-Orientales","departementCode":"66","adresse":{"street":"2 place de la Mairie","postalCode":"66300","city":"Caixas","country":"France"},"contacts":{"email":"mairie.caixas@orange.fr","telephone":"0468388368"},"horaires":"Le Lundi : de 09h00 à 12h30 de 13h30 à 17h30\nLe Jeudi : de 09h00 à 12h30","latitude":42.58273,"longitude":2.683033,"website":"https://www.caixas66300.fr/","hasWebsite":true,"hasHoraires":true,"url":"https://lannuaire.service-public.gouv.fr/occitanie/pyrenees-orientales/89bda79a-377e-4bcb-af03-a4483f10afed"}
{"nom":"Calce","nomNormalise":"calce","typeCollectivite":"Commune","region":"Occitanie","departement":"Pyrénées-Orientales","departementCode":"66","adresse":{"street":"12 route d'Estagel","postalCode":"66600","city":"Calce","country":"France"},"contacts":{"email":"accueilmairie@calce.fr","telephone":"0468642285"},"horaires":"Du Lundi au Jeudi : de 15h00 à 18h00\nLe Vendredi : de 15h00 à 17h00","latitude":42.758266,"longitude":2.755437,"website":"http://www.calce.fr/","hasWebsite":true,"hasHoraires":true,"url":"https://lannuaire.service-public.gouv.fr/occitanie/pyrenees-orientales/8c17af81-0c36-4abe-a0e4-e7eafb242921"}
{"nom":"Calmeilles","nomNormalise":"calmeilles","typeCollectivite":"Commune","region":"Occitanie","departement":"Pyrénées-Orientales","departementCode":"66","adresse":{"street":"2 place de la Mairie","postalCode":"66400","city":"Calmeilles","country":"France"},"contacts":{"email":"mairie.calmeilles@wanadoo.fr","telephone":"0468394150"},"horaires":"Le Mardi : de 14h00 à 18h00\nLe Jeudi : de 08h30 à 11h30","latitude":42.5522,"longitude":2.6746,"website":"","hasWebsite":false,"hasHoraires":true,"url":"https://lannuaire.service-public.gouv.fr/occitanie/pyrenees-orientales/9d18a6ba-0c09-4acc-89fe-ecb730ecf385"}
{"nom":"Camélas","nomNormalise":"camelas","typeCollectivite":"Commune","region":"Occitanie","departement":"Pyrénées-Orientales","departementCode":"66","adresse":{"street":"Lieu-dit La Plaine","postalCode":"66300","city":"Camélas","country":"France"},"contacts":{"email":"camelas@orange.fr","telephone":"0468534129"},"horaires":"Du Lundi au Vendredi : de 08h00 à 12h00\nLe Vendredi : de 08h00 à 12h00","latitude":42.630077,"longitude":2.684361,"website":"","hasWebsite":false,"hasHoraires":true,"url":"https://lannuaire.service-public.gouv.fr/occitanie/pyrenees-orientales/2f9e1347-be63-4a46-85f4-b4c5bfb3751d"}
{"nom":"Campome","nomNormalise":"campome","typeCollectivite":"Commune","region":"Occitanie","departement":"Pyrénées-Orientales","departementCode":"66","adresse":{"street":"La Place","postalCode":"66500","city":"Campome","country":"France"},"contacts":{"email":"mairiedecampome@orange.fr","telephone":"0468050213"},"horaires":"Le Mercredi : de 09h00 à 12h00\nLe Samedi : de 09h00 à 12h00","latitude":42.650536,"longitude":2.375511,"website":"https://campome.com/","hasWebsite":true,"hasHoraires":true,"url":"https://lannuaire.service-public.gouv.fr/occitanie/pyrenees-orientales/1571f4bd-f814-4f0a-a1b6-1800c4e03f87"}
{"nom":"Campoussy","nomNormalise":"campoussy","typeCollectivite":"Commune","region":"Occitanie","departement":"Pyrénées-Orientales","departementCode":"66","adresse":{"street":"9 carrier-Nou","postalCode":"66730","city":"Campoussy","country":"France"},"contacts":{"email":"communedecampoussy@wanadoo.fr","telephone":"0468977395"},"horaires":"Le Vendredi : de 11h00 à 12h00","latitude":42.71005,"longitude":2.458345,"website":"https://www.campoussy.com/","hasWebsite":true,"hasHoraires":true,"url":"https://lannuaire.service-public.gouv.fr/occitanie/pyrenees-orientales/9875bd47-3052-46bc-9552-adc43089a8ca"}
{"nom":"Canaveilles","nomNormalise":"canaveilles","typeCollectivite":"Commune","region":"Occitanie","departement":"Pyrénées-Orientales","departementCode":"66","adresse":{"street":"Place Erola","postalCode":"66360","city":"Canaveilles","country":"France"},"contacts":{"email":"commune.canaveilles@orange.fr","telephone":"0468970152"},"horaires":"Du Jeudi au Vendredi : de 09h30 à 16h30","latitude":42.536438,"longitude":2.249845,"website":"","hasWebsite":false,"hasHoraires":true,"url":"https://lannuaire.service-public.gouv.fr/occitanie/pyrenees-orientales/fa2cb7f2-36f9-4b22-95cf-698f7b405756"}
{"nom":"Canet-en-Roussillon","nomNormalise":"canetenroussillon","typeCollectivite":"Commune","region":"Occitanie","departement":"Pyrénées-Orientales","departementCode":"66","adresse":{"street":"Hôtel de Ville","postalCode":"66140","city":"Canet-en-Roussillon","country":"France"},"contacts":{"email":"infos@canetenroussillon.fr","telephone":"0468867000"},"horaires":"Du Lundi au Vendredi : de 08h00 à 12h00 de 14h00 à 17h00\nLe Samedi : de 10h00 à 12h00","latitude":42.705875,"longitude":3.008318,"website":"https://www.canetenroussillon.fr/#","hasWebsite":true,"hasHoraires":true,"url":"https://lannuaire.service-public.gouv.fr/occitanie/pyrenees-orientales/1cde3c34-e609-463a-a80b-3195174d48d6"}
{"nom":"Canohès","nomNormalise":"canohes","typeCollectivite":"Commune","region":"Occitanie","departement":"Pyrénées-Orientales","departementCode":"66","adresse":{"street":"1 avenue el Crusat","postalCode":"66680","city":"Canohès","country":"France"},"contacts":{"email":"mairie@canohes.fr","telephone":"0468547703"},"horaires":"Du Lundi au Vendredi : de 09h00 à 12h00 de 13h30 à 17h30","latitude":42.654724,"longitude":2.831956,"website":"https://www.canohes.fr/","hasWebsite":true,"hasHoraires":true,"url":"https://lannuaire.service-public.gouv.fr/occitanie/pyrenees-orientales/986e6e5d-fb06-416e-96a4-3355a6b15e0b"}
{"nom":"Caramany","nomNormalise":"caramany","typeCollectivite":"Commune","region":"Occitanie","departement":"Pyrénées-Orientales","departementCode":"66","adresse":{"street":"3 place de la Mairie","postalCode":"66720","city":"Caramany","country":"France"},"contacts":{"email":"mairie.caramany@wanadoo.fr","telephone":"0468845185"},"horaires":"Le Mardi : de 08h30 à 12h30\nLe Jeudi : de 08h30 à 12h30\nLe Vendredi : de 08h30 à 12h00","latitude":42.73471,"longitude":2.5702493,"website":"https://www.caramany.fr/","hasWebsite":true,"hasHoraires":true,"url":"https://lannuaire.service-public.gouv.fr/occitanie/pyrenees-orientales/e3a22245-2435-4c45-999d-0feed7c60a9f"}
{"nom":"Casefabre","nomNormalise":"casefabre","typeCollectivite":"Commune","region":"Occitanie","departement":"Pyrénées-Orientales","departementCode":"66","adresse":{"street":"1 place Lambert-Coste","postalCode":"66130","city":"Casefabre","country":"France"},"contacts":{"email":"mairiecasefabre@orange.fr","telephone":"0468847592"},"horaires":"Le Mercredi : de 14h00 à 17h30","latitude":42.61548,"longitude":2.613934,"website":"","hasWebsite":false,"hasHoraires":true,"url":"https://lannuaire.service-public.gouv.fr/occitanie/pyrenees-orientales/84a22760-03c9-4923-89f9-f4e89bbc64a1"}
{"nom":"Cases-de-Pène","nomNormalise":"casesdepene","typeCollectivite":"Commune","region":"Occitanie","departement":"Pyrénées-Orientales","departementCode":"66","adresse":{"street":"1 rue de l'Hôtel-de-Ville","postalCode":"66600","city":"Cases-de-Pène","country":"France"},"contacts":{"email":"etatcivil.casesdepene@gmail.com","telephone":"0468389090"},"horaires":"Du Lundi au Vendredi : de 09h00 à 12h00 de 14h00 à 16h00","latitude":42.779118,"longitude":2.7865858,"website":"https://www.casesdepene.fr/","hasWebsite":true,"hasHoraires":true,"url":"https://lannuaire.service-public.gouv.fr/occitanie/pyrenees-orientales/a3743b5a-d78c-46da-b021-615db08c49c4"}
{"nom":"Cassagnes","nomNormalise":"cassagnes","typeCollectivite":"Commune","region":"Occitanie","departement":"Pyrénées-Orientales","departementCode":"66","adresse":{"street":"6 rue des Capitelles","postalCode":"66720","city":"Cassagnes","country":"France"},"contacts":{"email":"mairiedecassagnes@wanadoo.fr","telephone":"0468845194"},"horaires":"Du Lundi au Jeudi : de 14h00 à 18h00","latitude":42.740387,"longitude":2.6112924,"website":"https://www.mairie-cassagnes66.com/","hasWebsite":true,"hasHoraires":true,"url":"https://lannuaire.service-public.gouv.fr/occitanie/pyrenees-orientales/7fb32f99-7fd4-459a-a963-7786af53347d"}
{"nom":"Casteil","nomNormalise":"casteil","typeCollectivite":"Commune","region":"Occitanie","departement":"Pyrénées-Orientales","departementCode":"66","adresse":{"street":"3 boulevard Saint-Martin-du-Canigou","postalCode":"66820","city":"Casteil","country":"France"},"contacts":{"email":"mairie.casteil@wanadoo.fr","telephone":"0468056763"},"horaires":"Du Lundi au Mardi : de 09h00 à 12h00\nDu Jeudi au Vendredi : de 09h00 à 12h00","latitude":42.53299,"longitude":2.392342,"website":"http://www.casteil.fr/Accueil_Casteil.html","hasWebsite":true,"hasHoraires":true,"url":"https://lannuaire.service-public.gouv.fr/occitanie/pyrenees-orientales/ffe775a6-af39-4165-885d-787edd443f10"}
{"nom":"Castelnou","nomNormalise":"castelnou","typeCollectivite":"Commune","region":"Occitanie","departement":"Pyrénées-Orientales","departementCode":"66","adresse":{"street":"Carrer de la Patora","postalCode":"66300","city":"Castelnou","country":"France"},"contacts":{"email":"mairie@castelnou.fr","telephone":"0468534572"},"horaires":"Le Lundi : de 09h00 à 12h00 de 14h00 à 17h00\nLe Jeudi : de 09h00 à 12h00 de 14h00 à 17h00","latitude":42.6192,"longitude":2.70353,"website":"https://www.castelnou.fr/","hasWebsite":true,"hasHoraires":true,"url":"https://lannuaire.service-public.gouv.fr/occitanie/pyrenees-orientales/b11b0a10-b1e4-4366-af69-921ba3a09166"}
{"nom":"Catllar","nomNormalise":"catllar","typeCollectivite":"Commune","region":"Occitanie","departement":"Pyrénées-Orientales","departementCode":"66","adresse":{"street":"5 place de la République","postalCode":"66500","city":"Catllar","country":"France"},"contacts":{"email":"catllar@orange.fr","telephone":"0468964964"},"horaires":"Du Lundi au Vendredi : de 09h00 à 12h00","latitude":42.633934,"longitude":2.4228382,"website":"https://catllar.fr/","hasWebsite":true,"hasHoraires":true,"url":"https://lannuaire.service-public.gouv.fr/occitanie/pyrenees-orientales/91b461da-3bfb-42f8-aaa2-14284eab40a1"}
{"nom":"Caudiès-de-Conflent","nomNormalise":"caudiesdeconflent","typeCollectivite":"Commune","region":"Occitanie","departement":"Pyrénées-Orientales","departementCode":"66","adresse":{"street":"1 terrasse Bellevue","postalCode":"66360","city":"Caudiès-de-Conflent","country":"France"},"contacts":{"email":"mairie@caudiesdeconflent.fr","telephone":"0468970144"},"horaires":"Le Vendredi : de 08h30 à 12h00","latitude":42.567272,"longitude":2.161642,"website":"","hasWebsite":false,"hasHoraires":true,"url":"https://lannuaire.service-public.gouv.fr/occitanie/pyrenees-orientales/9bec9382-9b20-4256-8596-764b91aa28b7"}
{"nom":"Caudiès-de-Fenouillèdes","nomNormalise":"caudiesdefenouilledes","typeCollectivite":"Commune","region":"Occitanie","departement":"Pyrénées-Orientales","departementCode":"66","adresse":{"street":"Place de la Mairie","postalCode":"66220","city":"Caudiès-de-Fenouillèdes","country":"France"},"contacts":{"email":"mairie@caudiesdefenouilledes.fr","telephone":"0468599225"},"horaires":"Du Lundi au Vendredi : de 09h00 à 11h45","latitude":42.81316,"longitude":2.37484,"website":"http://www.mairie-caudies-fenouilledes.fr/","hasWebsite":true,"hasHoraires":true,"url":"https://lannuaire.service-public.gouv.fr/occitanie/pyrenees-orientales/2dc44279-bcd1-44bb-83a7-1996a3379f7f"}
{"nom":"Cerbère","nomNormalise":"cerbere","typeCollectivite":"Commune","region":"Occitanie","departement":"Pyrénées-Orientales","departementCode":"66","adresse":{"street":"23 avenue du Général-de-Gaulle","postalCode":"66290","city":"Cerbère","country":"France"},"contacts":{"email":"accueil@mairie-cerbere.fr","telephone":"0468884185"},"horaires":"Du Lundi au Vendredi : de 09h00 à 12h00 de 14h00 à 17h00","latitude":42.4421,"longitude":3.16559,"website":"http://www.cerbere-village.com/","hasWebsite":true,"hasHoraires":true,"url":"https://lannuaire.service-public.gouv.fr/occitanie/pyrenees-orientales/7259b27c-47a2-44a7-8e5c-8bc8b50cf5ca"}
{"nom":"Céret","nomNormalise":"ceret","typeCollectivite":"Commune","region":"Occitanie","departement":"Pyrénées-Orientales","departementCode":"66","adresse":{"street":"6 boulevard du Maréchal-Joffre","postalCode":"66400","city":"Céret","country":"France"},"contacts":{"email":"administration@mairie-ceret.fr","telephone":"0468870000"},"horaires":"Du Lundi au Vendredi : de 08h00 à 12h00 de 13h30 à 18h00\n\nAccueil ouvert de 8h à 12h et de 14h à 17h pendant les congés scolaires.","latitude":42.48585,"longitude":2.7486906,"website":"https://www.ceret.fr/","hasWebsite":true,"hasHoraires":true,"url":"https://lannuaire.service-public.gouv.fr/occitanie/pyrenees-orientales/4fc04c10-588a-4ff9-98bf-82a47e6d8588"}
{"nom":"Claira","nomNormalise":"claira","typeCollectivite":"Commune","region":"Occitanie","departement":"Pyrénées-Orientales","departementCode":"66","adresse":{"street":"4 place de la République","postalCode":"66530","city":"Claira","country":"France"},"contacts":{"email":"accueil@claira.fr","telephone":"0468283150"},"horaires":"Du Lundi au Vendredi : de 09h00 à 12h00 de 13h00 à 17h00","latitude":42.759686,"longitude":2.9559937,"website":"https://claira.fr/","hasWebsite":true,"hasHoraires":true,"url":"https://lannuaire.service-public.gouv.fr/occitanie/pyrenees-orientales/f0a7324c-4ddc-40e4-aa79-f79a07852712"}
{"nom":"Clara-Villerach","nomNormalise":"claravillerach","typeCollectivite":"Commune","region":"Occitanie","departement":"Pyrénées-Orientales","departementCode":"66","adresse":{"street":"1 rue de la Mairie","postalCode":"66500","city":"Clara-Villerach","country":"France"},"contacts":{"email":"commune-de-clara@orange.fr","telephone":"0960430636"},"horaires":"Le Mercredi : de 09h00 à 12h00","latitude":42.58492,"longitude":2.443017,"website":"","hasWebsite":false,"hasHoraires":true,"url":"https://lannuaire.service-public.gouv.fr/occitanie/pyrenees-orientales/60eefe77-7ceb-43b5-ba20-2ae997c57738"}
{"nom":"Codalet","nomNormalise":"codalet","typeCollectivite":"Commune","region":"Occitanie","departement":"Pyrénées-Orientales","departementCode":"66","adresse":{"street":"33 rue du Conflent","postalCode":"66500","city":"Codalet","country":"France"},"contacts":{"email":"mairie.codalet@wanadoo.fr","telephone":"0468964577"},"horaires":"Le Mardi : de 08h00 à 17h00\nLe Jeudi : de 08h00 à 17h00","latitude":42.6115,"longitude":2.41792,"website":"http://www.codalet.fr/","hasWebsite":true,"hasHoraires":true,"url":"https://lannuaire.service-public.gouv.fr/occitanie/pyrenees-orientales/1c176bbe-b36a-4c0a-b017-9b80471441dd"}
{"nom":"Collioure","nomNormalise":"collioure","typeCollectivite":"Commune","region":"Occitanie","departement":"Pyrénées-Orientales","departementCode":"66","adresse":{"street":"3 rue de la République","postalCode":"66190","city":"Collioure","country":"France"},"contacts":{"email":"contact@collioure.fr","telephone":"0468820566"},"horaires":"Du Lundi au Vendredi : de 09h00 à 12h00 de 14h00 à 17h00","latitude":42.5257,"longitude":3.0829608,"website":"https://collioure.fr/","hasWebsite":true,"hasHoraires":true,"url":"https://lannuaire.service-public.gouv.fr/occitanie/pyrenees-orientales/70c17b0d-1136-4681-a534-e4198ae76ddc"}
{"nom":"Conat","nomNormalise":"conat","typeCollectivite":"Commune","region":"Occitanie","departement":"Pyrénées-Orientales","departementCode":"66","adresse":{"street":"1 place du 8-Mai-1945","postalCode":"66500","city":"Conat","country":"France"},"contacts":{"email":"mairie.conat-betllans@mailo.com","telephone":"0468963898"},"horaires":"Le Jeudi : de 14h00 à 17h00","latitude":42.612663,"longitude":2.357833,"website":"","hasWebsite":false,"hasHoraires":true,"url":"https://lannuaire.service-public.gouv.fr/occitanie/pyrenees-orientales/5c6d080b-860d-4c7e-bc67-85e22a20ed7e"}
{"nom":"Corbère","nomNormalise":"corbere","typeCollectivite":"Commune","region":"Occitanie","departement":"Pyrénées-Orientales","departementCode":"66","adresse":{"street":"Espace Émile Vendrell","postalCode":"66130","city":"Corbère","country":"France"},"contacts":{"email":"mairie@corbere.fr","telephone":"0468848028"},"horaires":"Du Lundi au Vendredi : de 09h00 à 12h00","latitude":42.652157,"longitude":2.65988,"website":"","hasWebsite":false,"hasHoraires":true,"url":"https://lannuaire.service-public.gouv.fr/occitanie/pyrenees-orientales/3ec004aa-0164-46a8-80d0-555b8ba188a1"}
{"nom":"Corbère-les-Cabanes","nomNormalise":"corberelescabanes","typeCollectivite":"Commune","region":"Occitanie","departement":"Pyrénées-Orientales","departementCode":"66","adresse":{"street":"13 rue Pomarola","postalCode":"66130","city":"Corbère-les-Cabanes","country":"France"},"contacts":{"email":"mairie@corbere-les-cabanes.fr","telephone":"0468848006"},"horaires":"Du Lundi au Vendredi : de 08h00 à 12h00","latitude":42.65803,"longitude":2.675991,"website":"https://www.corbere-les-cabanes.fr/","hasWebsite":true,"hasHoraires":true,"url":"https://lannuaire.service-public.gouv.fr/occitanie/pyrenees-orientales/993cd854-7041-49ca-accd-2093d79cbf34"}
{"nom":"Corneilla-de-Conflent","nomNormalise":"corneilladeconflent","typeCollectivite":"Commune","region":"Occitanie","departement":"Pyrénées-Orientales","departementCode":"66","adresse":{"street":"36 Carrer-d'Amunt","postalCode":"66820","city":"Corneilla-de-Conflent","country":"France"},"contacts":{"email":"secretariat@corneilladeconflent.fr","telephone":"0468056398"},"horaires":"Le Lundi : de 09h00 à 11h30 de 15h00 à 18h00\nLe Mardi : de 09h00 à 11h30\nLe Jeudi : de 09h00 à 11h30 de 15h00 à 18h00\nLe Vendredi : de 09h00 à 11h30","latitude":42.566433,"longitude":2.3831,"website":"https://corneilladeconflent.fr/","hasWebsite":true,"hasHoraires":true,"url":"https://lannuaire.service-public.gouv.fr/occitanie/pyrenees-orientales/b12f5260-c091-4042-b3b3-7b078d14ddfe"}
{"nom":"Corneilla-del-Vercol","nomNormalise":"corneilladelvercol","typeCollectivite":"Commune","region":"Occitanie","departement":"Pyrénées-Orientales","departementCode":"66","adresse":{"street":"1 rue du Tonkin","postalCode":"66200","city":"Corneilla-del-Vercol","country":"France"},"contacts":{"email":"secretariat@corneilla-del-vercol.com","telephone":"0468221262"},"horaires":"Du Lundi au Jeudi : de 09h00 à 12h00 de 16h00 à 18h00\nLe Vendredi : de 09h00 à 12h00 de 16h00 à 17h00","latitude":42.6264,"longitude":2.94828,"website":"http://www.corneilla-del-vercol.com/","hasWebsite":true,"hasHoraires":true,"url":"https://lannuaire.service-public.gouv.fr/occitanie/pyrenees-orientales/11e2ff20-beaa-4984-b6af-3d37307d7bc9"}
{"nom":"Corneilla-la-Rivière","nomNormalise":"corneillalariviere","typeCollectivite":"Commune","region":"Occitanie","departement":"Pyrénées-Orientales","departementCode":"66","adresse":{"street":"1 rue de la Poste","postalCode":"66550","city":"Corneilla-la-Rivière","country":"France"},"contacts":{"email":"secretariat1@corneillalariviere.fr","telephone":"0468573425"},"horaires":"Du Lundi au Vendredi : de 08h30 à 12h00 de 14h00 à 17h00","latitude":42.6973,"longitude":2.7289,"website":"http://www.corneilla-la-riviere.fr/","hasWebsite":true,"hasHoraires":true,"url":"https://lannuaire.service-public.gouv.fr/occitanie/pyrenees-orientales/fa428e39-eb78-446e-9b05-dd484fd8a269"}
{"nom":"Corsavy","nomNormalise":"corsavy","typeCollectivite":"Commune","region":"Occitanie","departement":"Pyrénées-Orientales","departementCode":"66","adresse":{"street":"Barry-d'Amont","postalCode":"66150","city":"Corsavy","country":"France"},"contacts":{"email":"mairie@corsavy.fr","telephone":"0468392651"},"horaires":"Du Lundi au Vendredi : de 09h00 à 12h00","latitude":42.467243,"longitude":2.5778635,"website":"https://www.corsavy.fr/","hasWebsite":true,"hasHoraires":true,"url":"https://lannuaire.service-public.gouv.fr/occitanie/pyrenees-orientales/92e32b3f-d6cc-4f58-a63d-aaf2d21e85a4"}
{"nom":"Coustouges","nomNormalise":"coustouges","typeCollectivite":"Commune","region":"Occitanie","departement":"Pyrénées-Orientales","departementCode":"66","adresse":{"street":"Route des Écoles","postalCode":"66260","city":"Coustouges","country":"France"},"contacts":{"email":"mairie.coustouges@orange.fr","telephone":"0468395101"},"horaires":"Du Lundi au Vendredi : de 09h00 à 12h00 de 14h00 à 16h00","latitude":42.367348,"longitude":2.650173,"website":"http://www.coustouges.fr/","hasWebsite":true,"hasHoraires":true,"url":"https://lannuaire.service-public.gouv.fr/occitanie/pyrenees-orientales/6fd7bc71-85e4-4f03-98ff-04ee1a8c81b4"}
{"nom":"Dorres","nomNormalise":"dorres","typeCollectivite":"Commune","region":"Occitanie","departement":"Pyrénées-Orientales","departementCode":"66","adresse":{"street":"4 Carrer-Major","postalCode":"66760","city":"Dorres","country":"France"},"contacts":{"email":"commune-dorres@orange.fr","telephone":"0468046069"},"horaires":"Du Lundi au Mardi : de 09h00 à 12h00 de 14h00 à 16h00\nLe Mercredi : de 09h00 à 12h00\nDu Jeudi au Vendredi : de 09h00 à 12h00 de 14h00 à 16h00","latitude":42.4859,"longitude":1.94222,"website":"http://www.dorres66.com/","hasWebsite":true,"hasHoraires":true,"url":"https://lannuaire.service-public.gouv.fr/occitanie/pyrenees-orientales/94594a1d-25cc-4245-8672-7bded877daf2"}
{"nom":"Égat","nomNormalise":"egat","typeCollectivite":"Commune","region":"Occitanie","departement":"Pyrénées-Orientales","departementCode":"66","adresse":{"street":"1 place Coloumine","postalCode":"66120","city":"Égat","country":"France"},"contacts":{"email":"mairie.egat@wanadoo.fr","telephone":"0468301228"},"horaires":"Du Lundi au Vendredi : de 09h00 à 12h00 de 14h00 à 17h00","latitude":42.50074,"longitude":2.016556,"website":"","hasWebsite":false,"hasHoraires":true,"url":"https://lannuaire.service-public.gouv.fr/occitanie/pyrenees-orientales/37bb297d-8321-47e6-a407-91aa0660ef7f"}
{"nom":"Elne","nomNormalise":"elne","typeCollectivite":"Commune","region":"Occitanie","departement":"Pyrénées-Orientales","departementCode":"66","adresse":{"street":"14 boulevard Voltaire","postalCode":"66200","city":"Elne","country":"France"},"contacts":{"email":"servicecommunication@ville-elne.com","telephone":"0468373839"},"horaires":"Du Lundi au Mardi : de 09h00 à 12h00 de 14h00 à 17h00\nLe Mercredi : de 09h00 à 12h00 de 14h00 à 18h00\nDu Jeudi au Vendredi : de 09h00 à 12h00 de 14h00 à 17h00","latitude":42.601154,"longitude":2.97364,"website":"https://ville-elne.fr/fr/","hasWebsite":true,"hasHoraires":true,"url":"https://lannuaire.service-public.gouv.fr/occitanie/pyrenees-orientales/994278c7-20a8-4a5e-a024-ba41711635ad"}
{"nom":"Enveitg","nomNormalise":"enveitg","typeCollectivite":"Commune","region":"Occitanie","departement":"Pyrénées-Orientales","departementCode":"66","adresse":{"street":"14 avenue de la Gare-Internationale","postalCode":"66760","city":"Enveitg","country":"France"},"contacts":{"email":"mairie.enveitg@wanadoo.fr","telephone":"0468048134"},"horaires":"Du Lundi au Vendredi : de 13h30 à 17h00","latitude":42.460518,"longitude":1.9113228,"website":"http://www.mairie-enveitg.com/","hasWebsite":true,"hasHoraires":true,"url":"https://lannuaire.service-public.gouv.fr/occitanie/pyrenees-orientales/d04ce9b1-135e-44fe-a0ec-b5a5a5be26f0"}
{"nom":"Err","nomNormalise":"err","typeCollectivite":"Commune","region":"Occitanie","departement":"Pyrénées-Orientales","departementCode":"66","adresse":{"street":"1 carrer de l'Ajuntament","postalCode":"66800","city":"Err","country":"France"},"contacts":{"email":"mairie.err@orange.fr","telephone":"0468047294"},"horaires":"Du Lundi au Vendredi : de 14h00 à 17h00","latitude":42.441856,"longitude":2.033369,"website":"","hasWebsite":false,"hasHoraires":true,"url":"https://lannuaire.service-public.gouv.fr/occitanie/pyrenees-orientales/719cc393-b467-4c2a-a63c-710b4b453546"}
{"nom":"Escaro-Aytua","nomNormalise":"escaroaytua","typeCollectivite":"Commune","region":"Occitanie","departement":"Pyrénées-Orientales","departementCode":"66","adresse":{"street":"8 Rue Saint-Martin","postalCode":"66360","city":"Escaro","country":"France"},"contacts":{"email":"commune-d-escaro@orange.fr","telephone":"0468970243"},"horaires":"Le Lundi : de 14h15 à 16h45\nLe Mercredi : de 14h15 à 16h45\nLe Vendredi : de 14h15 à 16h45","latitude":42.536217,"longitude":2.314297,"website":"http://www.escaro-aytua.fr/","hasWebsite":true,"hasHoraires":true,"url":"https://lannuaire.service-public.gouv.fr/occitanie/pyrenees-orientales/557938a2-3cb5-4acf-ba87-ebc65b551a93"}
{"nom":"Espira-de-Conflent","nomNormalise":"espiradeconflent","typeCollectivite":"Commune","region":"Occitanie","departement":"Pyrénées-Orientales","departementCode":"66","adresse":{"street":"15 Carrer-Major","postalCode":"66320","city":"Espira-de-Conflent","country":"France"},"contacts":{"email":"sec.mairie.espira.de.conflent@orange.fr","telephone":"0468058921"},"horaires":"Le Lundi : de 09h00 à 11h00\nLe Mercredi : de 09h00 à 11h00\nLe Vendredi : de 09h00 à 11h00","latitude":42.61709,"longitude":2.49818,"website":"","hasWebsite":false,"hasHoraires":true,"url":"https://lannuaire.service-public.gouv.fr/occitanie/pyrenees-orientales/376f5121-a9ee-4655-96d7-c1d94def1012"}
{"nom":"Espira-de-l'Agly","nomNormalise":"espiradelagly","typeCollectivite":"Commune","region":"Occitanie","departement":"Pyrénées-Orientales","departementCode":"66","adresse":{"street":"27 rue du 4-Septembre","postalCode":"66600","city":"Espira-de-l'Agly","country":"France"},"contacts":{"email":"mairie@espira.com","telephone":"0468641753"},"horaires":"Du Lundi au Vendredi : de 08h30 à 12h00 de 13h30 à 17h00","latitude":42.77704,"longitude":2.837167,"website":"https://www.espira.com/fr/","hasWebsite":true,"hasHoraires":true,"url":"https://lannuaire.service-public.gouv.fr/occitanie/pyrenees-orientales/477eb55b-ef7a-4c7e-a62a-ece37274b9e8"}
{"nom":"Estagel","nomNormalise":"estagel","typeCollectivite":"Commune","region":"Occitanie","departement":"Pyrénées-Orientales","departementCode":"66","adresse":{"street":"6 avenue du Docteur-Torreilles","postalCode":"66310","city":"Estagel","country":"France"},"contacts":{"email":"accueil.mairie@estagel.fr","telephone":"0468290032"},"horaires":"Du Lundi au Vendredi : de 08h30 à 12h00 de 15h00 à 17h00","latitude":42.773426,"longitude":2.697731,"website":"http://estagel.reseaudescommunes.fr/","hasWebsite":true,"hasHoraires":true,"url":"https://lannuaire.service-public.gouv.fr/occitanie/pyrenees-orientales/f11685d0-c9a4-4c65-bce5-7c1d88d54661"}
{"nom":"Estavar","nomNormalise":"estavar","typeCollectivite":"Commune","region":"Occitanie","departement":"Pyrénées-Orientales","departementCode":"66","adresse":{"street":"6 place San-Julia","postalCode":"66800","city":"Estavar","country":"France"},"contacts":{"email":"mairie.estavar@wanadoo.fr","telephone":"0468047738"},"horaires":"Du Lundi au Vendredi : de 08h15 à 10h15\nSur rendez-vous en dehors de ces horaires.","latitude":42.46786,"longitude":1.996475,"website":"https://mairiedestavar.fr/","hasWebsite":true,"hasHoraires":true,"url":"https://lannuaire.service-public.gouv.fr/occitanie/pyrenees-orientales/fdb983d7-6ac7-4778-a2d3-8ec55e8e55fd"}
{"nom":"Estoher","nomNormalise":"estoher","typeCollectivite":"Commune","region":"Occitanie","departement":"Pyrénées-Orientales","departementCode":"66","adresse":{"street":"Rue de l'École","postalCode":"66320","city":"Estoher","country":"France"},"contacts":{"email":"mairie@estoher.fr","telephone":"0468058668"},"horaires":"Le Mardi : de 08h30 à 12h00\nLe Vendredi : de 08h30 à 12h00","latitude":42.60105,"longitude":2.48548,"website":"http://www.estoher.fr/","hasWebsite":true,"hasHoraires":true,"url":"https://lannuaire.service-public.gouv.fr/occitanie/pyrenees-orientales/8dec4376-1a95-4597-b53a-d7f7d1822aac"}
{"nom":"Eus","nomNormalise":"eus","typeCollectivite":"Commune","region":"Occitanie","departement":"Pyrénées-Orientales","departementCode":"66","adresse":{"street":"Carrer de l'Ajuntament","postalCode":"66500","city":"Eus","country":"France"},"contacts":{"email":"mairie.eus@orange.fr","telephone":"0468960627"},"horaires":"Du Lundi au Vendredi : de 09h00 à 12h00","latitude":42.64417,"longitude":2.457314,"website":"","hasWebsite":false,"hasHoraires":true,"url":"https://lannuaire.service-public.gouv.fr/occitanie/pyrenees-orientales/602d71ab-9992-423e-ac7c-fdbbce5c66d4"}
{"nom":"Eyne","nomNormalise":"eyne","typeCollectivite":"Commune","region":"Occitanie","departement":"Pyrénées-Orientales","departementCode":"66","adresse":{"street":"Cal Martinet","postalCode":"66800","city":"Eyne","country":"France"},"contacts":{"email":"mairie@eyne.fr","telephone":"0468047866"},"horaires":"Du Lundi au Vendredi : de 08h30 à 12h30","latitude":42.474056,"longitude":2.080157,"website":"","hasWebsite":false,"hasHoraires":true,"url":"https://lannuaire.service-public.gouv.fr/occitanie/pyrenees-orientales/d6f324e3-0a7e-4542-8460-1f74455b4b40"}
{"nom":"Felluns","nomNormalise":"felluns","typeCollectivite":"Commune","region":"Occitanie","departement":"Pyrénées-Orientales","departementCode":"66","adresse":{"street":"1 place de la Mairie","postalCode":"66730","city":"Felluns","country":"France"},"contacts":{"email":"mairie.felluns@wanadoo.fr","telephone":"0468977177"},"horaires":"Du Lundi au Vendredi : de 08h00 à 12h00","latitude":42.76159,"longitude":2.483221,"website":"","hasWebsite":false,"hasHoraires":true,"url":"https://lannuaire.service-public.gouv.fr/occitanie/pyrenees-orientales/013ef757-86d7-47b2-838b-e1ae46996445"}
{"nom":"Fenouillet","nomNormalise":"fenouillet","typeCollectivite":"Commune","region":"Occitanie","departement":"Pyrénées-Orientales","departementCode":"66","adresse":{"street":"La Vilasse","postalCode":"66220","city":"Fenouillet","country":"France"},"contacts":{"email":"fenouillet.mairie.66@wanadoo.fr","telephone":"0468599039"},"horaires":"Le Mardi : de 08h00 à 12h00 de 14h00 à 17h00\nLe Jeudi : de 08h00 à 12h00 de 14h00 à 17h00","latitude":42.79165,"longitude":2.380918,"website":"http://fenouillet.net/","hasWebsite":true,"hasHoraires":true,"url":"https://lannuaire.service-public.gouv.fr/occitanie/pyrenees-orientales/d98b9670-827b-4947-a39a-0039df49599c"}
{"nom":"Fillols","nomNormalise":"fillols","typeCollectivite":"Commune","region":"Occitanie","departement":"Pyrénées-Orientales","departementCode":"66","adresse":{"street":"Le Village","postalCode":"66820","city":"Fillols","country":"France"},"contacts":{"email":"mairie.fillols@wanadoo.fr","telephone":"0468056994"},"horaires":"Le Mardi : de 08h00 à 12h00\nLe Vendredi : de 08h00 à 12h00","latitude":42.561565,"longitude":2.408966,"website":"https://www.fillols.fr/","hasWebsite":true,"hasHoraires":true,"url":"https://lannuaire.service-public.gouv.fr/occitanie/pyrenees-orientales/d39cfe09-fbf4-471d-aab3-a36fd32fa4d7"}
{"nom":"Finestret","nomNormalise":"finestret","typeCollectivite":"Commune","region":"Occitanie","departement":"Pyrénées-Orientales","departementCode":"66","adresse":{"street":"Plaça del Firal","postalCode":"66320","city":"Finestret","country":"France"},"contacts":{"email":"mairie-de-finestret@wanadoo.fr","telephone":"0468058597"},"horaires":"Du Lundi au Mardi : de 09h00 à 11h30","latitude":42.614777,"longitude":2.511459,"website":"","hasWebsite":false,"hasHoraires":true,"url":"https://lannuaire.service-public.gouv.fr/occitanie/pyrenees-orientales/844a2362-f1b2-4f82-ab12-f9e4a832c312"}
{"nom":"Fontpédrouse","nomNormalise":"fontpedrouse","typeCollectivite":"Commune","region":"Occitanie","departement":"Pyrénées-Orientales","departementCode":"66","adresse":{"street":"130 rue de Saint-Thomas","postalCode":"66360","city":"Fontpédrouse","country":"France"},"contacts":{"email":"mairie@fontpedrouse.fr","telephone":"0468970515"},"horaires":"Du Lundi au Vendredi : de 10h00 à 12h00","latitude":42.510254,"longitude":2.177506,"website":"https://fontpedrouse.com/","hasWebsite":true,"hasHoraires":true,"url":"https://lannuaire.service-public.gouv.fr/occitanie/pyrenees-orientales/6a7d381c-a1ef-4e6e-b0b0-bb369964adfd"}
{"nom":"Fontrabiouse - Espousouille","nomNormalise":"fontrabiouseespousouille","typeCollectivite":"Commune","region":"Occitanie","departement":"Pyrénées-Orientales","departementCode":"66","adresse":{"street":"1 rue du Planas","postalCode":"66210","city":"Fontrabiouse","country":"France"},"contacts":{"email":"mairie@fontrabiouse.fr","telephone":"0468044428"},"horaires":"Du Lundi au Vendredi : de 08h15 à 12h00 de 13h30 à 17h00\n\nSauf le mardi et le vendredi des semaines paires.","latitude":42.63682,"longitude":2.095763,"website":"https://fontrabiouse.fr/","hasWebsite":true,"hasHoraires":true,"url":"https://lannuaire.service-public.gouv.fr/occitanie/pyrenees-orientales/6c54900d-016b-473d-a88f-591519913eeb"}
{"nom":"Font-Romeu-Odeillo-Via","nomNormalise":"fontromeuodeillovia","typeCollectivite":"Commune","region":"Occitanie","departement":"Pyrénées-Orientales","departementCode":"66","adresse":{"street":"1 avenue du Professeur-Trombe","postalCode":"66120","city":"Font-Romeu-Odeillo-Via","country":"France"},"contacts":{"email":"accueil@mairie-fontromeu.fr","telephone":"0468301022"},"horaires":"Du Lundi au Vendredi : de 08h30 à 12h30 de 13h30 à 17h00","latitude":42.49676,"longitude":2.03359,"website":"http://www.mairie-fontromeu.fr/","hasWebsite":true,"hasHoraires":true,"url":"https://lannuaire.service-public.gouv.fr/occitanie/pyrenees-orientales/56666a82-d379-4db6-a198-4db300d11a1b"}
{"nom":"Formiguères","nomNormalise":"formigueres","typeCollectivite":"Commune","region":"Occitanie","departement":"Pyrénées-Orientales","departementCode":"66","adresse":{"street":"1 place de l'Église","postalCode":"66210","city":"Formiguères","country":"France"},"contacts":{"email":"mairie@mairiedeformigueres.fr","telephone":"0468044173"},"horaires":"Du Lundi au Vendredi : de 08h00 à 12h00","latitude":42.61387,"longitude":2.102812,"website":"https://formigueres.fr/","hasWebsite":true,"hasHoraires":true,"url":"https://lannuaire.service-public.gouv.fr/occitanie/pyrenees-orientales/85bb13b1-ef43-4d81-a58a-457ddd4de438"}
{"nom":"Fosse","nomNormalise":"fosse","typeCollectivite":"Commune","region":"Occitanie","departement":"Pyrénées-Orientales","departementCode":"66","adresse":{"street":"Les Cabanes","postalCode":"66220","city":"Fosse","country":"France"},"contacts":{"email":"mairie-de-fosse@wanadoo.fr","telephone":"0468599276"},"horaires":"Le Lundi : de 09h00 à 12h30\nLe Vendredi : de 09h00 à 16h30","latitude":42.788517,"longitude":2.431805,"website":"https://www.fosse66.fr/","hasWebsite":true,"hasHoraires":true,"url":"https://lannuaire.service-public.gouv.fr/occitanie/pyrenees-orientales/6acead79-7e2c-4fc5-ad89-e56b28fd7bf7"}
{"nom":"Fourques","nomNormalise":"fourques","typeCollectivite":"Commune","region":"Occitanie","departement":"Pyrénées-Orientales","departementCode":"66","adresse":{"street":"Place de la Mairie","postalCode":"66300","city":"Fourques","country":"France"},"contacts":{"email":"mairie.fourques66@orange.fr","telephone":"0468388041"},"horaires":"Le Lundi : de 08h00 à 12h00 de 17h00 à 18h00\nLe Mardi : de 17h00 à 18h00\nLe Mercredi : de 08h00 à 12h00 de 17h00 à 18h00\nLe Jeudi : de 08h00 à 12h00 de 17h00 à 18h00\nLe Vendredi : de 08h00 à 12h00 de 17h00 à 18h00","latitude":42.5817,"longitude":2.77888,"website":"http://www.fourques66.fr/","hasWebsite":true,"hasHoraires":true,"url":"https://lannuaire.service-public.gouv.fr/occitanie/pyrenees-orientales/cf915886-96dd-4aeb-a3e8-88dd74a21df4"}
{"nom":"Fuilla","nomNormalise":"fuilla","typeCollectivite":"Commune","region":"Occitanie","departement":"Pyrénées-Orientales","departementCode":"66","adresse":{"street":"41 ancien chemin de Villefranche","postalCode":"66820","city":"Fuilla","country":"France"},"contacts":{"email":"mairie.fuilla@wanadoo.fr","telephone":"0468961923"},"horaires":"Le Lundi : de 09h00 à 12h30\nDu Mardi au Mercredi : de 09h00 à 12h30 de 13h00 à 17h30\nLe Jeudi : de 09h00 à 12h30","latitude":42.567448,"longitude":2.359955,"website":"","hasWebsite":false,"hasHoraires":true,"url":"https://lannuaire.service-public.gouv.fr/occitanie/pyrenees-orientales/dfd8f425-2b22-40f6-b3bd-a966ed907243"}
{"nom":"Glorianes","nomNormalise":"glorianes","typeCollectivite":"Commune","region":"Occitanie","departement":"Pyrénées-Orientales","departementCode":"66","adresse":{"street":"Le Village","postalCode":"66320","city":"Glorianes","country":"France"},"contacts":{"email":"mairie-glorianes@orange.fr","telephone":"0468058782"},"horaires":"Le Mercredi : de 14h00 à 17h00\n\nPendant la crise sanitaire accueil ouvert sur rendez-vous de préférence.","latitude":42.58978,"longitude":2.554492,"website":"","hasWebsite":false,"hasHoraires":true,"url":"https://lannuaire.service-public.gouv.fr/occitanie/pyrenees-orientales/2ef0c3fd-c273-4316-a7d3-a01e1de8e771"}
{"nom":"Ille-sur-Têt","nomNormalise":"illesurtet","typeCollectivite":"Commune","region":"Occitanie","departement":"Pyrénées-Orientales","departementCode":"66","adresse":{"street":"107 bis avenue Pasteur","postalCode":"66130","city":"Ille-sur-Têt","country":"France"},"contacts":{"email":"mairie@ille-sur-tet.com","telephone":"0468847312"},"horaires":"Du Lundi au Vendredi : de 08h30 à 12h00 de 13h30 à 17h00","latitude":42.6718,"longitude":2.61965,"website":"http://www.ille-sur-tet.com/","hasWebsite":true,"hasHoraires":true,"url":"https://lannuaire.service-public.gouv.fr/occitanie/pyrenees-orientales/f63dae81-8d71-443a-988b-07fa6070b376"}
{"nom":"Joch","nomNormalise":"joch","typeCollectivite":"Commune","region":"Occitanie","departement":"Pyrénées-Orientales","departementCode":"66","adresse":{"street":"Carrer de la Creu","postalCode":"66320","city":"Joch","country":"France"},"contacts":{"email":"mairie.joch@wanadoo.fr","telephone":"0468058008"},"horaires":"Du Lundi au Mardi : de 09h00 à 12h00 de 14h15 à 18h00\nLe Mercredi : de 09h00 à 12h00\nDu Jeudi au Vendredi : de 09h00 à 12h00 de 14h15 à 18h00","latitude":42.616814,"longitude":2.524445,"website":"https://www.joch.fr/","hasWebsite":true,"hasHoraires":true,"url":"https://lannuaire.service-public.gouv.fr/occitanie/pyrenees-orientales/f9c7f2ef-8b79-4c1e-8e13-fea7ef0f3421"}
{"nom":"Jujols","nomNormalise":"jujols","typeCollectivite":"Commune","region":"Occitanie","departement":"Pyrénées-Orientales","departementCode":"66","adresse":{"street":"Rue du Presbytère","postalCode":"66360","city":"Jujols","country":"France"},"contacts":{"email":"jujols.mairie@wanadoo.fr","telephone":"0468970590"},"horaires":"Le Mardi : de 14h00 à 18h30\nLe Jeudi : de 14h00 à 18h30","latitude":42.570156,"longitude":2.295661,"website":"","hasWebsite":false,"hasHoraires":true,"url":"https://lannuaire.service-public.gouv.fr/occitanie/pyrenees-orientales/86a5823e-ca5f-46c0-8d89-a71aea77de94"}
{"nom":"L'Albère","nomNormalise":"lalbere","typeCollectivite":"Commune","region":"Occitanie","departement":"Pyrénées-Orientales","departementCode":"66","adresse":{"street":"Place Pierre-de-Besompes-Singla","postalCode":"66480","city":"L'Albère","country":"France"},"contacts":{"email":"mairie-sg.albere@wanadoo.fr","telephone":"0468836046"},"horaires":"Le Lundi : de 09h30 à 16h00\nLe Mercredi : de 08h00 à 13h00\nLe Jeudi : de 09h30 à 16h00","latitude":42.483433,"longitude":2.893916,"website":"https://lalbere.fr/","hasWebsite":true,"hasHoraires":true,"url":"https://lannuaire.service-public.gouv.fr/occitanie/pyrenees-orientales/d798f4df-9ab4-4960-b42a-a8e9c9f4db96"}
{"nom":"La Bastide","nomNormalise":"labastide","typeCollectivite":"Commune","region":"Occitanie","departement":"Pyrénées-Orientales","departementCode":"66","adresse":{"street":"Le Village","postalCode":"66110","city":"La Bastide","country":"France"},"contacts":{"email":"mairie.la-bastide@orange.fr","telephone":"0468394281"},"horaires":"Le Lundi : de 08h00 à 12h00 de 12h45 à 16h45\nLe Vendredi : de 08h00 à 12h00","latitude":42.546932,"longitude":2.589472,"website":"https://la-bastide.info/mairie/","hasWebsite":true,"hasHoraires":true,"url":"https://lannuaire.service-public.gouv.fr/occitanie/pyrenees-orientales/8fb28022-6be3-460e-925e-62c89d2c24ba"}
{"nom":"La Cabanasse","nomNormalise":"lacabanasse","typeCollectivite":"Commune","region":"Occitanie","departement":"Pyrénées-Orientales","departementCode":"66","adresse":{"street":"10 avenue Lax","postalCode":"66210","city":"La Cabanasse","country":"France"},"contacts":{"email":"mairie@lacabanasse.fr","telephone":"0468042374"},"horaires":"Du Lundi au Mardi : de 08h45 à 12h00 de 14h00 à 16h00\nLe Mercredi : de 08h45 à 12h00\nDu Jeudi au Vendredi : de 08h45 à 12h00 de 14h00 à 16h00","latitude":42.502,"longitude":2.11536,"website":"","hasWebsite":false,"hasHoraires":true,"url":"https://lannuaire.service-public.gouv.fr/occitanie/pyrenees-orientales/4ccc5613-1584-4147-9df4-57d6c004d052"}
{"nom":"La Llagonne","nomNormalise":"lallagonne","typeCollectivite":"Commune","region":"Occitanie","departement":"Pyrénées-Orientales","departementCode":"66","adresse":{"street":"5 promenade du Pré-de-la-Ville","postalCode":"66210","city":"La Llagonne","country":"France"},"contacts":{"email":"mairie@lallagonne.fr","telephone":"0468042110"},"horaires":"Du Lundi au Vendredi : de 08h30 à 12h30","latitude":42.525307,"longitude":2.1212132,"website":"http://www.lallagonne.fr/","hasWebsite":true,"hasHoraires":true,"url":"https://lannuaire.service-public.gouv.fr/occitanie/pyrenees-orientales/5538b517-4115-45e8-b632-4d691371b544"}
{"nom":"Lamanère","nomNormalise":"lamanere","typeCollectivite":"Commune","region":"Occitanie","departement":"Pyrénées-Orientales","departementCode":"66","adresse":{"street":"9 carrer del punt mès al sud","postalCode":"66230","city":"Lamanère","country":"France"},"contacts":{"email":"secretariat.mairie@lamanere.fr","telephone":"0468396252"},"horaires":"Le Mardi : de 10h30 à 17h30\nDu Jeudi au Vendredi : de 10h30 à 17h30","latitude":42.360912,"longitude":2.5192757,"website":"https://lamanere.fr/","hasWebsite":true,"hasHoraires":true,"url":"https://lannuaire.service-public.gouv.fr/occitanie/pyrenees-orientales/3df8fc03-8eb1-4d84-a5d9-a3dba61f5d14"}
{"nom":"Lansac","nomNormalise":"lansac","typeCollectivite":"Commune","region":"Occitanie","departement":"Pyrénées-Orientales","departementCode":"66","adresse":{"street":"52 rue de la Mairie","postalCode":"66720","city":"Lansac","country":"France"},"contacts":{"email":"commune-de-lansac@orange.fr","telephone":"0468591664"},"horaires":"Du Lundi au Vendredi : de 09h00 à 12h00","latitude":42.7661,"longitude":2.56067,"website":"","hasWebsite":false,"hasHoraires":true,"url":"https://lannuaire.service-public.gouv.fr/occitanie/pyrenees-orientales/90123a71-f495-49ff-beec-06bfc57ea235"}
{"nom":"Laroque-des-Albères","nomNormalise":"laroquedesalberes","typeCollectivite":"Commune","region":"Occitanie","departement":"Pyrénées-Orientales","departementCode":"66","adresse":{"street":"18 rue Raymond-Carboneil","postalCode":"66740","city":"Laroque-des-Albères","country":"France"},"contacts":{"email":"mairie@laroque-des-alberes.fr","telephone":"0468892113"},"horaires":"Du Mardi au Jeudi : de 08h00 à 12h00 de 13h00 à 18h00\nLe Vendredi : de 08h00 à 12h00 de 13h00 à 17h30","latitude":42.522427,"longitude":2.934582,"website":"http://www.laroque-des-alberes.fr/fr/","hasWebsite":true,"hasHoraires":true,"url":"https://lannuaire.service-public.gouv.fr/occitanie/pyrenees-orientales/6ec05da8-b22d-44bf-859a-ca2ffb53dae6"}
{"nom":"Latour-Bas-Elne","nomNormalise":"latourbaselne","typeCollectivite":"Commune","region":"Occitanie","departement":"Pyrénées-Orientales","departementCode":"66","adresse":{"street":"Avenue du Tech","postalCode":"66200","city":"Latour-Bas-Elne","country":"France"},"contacts":{"email":"mairie.latourbaselne@orange.fr","telephone":"0468222433"},"horaires":"Du Lundi au Vendredi : de 09h00 à 12h00 de 13h30 à 17h30","latitude":42.6038,"longitude":3.00101,"website":"http://www.latour-bas-elne.com/","hasWebsite":true,"hasHoraires":true,"url":"https://lannuaire.service-public.gouv.fr/occitanie/pyrenees-orientales/05a0282a-c548-4f52-9ce8-087c32b1d6bd"}
{"nom":"Latour-de-Carol","nomNormalise":"latourdecarol","typeCollectivite":"Commune","region":"Occitanie","departement":"Pyrénées-Orientales","departementCode":"66","adresse":{"street":"6 place Carolane","postalCode":"66760","city":"Latour-de-Carol","country":"France"},"contacts":{"email":"mairie.latourdecarol@wanadoo.fr","telephone":"0468048182"},"horaires":"Du Lundi au Vendredi : de 09h00 à 12h00","latitude":42.465115,"longitude":1.8884342,"website":"https://www.latour-de-carol.fr/","hasWebsite":true,"hasHoraires":true,"url":"https://lannuaire.service-public.gouv.fr/occitanie/pyrenees-orientales/315756a3-0b4b-4214-8db1-fdabac28895b"}
{"nom":"Latour-de-France","nomNormalise":"latourdefrance","typeCollectivite":"Commune","region":"Occitanie","departement":"Pyrénées-Orientales","departementCode":"66","adresse":{"street":"avenue Guy-Malé","postalCode":"66720","city":"Latour-de-France","country":"France"},"contacts":{"email":"mairie@latourdefrance.fr","telephone":"0468290225"},"horaires":"Du Lundi au Mercredi : de 09h00 à 12h00 de 14h00 à 17h00\nLe Vendredi : de 09h00 à 12h00 de 14h00 à 17h00","latitude":42.768513,"longitude":2.654508,"website":"http://www.latourdefrance.fr/","hasWebsite":true,"hasHoraires":true,"url":"https://lannuaire.service-public.gouv.fr/occitanie/pyrenees-orientales/23ca5ec3-126b-40df-8c4f-42c6bc4a638a"}
{"nom":"Le Barcarès","nomNormalise":"lebarcares","typeCollectivite":"Commune","region":"Occitanie","departement":"Pyrénées-Orientales","departementCode":"66","adresse":{"street":"26 boulevard du 14-Juillet","postalCode":"66420","city":"Le Barcarès","country":"France"},"contacts":{"email":"accueil@lebarcares.fr","telephone":"0468861164"},"horaires":"Du Lundi au Vendredi : de 08h30 à 12h00 de 13h30 à 17h00","latitude":42.787086,"longitude":3.034846,"website":"http://www.portbarcares.com/","hasWebsite":true,"hasHoraires":true,"url":"https://lannuaire.service-public.gouv.fr/occitanie/pyrenees-orientales/25a80d49-02cb-44f9-92d2-f72521aff487"}
{"nom":"Le Boulou","nomNormalise":"leboulou","typeCollectivite":"Commune","region":"Occitanie","departement":"Pyrénées-Orientales","departementCode":"66","adresse":{"street":"2 avenue Léon-Jean-Grégory","postalCode":"66160","city":"Le Boulou","country":"France"},"contacts":{"email":"contact@mairie-leboulou.fr","telephone":"0468875100"},"horaires":"Du Lundi au Vendredi : de 09h00 à 12h00 de 13h30 à 17h00","latitude":42.52695,"longitude":2.831543,"website":"https://www.mairie-leboulou.fr/","hasWebsite":true,"hasHoraires":true,"url":"https://lannuaire.service-public.gouv.fr/occitanie/pyrenees-orientales/df3b4230-755e-4038-98c9-5de37d832a3b"}
{"nom":"Le Perthus","nomNormalise":"leperthus","typeCollectivite":"Commune","region":"Occitanie","departement":"Pyrénées-Orientales","departementCode":"66","adresse":{"street":"Avenue de France","postalCode":"66480","city":"Le Perthus","country":"France"},"contacts":{"email":"mairie.leperthus@wanadoo.fr","telephone":"0468836015"},"horaires":"Le Lundi : de 08h00 à 12h00\nLe Mardi : de 08h00 à 12h00 de 13h00 à 16h30\nLe Mercredi : de 08h00 à 12h00\nLe Jeudi : de 08h00 à 12h00 de 13h00 à 16h30\nLe Vendredi : de 08h00 à 12h00","latitude":42.46619,"longitude":2.863055,"website":"https://mairie-le-perthus.com/","hasWebsite":true,"hasHoraires":true,"url":"https://lannuaire.service-public.gouv.fr/occitanie/pyrenees-orientales/f0eef72c-f2c2-41f2-85e5-c0d60e53c2ee"}
{"nom":"Les Angles","nomNormalise":"lesangles","typeCollectivite":"Commune","region":"Occitanie","departement":"Pyrénées-Orientales","departementCode":"66","adresse":{"street":"Place du Coq-d'Or","postalCode":"66210","city":"Les Angles","country":"France"},"contacts":{"email":"contact@les-angles.fr","telephone":"0468044221"},"horaires":"Du Lundi au Vendredi : de 09h00 à 12h00 de 13h30 à 17h30","latitude":42.577316,"longitude":2.073927,"website":"http://www.les-angles.fr/","hasWebsite":true,"hasHoraires":true,"url":"https://lannuaire.service-public.gouv.fr/occitanie/pyrenees-orientales/c1227fe4-93a4-4dc3-8f5a-4851e2f8c69d"}
{"nom":"Les Cluses","nomNormalise":"lescluses","typeCollectivite":"Commune","region":"Occitanie","departement":"Pyrénées-Orientales","departementCode":"66","adresse":{"street":"1 place de la Mairie","postalCode":"66480","city":"Les Cluses","country":"France"},"contacts":{"email":"mairie.les.cluses@wanadoo.fr","telephone":"0468877720"},"horaires":"Le Lundi : de 08h30 à 12h00 de 14h00 à 17h00\nLe Mercredi : de 08h30 à 12h00 de 14h00 à 17h00\nLe Vendredi : de 08h30 à 12h00 de 14h00 à 17h00","latitude":42.4862,"longitude":2.838012,"website":"","hasWebsite":false,"hasHoraires":true,"url":"https://lannuaire.service-public.gouv.fr/occitanie/pyrenees-orientales/929ff89d-749f-4209-9522-910465535651"}
{"nom":"Le Soler","nomNormalise":"lesoler","typeCollectivite":"Commune","region":"Occitanie","departement":"Pyrénées-Orientales","departementCode":"66","adresse":{"street":"Place André-Daugnac","postalCode":"66270","city":"Le Soler","country":"France"},"contacts":{"email":"contact@lesoler.com","telephone":"0468921012"},"horaires":"Du Lundi au Vendredi : de 08h30 à 12h00 de 14h00 à 17h30","latitude":42.684,"longitude":2.79535,"website":"https://www.lesoler.fr/","hasWebsite":true,"hasHoraires":true,"url":"https://lannuaire.service-public.gouv.fr/occitanie/pyrenees-orientales/b265117c-df9e-466a-a99c-97d8ee2f9ab8"}
{"nom":"Lesquerde","nomNormalise":"lesquerde","typeCollectivite":"Commune","region":"Occitanie","departement":"Pyrénées-Orientales","departementCode":"66","adresse":{"street":"27 Grand'rue du Capitoul","postalCode":"66220","city":"Lesquerde","country":"France"},"contacts":{"email":"commune-de-lesquerde@orange.fr","telephone":"0468590061"},"horaires":"Du Lundi au Mardi : de 08h00 à 12h30\nLe Mercredi : de 08h00 à 12h00","latitude":42.80035,"longitude":2.529581,"website":"https://www.commune-de-lesquerde.fr/","hasWebsite":true,"hasHoraires":true,"url":"https://lannuaire.service-public.gouv.fr/occitanie/pyrenees-orientales/6d79b7d4-2ed7-4c23-90ce-21fb21c596d4"}
{"nom":"Le Tech","nomNormalise":"letech","typeCollectivite":"Commune","region":"Occitanie","departement":"Pyrénées-Orientales","departementCode":"66","adresse":{"street":"3 rue Royale","postalCode":"66230","city":"Le Tech","country":"France"},"contacts":{"email":"mairieletech@wanadoo.fr","telephone":"0468396137"},"horaires":"Du Lundi au Mardi : de 08h00 à 12h00\nLe Jeudi : de 08h00 à 12h00\nLe Vendredi : de 13h00 à 16h00","latitude":42.410187,"longitude":2.5426006,"website":"https://www.le-tech-village.fr/","hasWebsite":true,"hasHoraires":true,"url":"https://lannuaire.service-public.gouv.fr/occitanie/pyrenees-orientales/ebbff3e9-3178-4efa-b6e1-56abe348d7b2"}
{"nom":"Le Vivier","nomNormalise":"levivier","typeCollectivite":"Commune","region":"Occitanie","departement":"Pyrénées-Orientales","departementCode":"66","adresse":{"street":"10 rue Principale","postalCode":"66730","city":"Le Vivier","country":"France"},"contacts":{"email":"mairielevivier@gmail.com","telephone":"0468591840"},"horaires":"Du Mardi au Mercredi : de 10h30 à 12h30\nLe Vendredi : de 10h30 à 12h30 de 14h00 à 17h00","latitude":42.7712,"longitude":2.45506,"website":"http://www.le-vivier66.fr/","hasWebsite":true,"hasHoraires":true,"url":"https://lannuaire.service-public.gouv.fr/occitanie/pyrenees-orientales/fa7cc4df-7a07-4f7d-b40e-604c6b9868cc"}
{"nom":"Llauro","nomNormalise":"llauro","typeCollectivite":"Commune","region":"Occitanie","departement":"Pyrénées-Orientales","departementCode":"66","adresse":{"street":"7 rue des Cerisiers","postalCode":"66300","city":"Llauro","country":"France"},"contacts":{"email":"communedellauro@orange.fr","telephone":"0468394022"},"horaires":"Du Lundi au Vendredi : de 09h00 à 12h00","latitude":42.549515,"longitude":2.744412,"website":"https://www.llauro.fr/","hasWebsite":true,"hasHoraires":true,"url":"https://lannuaire.service-public.gouv.fr/occitanie/pyrenees-orientales/799592f9-8036-4ec8-9002-8ae26db81c95"}
{"nom":"Llo","nomNormalise":"llo","typeCollectivite":"Commune","region":"Occitanie","departement":"Pyrénées-Orientales","departementCode":"66","adresse":{"street":"Carretera d'Eina","postalCode":"66800","city":"Llo","country":"France"},"contacts":{"email":"mairie.llo@orange.fr","telephone":"0468047000"},"horaires":"Du Lundi au Vendredi : de 14h00 à 17h00","latitude":42.46095,"longitude":2.065934,"website":"","hasWebsite":false,"hasHoraires":true,"url":"https://lannuaire.service-public.gouv.fr/occitanie/pyrenees-orientales/25e68d31-1157-4222-9e21-c6c2c8e7cc2a"}
{"nom":"Llupia","nomNormalise":"llupia","typeCollectivite":"Commune","region":"Occitanie","departement":"Pyrénées-Orientales","departementCode":"66","adresse":{"street":"15 carrer de la Dû","postalCode":"66300","city":"Llupia","country":"France"},"contacts":{"email":"accueil@mairiellupia.fr","telephone":"0468535059"},"horaires":"Du Lundi au Vendredi : de 09h00 à 12h30 de 14h00 à 17h00","latitude":42.62026,"longitude":2.7698603,"website":"https://mairie-llupia.fr/fr/","hasWebsite":true,"hasHoraires":true,"url":"https://lannuaire.service-public.gouv.fr/occitanie/pyrenees-orientales/60c5d72e-2b13-42ab-a6b5-6e175fcec9cc"}
{"nom":"Los Masos","nomNormalise":"losmasos","typeCollectivite":"Commune","region":"Occitanie","departement":"Pyrénées-Orientales","departementCode":"66","adresse":{"street":"7 rue de l'Église","postalCode":"66500","city":"Los Masos","country":"France"},"contacts":{"email":"mairie@mairiedelosmasos.fr","telephone":"0468962019"},"horaires":"Du Mardi au Mercredi : de 14h00 à 18h00\nDu Jeudi au Vendredi : de 09h00 à 12h00","latitude":42.620953,"longitude":2.4596345,"website":"https://mairiedelosmasos.fr/","hasWebsite":true,"hasHoraires":true,"url":"https://lannuaire.service-public.gouv.fr/occitanie/pyrenees-orientales/3e1f3702-0bb2-456c-9e60-04ed89a3180b"}
{"nom":"Mantet","nomNormalise":"mantet","typeCollectivite":"Commune","region":"Occitanie","departement":"Pyrénées-Orientales","departementCode":"66","adresse":{"street":"Le Village","postalCode":"66360","city":"Mantet","country":"France"},"contacts":{"email":"mairie.mantet@gmail.com","telephone":"0468057111"},"horaires":"Le Mardi : de 09h00 à 12h00 de 14h00 à 17h00\nLe Mercredi : de 08h00 à 11h00","latitude":42.477695,"longitude":2.306295,"website":"","hasWebsite":false,"hasHoraires":true,"url":"https://lannuaire.service-public.gouv.fr/occitanie/pyrenees-orientales/bd613da0-cdc5-4a4b-ac81-a9ac079454eb"}
{"nom":"Marquixanes","nomNormalise":"marquixanes","typeCollectivite":"Commune","region":"Occitanie","departement":"Pyrénées-Orientales","departementCode":"66","adresse":{"street":"4 rue des Écoles","postalCode":"66320","city":"Marquixanes","country":"France"},"contacts":{"email":"commune-de-marquixanes2@orange.fr","telephone":"0468055108"},"horaires":"Du Lundi au Mardi : de 09h00 à 12h00\nLe Mercredi : de 09h00 à 12h00 de 14h00 à 16h00\nDu Jeudi au Vendredi : de 09h00 à 12h00","latitude":42.640167,"longitude":2.4851372,"website":"https://www.marquixanes.fr/","hasWebsite":true,"hasHoraires":true,"url":"https://lannuaire.service-public.gouv.fr/occitanie/pyrenees-orientales/92d2ff6e-2db2-496f-b19f-c0b1a3aa19fa"}
{"nom":"Matemale","nomNormalise":"matemale","typeCollectivite":"Commune","region":"Occitanie","departement":"Pyrénées-Orientales","departementCode":"66","adresse":{"street":"1 place de la Mairie","postalCode":"66210","city":"Matemale","country":"France"},"contacts":{"email":"communematemale@gmail.com","telephone":"0468044102"},"horaires":"Du Lundi au Vendredi : de 09h00 à 12h00","latitude":42.58696,"longitude":2.119452,"website":"https://matemale.fr/","hasWebsite":true,"hasHoraires":true,"url":"https://lannuaire.service-public.gouv.fr/occitanie/pyrenees-orientales/a16a355b-d0a6-4da2-840f-1a6d11c65ed4"}
{"nom":"Maureillas-las-Illas","nomNormalise":"maureillaslasillas","typeCollectivite":"Commune","region":"Occitanie","departement":"Pyrénées-Orientales","departementCode":"66","adresse":{"street":"14 avenue du Vallespir","postalCode":"66480","city":"Maureillas-las-Illas","country":"France"},"contacts":{"email":"mairie@maureillaslasillas.fr","telephone":"0468875252"},"horaires":"Du Lundi au Mardi : de 09h00 à 12h00 de 14h00 à 17h00\nLe Mercredi : de 14h00 à 17h00\nDu Jeudi au Vendredi : de 09h00 à 12h00 de 14h00 à 17h00","latitude":42.49102,"longitude":2.806339,"website":"https://www.maureillaslasillas.fr/","hasWebsite":true,"hasHoraires":true,"url":"https://lannuaire.service-public.gouv.fr/occitanie/pyrenees-orientales/0a8218bc-9549-46ff-aa7a-6d14b4b7e041"}
{"nom":"Maury","nomNormalise":"maury","typeCollectivite":"Commune","region":"Occitanie","departement":"Pyrénées-Orientales","departementCode":"66","adresse":{"street":"Place de la Mairie","postalCode":"66460","city":"Maury","country":"France"},"contacts":{"email":"accueil@maury66.fr","telephone":"0468591524"},"horaires":"Du Lundi au Vendredi : de 08h30 à 12h00","latitude":42.8118,"longitude":2.59266,"website":"http://www.maury-village.com/","hasWebsite":true,"hasHoraires":true,"url":"https://lannuaire.service-public.gouv.fr/occitanie/pyrenees-orientales/58ee40ed-8ced-4f6d-8922-114fcdf5a9c4"}
{"nom":"Millas","nomNormalise":"millas","typeCollectivite":"Commune","region":"Occitanie","departement":"Pyrénées-Orientales","departementCode":"66","adresse":{"street":"Place de l'Hôtel-de-Ville","postalCode":"66170","city":"Millas","country":"France"},"contacts":{"email":"mairie@mairie-millas.fr","telephone":"0468573503"},"horaires":"Du Lundi au Jeudi : de 08h00 à 12h00 de 13h00 à 17h00\nLe Vendredi : de 08h00 à 12h00 de 13h00 à 15h00","latitude":42.6817,"longitude":2.73576,"website":"https://www.mairie-millas.fr/","hasWebsite":true,"hasHoraires":true,"url":"https://lannuaire.service-public.gouv.fr/occitanie/pyrenees-orientales/3aae5825-c2eb-43de-a6b1-98708d7f4fb9"}
{"nom":"Molitg-les-Bains","nomNormalise":"molitglesbains","typeCollectivite":"Commune","region":"Occitanie","departement":"Pyrénées-Orientales","departementCode":"66","adresse":{"street":"5 carretera del Col-de-Jau","postalCode":"66500","city":"Molitg-les-Bains","country":"France"},"contacts":{"email":"mairie.molitg.les.bains@wanadoo.fr","telephone":"0468050212"},"horaires":"Du Lundi au Mercredi : de 09h00 à 12h00\nLe Jeudi : de 13h30 à 16h30\nLe Vendredi : de 09h00 à 12h00","latitude":42.651485,"longitude":2.388712,"website":"https://www.molitg.com/","hasWebsite":true,"hasHoraires":true,"url":"https://lannuaire.service-public.gouv.fr/occitanie/pyrenees-orientales/36b5c42c-cca6-4c25-80e4-c3a5c3f33c39"}
{"nom":"Montalba-le-Château","nomNormalise":"montalbalechateau","typeCollectivite":"Commune","region":"Occitanie","departement":"Pyrénées-Orientales","departementCode":"66","adresse":{"street":"11 cami d'Ille","postalCode":"66130","city":"Montalba-le-Château","country":"France"},"contacts":{"email":"commune-montalba-le-chateau@orange.fr","telephone":"0468847788"},"horaires":"Du Lundi au Mardi : de 08h30 à 12h30 de 13h00 à 17h30\nLe Mercredi : de 08h30 à 12h30 de 13h00 à 15h00\nLe Jeudi : de 08h30 à 12h30\nLe Vendredi : de 08h30 à 12h00","latitude":42.69574,"longitude":2.5611055,"website":"https://www.montalbalechateau.com/","hasWebsite":true,"hasHoraires":true,"url":"https://lannuaire.service-public.gouv.fr/occitanie/pyrenees-orientales/3cabc86a-ea17-4c45-bad9-9182d90535e1"}
{"nom":"Montauriol","nomNormalise":"montauriol","typeCollectivite":"Commune","region":"Occitanie","departement":"Pyrénées-Orientales","departementCode":"66","adresse":{"street":"120 cami del veïnat d'amont","postalCode":"66300","city":"Montauriol","country":"France"},"contacts":{"email":"montauriol.mairie@orange.fr","telephone":"0468388600"},"horaires":"Le Mardi : de 10h00 à 12h00 de 14h30 à 18h00\nLe Vendredi : de 10h00 à 12h00 de 14h00 à 16h00","latitude":42.575687,"longitude":2.724705,"website":"https://mairie-montauriol.com/","hasWebsite":true,"hasHoraires":true,"url":"https://lannuaire.service-public.gouv.fr/occitanie/pyrenees-orientales/30ec9606-7d4d-45e1-a0fd-4a9fbfe319b4"}
{"nom":"Montbolo","nomNormalise":"montbolo","typeCollectivite":"Commune","region":"Occitanie","departement":"Pyrénées-Orientales","departementCode":"66","adresse":{"street":"2 rue de l'Église","postalCode":"66110","city":"Montbolo","country":"France"},"contacts":{"email":"mairie.montbolo@orange.fr","telephone":"0468390982"},"horaires":"Du Lundi au Vendredi : de 09h00 à 12h00 de 15h00 à 17h00","latitude":42.4729,"longitude":2.66836,"website":"https://mairiemontbolo.fr/","hasWebsite":true,"hasHoraires":true,"url":"https://lannuaire.service-public.gouv.fr/occitanie/pyrenees-orientales/0ce94214-09c3-4f07-9af8-7fc2a125bedf"}
{"nom":"Montescot","nomNormalise":"montescot","typeCollectivite":"Commune","region":"Occitanie","departement":"Pyrénées-Orientales","departementCode":"66","adresse":{"street":"2 rue du Canigou","postalCode":"66200","city":"Montescot","country":"France"},"contacts":{"email":"administratif.montescot@orange.fr","telephone":"0468221207"},"horaires":"Le Lundi : de 10h00 à 12h30 de 13h30 à 17h00\nDu Mardi au Mercredi : de 10h00 à 12h30\nLe Jeudi : de 09h00 à 12h30 de 13h30 à 18h30\nLe Vendredi : de 10h00 à 12h30","latitude":42.637672,"longitude":2.980238,"website":"https://www.montescot.fr/","hasWebsite":true,"hasHoraires":true,"url":"https://lannuaire.service-public.gouv.fr/occitanie/pyrenees-orientales/3e5d0239-3a8b-4d35-a631-798f75d54b0f"}
{"nom":"Montesquieu-des-Albères","nomNormalise":"montesquieudesalberes","typeCollectivite":"Commune","region":"Occitanie","departement":"Pyrénées-Orientales","departementCode":"66","adresse":{"street":"1 place Saint-Cristau","postalCode":"66740","city":"Montesquieu-des-Albères","country":"France"},"contacts":{"email":"mairie@montesquieu-des-alberes.fr","telephone":"0468896049"},"horaires":"Du Lundi au Mardi : de 09h00 à 12h00 de 15h30 à 17h00\nLe Mercredi : de 09h00 à 12h00\nDu Jeudi au Vendredi : de 09h00 à 12h00 de 15h30 à 17h00","latitude":42.517597,"longitude":2.88203,"website":"https://www.montesquieu-des-alberes.fr/","hasWebsite":true,"hasHoraires":true,"url":"https://lannuaire.service-public.gouv.fr/occitanie/pyrenees-orientales/c44816b2-fb21-4dc7-8527-da9759cf3e02"}
{"nom":"Montferrer","nomNormalise":"montferrer","typeCollectivite":"Commune","region":"Occitanie","departement":"Pyrénées-Orientales","departementCode":"66","adresse":{"street":"299 rue Principale","postalCode":"66150","city":"Montferrer","country":"France"},"contacts":{"email":"communedemontferrer@orange.fr","telephone":"0468391244"},"horaires":"Du Lundi au Jeudi : de 09h00 à 12h00 de 14h00 à 17h00\nLe Vendredi : de 09h00 à 12h00 de 14h00 à 16h00","latitude":42.43867,"longitude":2.567092,"website":"https://www.montferrer.fr/","hasWebsite":true,"hasHoraires":true,"url":"https://lannuaire.service-public.gouv.fr/occitanie/pyrenees-orientales/6f2716f0-18bc-4b04-ab3b-4b2bb10314e2"}
{"nom":"Mont-Louis","nomNormalise":"montlouis","typeCollectivite":"Commune","region":"Occitanie","departement":"Pyrénées-Orientales","departementCode":"66","adresse":{"street":"6 boulevard Vauban","postalCode":"66210","city":"Mont-Louis","country":"France"},"contacts":{"email":"montlouis66.mairie@gmail.com","telephone":"0468042118"},"horaires":"Du Lundi au Mardi : de 09h00 à 16h00\n\nEn continu.\nLe Mercredi : de 09h00 à 12h00\nDu Jeudi au Vendredi : de 09h00 à 16h00","latitude":42.508064,"longitude":2.1221125,"website":"https://www.mont-louis.net/","hasWebsite":true,"hasHoraires":true,"url":"https://lannuaire.service-public.gouv.fr/occitanie/pyrenees-orientales/2331a612-a2da-4cdf-b556-9a2b8b801f87"}
{"nom":"Montner","nomNormalise":"montner","typeCollectivite":"Commune","region":"Occitanie","departement":"Pyrénées-Orientales","departementCode":"66","adresse":{"street":"Place de l'Aire","postalCode":"66720","city":"Montner","country":"France"},"contacts":{"email":"mairie@montner.fr","telephone":"0468291280"},"horaires":"Le Lundi : de 10h00 à 12h00 de 15h00 à 18h00\nDu Mercredi au Vendredi : de 10h00 à 12h00 de 15h00 à 18h00","latitude":42.7493,"longitude":2.67716,"website":"http://www.montner.fr/","hasWebsite":true,"hasHoraires":true,"url":"https://lannuaire.service-public.gouv.fr/occitanie/pyrenees-orientales/68084514-9b3d-4af3-9470-81ee606e52ad"}
{"nom":"Mosset","nomNormalise":"mosset","typeCollectivite":"Commune","region":"Occitanie","departement":"Pyrénées-Orientales","departementCode":"66","adresse":{"street":"Balco-de-la-Solana","postalCode":"66500","city":"Mosset","country":"France"},"contacts":{"email":"mairie.mosset@wanadoo.fr","telephone":"0468050080"},"horaires":"Du Lundi au Vendredi : de 09h00 à 12h00","latitude":42.653557,"longitude":2.387533,"website":"","hasWebsite":false,"hasHoraires":true,"url":"https://lannuaire.service-public.gouv.fr/occitanie/pyrenees-orientales/840e3f7e-7ed4-457f-8e6e-83056f60a94a"}
{"nom":"Nahuja","nomNormalise":"nahuja","typeCollectivite":"Commune","region":"Occitanie","departement":"Pyrénées-Orientales","departementCode":"66","adresse":{"street":"2 Plaça del Municipi","postalCode":"66340","city":"Nahuja","country":"France"},"contacts":{"email":"mairienahuja@wanadoo.fr","telephone":"0468045965"},"horaires":"Du Lundi au Vendredi : de 08h00 à 15h00","latitude":42.424946,"longitude":1.996212,"website":"","hasWebsite":false,"hasHoraires":true,"url":"https://lannuaire.service-public.gouv.fr/occitanie/pyrenees-orientales/ad40ff4f-0cc1-49b6-810c-710b488b97d6"}
{"nom":"Néfiach","nomNormalise":"nefiach","typeCollectivite":"Commune","region":"Occitanie","departement":"Pyrénées-Orientales","departementCode":"66","adresse":{"street":"Hôtel de Ville","postalCode":"66170","city":"Néfiach","country":"France"},"contacts":{"email":"mairie@nefiach.com","telephone":"0468573537"},"horaires":"Du Lundi au Vendredi : de 09h00 à 12h00","latitude":42.694096,"longitude":2.665196,"website":"http://www.nefiach.com/","hasWebsite":true,"hasHoraires":true,"url":"https://lannuaire.service-public.gouv.fr/occitanie/pyrenees-orientales/2b3de37c-6d9a-44d7-9202-aba8cb44c116"}
{"nom":"Nohèdes","nomNormalise":"nohedes","typeCollectivite":"Commune","region":"Occitanie","departement":"Pyrénées-Orientales","departementCode":"66","adresse":{"street":"Carrer dels Pastors","postalCode":"66500","city":"Nohèdes","country":"France"},"contacts":{"email":"nohedes.mairie@wanadoo.fr","telephone":"0468962353"},"horaires":"Le Mercredi : de 08h00 à 17h00","latitude":42.622604,"longitude":2.289051,"website":"http://www.nohedes.fr/","hasWebsite":true,"hasHoraires":true,"url":"https://lannuaire.service-public.gouv.fr/occitanie/pyrenees-orientales/303b7236-3c9d-4947-ab71-b1ba8a4ebc98"}
{"nom":"Nyer","nomNormalise":"nyer","typeCollectivite":"Commune","region":"Occitanie","departement":"Pyrénées-Orientales","departementCode":"66","adresse":{"street":"Place de la Mairie","postalCode":"66360","city":"Nyer","country":"France"},"contacts":{"email":"mairie.de.nyer@wanadoo.fr","telephone":"0468970090"},"horaires":"Du Lundi au Mardi : de 14h00 à 18h00\nDu Jeudi au Vendredi : de 14h00 à 18h00","latitude":42.5327,"longitude":2.27631,"website":"","hasWebsite":false,"hasHoraires":true,"url":"https://lannuaire.service-public.gouv.fr/occitanie/pyrenees-orientales/5b096ff3-4b7a-4f57-abab-8ccf31697b9e"}
{"nom":"Olette","nomNormalise":"olette","typeCollectivite":"Commune","region":"Occitanie","departement":"Pyrénées-Orientales","departementCode":"66","adresse":{"street":"82 avenue du Général-de-Gaulle","postalCode":"66360","city":"Olette","country":"France"},"contacts":{"email":"mairie.olette-evol@wanadoo.fr","telephone":"0468970286"},"horaires":"Du Lundi au Mardi : de 09h00 à 13h00\nLe Jeudi : de 09h00 à 13h00 de 14h00 à 17h00\nLe Vendredi : de 09h00 à 13h00","latitude":42.55539,"longitude":2.27129,"website":"https://olette-evol.fr/","hasWebsite":true,"hasHoraires":true,"url":"https://lannuaire.service-public.gouv.fr/occitanie/pyrenees-orientales/ca7f7543-f4df-4c43-a890-8ad4ff4d3ffc"}
{"nom":"Oms","nomNormalise":"oms","typeCollectivite":"Commune","region":"Occitanie","departement":"Pyrénées-Orientales","departementCode":"66","adresse":{"street":"Rue de l'Orme","postalCode":"66400","city":"Oms","country":"France"},"contacts":{"email":"isabelle@oms.fr","telephone":"0468394013"},"horaires":"Du Lundi au Mardi : de 09h00 à 12h00\nDu Jeudi au Vendredi : de 09h00 à 12h00\nSur rendez-vous l'après-midi.","latitude":42.544205,"longitude":2.698519,"website":"https://www.oms.fr/","hasWebsite":true,"hasHoraires":true,"url":"https://lannuaire.service-public.gouv.fr/occitanie/pyrenees-orientales/14790dba-e347-4502-89fd-13712cccf8be"}
{"nom":"Opoul-Périllos","nomNormalise":"opoulperillos","typeCollectivite":"Commune","region":"Occitanie","departement":"Pyrénées-Orientales","departementCode":"66","adresse":{"street":"22 avenue Pierre-Estirac","postalCode":"66600","city":"Opoul-Périllos","country":"France"},"contacts":{"email":"mairie-opoul@wanadoo.fr","telephone":"0468645022"},"horaires":"Du Lundi au Vendredi : de 09h00 à 11h45 de 16h00 à 17h45","latitude":42.8673,"longitude":2.87354,"website":"http://www.opoul-perillos.fr/","hasWebsite":true,"hasHoraires":true,"url":"https://lannuaire.service-public.gouv.fr/occitanie/pyrenees-orientales/646fc00b-43b7-4ebb-b4e9-a5c17638f74c"}
{"nom":"Oreilla","nomNormalise":"oreilla","typeCollectivite":"Commune","region":"Occitanie","departement":"Pyrénées-Orientales","departementCode":"66","adresse":{"street":"3 carrer-de-l'Escola","postalCode":"66360","city":"Oreilla","country":"France"},"contacts":{"email":"commune.oreilla@orange.fr","telephone":"0468970798"},"horaires":"Le Jeudi : de 13h30 à 17h00","latitude":42.55942,"longitude":2.254898,"website":"https://www.commune-oreilla.fr/","hasWebsite":true,"hasHoraires":true,"url":"https://lannuaire.service-public.gouv.fr/occitanie/pyrenees-orientales/26450432-cc03-45d2-9203-30668da69c70"}
{"nom":"Ortaffa","nomNormalise":"ortaffa","typeCollectivite":"Commune","region":"Occitanie","departement":"Pyrénées-Orientales","departementCode":"66","adresse":{"street":"19 Rue du château","postalCode":"66560","city":"Ortaffa","country":"France"},"contacts":{"email":"mairieortaffa@orange.fr","telephone":"0468221708"},"horaires":"Du Lundi au Vendredi : de 08h45 à 12h00 de 14h00 à 17h00","latitude":42.580696,"longitude":2.9248037,"website":"http://www.mairie-ortaffa.fr/","hasWebsite":true,"hasHoraires":true,"url":"https://lannuaire.service-public.gouv.fr/occitanie/pyrenees-orientales/7d37713b-d3e6-4258-896f-8426e52b8856"}
{"nom":"Osséja","nomNormalise":"osseja","typeCollectivite":"Commune","region":"Occitanie","departement":"Pyrénées-Orientales","departementCode":"66","adresse":{"street":"1 place Saint-Paul","postalCode":"66340","city":"Osséja","country":"France"},"contacts":{"email":"mairie-osseja@orange.fr","telephone":"0468045340"},"horaires":"Du Lundi au Mardi : de 09h00 à 12h00 de 13h30 à 17h30\nLe Mercredi : de 09h00 à 12h00\nDu Jeudi au Vendredi : de 09h00 à 12h30 de 13h30 à 16h30","latitude":42.41538,"longitude":1.98101,"website":"https://osseja.fr/","hasWebsite":true,"hasHoraires":true,"url":"https://lannuaire.service-public.gouv.fr/occitanie/pyrenees-orientales/9e34a56b-69f1-4f17-9ed2-58025868b474"}
{"nom":"Palau-de-Cerdagne","nomNormalise":"palaudecerdagne","typeCollectivite":"Commune","region":"Occitanie","departement":"Pyrénées-Orientales","departementCode":"66","adresse":{"street":"15 rue du Marquis-de-Tilière","postalCode":"66340","city":"Palau-de-Cerdagne","country":"France"},"contacts":{"email":"mairie.palau.de.cerdagne@wanadoo.fr","telephone":"0468045362"},"horaires":"Du Lundi au Jeudi : de 09h00 à 12h30 de 14h00 à 17h30\nLe Vendredi : de 09h00 à 12h30 de 14h00 à 17h00","latitude":42.415302,"longitude":1.9687227,"website":"","hasWebsite":false,"hasHoraires":true,"url":"https://lannuaire.service-public.gouv.fr/occitanie/pyrenees-orientales/39249c2e-891d-42cf-b2f0-75dbfc8e0a2f"}
{"nom":"Palau-del-Vidre","nomNormalise":"palaudelvidre","typeCollectivite":"Commune","region":"Occitanie","departement":"Pyrénées-Orientales","departementCode":"66","adresse":{"street":"4 place de la République","postalCode":"66690","city":"Palau-del-Vidre","country":"France"},"contacts":{"email":"accueil.palau.mairie@wanadoo.fr","telephone":"0468221417"},"horaires":"Du Lundi au Vendredi : de 09h00 à 12h00 de 14h00 à 18h30","latitude":42.5712,"longitude":2.9609,"website":"https://www.palaudelvidre.com/","hasWebsite":true,"hasHoraires":true,"url":"https://lannuaire.service-public.gouv.fr/occitanie/pyrenees-orientales/62a4d119-822d-429f-8b98-63451a170f75"}
{"nom":"Passa","nomNormalise":"passa","typeCollectivite":"Commune","region":"Occitanie","departement":"Pyrénées-Orientales","departementCode":"66","adresse":{"street":"18 avenue Torcatis","postalCode":"66300","city":"Passa","country":"France"},"contacts":{"email":"mairie@passa66.fr","telephone":"0468388080"},"horaires":"Le Lundi : de 08h00 à 13h00 de 14h00 à 17h00\nDu Mardi au Vendredi : de 08h00 à 13h00\nFermé les après-midi pendant les vacances scolaires","latitude":42.578674,"longitude":2.812368,"website":"https://passamairie.jimdofree.com/","hasWebsite":true,"hasHoraires":true,"url":"https://lannuaire.service-public.gouv.fr/occitanie/pyrenees-orientales/39b2a05f-174c-47c1-9a52-67673391cc00"}
{"nom":"Perpignan","nomNormalise":"perpignan","typeCollectivite":"Commune","region":"Occitanie","departement":"Pyrénées-Orientales","departementCode":"66","adresse":{"street":"Place de la Loge","postalCode":"66931","city":"Perpignan Cedex","country":"France"},"contacts":{"email":"monsieur.le.maire@mairie-perpignan.com","telephone":"0468663066"},"horaires":"Du Lundi au Jeudi : de 08h00 à 18h00\nLe Vendredi : de 08h00 à 17h00","latitude":42.6999,"longitude":2.89483,"website":"https://www.mairie-perpignan.fr/","hasWebsite":true,"hasHoraires":true,"url":"https://lannuaire.service-public.gouv.fr/occitanie/pyrenees-orientales/a01e0ce9-ca08-486e-a1a0-f71962ef34b9"}
{"nom":"Peyrestortes","nomNormalise":"peyrestortes","typeCollectivite":"Commune","region":"Occitanie","departement":"Pyrénées-Orientales","departementCode":"66","adresse":{"street":"Boulevard National","postalCode":"66600","city":"Peyrestortes","country":"France"},"contacts":{"email":"contact@mairie-peyrestortes.com","telephone":"0468640890"},"horaires":"Du Lundi au Vendredi : de 11h00 à 12h30 de 14h00 à 17h30","latitude":42.7553,"longitude":2.85142,"website":"http://www.mairie-peyrestortes.fr/","hasWebsite":true,"hasHoraires":true,"url":"https://lannuaire.service-public.gouv.fr/occitanie/pyrenees-orientales/6d0fa48b-71c4-4c0f-b375-f743d89ba3de"}
{"nom":"Pézilla-de-Conflent","nomNormalise":"pezilladeconflent","typeCollectivite":"Commune","region":"Occitanie","departement":"Pyrénées-Orientales","departementCode":"66","adresse":{"street":"9 rue de la Mairie","postalCode":"66730","city":"Pézilla-de-Conflent","country":"France"},"contacts":{"email":"commune-pezilla-de-conflent@orange.fr","telephone":"0468977330"},"horaires":"Le Lundi : de 13h00 à 16h30\nLe Jeudi : de 09h00 à 16h30","latitude":42.737877,"longitude":2.482232,"website":"","hasWebsite":false,"hasHoraires":true,"url":"https://lannuaire.service-public.gouv.fr/occitanie/pyrenees-orientales/20fc7b2d-096e-4941-83b0-eb592108e98a"}
{"nom":"Pézilla-la-Rivière","nomNormalise":"pezillalariviere","typeCollectivite":"Commune","region":"Occitanie","departement":"Pyrénées-Orientales","departementCode":"66","adresse":{"street":"31 bis avenue du Canigou","postalCode":"66370","city":"Pézilla-la-Rivière","country":"France"},"contacts":{"email":"contact@mairie-pezilla-riviere.fr","telephone":"0468920010"},"horaires":"Le Lundi : de 08h00 à 12h30 de 14h00 à 18h30\nLe Mardi : de 10h00 à 12h30\nDu Mercredi au Jeudi : de 10h00 à 12h30 de 14h00 à 16h30\nLe Vendredi : de 10h00 à 12h30","latitude":42.696346,"longitude":2.7718747,"website":"https://mairie-pezilla-riviere.fr/","hasWebsite":true,"hasHoraires":true,"url":"https://lannuaire.service-public.gouv.fr/occitanie/pyrenees-orientales/d1de9895-b1e1-4770-8094-765346e8584c"}
{"nom":"Pia","nomNormalise":"pia","typeCollectivite":"Commune","region":"Occitanie","departement":"Pyrénées-Orientales","departementCode":"66","adresse":{"street":"18 avenue Maréchal-Joffre","postalCode":"66380","city":"Pia","country":"France"},"contacts":{"email":"mairie@pia.fr","telephone":"0468632807"},"horaires":"Du Lundi au Vendredi : de 08h30 à 12h30 de 14h00 à 17h30","latitude":42.74427,"longitude":2.91986,"website":"https://pia.fr/","hasWebsite":true,"hasHoraires":true,"url":"https://lannuaire.service-public.gouv.fr/occitanie/pyrenees-orientales/a0311029-2530-42ca-8e26-0320c30b5d85"}
{"nom":"Planès","nomNormalise":"planes","typeCollectivite":"Commune","region":"Occitanie","departement":"Pyrénées-Orientales","departementCode":"66","adresse":{"street":"35 rue de la Mairie","postalCode":"66210","city":"Planès","country":"France"},"contacts":{"email":"mairieplanes@orange.fr","telephone":"0468042819"},"horaires":"Le Lundi : de 09h00 à 16h00\nLe Mardi : de 09h00 à 16h00\n\nAccueil téléphonique uniquement.","latitude":42.492035,"longitude":2.1396348,"website":"https://www.xn--plans-7ra.fr/","hasWebsite":true,"hasHoraires":true,"url":"https://lannuaire.service-public.gouv.fr/occitanie/pyrenees-orientales/925bb685-6496-41f8-84c2-45f442787288"}
{"nom":"Planèzes","nomNormalise":"planezes","typeCollectivite":"Commune","region":"Occitanie","departement":"Pyrénées-Orientales","departementCode":"66","adresse":{"street":"1 place de la République","postalCode":"66720","city":"Planèzes","country":"France"},"contacts":{"email":"mairie-sg.planezes@wanadoo.fr","telephone":"0468291150"},"horaires":"Le Mardi : de 09h00 à 12h30 de 13h00 à 17h00\nLe Jeudi : de 09h00 à 12h30 de 13h00 à 17h00","latitude":42.7662,"longitude":2.6192,"website":"https://xn--planzes-5xa.com/","hasWebsite":true,"hasHoraires":true,"url":"https://lannuaire.service-public.gouv.fr/occitanie/pyrenees-orientales/cb4953f4-8fba-4234-a7eb-d0fd6f5d644c"}
{"nom":"Pollestres","nomNormalise":"pollestres","typeCollectivite":"Commune","region":"Occitanie","departement":"Pyrénées-Orientales","departementCode":"66","adresse":{"street":"Avenue Pablo-Casals","postalCode":"66450","city":"Pollestres","country":"France"},"contacts":{"email":"mairie@pollestres.com","telephone":"0468545111"},"horaires":"Du Lundi au Vendredi : de 08h30 à 12h00 de 14h00 à 18h00","latitude":42.642498,"longitude":2.866834,"website":"https://www.pollestres.com/","hasWebsite":true,"hasHoraires":true,"url":"https://lannuaire.service-public.gouv.fr/occitanie/pyrenees-orientales/8e6b1f43-61d5-4265-a01f-8fe0461fe5c4"}
{"nom":"Ponteilla","nomNormalise":"ponteilla","typeCollectivite":"Commune","region":"Occitanie","departement":"Pyrénées-Orientales","departementCode":"66","adresse":{"street":"1 Rue du Conflent","postalCode":"66300","city":"Ponteilla","country":"France"},"contacts":{"email":"secretariat@mairie-ponteilla-nyls.fr","telephone":"0468530670"},"horaires":"Du Lundi au Vendredi : de 08h30 à 12h00 de 16h00 à 18h00","latitude":42.626595,"longitude":2.8114102,"website":"http://www.mairie-ponteilla-nyls.fr/","hasWebsite":true,"hasHoraires":true,"url":"https://lannuaire.service-public.gouv.fr/occitanie/pyrenees-orientales/7614c711-c766-4a7f-81bf-b26ea831c085"}
{"nom":"Porta","nomNormalise":"porta","typeCollectivite":"Commune","region":"Occitanie","departement":"Pyrénées-Orientales","departementCode":"66","adresse":{"street":"14 route nationale 20","postalCode":"66760","city":"Porta","country":"France"},"contacts":{"email":"mairiedeporta@gmail.com","telephone":"0468048233"},"horaires":"Du Lundi au Mardi : de 09h00 à 12h00\nLe Mercredi : de 09h00 à 12h00 de 14h00 à 16h00\nLe Jeudi : de 09h00 à 12h00\nLe Vendredi : de 09h00 à 12h00 de 14h00 à 16h00","latitude":42.525826,"longitude":1.82315,"website":"","hasWebsite":false,"hasHoraires":true,"url":"https://lannuaire.service-public.gouv.fr/occitanie/pyrenees-orientales/2a2dc21e-428c-4606-b03d-922a108cba21"}
{"nom":"Porté-Puymorens","nomNormalise":"portepuymorens","typeCollectivite":"Commune","region":"Occitanie","departement":"Pyrénées-Orientales","departementCode":"66","adresse":{"street":"1 place de la Mairie","postalCode":"66760","city":"Porté-Puymorens","country":"France"},"contacts":{"email":"mairie.porte@orange.fr","telephone":"0468048220"},"horaires":"Du Lundi au Mardi : de 14h00 à 17h00\nDu Jeudi au Vendredi : de 14h00 à 17h00","latitude":42.548042,"longitude":1.830345,"website":"http://www.puymorens.fr/","hasWebsite":true,"hasHoraires":true,"url":"https://lannuaire.service-public.gouv.fr/occitanie/pyrenees-orientales/760f5870-e73b-4b55-8b6b-73c85ba96e8f"}
{"nom":"Port-Vendres","nomNormalise":"portvendres","typeCollectivite":"Commune","region":"Occitanie","departement":"Pyrénées-Orientales","departementCode":"66","adresse":{"street":"8 rue Jules-Pams","postalCode":"66660","city":"Port-Vendres","country":"France"},"contacts":{"email":"ag@port-vendres.com","telephone":"0468820103"},"horaires":"Du Lundi au Vendredi : de 09h00 à 12h00 de 14h00 à 17h00","latitude":42.519615,"longitude":3.107319,"website":"https://www.port-vendres.com/","hasWebsite":true,"hasHoraires":true,"url":"https://lannuaire.service-public.gouv.fr/occitanie/pyrenees-orientales/e7e6834d-c8b0-44a3-bfee-b7009ba47786"}
{"nom":"Prades","nomNormalise":"prades","typeCollectivite":"Commune","region":"Occitanie","departement":"Pyrénées-Orientales","departementCode":"66","adresse":{"street":"56 Rue du Palais de Justice","postalCode":"66500","city":"Prades","country":"France"},"contacts":{"email":"dalmau.remi@mairiedeprades.com","telephone":"0468054100"},"horaires":"Du Lundi au Jeudi : de 08h00 à 12h00 de 14h00 à 18h00\nLe Vendredi : de 08h00 à 12h00 de 14h00 à 17h00","latitude":42.61681,"longitude":2.4209998,"website":"https://www.prades.com/","hasWebsite":true,"hasHoraires":true,"url":"https://lannuaire.service-public.gouv.fr/occitanie/pyrenees-orientales/b02a6925-d253-44df-8963-1fc0e22c47cb"}
{"nom":"Prats-de-Mollo-la-Preste","nomNormalise":"pratsdemollolapreste","typeCollectivite":"Commune","region":"Occitanie","departement":"Pyrénées-Orientales","departementCode":"66","adresse":{"street":"6 rue Porte-de-France","postalCode":"66230","city":"Prats-de-Mollo-la-Preste","country":"France"},"contacts":{"email":"mairie@pratsdemollo.fr","telephone":"0468397211"},"horaires":"Du Lundi au Vendredi : de 10h00 à 12h00 de 14h00 à 17h00","latitude":42.4039,"longitude":2.47861,"website":"https://www.pratsdemollolapreste.com/","hasWebsite":true,"hasHoraires":true,"url":"https://lannuaire.service-public.gouv.fr/occitanie/pyrenees-orientales/c7453902-56eb-4722-b8bf-a216cdf27480"}
{"nom":"Prats-de-Sournia","nomNormalise":"pratsdesournia","typeCollectivite":"Commune","region":"Occitanie","departement":"Pyrénées-Orientales","departementCode":"66","adresse":{"street":"20 rue Balcon-du-Fenouillèdes","postalCode":"66730","city":"Prats-de-Sournia","country":"France"},"contacts":{"email":"communedepratsdesournia@wanadoo.fr","telephone":"0468977406"},"horaires":"Le Lundi : de 09h00 à 12h00\nLe Mardi : de 08h00 à 12h00\nLe Mercredi : de 09h00 à 12h00\nLe Jeudi : de 08h00 à 12h00\nLe Vendredi : de 08h00 à 12h00","latitude":42.74434,"longitude":2.461029,"website":"http://www.pratsdesournia.com/","hasWebsite":true,"hasHoraires":true,"url":"https://lannuaire.service-public.gouv.fr/occitanie/pyrenees-orientales/b6299ae7-8d94-49c7-ad13-8c51f42c04fb"}
{"nom":"Prugnanes","nomNormalise":"prugnanes","typeCollectivite":"Commune","region":"Occitanie","departement":"Pyrénées-Orientales","departementCode":"66","adresse":{"street":"2 rue de la Mairie","postalCode":"66220","city":"Prugnanes","country":"France"},"contacts":{"email":"mairie.prugnanes@wanadoo.fr","telephone":"0468591030"},"horaires":"Le Lundi : de 09h00 à 12h00 de 13h00 à 17h00\nLe Mercredi : de 09h00 à 12h00 de 13h00 à 17h00\nLe Vendredi : de 09h00 à 12h00 de 13h00 à 16h00","latitude":42.82401,"longitude":2.432985,"website":"","hasWebsite":false,"hasHoraires":true,"url":"https://lannuaire.service-public.gouv.fr/occitanie/pyrenees-orientales/d0564fdb-254a-4b20-9b1d-02811cf4344d"}
{"nom":"Prunet-et-Belpuig","nomNormalise":"prunetetbelpuig","typeCollectivite":"Commune","region":"Occitanie","departement":"Pyrénées-Orientales","departementCode":"66","adresse":{"street":"La Trinité","postalCode":"66130","city":"Prunet-et-Belpuig","country":"France"},"contacts":{"email":"commune-prunet-et-belpuig@orange.fr","telephone":"0468394422"},"horaires":"Le Mardi : de 10h00 à 16h00\nLe Jeudi : de 10h00 à 16h00","latitude":42.56944,"longitude":2.647856,"website":"","hasWebsite":false,"hasHoraires":true,"url":"https://lannuaire.service-public.gouv.fr/occitanie/pyrenees-orientales/51abc3c0-c04f-425f-a4ae-3f3990f2fe7d"}
{"nom":"Puyvalador","nomNormalise":"puyvalador","typeCollectivite":"Commune","region":"Occitanie","departement":"Pyrénées-Orientales","departementCode":"66","adresse":{"street":"4 carrer del Rentador","postalCode":"66210","city":"Puyvalador","country":"France"},"contacts":{"email":"mairie@puyvalador-rieutort.fr","telephone":"0468044064"},"horaires":"Du Lundi au Vendredi : de 10h00 à 12h00","latitude":42.64671,"longitude":2.12012,"website":"https://puyvalador-rieutort.fr/","hasWebsite":true,"hasHoraires":true,"url":"https://lannuaire.service-public.gouv.fr/occitanie/pyrenees-orientales/eb85b4a7-5d76-402d-bfe4-7bd50fa3d54d"}
{"nom":"Py","nomNormalise":"py","typeCollectivite":"Commune","region":"Occitanie","departement":"Pyrénées-Orientales","departementCode":"66","adresse":{"street":"12 place Sant-Pau","postalCode":"66360","city":"Py","country":"France"},"contacts":{"email":"mairie.py@orange.fr","telephone":"0468055365"},"horaires":"Le Lundi : de 09h30 à 11h30\nLe Jeudi : de 09h30 à 11h30","latitude":42.49607,"longitude":2.350948,"website":"http://mairiedepy.free.fr/","hasWebsite":true,"hasHoraires":true,"url":"https://lannuaire.service-public.gouv.fr/occitanie/pyrenees-orientales/b5f558f0-ad66-4445-a6f2-3a6e29f81eff"}
{"nom":"Rabouillet","nomNormalise":"rabouillet","typeCollectivite":"Commune","region":"Occitanie","departement":"Pyrénées-Orientales","departementCode":"66","adresse":{"street":"2 place Comunou","postalCode":"66730","city":"Rabouillet","country":"France"},"contacts":{"email":"postmaster@rabouillet.com","telephone":"0468977276"},"horaires":"Du Mardi au Jeudi : de 14h00 à 16h00","latitude":42.731323,"longitude":2.390416,"website":"https://www.fenouilledes.com/rabouillet/","hasWebsite":true,"hasHoraires":true,"url":"https://lannuaire.service-public.gouv.fr/occitanie/pyrenees-orientales/1d7b6751-7e3d-4b11-9206-43520bb099d7"}
{"nom":"Railleu","nomNormalise":"railleu","typeCollectivite":"Commune","region":"Occitanie","departement":"Pyrénées-Orientales","departementCode":"66","adresse":{"street":"4 carrer-Llarg","postalCode":"66360","city":"Railleu","country":"France"},"contacts":{"email":"mairie.railleu@gmail.com","telephone":"0468970400"},"horaires":"Le Lundi : de 09h30 à 15h00","latitude":42.585575,"longitude":2.1805997,"website":"","hasWebsite":false,"hasHoraires":true,"url":"https://lannuaire.service-public.gouv.fr/occitanie/pyrenees-orientales/e33af9b6-dc87-49a8-8554-aa9fc7eb3db2"}
{"nom":"Rasiguères","nomNormalise":"rasigueres","typeCollectivite":"Commune","region":"Occitanie","departement":"Pyrénées-Orientales","departementCode":"66","adresse":{"street":"1 rue de la Mairie","postalCode":"66720","city":"Rasiguères","country":"France"},"contacts":{"email":"mairie.rasigueres@orange.fr","telephone":"0468290424"},"horaires":"Du Lundi au Mardi : de 08h00 à 16h00\nLe Jeudi : de 08h00 à 16h00","latitude":42.76611,"longitude":2.609726,"website":"","hasWebsite":false,"hasHoraires":true,"url":"https://lannuaire.service-public.gouv.fr/occitanie/pyrenees-orientales/672df0e3-a1b1-407a-a9cd-f31ee686cc58"}
{"nom":"Réal","nomNormalise":"real","typeCollectivite":"Commune","region":"Occitanie","departement":"Pyrénées-Orientales","departementCode":"66","adresse":{"street":"2 route de Formiguères","postalCode":"66210","city":"Réal","country":"France"},"contacts":{"email":"contact@mairiereal.fr","telephone":"0468043644"},"horaires":"Le Jeudi : de 08h30 à 12h30 de 14h00 à 17h00\nLe Vendredi : de 08h30 à 12h30","latitude":42.63126,"longitude":2.132387,"website":"https://www.mairiereal.fr/","hasWebsite":true,"hasHoraires":true,"url":"https://lannuaire.service-public.gouv.fr/occitanie/pyrenees-orientales/19eb8a14-8f0a-42a1-8cce-ae8ce013ed6b"}
{"nom":"Reynès","nomNormalise":"reynes","typeCollectivite":"Commune","region":"Occitanie","departement":"Pyrénées-Orientales","departementCode":"66","adresse":{"street":"Le Village","postalCode":"66400","city":"Reynès","country":"France"},"contacts":{"email":"mairie@reynes.fr","telephone":"0468871855"},"horaires":"Du Lundi au Vendredi : de 09h30 à 12h30 de 13h15 à 16h15\nLe vendredi après-midi sur rendez-vous uniquement.","latitude":42.476616,"longitude":2.706733,"website":"https://www.reynes.fr/","hasWebsite":true,"hasHoraires":true,"url":"https://lannuaire.service-public.gouv.fr/occitanie/pyrenees-orientales/5d1c0afb-b437-4c9a-82b2-e21cee947e54"}
{"nom":"Ria-Sirach","nomNormalise":"riasirach","typeCollectivite":"Commune","region":"Occitanie","departement":"Pyrénées-Orientales","departementCode":"66","adresse":{"street":"8 avenue d'En Cassa","postalCode":"66500","city":"Ria-Sirach","country":"France"},"contacts":{"email":"mairie@riasirach.fr","telephone":"0468964930"},"horaires":"Du Lundi au Vendredi : de 08h00 à 12h00","latitude":42.6076,"longitude":2.3935,"website":"http://www.riasirach.fr/","hasWebsite":true,"hasHoraires":true,"url":"https://lannuaire.service-public.gouv.fr/occitanie/pyrenees-orientales/4d965aeb-28ea-4378-83ac-f74efe143682"}
{"nom":"Rigarda","nomNormalise":"rigarda","typeCollectivite":"Commune","region":"Occitanie","departement":"Pyrénées-Orientales","departementCode":"66","adresse":{"street":"4 route de Vinça","postalCode":"66320","city":"Rigarda","country":"France"},"contacts":{"email":"mairierigarda@wanadoo.fr","telephone":"0468058160"},"horaires":"Du Lundi au Mardi : de 09h00 à 13h00\nDu Jeudi au Vendredi : de 09h00 à 13h00","latitude":42.6223,"longitude":2.53395,"website":"","hasWebsite":false,"hasHoraires":true,"url":"https://lannuaire.service-public.gouv.fr/occitanie/pyrenees-orientales/a4aa3dec-bc3d-4a83-8f76-a99c463a6674"}
{"nom":"Rivesaltes","nomNormalise":"rivesaltes","typeCollectivite":"Commune","region":"Occitanie","departement":"Pyrénées-Orientales","departementCode":"66","adresse":{"street":"Place de l'Europe","postalCode":"66602","city":"Rivesaltes","country":"France"},"contacts":{"email":"mairie@rivesaltes.fr","telephone":"0468385959"},"horaires":"Du Lundi au Jeudi : de 09h30 à 12h00 de 14h00 à 18h00\nLe Vendredi : de 09h30 à 12h00 de 13h30 à 16h30","latitude":42.76705,"longitude":2.8691497,"website":"http://www.mairie-rivesaltes.fr/","hasWebsite":true,"hasHoraires":true,"url":"https://lannuaire.service-public.gouv.fr/occitanie/pyrenees-orientales/7ad37a1f-de4c-48b3-b73d-6374034ef864"}
{"nom":"Rodès","nomNormalise":"rodes","typeCollectivite":"Commune","region":"Occitanie","departement":"Pyrénées-Orientales","departementCode":"66","adresse":{"street":"4 carrer Gran","postalCode":"66320","city":"Rodès","country":"France"},"contacts":{"email":"mairie-rodes@orange.fr","telephone":"0468058109"},"horaires":"Du Lundi au Vendredi : de 08h30 à 12h00","latitude":42.65543,"longitude":2.559932,"website":"https://www.villederodes.fr/","hasWebsite":true,"hasHoraires":true,"url":"https://lannuaire.service-public.gouv.fr/occitanie/pyrenees-orientales/7bbbe3e5-42c4-489c-a63c-7c29c6dc1160"}
{"nom":"Sahorre","nomNormalise":"sahorre","typeCollectivite":"Commune","region":"Occitanie","departement":"Pyrénées-Orientales","departementCode":"66","adresse":{"street":"1 rue des Écoles","postalCode":"66360","city":"Sahorre","country":"France"},"contacts":{"email":"commune.sahorre-thorrent@wanadoo.fr","telephone":"0468055316"},"horaires":"Du Lundi au Mardi : de 14h30 à 16h30\nDu Jeudi au Vendredi : de 14h30 à 16h30","latitude":42.5345,"longitude":2.35942,"website":"","hasWebsite":false,"hasHoraires":true,"url":"https://lannuaire.service-public.gouv.fr/occitanie/pyrenees-orientales/6ad4d1ef-8e43-4e01-9180-49359957e471"}
{"nom":"Saillagouse","nomNormalise":"saillagouse","typeCollectivite":"Commune","region":"Occitanie","departement":"Pyrénées-Orientales","departementCode":"66","adresse":{"street":"Place Oliva","postalCode":"66800","city":"Saillagouse","country":"France"},"contacts":{"email":"mairie-saillagouse@wanadoo.fr","telephone":"0468047289"},"horaires":"Du Lundi au Jeudi : de 08h30 à 12h00 de 14h00 à 18h00\nLe Vendredi : de 08h30 à 12h00 de 14h00 à 17h00","latitude":42.45877,"longitude":2.0399587,"website":"http://www.saillagouse.fr/","hasWebsite":true,"hasHoraires":true,"url":"https://lannuaire.service-public.gouv.fr/occitanie/pyrenees-orientales/709a8da4-fe36-407f-ae64-2c33d6c5d9a5"}
{"nom":"Saint-André","nomNormalise":"saintandre","typeCollectivite":"Commune","region":"Occitanie","departement":"Pyrénées-Orientales","departementCode":"66","adresse":{"street":"10 allée de la Liberté","postalCode":"66690","city":"Saint-André","country":"France"},"contacts":{"email":"mairie@saint-andre66.fr","telephone":"0468952323"},"horaires":"Du Lundi au Vendredi : de 09h00 à 12h00 de 15h00 à 18h00","latitude":42.552578,"longitude":2.9717264,"website":"https://www.saint-andre66.fr/","hasWebsite":true,"hasHoraires":true,"url":"https://lannuaire.service-public.gouv.fr/occitanie/pyrenees-orientales/44e694cf-f813-4dde-96a2-c5544cf9edf2"}
{"nom":"Saint-Arnac","nomNormalise":"saintarnac","typeCollectivite":"Commune","region":"Occitanie","departement":"Pyrénées-Orientales","departementCode":"66","adresse":{"street":"2 place de Centernach","postalCode":"66220","city":"Saint-Arnac","country":"France"},"contacts":{"email":"mairie.saintarnac@gmail.com","telephone":"0468590395"},"horaires":"Le Mardi : de 09h00 à 12h00 de 13h30 à 17h00\nLe Vendredi : de 09h00 à 12h00 de 13h30 à 17h00","latitude":42.779575,"longitude":2.529512,"website":"https://saint-arnac.fr/","hasWebsite":true,"hasHoraires":true,"url":"https://lannuaire.service-public.gouv.fr/occitanie/pyrenees-orientales/80ea2914-95be-451d-ab49-da1469a76adc"}
{"nom":"Saint-Cyprien","nomNormalise":"saintcyprien","typeCollectivite":"Commune","region":"Occitanie","departement":"Pyrénées-Orientales","departementCode":"66","adresse":{"street":"Place Desnoyer","postalCode":"66750","city":"Saint-Cyprien","country":"France"},"contacts":{"email":"contact@stcyprien.fr","telephone":"0468376800"},"horaires":"Du Lundi au Jeudi : de 08h00 à 12h00 de 13h30 à 17h30\nLe Vendredi : de 08h00 à 12h00 de 13h00 à 16h00","latitude":42.6177,"longitude":3.00298,"website":"https://www.saint-cyprien.com/","hasWebsite":true,"hasHoraires":true,"url":"https://lannuaire.service-public.gouv.fr/occitanie/pyrenees-orientales/bc9ce2ef-b52f-47a5-a94b-84314e626930"}
{"nom":"Sainte-Colombe-de-la-Commanderie","nomNormalise":"saintecolombedelacommanderie","typeCollectivite":"Commune","region":"Occitanie","departement":"Pyrénées-Orientales","departementCode":"66","adresse":{"street":"3 carrer del Canigo","postalCode":"66300","city":"Sainte-Colombe-de-la-Commanderie","country":"France"},"contacts":{"email":"mairie.sainte.colombe@wanadoo.fr","telephone":"0468533087"},"horaires":"Le Mardi : de 13h00 à 19h00\nLe Jeudi : de 09h00 à 13h00","latitude":42.6145,"longitude":2.74733,"website":"https://www.intramuros.org/ste-colombe-de-la-commanderie","hasWebsite":true,"hasHoraires":true,"url":"https://lannuaire.service-public.gouv.fr/occitanie/pyrenees-orientales/b60469d1-a6e3-4b30-ad05-7673230705b8"}
{"nom":"Sainte-Léocadie","nomNormalise":"sainteleocadie","typeCollectivite":"Commune","region":"Occitanie","departement":"Pyrénées-Orientales","departementCode":"66","adresse":{"street":"Place Michel-Aris","postalCode":"66800","city":"Sainte-Léocadie","country":"France"},"contacts":{"email":"sainte-leocadie@wanadoo.fr","telephone":"0468047627"},"horaires":"Du Lundi au Mardi : de 09h00 à 12h00 de 14h00 à 17h00\nLe Mercredi : de 09h00 à 12h00\nDu Jeudi au Vendredi : de 09h00 à 12h00 de 14h00 à 17h00","latitude":42.43666,"longitude":2.004098,"website":"https://sainte-leocadie.fr/","hasWebsite":true,"hasHoraires":true,"url":"https://lannuaire.service-public.gouv.fr/occitanie/pyrenees-orientales/520b69ee-016c-4bd7-9f79-934bd09ba9fd"}
{"nom":"Sainte-Marie-la-Mer","nomNormalise":"saintemarielamer","typeCollectivite":"Commune","region":"Occitanie","departement":"Pyrénées-Orientales","departementCode":"66","adresse":{"street":"Place Pierre-Roig","postalCode":"66470","city":"Sainte-Marie-la-Mer","country":"France"},"contacts":{"email":"accueil@saintemarielamer.com","telephone":"0468801380"},"horaires":"Du Lundi au Jeudi : de 09h00 à 12h00 de 13h30 à 17h30\nLe Vendredi : de 09h00 à 12h00 de 13h30 à 17h00","latitude":42.728546,"longitude":3.014911,"website":"https://www.saintemarielamer.com/","hasWebsite":true,"hasHoraires":true,"url":"https://lannuaire.service-public.gouv.fr/occitanie/pyrenees-orientales/16789cd9-cc94-4508-973a-eccfaa6ab4c5"}
{"nom":"Saint-Estève","nomNormalise":"saintesteve","typeCollectivite":"Commune","region":"Occitanie","departement":"Pyrénées-Orientales","departementCode":"66","adresse":{"street":"5 rue de la République","postalCode":"66240","city":"Saint-Estève","country":"France"},"contacts":{"email":"saint.esteve.mairie@st-esteve.com","telephone":"0468382300"},"horaires":"Du Lundi au Jeudi : de 08h00 à 12h00 de 13h30 à 17h30\nLe Vendredi : de 08h00 à 12h00 de 13h30 à 17h00","latitude":42.708324,"longitude":2.846167,"website":"https://www.st-esteve.com/","hasWebsite":true,"hasHoraires":true,"url":"https://lannuaire.service-public.gouv.fr/occitanie/pyrenees-orientales/9043cdae-f8c4-4285-b317-3ae911712cc0"}
{"nom":"Saint-Féliu-d'Amont","nomNormalise":"saintfeliudamont","typeCollectivite":"Commune","region":"Occitanie","departement":"Pyrénées-Orientales","departementCode":"66","adresse":{"street":"Espace Christian-Bourquin","postalCode":"66170","city":"Saint-Féliu-d'Amont","country":"France"},"contacts":{"email":"secretariat@saintfeliudamont.fr","telephone":"0468578070"},"horaires":"Du Lundi au Vendredi : de 10h00 à 12h00 de 15h00 à 17h00","latitude":42.686665,"longitude":2.722131,"website":"https://saintfeliudamont.fr/","hasWebsite":true,"hasHoraires":true,"url":"https://lannuaire.service-public.gouv.fr/occitanie/pyrenees-orientales/ee29f519-2f8b-4050-84e1-3aaf9a737d77"}
{"nom":"Saint-Féliu-d'Avall","nomNormalise":"saintfeliudavall","typeCollectivite":"Commune","region":"Occitanie","departement":"Pyrénées-Orientales","departementCode":"66","adresse":{"street":"114 avenue du Canigou","postalCode":"66170","city":"Saint-Féliu-d'Avall","country":"France"},"contacts":{"email":"accueil@saintfeliu-avall.com","telephone":"0468578012"},"horaires":"Le Lundi : de 10h00 à 12h00 de 14h00 à 17h00\nLe Mardi : de 10h00 à 12h00\nDu Mercredi au Jeudi : de 10h00 à 12h00 de 14h00 à 16h00\nLe Vendredi : de 10h00 à 16h00","latitude":42.6819,"longitude":2.7382,"website":"https://www.saintfeliu-avall.com/","hasWebsite":true,"hasHoraires":true,"url":"https://lannuaire.service-public.gouv.fr/occitanie/pyrenees-orientales/eb5e1e49-cabf-42ed-9dd1-43bf62f9800c"}
{"nom":"Saint-Genis-des-Fontaines","nomNormalise":"saintgenisdesfontaines","typeCollectivite":"Commune","region":"Occitanie","departement":"Pyrénées-Orientales","departementCode":"66","adresse":{"street":"Hôtel de ville","postalCode":"66740","city":"Saint-Genis-des-Fontaines","country":"France"},"contacts":{"email":"accueil@sgdf66.fr","telephone":"0468950001"},"horaires":"Du Lundi au Mercredi : de 08h00 à 12h00 de 13h00 à 17h00\nLe Jeudi : de 08h00 à 12h00\nLe Vendredi : de 08h00 à 12h00 de 13h00 à 17h00","latitude":42.54942,"longitude":2.9185147,"website":"https://www.saint-genis-des-fontaines.fr/","hasWebsite":true,"hasHoraires":true,"url":"https://lannuaire.service-public.gouv.fr/occitanie/pyrenees-orientales/2397b5c4-77eb-4103-a0ae-0de83486abec"}
{"nom":"Saint-Hippolyte","nomNormalise":"sainthippolyte","typeCollectivite":"Commune","region":"Occitanie","departement":"Pyrénées-Orientales","departementCode":"66","adresse":{"street":"1 avenue Paul-Riquet","postalCode":"66510","city":"Saint-Hippolyte","country":"France"},"contacts":{"email":"accueil@mairie-saint-hippolyte.fr","telephone":"0468283183"},"horaires":"Du Lundi au Vendredi : de 09h00 à 12h30 de 13h30 à 17h30","latitude":42.7857,"longitude":2.96749,"website":"http://www.mairie-saint-hippolyte.fr/","hasWebsite":true,"hasHoraires":true,"url":"https://lannuaire.service-public.gouv.fr/occitanie/pyrenees-orientales/2117014e-d82e-421f-9cea-47a5113740e6"}
{"nom":"Saint-Jean-Lasseille","nomNormalise":"saintjeanlasseille","typeCollectivite":"Commune","region":"Occitanie","departement":"Pyrénées-Orientales","departementCode":"66","adresse":{"street":"30 avenue de la Mairie","postalCode":"66300","city":"Saint-Jean-Lasseille","country":"France"},"contacts":{"email":"mairie@saintjeanlasseille.fr","telephone":"0468217205"},"horaires":"Le Lundi : de 15h00 à 19h00\nLe Mardi : de 10h00 à 12h00\nLe Mercredi : de 15h00 à 18h00\nLe Jeudi : de 10h00 à 12h00\nLe Vendredi : de 15h00 à 18h00","latitude":42.5818,"longitude":2.8652115,"website":"https://saintjeanlasseille.fr/","hasWebsite":true,"hasHoraires":true,"url":"https://lannuaire.service-public.gouv.fr/occitanie/pyrenees-orientales/53f21c55-6d80-4d3e-bd60-1a8b95d57718"}
{"nom":"Saint-Jean-Pla-de-Corts","nomNormalise":"saintjeanpladecorts","typeCollectivite":"Commune","region":"Occitanie","departement":"Pyrénées-Orientales","departementCode":"66","adresse":{"street":"1 Square Guy-Malé","postalCode":"66490","city":"Saint-Jean-Pla-de-Corts","country":"France"},"contacts":{"email":"contact@stjeanpladecorts.fr","telephone":"0468831764"},"horaires":"Du Lundi au Jeudi : de 09h00 à 12h00 de 15h00 à 17h30\nLe Vendredi : de 09h00 à 12h00 de 15h00 à 17h00","latitude":42.511757,"longitude":2.7912283,"website":"https://stjeanpladecorts.fr/","hasWebsite":true,"hasHoraires":true,"url":"https://lannuaire.service-public.gouv.fr/occitanie/pyrenees-orientales/74a84f15-2e0c-4b43-b345-90e5e8ee7f49"}
{"nom":"Saint-Laurent-de-Cerdans","nomNormalise":"saintlaurentdecerdans","typeCollectivite":"Commune","region":"Occitanie","departement":"Pyrénées-Orientales","departementCode":"66","adresse":{"street":"Rue de l'Église","postalCode":"66260","city":"Saint-Laurent-de-Cerdans","country":"France"},"contacts":{"email":"mairie.st-laurent-de-cerdans@wanadoo.fr","telephone":"0468395004"},"horaires":"Du Lundi au Jeudi : de 10h00 à 12h00 de 15h00 à 18h00\nLe Vendredi : de 10h00 à 12h00 de 15h00 à 17h00","latitude":42.384937,"longitude":2.613792,"website":"https://www.saintlaurentdecerdans.fr/","hasWebsite":true,"hasHoraires":true,"url":"https://lannuaire.service-public.gouv.fr/occitanie/pyrenees-orientales/b228c11d-9789-44e1-9015-0d347f3aa403"}
{"nom":"Saint-Laurent-de-la-Salanque","nomNormalise":"saintlaurentdelasalanque","typeCollectivite":"Commune","region":"Occitanie","departement":"Pyrénées-Orientales","departementCode":"66","adresse":{"street":"2 avenue Urbain-Paret","postalCode":"66250","city":"Saint-Laurent-de-la-Salanque","country":"France"},"contacts":{"email":"mairie@saint-laurent-de-la-salanque.fr","telephone":"0468280030"},"horaires":"Du Lundi au Jeudi : de 08h00 à 12h00 de 13h30 à 17h30\nLe Vendredi : de 08h00 à 12h00 de 13h30 à 16h30","latitude":42.7736,"longitude":2.98812,"website":"https://www.saintlaurentdelasalanque.fr/","hasWebsite":true,"hasHoraires":true,"url":"https://lannuaire.service-public.gouv.fr/occitanie/pyrenees-orientales/3bb6ece7-c065-406a-8b16-beed585fde3a"}
{"nom":"Saint-Marsal","nomNormalise":"saintmarsal","typeCollectivite":"Commune","region":"Occitanie","departement":"Pyrénées-Orientales","departementCode":"66","adresse":{"street":"4 rue du Panader","postalCode":"66110","city":"Saint-Marsal","country":"France"},"contacts":{"email":"mairie.saint-marsal@wanadoo.fr","telephone":"0468394114"},"horaires":"Le Mardi : de 07h30 à 12h00 de 13h30 à 18h00\nLe Jeudi : de 07h30 à 12h00 de 13h30 à 18h00","latitude":42.537773,"longitude":2.621583,"website":"https://mairie-saintmarsal.fr/fr/","hasWebsite":true,"hasHoraires":true,"url":"https://lannuaire.service-public.gouv.fr/occitanie/pyrenees-orientales/7231d249-00c2-4d3c-a2a1-da15ee4fe54a"}
{"nom":"Saint-Martin-de-Fenouillet","nomNormalise":"saintmartindefenouillet","typeCollectivite":"Commune","region":"Occitanie","departement":"Pyrénées-Orientales","departementCode":"66","adresse":{"street":"10 rue de la Mairie","postalCode":"66220","city":"Saint-Martin-de-Fenouillet","country":"France"},"contacts":{"email":"mairie-st-martin@wanadoo.fr","telephone":"0468592429"},"horaires":"Le Lundi : de 09h00 à 12h00 de 13h30 à 16h00\nLe Mardi : de 09h00 à 12h00\nLe Jeudi : de 09h00 à 12h00 de 13h30 à 16h00","latitude":42.785355,"longitude":2.46788,"website":"","hasWebsite":false,"hasHoraires":true,"url":"https://lannuaire.service-public.gouv.fr/occitanie/pyrenees-orientales/f5b2df64-5154-429d-a144-ea7ff95227ee"}
{"nom":"Saint-Michel-de-Llotes","nomNormalise":"saintmicheldellotes","typeCollectivite":"Commune","region":"Occitanie","departement":"Pyrénées-Orientales","departementCode":"66","adresse":{"street":"26 avenue des Aspres","postalCode":"66130","city":"Saint-Michel-de-Llotes","country":"France"},"contacts":{"email":"mairie-saintmichel@orange.fr","telephone":"0468847327"},"horaires":"Le Mardi : de 08h30 à 12h30 de 13h30 à 17h45\nLe Vendredi : de 08h30 à 12h30 de 13h30 à 17h45","latitude":42.64765,"longitude":2.625242,"website":"","hasWebsite":false,"hasHoraires":true,"url":"https://lannuaire.service-public.gouv.fr/occitanie/pyrenees-orientales/a66cf841-472d-448a-8bd5-3897cf473649"}
{"nom":"Saint-Nazaire","nomNormalise":"saintnazaire","typeCollectivite":"Commune","region":"Occitanie","departement":"Pyrénées-Orientales","departementCode":"66","adresse":{"street":"Place de la République","postalCode":"66570","city":"Saint-Nazaire","country":"France"},"contacts":{"email":"accueil@saintnazaire.eu","telephone":"0468736262"},"horaires":"Du Lundi au Mardi : de 08h00 à 12h00\nLe Mercredi : de 14h00 à 18h00\nDu Jeudi au Vendredi : de 08h00 à 12h00","latitude":42.669525,"longitude":2.9905398,"website":"https://mairie-stnazaire66.fr/","hasWebsite":true,"hasHoraires":true,"url":"https://lannuaire.service-public.gouv.fr/occitanie/pyrenees-orientales/8eb2028b-6927-41cb-a377-2194ab4b2bb7"}
{"nom":"Saint-Paul-de-Fenouillet","nomNormalise":"saintpauldefenouillet","typeCollectivite":"Commune","region":"Occitanie","departement":"Pyrénées-Orientales","departementCode":"66","adresse":{"street":"20 rue Arago","postalCode":"66220","city":"Saint-Paul-de-Fenouillet","country":"France"},"contacts":{"email":"secretairedemairie@saintpauldefenouillet.fr","telephone":"0468590026"},"horaires":"Du Lundi au Vendredi : de 10h00 à 12h00 de 15h00 à 17h00","latitude":42.81047,"longitude":2.502949,"website":"http://www.st-paul66.com/","hasWebsite":true,"hasHoraires":true,"url":"https://lannuaire.service-public.gouv.fr/occitanie/pyrenees-orientales/286008a4-b517-4115-8e78-a7c679620fa4"}
{"nom":"Saint-Pierre-dels-Forcats","nomNormalise":"saintpierredelsforcats","typeCollectivite":"Commune","region":"Occitanie","departement":"Pyrénées-Orientales","departementCode":"66","adresse":{"street":"21 Grand'rue","postalCode":"66210","city":"Saint-Pierre-dels-Forcats","country":"France"},"contacts":{"email":"accueil@mairiestpierreforcats.fr","telephone":"0468042104"},"horaires":"Du Lundi au Vendredi : de 09h00 à 12h00","latitude":42.494724,"longitude":2.119106,"website":"https://www.stpierreforcats.fr/","hasWebsite":true,"hasHoraires":true,"url":"https://lannuaire.service-public.gouv.fr/occitanie/pyrenees-orientales/6bf49674-ec9b-4040-bd55-1849efe94c00"}
{"nom":"Saleilles","nomNormalise":"saleilles","typeCollectivite":"Commune","region":"Occitanie","departement":"Pyrénées-Orientales","departementCode":"66","adresse":{"street":"2 boulevard du 8-Mai-1945","postalCode":"66280","city":"Saleilles","country":"France"},"contacts":{"email":"contact@saleilles.fr","telephone":"0468377070"},"horaires":"Du Lundi au Mardi : de 09h00 à 11h30 de 14h00 à 18h00\nLe Mercredi : de 09h00 à 13h00\nDu Jeudi au Vendredi : de 09h00 à 11h30 de 14h00 à 18h00","latitude":42.6547,"longitude":2.95417,"website":"https://www.saleilles.fr/","hasWebsite":true,"hasHoraires":true,"url":"https://lannuaire.service-public.gouv.fr/occitanie/pyrenees-orientales/af325e3f-00ca-4563-8fb4-f2727d34f2e1"}
{"nom":"Salses-le-Château","nomNormalise":"salseslechateau","typeCollectivite":"Commune","region":"Occitanie","departement":"Pyrénées-Orientales","departementCode":"66","adresse":{"street":"Boulevard Jean-Jaurès","postalCode":"66600","city":"Salses-le-Château","country":"France"},"contacts":{"email":"accueil@mairie-salses.fr","telephone":"0468386004"},"horaires":"Du Lundi au Vendredi : de 09h00 à 12h30 de 14h00 à 17h30","latitude":42.8333,"longitude":2.91817,"website":"https://www.salses-le-chateau.fr/","hasWebsite":true,"hasHoraires":true,"url":"https://lannuaire.service-public.gouv.fr/occitanie/pyrenees-orientales/f11570be-65ea-44d2-8626-c2c6bfaba9c8"}
{"nom":"Sansa","nomNormalise":"sansa","typeCollectivite":"Commune","region":"Occitanie","departement":"Pyrénées-Orientales","departementCode":"66","adresse":{"street":"1 place de la Mairie","postalCode":"66360","city":"Sansa","country":"France"},"contacts":{"email":"commune-de-sansa@orange.fr","telephone":"0468970268"},"horaires":"Le Jeudi : de 09h00 à 13h00","latitude":42.602116,"longitude":2.174608,"website":"http://www.sansa.fr/","hasWebsite":true,"hasHoraires":true,"url":"https://lannuaire.service-public.gouv.fr/occitanie/pyrenees-orientales/32c210a6-7786-44f2-b45c-f2ce37fd86fe"}
{"nom":"Sauto","nomNormalise":"sauto","typeCollectivite":"Commune","region":"Occitanie","departement":"Pyrénées-Orientales","departementCode":"66","adresse":{"street":"Rue Creueta","postalCode":"66210","city":"Sauto","country":"France"},"contacts":{"email":"mairie.sauto@orange.fr","telephone":"0468042301"},"horaires":"Le Lundi : de 14h30 à 18h00\nLe Mardi : de 10h00 à 12h00\nLe Jeudi : de 10h00 à 12h00 de 14h30 à 18h00","latitude":42.51251,"longitude":2.1505334,"website":"","hasWebsite":false,"hasHoraires":true,"url":"https://lannuaire.service-public.gouv.fr/occitanie/pyrenees-orientales/0187fd30-ca50-4d14-b8e4-a09c61355802"}
{"nom":"Serdinya-Jocet","nomNormalise":"serdinyajocet","typeCollectivite":"Commune","region":"Occitanie","departement":"Pyrénées-Orientales","departementCode":"66","adresse":{"street":"8 RD66 (ex RN116)","postalCode":"66360","city":"Serdinya","country":"France"},"contacts":{"email":"mairie.serdinya66@gmail.com","telephone":"0468970467"},"horaires":"Du Lundi au Mardi : de 08h00 à 13h00\nDu Jeudi au Vendredi : de 08h00 à 13h00","latitude":42.56806,"longitude":2.318833,"website":"","hasWebsite":false,"hasHoraires":true,"url":"https://lannuaire.service-public.gouv.fr/occitanie/pyrenees-orientales/68f68a15-8523-4654-9ab9-643e356cdee6"}
{"nom":"Serralongue","nomNormalise":"serralongue","typeCollectivite":"Commune","region":"Occitanie","departement":"Pyrénées-Orientales","departementCode":"66","adresse":{"street":"2 rue Pierre-Talrich","postalCode":"66230","city":"Serralongue","country":"France"},"contacts":{"email":"serralongue@wanadoo.fr","telephone":"0468396134"},"horaires":"Le Lundi : de 14h00 à 16h30\nLe Mardi : de 09h00 à 12h00\nDu Jeudi au Vendredi : de 14h00 à 16h30","latitude":42.39703,"longitude":2.55691,"website":"http://www.serralongue.com/","hasWebsite":true,"hasHoraires":true,"url":"https://lannuaire.service-public.gouv.fr/occitanie/pyrenees-orientales/be117474-fc0c-478d-92fa-298d3edc5db3"}
{"nom":"Sorède","nomNormalise":"sorede","typeCollectivite":"Commune","region":"Occitanie","departement":"Pyrénées-Orientales","departementCode":"66","adresse":{"street":"8 rue de la Caserne","postalCode":"66690","city":"Sorède","country":"France"},"contacts":{"email":"contact@mairie-sorede.fr","telephone":"0468892206"},"horaires":"Du Lundi au Jeudi : de 09h00 à 12h00 de 15h00 à 18h00\nLe Vendredi : de 09h00 à 12h00 de 13h30 à 17h30","latitude":42.531536,"longitude":2.954754,"website":"https://sorede.fr/","hasWebsite":true,"hasHoraires":true,"url":"https://lannuaire.service-public.gouv.fr/occitanie/pyrenees-orientales/4f04176c-723b-4794-8442-7217f8a8bb57"}
{"nom":"Souanyas","nomNormalise":"souanyas","typeCollectivite":"Commune","region":"Occitanie","departement":"Pyrénées-Orientales","departementCode":"66","adresse":{"street":"6 place de la Mairie","postalCode":"66360","city":"Souanyas","country":"France"},"contacts":{"email":"mairie-de-souanyas@orange.fr","telephone":"0468971089"},"horaires":"Du Lundi au Mardi : de 09h30 à 16h30","latitude":42.533382,"longitude":2.2761624,"website":"","hasWebsite":false,"hasHoraires":true,"url":"https://lannuaire.service-public.gouv.fr/occitanie/pyrenees-orientales/2e990541-6212-4838-9b0c-b83f0fddb0eb"}
{"nom":"Sournia","nomNormalise":"sournia","typeCollectivite":"Commune","region":"Occitanie","departement":"Pyrénées-Orientales","departementCode":"66","adresse":{"street":"Le Château","postalCode":"66730","city":"Sournia","country":"France"},"contacts":{"email":"contact@mairiedesournia.fr","telephone":"0468977022"},"horaires":"Le Lundi : de 08h30 à 12h00 de 14h00 à 16h00\nLe Mercredi : de 08h30 à 12h00 de 14h00 à 16h00\nLe Vendredi : de 08h30 à 12h00","latitude":42.727695,"longitude":2.441914,"website":"https://www.mairiedesournia.fr/","hasWebsite":true,"hasHoraires":true,"url":"https://lannuaire.service-public.gouv.fr/occitanie/pyrenees-orientales/2af45b90-0229-45bc-84f6-424e40d985fa"}
{"nom":"Taillet","nomNormalise":"taillet","typeCollectivite":"Commune","region":"Occitanie","departement":"Pyrénées-Orientales","departementCode":"66","adresse":{"street":"1 placa del Ajuntament","postalCode":"66400","city":"Taillet","country":"France"},"contacts":{"email":"mairie.taillet@orange.fr","telephone":"0468394265"},"horaires":"Le Jeudi : de 14h00 à 16h00\nLe Vendredi : de 14h00 à 17h00","latitude":42.527245,"longitude":2.671202,"website":"https://www.mairie-taillet.com/","hasWebsite":true,"hasHoraires":true,"url":"https://lannuaire.service-public.gouv.fr/occitanie/pyrenees-orientales/523b189e-cb2c-4002-83de-9812bc3834e6"}
{"nom":"Tarerach","nomNormalise":"tarerach","typeCollectivite":"Commune","region":"Occitanie","departement":"Pyrénées-Orientales","departementCode":"66","adresse":{"street":"8 rue de la Mairie","postalCode":"66320","city":"Tarerach","country":"France"},"contacts":{"email":"mairietarerach@laposte.net","telephone":"0468841040"},"horaires":"Le Mardi : de 09h00 à 12h00 de 14h00 à 16h00\nLe Jeudi : de 09h00 à 12h00 de 14h00 à 16h00","latitude":42.738,"longitude":2.4824,"website":"http://www.tarerach.fr/","hasWebsite":true,"hasHoraires":true,"url":"https://lannuaire.service-public.gouv.fr/occitanie/pyrenees-orientales/ee674f09-cadc-4c27-a65d-20b063731731"}
{"nom":"Targasonne","nomNormalise":"targasonne","typeCollectivite":"Commune","region":"Occitanie","departement":"Pyrénées-Orientales","departementCode":"66","adresse":{"street":"3 bis route d'Andorre","postalCode":"66120","city":"Targasonne","country":"France"},"contacts":{"email":"mairie.de.targasonne@wanadoo.fr","telephone":"0468300871"},"horaires":"Le Lundi : de 14h00 à 17h00\nDu Mardi au Vendredi : de 09h00 à 12h00 de 14h00 à 17h00","latitude":42.49662,"longitude":1.987756,"website":"","hasWebsite":false,"hasHoraires":true,"url":"https://lannuaire.service-public.gouv.fr/occitanie/pyrenees-orientales/6e31b962-d49c-4fe6-a9f6-c3dc2ce743d6"}
{"nom":"Taulis","nomNormalise":"taulis","typeCollectivite":"Commune","region":"Occitanie","departement":"Pyrénées-Orientales","departementCode":"66","adresse":{"street":"3 rue des Rocailles","postalCode":"66110","city":"Taulis","country":"France"},"contacts":{"email":"commune-de-taulis@orange.fr","telephone":"0468839892"},"horaires":"Le Mardi : de 08h00 à 16h00\nLe Vendredi : de 08h00 à 16h00","latitude":42.52305,"longitude":2.6322,"website":"https://taulis.fr/","hasWebsite":true,"hasHoraires":true,"url":"https://lannuaire.service-public.gouv.fr/occitanie/pyrenees-orientales/c2863fe1-712f-4bf6-be18-3287d1acdb12"}
{"nom":"Taurinya","nomNormalise":"taurinya","typeCollectivite":"Commune","region":"Occitanie","departement":"Pyrénées-Orientales","departementCode":"66","adresse":{"street":"13 cami-du-Canigou","postalCode":"66500","city":"Taurinya","country":"France"},"contacts":{"email":"mairie@taurinya.fr","telephone":"0468960203"},"horaires":"Du Lundi au Mardi : de 10h30 à 15h00\nLe Jeudi : de 10h30 à 15h00","latitude":42.580917,"longitude":2.425262,"website":"http://www.taurinya.fr/","hasWebsite":true,"hasHoraires":true,"url":"https://lannuaire.service-public.gouv.fr/occitanie/pyrenees-orientales/468e1a5c-0721-4bdd-8cd4-530da5187741"}
{"nom":"Tautavel","nomNormalise":"tautavel","typeCollectivite":"Commune","region":"Occitanie","departement":"Pyrénées-Orientales","departementCode":"66","adresse":{"street":"Place de la République","postalCode":"66720","city":"Tautavel","country":"France"},"contacts":{"email":"contact@tautavel.com","telephone":"0468291208"},"horaires":"Du Lundi au Vendredi : de 10h00 à 12h00 de 16h00 à 18h00","latitude":42.8139,"longitude":2.74502,"website":"http://www.tautavel.com/","hasWebsite":true,"hasHoraires":true,"url":"https://lannuaire.service-public.gouv.fr/occitanie/pyrenees-orientales/0b067fc3-cfa3-4ad3-b6c6-a8b17d5b3554"}
{"nom":"Terrats","nomNormalise":"terrats","typeCollectivite":"Commune","region":"Occitanie","departement":"Pyrénées-Orientales","departementCode":"66","adresse":{"street":"Avenue du Vallespir","postalCode":"66300","city":"Terrats","country":"France"},"contacts":{"email":"mairie.terrats@wanadoo.fr","telephone":"0468534467"},"horaires":"Du Lundi au Vendredi : de 09h00 à 12h00 de 16h30 à 17h30","latitude":42.6084,"longitude":2.77079,"website":"","hasWebsite":false,"hasHoraires":true,"url":"https://lannuaire.service-public.gouv.fr/occitanie/pyrenees-orientales/51f309ee-cc65-4a5e-ac82-df09dd9b4262"}
{"nom":"Théza","nomNormalise":"theza","typeCollectivite":"Commune","region":"Occitanie","departement":"Pyrénées-Orientales","departementCode":"66","adresse":{"street":"Place de la Promenade","postalCode":"66200","city":"Théza","country":"France"},"contacts":{"email":"contact@villetheza.fr","telephone":"0468221274"},"horaires":"Du Lundi au Mercredi : de 10h00 à 12h00 de 16h00 à 18h00\nLe Jeudi : de 10h00 à 12h00 de 16h00 à 18h30\nLe Vendredi : de 10h00 à 12h00 de 16h00 à 17h00","latitude":42.6382,"longitude":2.95178,"website":"https://www.villetheza.fr/","hasWebsite":true,"hasHoraires":true,"url":"https://lannuaire.service-public.gouv.fr/occitanie/pyrenees-orientales/e4650af7-c2b8-4566-b2ac-9b04726230b3"}
{"nom":"Thuès-Entre-Valls","nomNormalise":"thuesentrevalls","typeCollectivite":"Commune","region":"Occitanie","departement":"Pyrénées-Orientales","departementCode":"66","adresse":{"street":"3 rue de la Soulane","postalCode":"66360","city":"Thuès-Entre-Valls","country":"France"},"contacts":{"email":"mairie-thues-entre-valls@orange.fr","telephone":"0468970696"},"horaires":"Du Mardi au Mercredi : de 14h00 à 16h00\nLe Vendredi : de 14h00 à 16h00\n\nPermanence du maire le vendredi de 14h à 17h sur rendez-vous.","latitude":42.52556,"longitude":2.22373,"website":"","hasWebsite":false,"hasHoraires":true,"url":"https://lannuaire.service-public.gouv.fr/occitanie/pyrenees-orientales/57c4fa81-2afc-4b7c-bf21-9c657bd28d90"}
{"nom":"Thuir","nomNormalise":"thuir","typeCollectivite":"Commune","region":"Occitanie","departement":"Pyrénées-Orientales","departementCode":"66","adresse":{"street":"30 boulevard Léon-Jean-Grégory","postalCode":"66300","city":"Thuir","country":"France"},"contacts":{"email":"mairie@thuir.fr","telephone":"0468846767"},"horaires":"Du Lundi au Vendredi : de 08h00 à 12h00 de 13h00 à 17h00","latitude":42.632504,"longitude":2.756266,"website":"https://thuir.fr/","hasWebsite":true,"hasHoraires":true,"url":"https://lannuaire.service-public.gouv.fr/occitanie/pyrenees-orientales/3587ca38-228f-48cb-a4d6-25765fa88df4"}
{"nom":"Tordères","nomNormalise":"torderes","typeCollectivite":"Commune","region":"Occitanie","departement":"Pyrénées-Orientales","departementCode":"66","adresse":{"street":"2 rue des Écureuils","postalCode":"66300","city":"Tordères","country":"France"},"contacts":{"email":"mairie-de-torderes@wanadoo.fr","telephone":"0468388058"},"horaires":"Le Lundi : de 09h30 à 12h00 de 13h30 à 18h00\nLe Mercredi : de 08h30 à 12h00\nLe Jeudi : de 13h30 à 17h30","latitude":42.5597,"longitude":2.751551,"website":"","hasWebsite":false,"hasHoraires":true,"url":"https://lannuaire.service-public.gouv.fr/occitanie/pyrenees-orientales/d9109a83-a1b8-4d01-9bc6-9babda2fd5f6"}
{"nom":"Torreilles","nomNormalise":"torreilles","typeCollectivite":"Commune","region":"Occitanie","departement":"Pyrénées-Orientales","departementCode":"66","adresse":{"street":"1 avenue de la Méditerranée","postalCode":"66440","city":"Torreilles","country":"France"},"contacts":{"email":"mairie@torreilles.fr","telephone":"0468283202"},"horaires":"Du Lundi au Mardi : de 09h00 à 12h00 de 14h30 à 18h00\nLe Mercredi : de 09h00 à 12h00\nLe Jeudi : de 09h00 à 12h00 de 14h30 à 18h00\nLe Vendredi : de 09h00 à 12h00","latitude":42.75309,"longitude":2.9931123,"website":"http://www.torreilles.fr/","hasWebsite":true,"hasHoraires":true,"url":"https://lannuaire.service-public.gouv.fr/occitanie/pyrenees-orientales/99e96ff5-095d-4d57-99b9-eaa32248e7d9"}
{"nom":"Toulouges","nomNormalise":"toulouges","typeCollectivite":"Commune","region":"Occitanie","departement":"Pyrénées-Orientales","departementCode":"66","adresse":{"street":"1 avenue Jules-Ferry","postalCode":"66350","city":"Toulouges","country":"France"},"contacts":{"email":"accueil.ferry@toulouges.fr","telephone":"0468565410"},"horaires":"Du Lundi au Vendredi : de 08h30 à 12h00 de 13h30 à 17h00","latitude":42.67012,"longitude":2.82949,"website":"https://www.toulouges.fr/","hasWebsite":true,"hasHoraires":true,"url":"https://lannuaire.service-public.gouv.fr/occitanie/pyrenees-orientales/bf43e23a-6109-493c-a879-2eb086af7ed7"}
{"nom":"Tresserre","nomNormalise":"tresserre","typeCollectivite":"Commune","region":"Occitanie","departement":"Pyrénées-Orientales","departementCode":"66","adresse":{"street":"5 rue du Pla-del-Rey","postalCode":"66300","city":"Tresserre","country":"France"},"contacts":{"email":"mairie@tresserre.fr","telephone":"0468388034"},"horaires":"Du Lundi au Vendredi : de 09h00 à 13h00 de 14h30 à 17h30","latitude":42.563816,"longitude":2.829745,"website":"https://www.tresserre.fr/","hasWebsite":true,"hasHoraires":true,"url":"https://lannuaire.service-public.gouv.fr/occitanie/pyrenees-orientales/de497e61-3a2d-48db-b483-40e631d62f32"}
{"nom":"Trévillach","nomNormalise":"trevillach","typeCollectivite":"Commune","region":"Occitanie","departement":"Pyrénées-Orientales","departementCode":"66","adresse":{"street":"13 route de Sournia","postalCode":"66130","city":"Trévillach","country":"France"},"contacts":{"email":"mairie@trevillach.fr","telephone":"0468840420"},"horaires":"Le Lundi : de 09h00 à 12h00\nLe Mercredi : de 09h00 à 12h00 de 14h00 à 16h00","latitude":42.70846,"longitude":2.5293527,"website":"","hasWebsite":false,"hasHoraires":true,"url":"https://lannuaire.service-public.gouv.fr/occitanie/pyrenees-orientales/95673226-b230-49d5-a0d9-b20ea5a08c14"}
{"nom":"Trilla","nomNormalise":"trilla","typeCollectivite":"Commune","region":"Occitanie","departement":"Pyrénées-Orientales","departementCode":"66","adresse":{"street":"3 place de la Mairie","postalCode":"66220","city":"Trilla","country":"France"},"contacts":{"email":"mairietrilla@orange.fr","telephone":"0468590091"},"horaires":"Le Mardi : de 08h30 à 12h30\nLe Vendredi : de 08h30 à 12h30","latitude":42.740234,"longitude":2.51984,"website":"http://www.trilla-66.com/","hasWebsite":true,"hasHoraires":true,"url":"https://lannuaire.service-public.gouv.fr/occitanie/pyrenees-orientales/8c54f36d-1b2c-48a2-be83-9bfb44ac006a"}
{"nom":"Trouillas","nomNormalise":"trouillas","typeCollectivite":"Commune","region":"Occitanie","departement":"Pyrénées-Orientales","departementCode":"66","adresse":{"street":"Avenue des Albères","postalCode":"66300","city":"Trouillas","country":"France"},"contacts":{"email":"mairie@trouillas.fr","telephone":"0468530617"},"horaires":"Du Lundi au Vendredi : de 08h00 à 12h00 de 14h00 à 17h00","latitude":42.61018,"longitude":2.808145,"website":"https://www.trouillas.fr/","hasWebsite":true,"hasHoraires":true,"url":"https://lannuaire.service-public.gouv.fr/occitanie/pyrenees-orientales/c43dc86c-6201-4c29-a138-694ba4f1e7f1"}
{"nom":"Ur","nomNormalise":"ur","typeCollectivite":"Commune","region":"Occitanie","departement":"Pyrénées-Orientales","departementCode":"66","adresse":{"street":"Place de l'Église","postalCode":"66760","city":"Ur","country":"France"},"contacts":{"email":"mairie.ur@wanadoo.fr","telephone":"0468048291"},"horaires":"Du Lundi au Vendredi : de 09h00 à 12h00 de 13h00 à 17h00","latitude":42.46225,"longitude":1.936597,"website":"http://www.ville-ur.fr/","hasWebsite":true,"hasHoraires":true,"url":"https://lannuaire.service-public.gouv.fr/occitanie/pyrenees-orientales/3a2e5941-ec63-49d4-bf05-152dd6cd4148"}
{"nom":"Urbanya","nomNormalise":"urbanya","typeCollectivite":"Commune","region":"Occitanie","departement":"Pyrénées-Orientales","departementCode":"66","adresse":{"street":"11 route de la Mairie","postalCode":"66500","city":"Urbanya","country":"France"},"contacts":{"email":"commune-de-urbanya@orange.fr","telephone":"0468962148"},"horaires":"Le Vendredi : de 08h00 à 17h00","latitude":42.638943,"longitude":2.3046763,"website":"","hasWebsite":false,"hasHoraires":true,"url":"https://lannuaire.service-public.gouv.fr/occitanie/pyrenees-orientales/55a7e55d-0b18-4068-bf8f-8300f1871a05"}
{"nom":"Valcebollère","nomNormalise":"valcebollere","typeCollectivite":"Commune","region":"Occitanie","departement":"Pyrénées-Orientales","departementCode":"66","adresse":{"street":"19 carrer Gorro-Blanc","postalCode":"66340","city":"Valcebollère","country":"France"},"contacts":{"email":"mairie.valcebollere@wanadoo.fr","telephone":"0468046488"},"horaires":"Du Lundi au Mardi : de 08h00 à 17h00\nLe Jeudi : de 09h00 à 17h00\nLe Vendredi : de 08h00 à 16h30","latitude":42.387497,"longitude":2.034737,"website":"","hasWebsite":false,"hasHoraires":true,"url":"https://lannuaire.service-public.gouv.fr/occitanie/pyrenees-orientales/4a80916a-5ae7-4610-badc-270520091b37"}
{"nom":"Valmanya","nomNormalise":"valmanya","typeCollectivite":"Commune","region":"Occitanie","departement":"Pyrénées-Orientales","departementCode":"66","adresse":{"street":"Carrer de l'Ajuntament","postalCode":"66320","city":"Valmanya","country":"France"},"contacts":{"email":"mairie.valmanya@orange.fr","telephone":"0468058638"},"horaires":"Le Lundi : de 09h00 à 12h00 de 14h00 à 16h00","latitude":42.53894,"longitude":2.53434,"website":"https://valmanya.com/","hasWebsite":true,"hasHoraires":true,"url":"https://lannuaire.service-public.gouv.fr/occitanie/pyrenees-orientales/47b4b9d2-b6c0-44ed-ae9f-a16231e8effb"}
{"nom":"Vernet-les-Bains","nomNormalise":"vernetlesbains","typeCollectivite":"Commune","region":"Occitanie","departement":"Pyrénées-Orientales","departementCode":"66","adresse":{"street":"Place de l'Entente-Cordiale","postalCode":"66820","city":"Vernet-les-Bains","country":"France"},"contacts":{"email":"accueil@vernet-les-bains.fr","telephone":"0468055325"},"horaires":"Du Lundi au Vendredi : de 09h00 à 12h00 de 14h00 à 16h00","latitude":42.549,"longitude":2.39014,"website":"https://mairie-vernet-les-bains.jimdo.com/","hasWebsite":true,"hasHoraires":true,"url":"https://lannuaire.service-public.gouv.fr/occitanie/pyrenees-orientales/acec5b70-8c84-4459-b1ba-0d5252bbf08e"}
{"nom":"Villefranche-de-Conflent","nomNormalise":"villefranchedeconflent","typeCollectivite":"Commune","region":"Occitanie","departement":"Pyrénées-Orientales","departementCode":"66","adresse":{"street":"1 place de l'Église","postalCode":"66500","city":"Villefranche-de-Conflent","country":"France"},"contacts":{"email":"secretariatmairie@villefranche66.fr","telephone":"0468961078"},"horaires":"Du Lundi au Mardi : de 14h00 à 17h00\nLe Vendredi : de 14h00 à 17h00","latitude":42.586628,"longitude":2.366275,"website":"https://villefranchedeconflent.fr/","hasWebsite":true,"hasHoraires":true,"url":"https://lannuaire.service-public.gouv.fr/occitanie/pyrenees-orientales/ff385aab-3f2f-42b9-9c52-05269de41c10"}
{"nom":"Villelongue-de-la-Salanque","nomNormalise":"villelonguedelasalanque","typeCollectivite":"Commune","region":"Occitanie","departement":"Pyrénées-Orientales","departementCode":"66","adresse":{"street":"22 avenue du Littoral","postalCode":"66410","city":"Villelongue-de-la-Salanque","country":"France"},"contacts":{"email":"mairie@villelongue66410.fr","telephone":"0468739595"},"horaires":"Du Lundi au Vendredi : de 09h00 à 12h30 de 13h30 à 17h00","latitude":42.7272,"longitude":2.98515,"website":"https://www.villelongue-de-la-salanque.fr/","hasWebsite":true,"hasHoraires":true,"url":"https://lannuaire.service-public.gouv.fr/occitanie/pyrenees-orientales/5b206e2c-0a2f-4b4f-ac79-00b2fff50b48"}
{"nom":"Villelongue-dels-Monts","nomNormalise":"villelonguedelsmonts","typeCollectivite":"Commune","region":"Occitanie","departement":"Pyrénées-Orientales","departementCode":"66","adresse":{"street":"Rue des Écoles","postalCode":"66740","city":"Villelongue-dels-Monts","country":"France"},"contacts":{"email":"mairie@villelongue-dels-monts.com","telephone":"0468896176"},"horaires":"Du Lundi au Mardi : de 08h00 à 12h00 de 13h30 à 18h00\nLe Mercredi : de 08h00 à 12h00\nLe Jeudi : de 08h00 à 12h00 de 13h30 à 18h00\nLe Vendredi : de 08h00 à 12h00 de 13h30 à 17h30","latitude":42.526787,"longitude":2.902212,"website":"http://www.villelongue-dels-monts.com/","hasWebsite":true,"hasHoraires":true,"url":"https://lannuaire.service-public.gouv.fr/occitanie/pyrenees-orientales/bef17cb1-68d0-465a-b7db-e37e54af9789"}
{"nom":"Villemolaque","nomNormalise":"villemolaque","typeCollectivite":"Commune","region":"Occitanie","departement":"Pyrénées-Orientales","departementCode":"66","adresse":{"street":"1 place de la République","postalCode":"66300","city":"Villemolaque","country":"France"},"contacts":{"email":"commune@villemolaque.fr","telephone":"0468217072"},"horaires":"Du Lundi au Vendredi : de 10h00 à 12h00 de 15h00 à 18h00","latitude":42.5881,"longitude":2.83894,"website":"https://www.intramuros.org/villemolaque","hasWebsite":true,"hasHoraires":true,"url":"https://lannuaire.service-public.gouv.fr/occitanie/pyrenees-orientales/3dede4a2-8e2d-4ea9-8675-4d725ce1fba9"}
{"nom":"Villeneuve-de-la-Raho","nomNormalise":"villeneuvedelaraho","typeCollectivite":"Commune","region":"Occitanie","departement":"Pyrénées-Orientales","departementCode":"66","adresse":{"street":"1 rue du Général-de-Gaulle","postalCode":"66180","city":"Villeneuve-de-la-Raho","country":"France"},"contacts":{"email":"contact@villeneuvedelaraho.fr","telephone":"0468559105"},"horaires":"Du Lundi au Jeudi : de 09h00 à 12h00 de 14h00 à 17h00\nLe Vendredi : de 09h00 à 12h00 de 14h00 à 16h00","latitude":42.638206,"longitude":2.915096,"website":"https://www.villeneuvedelaraho.fr/","hasWebsite":true,"hasHoraires":true,"url":"https://lannuaire.service-public.gouv.fr/occitanie/pyrenees-orientales/dbc618d1-64bb-404e-bc8d-88de3f6e0102"}
{"nom":"Villeneuve-la-Rivière","nomNormalise":"villeneuvelariviere","typeCollectivite":"Commune","region":"Occitanie","departement":"Pyrénées-Orientales","departementCode":"66","adresse":{"street":"7 avenue du Canigou","postalCode":"66610","city":"Villeneuve-la-Rivière","country":"France"},"contacts":{"email":"mairie.villeneuvelariviere@66610.fr","telephone":"0468928200"},"horaires":"Le Lundi : de 10h00 à 12h00 de 15h00 à 17h00\nLe Mardi : de 10h00 à 12h00 de 16h30 à 19h00\nLe Mercredi : de 10h00 à 12h00 de 15h00 à 17h00\nLe Jeudi : de 10h00 à 12h00 de 16h30 à 19h00\nLe Vendredi : de 10h00 à 12h00 de 15h00 à 16h30","latitude":42.692963,"longitude":2.80279,"website":"https://www.mairie-villeneuvedelariviere.fr/","hasWebsite":true,"hasHoraires":true,"url":"https://lannuaire.service-public.gouv.fr/occitanie/pyrenees-orientales/e84077d1-6341-43d1-ac9f-bc4ff843300e"}
{"nom":"Vinça","nomNormalise":"vinca","typeCollectivite":"Commune","region":"Occitanie","departement":"Pyrénées-Orientales","departementCode":"66","adresse":{"street":"17 avenue du Général-de-Gaulle","postalCode":"66320","city":"Vinça","country":"France"},"contacts":{"email":"mairie@ville-vinca.fr","telephone":"0468058213"},"horaires":"Du Lundi au Jeudi : de 07h30 à 12h00 de 14h00 à 16h00\nLe Vendredi : de 07h30 à 12h00","latitude":42.644894,"longitude":2.529099,"website":"https://mairiedevinca.fr/","hasWebsite":true,"hasHoraires":true,"url":"https://lannuaire.service-public.gouv.fr/occitanie/pyrenees-orientales/f78c6097-ceef-4e03-9b50-1ed804081550"}
{"nom":"Vingrau","nomNormalise":"vingrau","typeCollectivite":"Commune","region":"Occitanie","departement":"Pyrénées-Orientales","departementCode":"66","adresse":{"street":"5 place de la République","postalCode":"66600","city":"Vingrau","country":"France"},"contacts":{"email":"mairie.vingrau@wanadoo.fr","telephone":"0468294073"},"horaires":"Du Lundi au Mardi : de 10h30 à 12h00\nDu Jeudi au Vendredi : de 10h30 à 12h00","latitude":42.848797,"longitude":2.776625,"website":"http://www.vingrau.fr/","hasWebsite":true,"hasHoraires":true,"url":"https://lannuaire.service-public.gouv.fr/occitanie/pyrenees-orientales/d3e70056-e511-4427-9c5d-fa1413beab59"}
{"nom":"Vira","nomNormalise":"vira","typeCollectivite":"Commune","region":"Occitanie","departement":"Pyrénées-Orientales","departementCode":"66","adresse":{"street":"Rue de la Fontaine","postalCode":"66220","city":"Vira","country":"France"},"contacts":{"email":"commune-de-vira@orange.fr","telephone":"0468599357"},"horaires":"Le Mardi : de 09h00 à 16h30\nLe Mercredi : de 09h00 à 13h00","latitude":42.81195,"longitude":2.374329,"website":"","hasWebsite":false,"hasHoraires":true,"url":"https://lannuaire.service-public.gouv.fr/occitanie/pyrenees-orientales/087e2046-7508-4ecb-b378-56b661abe7a9"}
{"nom":"Vivès","nomNormalise":"vives","typeCollectivite":"Commune","region":"Occitanie","departement":"Pyrénées-Orientales","departementCode":"66","adresse":{"street":"3 rue de la Mairie","postalCode":"66490","city":"Vivès","country":"France"},"contacts":{"email":"mairie.vives@orange.fr","telephone":"0468832080"},"horaires":"Le Lundi : de 13h30 à 17h00\nLe Jeudi : de 09h00 à 12h00","latitude":42.529217,"longitude":2.763601,"website":"","hasWebsite":false,"hasHoraires":true,"url":"https://lannuaire.service-public.gouv.fr/occitanie/pyrenees-orientales/32de3b67-4d75-4efd-af08-720efa19e7c5"}
