{"nom":"Paris - 10e arrondissement","nomNormalise":"parisearrondissement","typeCollectivite":"Commune","region":"Île-de-France","departement":"Paris","departementCode":"75","adresse":{"street":"72 rue du Faubourg-Saint-Martin","postalCode":"75010","city":"Paris","country":"France"},"contacts":{"email":"ddct-ma10-accueil@paris.fr","telephone":"0153721010"},"horaires":"Le Lundi : de 08h30 à 17h00\nLe Mardi : de 10h30 à 17h00\nLe Mercredi : de 08h30 à 17h00\nLe Jeudi : de 08h30 à 19h30\nLe Vendredi : de 08h30 à 17h00\nLe Samedi : de 09h30 à 12h30\n\nAccueil ouvert uniquement pour les reconnaissances de paternité ainsi que les déclarations de naissance et de décès","latitude":48.871784,"longitude":2.357383,"website":"https://mairie10.paris.fr/","hasWebsite":true,"hasHoraires":true,"url":"https://lannuaire.service-public.gouv.fr/ile-de-france/paris/48ff8263-27f0-4e53-bcf8-103688dba80e"}
{"nom":"Paris - 11e arrondissement","nomNormalise":"parisearrondissement","typeCollectivite":"Commune","region":"Île-de-France","departement":"Paris","departementCode":"75","adresse":{"street":"12 place Léon-Blum","postalCode":"75011","city":"Paris","country":"France"},"contacts":{"email":"","telephone":"0153271111"},"horaires":"Du Lundi au Mercredi : de 08h30 à 17h00\nLe Jeudi : de 08h30 à 19h30\nLe Vendredi : de 08h30 à 17h00\nLe Samedi : de 09h00 à 12h30\n\nAccueil ouvert uniquement pour les déclarations de naissances, de reconnaissance d'enfant et de décès.","latitude":48.8585,"longitude":2.379521,"website":"https://mairie11.paris.fr/","hasWebsite":true,"hasHoraires":true,"url":"https://lannuaire.service-public.gouv.fr/ile-de-france/paris/08fd0b09-e446-426d-a64d-876bcb6a74a0"}
{"nom":"Paris - 12e arrondissement","nomNormalise":"parisearrondissement","typeCollectivite":"Commune","region":"Île-de-France","departement":"Paris","departementCode":"75","adresse":{"street":"22 rue Gabriel-Lamé","postalCode":"75012","city":"Paris","country":"France"},"contacts":{"email":"","telephone":"0144681212"},"horaires":"Du Lundi au Mercredi : de 08h30 à 17h00\nLe Jeudi : de 17h00 à 19h30\nLe Vendredi : de 08h30 à 17h00\nLe Samedi : de 09h00 à 12h30\n\nuniquement pour les déclarations de naissances ou de décès)","latitude":48.834347,"longitude":2.387154,"website":"https://mairie12.paris.fr/","hasWebsite":true,"hasHoraires":true,"url":"https://lannuaire.service-public.gouv.fr/ile-de-france/paris/55361e18-31e6-40ce-9492-a5c4a4e92efc"}
{"nom":"Paris - 13e arrondissement","nomNormalise":"parisearrondissement","typeCollectivite":"Commune","region":"Île-de-France","departement":"Paris","departementCode":"75","adresse":{"street":"1 place d'Italie","postalCode":"75013","city":"Paris","country":"France"},"contacts":{"email":"","telephone":"0144081313"},"horaires":"Du Lundi au Mercredi : de 08h30 à 17h00\nLe Jeudi : de 13h00 à 19h30\nLe Vendredi : de 08h30 à 17h00\nLe Samedi : de 09h00 à 12h30\n\nUniquement pour déclaration de naissance et de décès et célébration de mariage.","latitude":48.832314,"longitude":2.355313,"website":"https://mairie13.paris.fr/","hasWebsite":true,"hasHoraires":true,"url":"https://lannuaire.service-public.gouv.fr/ile-de-france/paris/00053c80-6183-4252-a5dd-b4831440c7d0"}
{"nom":"Paris - 14e arrondissement","nomNormalise":"parisearrondissement","typeCollectivite":"Commune","region":"Île-de-France","departement":"Paris","departementCode":"75","adresse":{"street":"2 place Ferdinand-Brunot","postalCode":"75014","city":"Paris","country":"France"},"contacts":{"email":"","telephone":"0153906714"},"horaires":"Du Lundi au Mercredi : de 08h30 à 17h00\nLe Jeudi : de 08h30 à 19h30\nLe Vendredi : de 08h30 à 17h00\nLe Samedi : de 09h00 à 12h30\n\nAccueil ouvert uniquement pour les déclarations de naissance et de décès.","latitude":48.832996,"longitude":2.326854,"website":"https://mairie14.paris.fr/","hasWebsite":true,"hasHoraires":true,"url":"https://lannuaire.service-public.gouv.fr/ile-de-france/paris/1a28b686-1d86-4b8a-bd4c-e6d9e97c1e42"}
{"nom":"Paris - 15e arrondissement","nomNormalise":"parisearrondissement","typeCollectivite":"Commune","region":"Île-de-France","departement":"Paris","departementCode":"75","adresse":{"street":"31 rue Péclet","postalCode":"75015","city":"Paris","country":"France"},"contacts":{"email":"","telephone":"0155767515"},"horaires":"Du Lundi au Mercredi : de 08h30 à 17h00\nLe Jeudi : de 08h30 à 19h30\nLe Vendredi : de 08h30 à 17h00\nLe Samedi : de 09h00 à 12h30\n\nUniquement pour le service de l'état-civil et pour les déclarations de naissances et de décès.","latitude":48.841515,"longitude":2.299884,"website":"https://mairie15.paris.fr/","hasWebsite":true,"hasHoraires":true,"url":"https://lannuaire.service-public.gouv.fr/ile-de-france/paris/55cb6240-173d-47f8-8d76-79d53858e418"}
{"nom":"Paris - 16e arrondissement","nomNormalise":"parisearrondissement","typeCollectivite":"Commune","region":"Île-de-France","departement":"Paris","departementCode":"75","adresse":{"street":"71 avenue Henri-Martin","postalCode":"75016","city":"Paris","country":"France"},"contacts":{"email":"","telephone":"0140721616"},"horaires":"Du Lundi au Mercredi : de 08h30 à 17h00\nLe Jeudi : de 08h30 à 19h30\nLe Vendredi : de 08h30 à 17h00\nLe Samedi : de 09h00 à 12h30\n\nUniquement pour la célébration des mariages, les déclarations de naissance, et de décès.","latitude":48.86394,"longitude":2.276653,"website":"https://mairie16.paris.fr/","hasWebsite":true,"hasHoraires":true,"url":"https://lannuaire.service-public.gouv.fr/ile-de-france/paris/dbd7baac-288a-4bc4-9ed9-77ae90bc4de3"}
{"nom":"Paris - 17e arrondissement","nomNormalise":"parisearrondissement","typeCollectivite":"Commune","region":"Île-de-France","departement":"Paris","departementCode":"75","adresse":{"street":"16-20 rue des Batignolles","postalCode":"75017","city":"Paris","country":"France"},"contacts":{"email":"","telephone":"0144691717"},"horaires":"Du Lundi au Mercredi : de 08h30 à 17h00\nLe Jeudi : de 08h30 à 19h30\nLe Vendredi : de 08h30 à 17h00\nLe Samedi : de 09h30 à 12h30\n\nAccueil ouvert uniquement pour les déclarations de naissance et le décès.","latitude":48.884495,"longitude":2.321834,"website":"https://mairie17.paris.fr/","hasWebsite":true,"hasHoraires":true,"url":"https://lannuaire.service-public.gouv.fr/ile-de-france/paris/30f29b0b-2a16-4ca6-92a0-30f15ad17366"}
{"nom":"Paris - 18e arrondissement","nomNormalise":"parisearrondissement","typeCollectivite":"Commune","region":"Île-de-France","departement":"Paris","departementCode":"75","adresse":{"street":"1 place Jules-Joffrin","postalCode":"75018","city":"Paris","country":"France"},"contacts":{"email":"","telephone":"0153411818"},"horaires":"Du Lundi au Mercredi : de 08h30 à 17h00\nLe Jeudi : de 08h30 à 19h30\nLe Vendredi : de 08h30 à 17h00\nLe Samedi : de 09h00 à 12h30\n\nUniquement pour déclaration de naissance, de reconnaissance et de décès.","latitude":48.892303,"longitude":2.344687,"website":"https://mairie18.paris.fr/","hasWebsite":true,"hasHoraires":true,"url":"https://lannuaire.service-public.gouv.fr/ile-de-france/paris/5400a19b-1813-4f86-92bc-9760cd4bac07"}
{"nom":"Paris - 19e arrondissement","nomNormalise":"parisearrondissement","typeCollectivite":"Commune","region":"Île-de-France","departement":"Paris","departementCode":"75","adresse":{"street":"5-7 place Roger Madec","postalCode":"75019","city":"Paris","country":"France"},"contacts":{"email":"","telephone":"0144522919"},"horaires":"Du Lundi au Mercredi : de 08h30 à 17h00\nLe Jeudi : de 08h30 à 19h30\nLe Vendredi : de 08h30 à 17h00","latitude":48.882874,"longitude":2.382162,"website":"https://mairie19.paris.fr/","hasWebsite":true,"hasHoraires":true,"url":"https://lannuaire.service-public.gouv.fr/ile-de-france/paris/4f5c10ae-9152-4f40-8999-c33873f61a9f"}
{"nom":"Paris - 20e arrondissement","nomNormalise":"parisearrondissement","typeCollectivite":"Commune","region":"Île-de-France","departement":"Paris","departementCode":"75","adresse":{"street":"6 place Gambetta","postalCode":"75020","city":"Paris","country":"France"},"contacts":{"email":"","telephone":"0143152020"},"horaires":"Du Lundi au Mercredi : de 08h30 à 17h00\nLe Jeudi : de 08h30 à 19h30\nLe Vendredi : de 08h30 à 17h00\nLe Samedi : de 09h00 à 12h30\n\nAccueil ouvert uniquement pour les déclarations de naissance, de décès, ainsi que pour les célébrations de mariage et de PACS.","latitude":48.86509,"longitude":2.398998,"website":"https://mairie20.paris.fr/","hasWebsite":true,"hasHoraires":true,"url":"https://lannuaire.service-public.gouv.fr/ile-de-france/paris/2e3b8d0a-f8cd-4a04-ba0b-6848300b6a36"}
{"nom":"Paris - 5e arrondissement","nomNormalise":"parisearrondissement","typeCollectivite":"Commune","region":"Île-de-France","departement":"Paris","departementCode":"75","adresse":{"street":"21 place du Panthéon","postalCode":"75005","city":"Paris","country":"France"},"contacts":{"email":"ddct-ma05-accueil@paris.fr","telephone":"0156817505"},"horaires":"Du Lundi au Vendredi : de 08h30 à 17h00\nLe Samedi : de 09h00 à 12h30\n\nUniquement pour les déclarations de naissance, de reconnaissance, les déclarations de décès et pour les cérémonies de mariage.","latitude":48.84619,"longitude":2.344581,"website":"https://www.mairie05.paris.fr/","hasWebsite":true,"hasHoraires":true,"url":"https://lannuaire.service-public.gouv.fr/ile-de-france/paris/fc3156d4-0aa8-4f60-87e5-e967345476d8"}
{"nom":"Paris - 6e arrondissement","nomNormalise":"parisearrondissement","typeCollectivite":"Commune","region":"Île-de-France","departement":"Paris","departementCode":"75","adresse":{"street":"78 rue Bonaparte","postalCode":"75006","city":"Paris","country":"France"},"contacts":{"email":"ddct-ma06-dgs@paris.fr","telephone":"0140467506"},"horaires":"Du Lundi au Mercredi : de 08h30 à 17h00\nLe Jeudi : de 08h30 à 19h30\nLe Vendredi : de 08h30 à 17h00\nLe Samedi : de 09h00 à 12h30\n\nPermanence de l'état civil uniquement.","latitude":48.850536,"longitude":2.332611,"website":"https://www.mairie06.paris.fr/","hasWebsite":true,"hasHoraires":true,"url":"https://lannuaire.service-public.gouv.fr/ile-de-france/paris/75f1daf1-1cfd-4211-b4c2-e53494bfc755"}
{"nom":"Paris - 7e arrondissement","nomNormalise":"parisearrondissement","typeCollectivite":"Commune","region":"Île-de-France","departement":"Paris","departementCode":"75","adresse":{"street":"116 rue de Grenelle","postalCode":"75007","city":"Paris","country":"France"},"contacts":{"email":"","telephone":"0153587507"},"horaires":"Du Lundi au Vendredi : de 08h30 à 17h00\nLe Samedi : de 09h00 à 12h30\n\nPour déclaration de naissance, de reconnaissance et de décès.","latitude":48.856865,"longitude":2.320044,"website":"https://www.mairie07.paris.fr/","hasWebsite":true,"hasHoraires":true,"url":"https://lannuaire.service-public.gouv.fr/ile-de-france/paris/fe2cbdd1-e488-4e0a-a608-390f72eae260"}
{"nom":"Paris - 8e arrondissement","nomNormalise":"parisearrondissement","typeCollectivite":"Commune","region":"Île-de-France","departement":"Paris","departementCode":"75","adresse":{"street":"3 rue de Lisbonne","postalCode":"75008","city":"Paris","country":"France"},"contacts":{"email":"ddct-ma08-accueil@paris.fr","telephone":"0144907698"},"horaires":"Du Lundi au Mercredi : de 08h30 à 17h00\nLe Jeudi : de 08h30 à 19h30\nLe Vendredi : de 08h30 à 17h00\nLe Samedi : de 09h00 à 12h30\n\npour les déclarations de naissance et de décès.","latitude":48.87775,"longitude":2.317486,"website":"https://www.mairie08.paris.fr/","hasWebsite":true,"hasHoraires":true,"url":"https://lannuaire.service-public.gouv.fr/ile-de-france/paris/94bd581d-8494-4467-b375-55f916d0e079"}
{"nom":"Paris - 9e arrondissement","nomNormalise":"parisearrondissement","typeCollectivite":"Commune","region":"Île-de-France","departement":"Paris","departementCode":"75","adresse":{"street":"6 rue Drouot","postalCode":"75009","city":"Paris","country":"France"},"contacts":{"email":"","telephone":"0171377509"},"horaires":"Du Lundi au Mercredi : de 08h30 à 17h00\nLe Jeudi : de 08h30 à 19h30\nLe Vendredi : de 08h30 à 17h00\nLe Samedi : de 08h30 à 12h30\n\nUniquement pour déclarations de naissance ou de décès et reconnaissances de paternité.","latitude":48.872593,"longitude":2.340481,"website":"https://www.mairie09.paris.fr/","hasWebsite":true,"hasHoraires":true,"url":"https://lannuaire.service-public.gouv.fr/ile-de-france/paris/d7c1f15a-d319-4ba1-9101-211f96cf0f1d"}
{"nom":"Paris-Centre (1er, 2e, 3e 4e arrondissements)","nomNormalise":"pariscentreereeearrondissements","typeCollectivite":"Commune","region":"Île-de-France","departement":"Paris","departementCode":"75","adresse":{"street":"2 rue Eugène-Spuller","postalCode":"75003","city":"Paris","country":"France"},"contacts":{"email":"","telephone":"0187026100"},"horaires":"Du Lundi au Mercredi : de 08h30 à 17h00\n\nChaque 2ème mardi du mois, les services de la mairie sont fermés le matin jusqu'à 13h00.\nLe Jeudi : de 08h30 à 19h30\nLe Vendredi : de 08h30 à 17h00\nLe Samedi : de 09h00 à 12h30\n\nUniquement pour les déclarations de décès, naissances et reconnaissance d'enfants.","latitude":48.86393,"longitude":2.361638,"website":"https://mairiepariscentre.paris.fr/","hasWebsite":true,"hasHoraires":true,"url":"https://lannuaire.service-public.gouv.fr/ile-de-france/paris/31db3776-9b0b-4d49-b10e-7364d5835cee"}
{"nom":"Paris - Hôtel-de-Ville","nomNormalise":"parishoteldeville","typeCollectivite":"Commune","region":"Île-de-France","departement":"Paris","departementCode":"75","adresse":{"street":"29 rue de Rivoli","postalCode":"75004","city":"Paris","country":"France"},"contacts":{"email":"","telephone":"0142764040"},"horaires":"Du Lundi au Samedi : de 10h00 à 19h00","latitude":48.857018,"longitude":2.352848,"website":"https://www.paris.fr/","hasWebsite":true,"hasHoraires":true,"url":"https://lannuaire.service-public.gouv.fr/ile-de-france/paris/34506f20-cf20-4c08-a9de-e56e680aa5ec"}
