{"nom":"Ablis","nomNormalise":"ablis","typeCollectivite":"Commune","region":"Île-de-France","departement":"Yvelines","departementCode":"78","adresse":{"street":"8 rue de la Mairie","postalCode":"78660","city":"Ablis","country":"France"},"contacts":{"email":"mairie@ablis.fr","telephone":"0130460606"},"horaires":"Le Lundi : de 09h00 à 12h00 de 15h00 à 18h00\nLe Mardi : de 09h00 à 12h00 de 15h00 à 18h00\nLe Mercredi : de 09h00 à 12h00\nDu Jeudi au Vendredi : de 09h00 à 12h00 de 15h00 à 18h00\nLe Samedi : de 09h00 à 12h00","latitude":48.5172,"longitude":1.83281,"website":"http://www.ablis.fr/","hasWebsite":true,"hasHoraires":true,"url":"https://lannuaire.service-public.gouv.fr/ile-de-france/yvelines/c761b3fb-1ca7-4d30-bea4-6c81f7dd8030"}
{"nom":"Achères","nomNormalise":"acheres","typeCollectivite":"Commune","region":"Île-de-France","departement":"Yvelines","departementCode":"78","adresse":{"street":"6-8 rue Deschamps-Guérin","postalCode":"78260","city":"Achères","country":"France"},"contacts":{"email":"accueil@mairie-acheres78.fr","telephone":"0139796400"},"horaires":"Du Lundi au Mercredi : de 08h30 à 12h00 de 13h30 à 17h45\nLe Jeudi : de 08h30 à 12h00\nLe Vendredi : de 08h30 à 12h00 de 13h30 à 17h45\nLe Samedi : de 08h30 à 12h00\n\nAccueil ouvert uniquement pour l'état civil.","latitude":48.9607,"longitude":2.07027,"website":"https://mairie-acheres78.fr/","hasWebsite":true,"hasHoraires":true,"url":"https://lannuaire.service-public.gouv.fr/ile-de-france/yvelines/c4b18efd-8c40-4c17-9210-f87f7d105462"}
{"nom":"Adainville","nomNormalise":"adainville","typeCollectivite":"Commune","region":"Île-de-France","departement":"Yvelines","departementCode":"78","adresse":{"street":"1 Grande rue","postalCode":"78113","city":"Adainville","country":"France"},"contacts":{"email":"mairie@mairie-adainville.fr","telephone":"0134870324"},"horaires":"Le Lundi : de 14h00 à 17h00\nLe Mardi : de 14h00 à 19h00\nLe Jeudi : de 14h00 à 17h00\nLe Vendredi : de 14h00 à 16h00\nLe Samedi : de 10h00 à 12h00\n\nAccueil ouvert uniquement un samedi sur deux.","latitude":48.72277,"longitude":1.6531324,"website":"http://www.mairie-adainville.fr/","hasWebsite":true,"hasHoraires":true,"url":"https://lannuaire.service-public.gouv.fr/ile-de-france/yvelines/53fba667-2eb9-406e-bd80-e578096a2019"}
{"nom":"Aigremont","nomNormalise":"aigremont","typeCollectivite":"Commune","region":"Île-de-France","departement":"Yvelines","departementCode":"78","adresse":{"street":"5 place du Château","postalCode":"78240","city":"Aigremont","country":"France"},"contacts":{"email":"accueil@aigremont-78.fr","telephone":"0139653816"},"horaires":"Du Lundi au Mercredi : de 08h30 à 12h00\nLe Vendredi : de 08h30 à 12h00\nLe Samedi : de 09h30 à 12h00\nSur rendez-vous uniquement, l'après-midi (sauf le Jeudi et Samedi).","latitude":48.90212,"longitude":2.0181036,"website":"http://www.mairie-aigremont-78.fr/","hasWebsite":true,"hasHoraires":true,"url":"https://lannuaire.service-public.gouv.fr/ile-de-france/yvelines/fd43ff31-1fd2-439e-b1dc-81ea35c8a4fe"}
{"nom":"Allainville-aux-Bois","nomNormalise":"allainvilleauxbois","typeCollectivite":"Commune","region":"Île-de-France","departement":"Yvelines","departementCode":"78","adresse":{"street":"4 rue Michel-Chartier","postalCode":"78660","city":"Allainville-aux-Bois","country":"France"},"contacts":{"email":"mairie-dallainville2@wanadoo.fr","telephone":"0130590003"},"horaires":"Le Mardi : de 14h00 à 18h00\nLe Jeudi : de 14h00 à 18h00","latitude":48.4568,"longitude":1.89674,"website":"http://www.allainville-aux-bois.fr/","hasWebsite":true,"hasHoraires":true,"url":"https://lannuaire.service-public.gouv.fr/ile-de-france/yvelines/560f6020-e6c3-47c6-8f57-0abc83854072"}
{"nom":"Andelu","nomNormalise":"andelu","typeCollectivite":"Commune","region":"Île-de-France","departement":"Yvelines","departementCode":"78","adresse":{"street":"Place de la Mairie","postalCode":"78770","city":"Andelu","country":"France"},"contacts":{"email":"mairie78013@mairie-andelu78.fr","telephone":"0134874215"},"horaires":"Le Mardi : de 16h00 à 19h00\nLe Jeudi : de 16h00 à 18h00\nDu Vendredi au Samedi : de 10h00 à 12h00","latitude":48.8784,"longitude":1.82255,"website":"http://www.mairie-andelu78.fr/","hasWebsite":true,"hasHoraires":true,"url":"https://lannuaire.service-public.gouv.fr/ile-de-france/yvelines/d77c2578-1bb3-4a53-9ad9-07ac8ac4599e"}
{"nom":"Andrésy","nomNormalise":"andresy","typeCollectivite":"Commune","region":"Île-de-France","departement":"Yvelines","departementCode":"78","adresse":{"street":"Hôtel de Ville","postalCode":"78570","city":"Andrésy","country":"France"},"contacts":{"email":"mairie@andresy.com","telephone":"0139271100"},"horaires":"Du Lundi au Vendredi : de 08h45 à 12h00 de 13h30 à 17h15\nLe Samedi : de 08h45 à 12h00","latitude":48.9819,"longitude":2.06137,"website":"http://www.andresy.com/","hasWebsite":true,"hasHoraires":true,"url":"https://lannuaire.service-public.gouv.fr/ile-de-france/yvelines/846ef08d-f759-4383-aae4-0f712a727016"}
{"nom":"Arnouville-les-Mantes","nomNormalise":"arnouvillelesmantes","typeCollectivite":"Commune","region":"Île-de-France","departement":"Yvelines","departementCode":"78","adresse":{"street":"8 place de l'Église","postalCode":"78790","city":"Arnouville-les-Mantes","country":"France"},"contacts":{"email":"mairie.arnouville.les.mantes@wanadoo.fr","telephone":"0130426017"},"horaires":"Le Mercredi : de 15h00 à 18h00\nLe Vendredi : de 16h00 à 19h00\nLe Samedi : de 09h00 à 11h00","latitude":48.911076,"longitude":1.731183,"website":"http://www.arnouville-les-mantes.fr/","hasWebsite":true,"hasHoraires":true,"url":"https://lannuaire.service-public.gouv.fr/ile-de-france/yvelines/d82bdee0-f35d-40fe-8c44-3134bcc075dd"}
{"nom":"Aubergenville","nomNormalise":"aubergenville","typeCollectivite":"Commune","region":"Île-de-France","departement":"Yvelines","departementCode":"78","adresse":{"street":"1 avenue de la Division-Leclerc","postalCode":"78410","city":"Aubergenville Cedex","country":"France"},"contacts":{"email":"mairienet@aubergenville.fr","telephone":"0130904500"},"horaires":"Le Lundi : de 09h00 à 12h00 de 14h00 à 17h00\nLe Mardi : de 14h00 à 17h00\nDu Mercredi au Vendredi : de 09h00 à 12h00 de 14h00 à 17h00\nLe Samedi : de 09h00 à 12h00","latitude":48.9585,"longitude":1.85555,"website":"http://www.aubergenville.fr/","hasWebsite":true,"hasHoraires":true,"url":"https://lannuaire.service-public.gouv.fr/ile-de-france/yvelines/40035c8b-1e32-47d7-b908-52dc982494a7"}
{"nom":"Auffargis","nomNormalise":"auffargis","typeCollectivite":"Commune","region":"Île-de-France","departement":"Yvelines","departementCode":"78","adresse":{"street":"Place de la Mairie","postalCode":"78610","city":"Auffargis","country":"France"},"contacts":{"email":"affaires.generales@mairie-auffargis.com","telephone":"0134578620"},"horaires":"Le Lundi : de 08h30 à 12h00 de 14h00 à 17h30\nDu Mardi au Mercredi : de 08h30 à 12h00\nLe Jeudi : de 08h30 à 12h00 de 14h00 à 17h30\nLe Vendredi : de 08h30 à 12h00 de 14h00 à 16h30","latitude":48.7165,"longitude":1.89343,"website":"https://www.mairie-auffargis.com/","hasWebsite":true,"hasHoraires":true,"url":"https://lannuaire.service-public.gouv.fr/ile-de-france/yvelines/965b9dae-810b-458d-8829-e065a9c14dcb"}
{"nom":"Auffreville-Brasseuil","nomNormalise":"auffrevillebrasseuil","typeCollectivite":"Commune","region":"Île-de-France","departement":"Yvelines","departementCode":"78","adresse":{"street":"Rue du Village","postalCode":"78930","city":"Auffreville-Brasseuil","country":"France"},"contacts":{"email":"mairie@auffreville-brasseuil.fr","telephone":"0134771168"},"horaires":"Le Mardi : de 14h00 à 17h00\nLe Vendredi : de 14h00 à 19h00","latitude":48.9514,"longitude":1.7088,"website":"http://www.auffreville-brasseuil.fr/","hasWebsite":true,"hasHoraires":true,"url":"https://lannuaire.service-public.gouv.fr/ile-de-france/yvelines/c5e073ce-a853-4e5d-b47a-e85959069e7f"}
{"nom":"Aulnay-sur-Mauldre","nomNormalise":"aulnaysurmauldre","typeCollectivite":"Commune","region":"Île-de-France","departement":"Yvelines","departementCode":"78","adresse":{"street":"16 Grande rue","postalCode":"78126","city":"Aulnay-sur-Mauldre","country":"France"},"contacts":{"email":"viepratique@aulnay-sur-mauldre.fr","telephone":"0130908540"},"horaires":"Le Lundi : de 08h30 à 12h00 de 14h00 à 18h00\nDu Mardi au Jeudi : de 08h30 à 12h00\nLe Vendredi : de 08h30 à 12h00 de 14h00 à 17h00\nLe Samedi : de 09h30 à 12h00","latitude":48.929,"longitude":1.84367,"website":"https://aulnaysurmauldre.com/","hasWebsite":true,"hasHoraires":true,"url":"https://lannuaire.service-public.gouv.fr/ile-de-france/yvelines/2028a60f-1b43-45ab-b090-97e659d66e92"}
{"nom":"Auteuil-le-Roi","nomNormalise":"auteuilleroi","typeCollectivite":"Commune","region":"Île-de-France","departement":"Yvelines","departementCode":"78","adresse":{"street":"25 Grande-Rue","postalCode":"78770","city":"Auteuil","country":"France"},"contacts":{"email":"mairie.auteuil-le-roi@mairie-auteuil-le-roi.fr","telephone":"0134874315"},"horaires":"Le Mardi : de 16h00 à 19h00\nLe Jeudi : de 14h00 à 17h00","latitude":48.8406,"longitude":1.81897,"website":"http://www.mairie-auteuil-le-roi.fr/","hasWebsite":true,"hasHoraires":true,"url":"https://lannuaire.service-public.gouv.fr/ile-de-france/yvelines/30528f52-a094-46ee-bb5a-4e37a92d04ca"}
{"nom":"Autouillet","nomNormalise":"autouillet","typeCollectivite":"Commune","region":"Île-de-France","departement":"Yvelines","departementCode":"78","adresse":{"street":"33 route des Châteaux","postalCode":"78770","city":"Autouillet","country":"France"},"contacts":{"email":"mairie@autouillet.fr","telephone":"0134874359"},"horaires":"Le Mardi : de 11h00 à 12h00\nLe Jeudi : de 17h00 à 19h00\nLe Vendredi : de 11h00 à 12h00","latitude":48.8504,"longitude":1.80317,"website":"https://autouillet.fr/","hasWebsite":true,"hasHoraires":true,"url":"https://lannuaire.service-public.gouv.fr/ile-de-france/yvelines/d840597b-3190-421d-88a2-5f935da8d6c2"}
{"nom":"Bailly","nomNormalise":"bailly","typeCollectivite":"Commune","region":"Île-de-France","departement":"Yvelines","departementCode":"78","adresse":{"street":"1 rue des Chênes","postalCode":"78870","city":"Bailly","country":"France"},"contacts":{"email":"mairie@mairie-bailly.fr","telephone":"0130800755"},"horaires":"Du Lundi au Mercredi : de 09h00 à 12h00 de 14h00 à 17h00\nLe Jeudi : de 09h00 à 12h00\nLe Vendredi : de 09h00 à 12h00 de 14h00 à 17h00\nLe Samedi : de 09h00 à 12h00\n\nAccueil ouvert uniquement pour l'état civil.","latitude":48.83878,"longitude":2.078873,"website":"https://www.mairie-bailly.fr/","hasWebsite":true,"hasHoraires":true,"url":"https://lannuaire.service-public.gouv.fr/ile-de-france/yvelines/31dbb0db-68c5-4be5-b65b-76f07dc04833"}
{"nom":"Bazainville","nomNormalise":"bazainville","typeCollectivite":"Commune","region":"Île-de-France","departement":"Yvelines","departementCode":"78","adresse":{"street":"25 Grand'rue","postalCode":"78550","city":"Bazainville","country":"France"},"contacts":{"email":"mairie@mairie-bazainville.fr","telephone":"0134942929"},"horaires":"Le Lundi : de 08h30 à 11h30\nLe Mardi : de 14h00 à 17h30\nDu Mercredi au Jeudi : de 08h30 à 11h30\nLe Vendredi : de 14h00 à 17h30\nLe Samedi : de 08h30 à 11h30","latitude":48.8042,"longitude":1.666716,"website":"http://www.mairie-bazainville.fr/","hasWebsite":true,"hasHoraires":true,"url":"https://lannuaire.service-public.gouv.fr/ile-de-france/yvelines/762949f5-7e8d-4c2b-92c9-3927b5579cc2"}
{"nom":"Bazemont","nomNormalise":"bazemont","typeCollectivite":"Commune","region":"Île-de-France","departement":"Yvelines","departementCode":"78","adresse":{"street":"3 rue d'Aulnay","postalCode":"78580","city":"Bazemont","country":"France"},"contacts":{"email":"mairie.bazemont@orange.fr","telephone":"0130908314"},"horaires":"Le Lundi : de 09h00 à 12h00 de 13h30 à 17h00\nLe Mardi : de 13h30 à 17h00\nLe Jeudi : de 09h00 à 12h00 de 13h30 à 17h00\nLe Vendredi : de 13h30 à 17h00\nLe Samedi : de 08h30 à 11h30","latitude":48.9284,"longitude":1.86555,"website":"http://www.bazemont.fr/","hasWebsite":true,"hasHoraires":true,"url":"https://lannuaire.service-public.gouv.fr/ile-de-france/yvelines/484a9c9c-5c74-468a-8c1d-478a2cb1c099"}
{"nom":"Bazoches-sur-Guyonne","nomNormalise":"bazochessurguyonne","typeCollectivite":"Commune","region":"Île-de-France","departement":"Yvelines","departementCode":"78","adresse":{"street":"30 route de Chevreuse","postalCode":"78490","city":"Bazoches-sur-Guyonne","country":"France"},"contacts":{"email":"mairiebazoches@wanadoo.fr","telephone":"0134861153"},"horaires":"Le Lundi : de 10h00 à 12h00\nLe Jeudi : de 14h00 à 16h00","latitude":48.7788,"longitude":1.85764,"website":"https://www.bazoches-sur-guyonne.fr/","hasWebsite":true,"hasHoraires":true,"url":"https://lannuaire.service-public.gouv.fr/ile-de-france/yvelines/c7441370-9f1d-4997-8b29-44bed8bc0eda"}
{"nom":"Béhoust","nomNormalise":"behoust","typeCollectivite":"Commune","region":"Île-de-France","departement":"Yvelines","departementCode":"78","adresse":{"street":"1 place du Village","postalCode":"78910","city":"Béhoust","country":"France"},"contacts":{"email":"secretariat.behoust@orange.fr","telephone":"0134946770"},"horaires":"Le Mardi : de 17h30 à 19h00\nLe Samedi : de 10h00 à 12h00","latitude":48.830494,"longitude":1.721614,"website":"http://www.behoust.fr/","hasWebsite":true,"hasHoraires":true,"url":"https://lannuaire.service-public.gouv.fr/ile-de-france/yvelines/71edbb77-d7ff-42a8-bd36-c28135a28b96"}
{"nom":"Bennecourt","nomNormalise":"bennecourt","typeCollectivite":"Commune","region":"Île-de-France","departement":"Yvelines","departementCode":"78","adresse":{"street":"Rue de la Nourrée","postalCode":"78270","city":"Bennecourt","country":"France"},"contacts":{"email":"accueil@mairie-bennecourt.fr","telephone":"0130930423"},"horaires":"Du Lundi au Mardi : de 09h00 à 12h00 de 14h00 à 17h00\nLe Mercredi : de 09h00 à 12h00\nDu Jeudi au Vendredi : de 09h00 à 12h00 de 14h00 à 17h00","latitude":49.04165,"longitude":1.570715,"website":"https://www.mairie-bennecourt.fr/","hasWebsite":true,"hasHoraires":true,"url":"https://lannuaire.service-public.gouv.fr/ile-de-france/yvelines/f5cc22a5-75bc-43e2-9004-115e9a9a3d43"}
{"nom":"Beynes","nomNormalise":"beynes","typeCollectivite":"Commune","region":"Île-de-France","departement":"Yvelines","departementCode":"78","adresse":{"street":"Place du 8-Mai-1945","postalCode":"78650","city":"Beynes","country":"France"},"contacts":{"email":"mairie@beynes.fr","telephone":"0134910620"},"horaires":"Le Lundi : de 09h00 à 12h30 de 14h30 à 17h30\nLe Mardi : de 14h30 à 19h00\nDu Mercredi au Vendredi : de 09h00 à 12h30 de 14h30 à 17h30\nLe Samedi : de 09h00 à 12h00\nHoraires d'ouverture Mairie Annexe : centre commercial du val des 4 pignons - avenue du centre : du mardi au vendredi : de 9h00 à 12h30 le samedi : de 9h00 à 12h00 Fermeture pendant les vacances scolaires.","latitude":48.856285,"longitude":1.875862,"website":"https://beynes.fr/","hasWebsite":true,"hasHoraires":true,"url":"https://lannuaire.service-public.gouv.fr/ile-de-france/yvelines/30d2e77c-ef7c-47d5-8ec1-d6a6269088b5"}
{"nom":"Blaru","nomNormalise":"blaru","typeCollectivite":"Commune","region":"Île-de-France","departement":"Yvelines","departementCode":"78","adresse":{"street":"8 rue de Vernon","postalCode":"78270","city":"Blaru","country":"France"},"contacts":{"email":"ville.blaru@wanadoo.fr","telephone":"0134762106"},"horaires":"Du Lundi au Vendredi : de 09h00 à 12h00 de 14h00 à 17h30","latitude":49.04851,"longitude":1.478096,"website":"","hasWebsite":false,"hasHoraires":true,"url":"https://lannuaire.service-public.gouv.fr/ile-de-france/yvelines/82db40b4-60a6-41ac-835a-c4ffc5d46d89"}
{"nom":"Boinville-en-Mantois","nomNormalise":"boinvilleenmantois","typeCollectivite":"Commune","region":"Île-de-France","departement":"Yvelines","departementCode":"78","adresse":{"street":"2 rue du Clos-Doré","postalCode":"78930","city":"Boinville-en-Mantois","country":"France"},"contacts":{"email":"mairie@boinville-en-mantois.fr","telephone":"0130426394"},"horaires":"Le Mardi : de 18h00 à 19h30\nLe Vendredi : de 13h30 à 15h30","latitude":48.9295,"longitude":1.75668,"website":"https://boinville-en-mantois.fr/","hasWebsite":true,"hasHoraires":true,"url":"https://lannuaire.service-public.gouv.fr/ile-de-france/yvelines/88017b91-97a7-4e5d-bf2b-1a5f5ff86270"}
{"nom":"Boinville-le-Gaillard","nomNormalise":"boinvillelegaillard","typeCollectivite":"Commune","region":"Île-de-France","departement":"Yvelines","departementCode":"78","adresse":{"street":"4 place du Prieuré","postalCode":"78660","city":"Boinville-le-Gaillard","country":"France"},"contacts":{"email":"mairie@boinville-le-gaillard.fr","telephone":"0130591142"},"horaires":"Du Lundi au Mardi : de 14h00 à 17h00\nDu Jeudi au Vendredi : de 14h00 à 17h00\nEt sur rendez-vous le samedi matin.","latitude":48.49364,"longitude":1.871601,"website":"https://www.boinville-le-gaillard.fr/","hasWebsite":true,"hasHoraires":true,"url":"https://lannuaire.service-public.gouv.fr/ile-de-france/yvelines/e2d710f7-4730-48a3-b10e-522bc55c536a"}
{"nom":"Boinvilliers","nomNormalise":"boinvilliers","typeCollectivite":"Commune","region":"Île-de-France","departement":"Yvelines","departementCode":"78","adresse":{"street":"11 avenue du Vieux-Château","postalCode":"78200","city":"Boinvilliers","country":"France"},"contacts":{"email":"","telephone":"0134763094"},"horaires":"Le Mardi : de 09h30 à 12h00\nLe Jeudi : de 09h30 à 12h00 de 18h00 à 19h00","latitude":48.91793,"longitude":1.660761,"website":"http://www.boinvilliers.fr/","hasWebsite":true,"hasHoraires":true,"url":"https://lannuaire.service-public.gouv.fr/ile-de-france/yvelines/e08ab162-4680-4617-bbaa-493015077cfe"}
{"nom":"Bois-d'Arcy","nomNormalise":"boisdarcy","typeCollectivite":"Commune","region":"Île-de-France","departement":"Yvelines","departementCode":"78","adresse":{"street":"2 avenue Paul-Vaillant-Couturier","postalCode":"78390","city":"Bois-d'Arcy","country":"France"},"contacts":{"email":"mairie@boisdarcy.fr","telephone":"0130458383"},"horaires":"Du Lundi au Mercredi : de 08h30 à 12h00 de 13h30 à 17h30\nLe Jeudi : de 13h30 à 19h30\nLe Vendredi : de 08h30 à 12h00 de 13h30 à 17h30\nLe Samedi : de 08h30 à 12h00\n\nAccueil fermé de la mi-juillet à la mi-août.Contacter la mairie pour les dates exactes.","latitude":48.8008,"longitude":2.03105,"website":"http://www.boisdarcy.fr/","hasWebsite":true,"hasHoraires":true,"url":"https://lannuaire.service-public.gouv.fr/ile-de-france/yvelines/4c308ad7-e8d9-40f5-ba9f-bbb995a6514c"}
{"nom":"Boissets","nomNormalise":"boissets","typeCollectivite":"Commune","region":"Île-de-France","departement":"Yvelines","departementCode":"78","adresse":{"street":"Rue Bastanière","postalCode":"78910","city":"Boissets","country":"France"},"contacts":{"email":"mairie.boissets@boissets.fr","telephone":"0962248760"},"horaires":"Le Lundi : de 15h00 à 18h00\nLe Jeudi : de 09h00 à 12h00\nLe Samedi : de 10h00 à 12h00\n\nPermanence des élus tous les samedis de 11h à 12h. Accueil général ouvert uniquement le 4e samedi du mois de 10h à 12h.","latitude":48.86088,"longitude":1.580844,"website":"","hasWebsite":false,"hasHoraires":true,"url":"https://lannuaire.service-public.gouv.fr/ile-de-france/yvelines/4995d02e-2548-4742-8eea-b39f4831b35f"}
{"nom":"Boissy-Mauvoisin","nomNormalise":"boissymauvoisin","typeCollectivite":"Commune","region":"Île-de-France","departement":"Yvelines","departementCode":"78","adresse":{"street":"12 rue des Tilleuls","postalCode":"78200","city":"Boissy-Mauvoisin","country":"France"},"contacts":{"email":"boissy-mauvoisin@wanadoo.fr","telephone":"0134783348"},"horaires":"Le Lundi : de 15h00 à 18h00\nLe Mercredi : de 10h00 à 12h00\nLe Vendredi : de 10h00 à 12h00\nSur rendez-vous avec M. le Maire ou un élu","latitude":48.9649,"longitude":1.57989,"website":"http://www.boissy-mauvoisin.fr/","hasWebsite":true,"hasHoraires":true,"url":"https://lannuaire.service-public.gouv.fr/ile-de-france/yvelines/60eb6151-5819-4e03-a82a-b7750f660f9f"}
{"nom":"Boissy-sans-Avoir","nomNormalise":"boissysansavoir","typeCollectivite":"Commune","region":"Île-de-France","departement":"Yvelines","departementCode":"78","adresse":{"street":"20 rue de la Mairie","postalCode":"78490","city":"Boissy-sans-Avoir","country":"France"},"contacts":{"email":"mairie@boissy-sans-avoir.fr","telephone":"0134861305"},"horaires":"Le Mardi : de 10h00 à 12h00\nLe Jeudi : de 17h00 à 19h00\nPossibilité de RDV en dehors de ces horaires sur demande.","latitude":48.819427,"longitude":1.797295,"website":"https://boissy-sans-avoir.fr/","hasWebsite":true,"hasHoraires":true,"url":"https://lannuaire.service-public.gouv.fr/ile-de-france/yvelines/421144b4-3ae8-4df1-b7db-a6c892fe69bd"}
{"nom":"Bonnelles","nomNormalise":"bonnelles","typeCollectivite":"Commune","region":"Île-de-France","departement":"Yvelines","departementCode":"78","adresse":{"street":"22 rue de la Libération","postalCode":"78830","city":"Bonnelles","country":"France"},"contacts":{"email":"info@mairie-bonnelles.fr","telephone":"0130884730"},"horaires":"Du Lundi au Mardi : de 16h00 à 18h15\nDu Jeudi au Vendredi : de 16h00 à 18h15\nLe Samedi : de 09h00 à 11h45\nPermanence téléphonique les Lundi, Mardi, Jeudi et Vendredi de 09h00 à12h30 et de 14h00 à 18h30","latitude":48.61834,"longitude":2.028088,"website":"http://www.mairie-bonnelles.fr/","hasWebsite":true,"hasHoraires":true,"url":"https://lannuaire.service-public.gouv.fr/ile-de-france/yvelines/3821ebba-d838-43c4-8fd7-2bf2a109b587"}
{"nom":"Bonnières-sur-Seine","nomNormalise":"bonnieressurseine","typeCollectivite":"Commune","region":"Île-de-France","departement":"Yvelines","departementCode":"78","adresse":{"street":"7 rue Georges-Herrewyn","postalCode":"78270","city":"Bonnières-sur-Seine","country":"France"},"contacts":{"email":"accueil@bonnieres-sur-seine.com","telephone":"0130989850"},"horaires":"Le Lundi : de 08h30 à 12h00 de 13h00 à 17h00\nLe Mardi : de 08h30 à 12h00\nDu Mercredi au Vendredi : de 08h30 à 12h00 de 13h00 à 17h00\nLe Samedi : de 09h00 à 12h00","latitude":49.0371,"longitude":1.57877,"website":"http://www.bonnieres-sur-seine.fr/","hasWebsite":true,"hasHoraires":true,"url":"https://lannuaire.service-public.gouv.fr/ile-de-france/yvelines/1540d36b-c755-4f42-8229-e706fb5b2e73"}
{"nom":"Bouafle","nomNormalise":"bouafle","typeCollectivite":"Commune","region":"Île-de-France","departement":"Yvelines","departementCode":"78","adresse":{"street":"1 place Érambert","postalCode":"78410","city":"Bouafle","country":"France"},"contacts":{"email":"mairie@bouafle.fr","telephone":"0130955118"},"horaires":"Du Lundi au Mardi : de 09h00 à 12h00\nLe Mercredi : de 09h30 à 12h00 de 14h00 à 18h00\nDu Vendredi au Samedi : de 10h00 à 12h00","latitude":49.0004,"longitude":1.87896,"website":"http://www.bouafle.fr/","hasWebsite":true,"hasHoraires":true,"url":"https://lannuaire.service-public.gouv.fr/ile-de-france/yvelines/8b8c49c9-0b02-421a-af29-3dc8f9c12bf0"}
{"nom":"Bougival","nomNormalise":"bougival","typeCollectivite":"Commune","region":"Île-de-France","departement":"Yvelines","departementCode":"78","adresse":{"street":"126 rue du Maréchal-Joffre","postalCode":"78380","city":"Bougival","country":"France"},"contacts":{"email":"accueil.mairie@ville-bougival.fr","telephone":"0130782580"},"horaires":"Du Lundi au Mercredi : de 08h30 à 12h30 de 13h30 à 17h30\nLe Jeudi : de 13h00 à 20h00\nLe Vendredi : de 08h30 à 12h30 de 13h30 à 17h30\nLe Samedi : de 09h30 à 12h30","latitude":48.8609,"longitude":2.14006,"website":"https://www.ville-bougival.fr/","hasWebsite":true,"hasHoraires":true,"url":"https://lannuaire.service-public.gouv.fr/ile-de-france/yvelines/2fde7b8b-f320-4b4f-bb29-7903b593cea5"}
{"nom":"Bourdonné","nomNormalise":"bourdonne","typeCollectivite":"Commune","region":"Île-de-France","departement":"Yvelines","departementCode":"78","adresse":{"street":"Allée José-Maria-de-Heredia","postalCode":"78113","city":"Bourdonné","country":"France"},"contacts":{"email":"mairie.bourdonne@wanadoo.fr","telephone":"0134870016"},"horaires":"Du Lundi au Mardi : de 10h00 à 12h00\nLe Jeudi : de 17h00 à 19h00\nLe Samedi : de 11h00 à 12h00","latitude":48.7565,"longitude":1.66284,"website":"","hasWebsite":false,"hasHoraires":true,"url":"https://lannuaire.service-public.gouv.fr/ile-de-france/yvelines/d8827474-2743-43d6-8d0f-cc4c76732664"}
{"nom":"Breuil-Bois-Robert","nomNormalise":"breuilboisrobert","typeCollectivite":"Commune","region":"Île-de-France","departement":"Yvelines","departementCode":"78","adresse":{"street":"Rue de la Libération","postalCode":"78930","city":"Breuil-Bois-Robert","country":"France"},"contacts":{"email":"mairie@breuil-bois-robert.fr","telephone":"0130426235"},"horaires":"Le Mardi : de 16h30 à 19h00\nLe Jeudi : de 15h30 à 18h00\nLe Samedi : de 10h00 à 12h00","latitude":48.9453,"longitude":1.71209,"website":"https://www.breuil-bois-robert.fr/","hasWebsite":true,"hasHoraires":true,"url":"https://lannuaire.service-public.gouv.fr/ile-de-france/yvelines/be413ab8-7ac4-4fd2-9edb-f282d2ea2171"}
{"nom":"Bréval","nomNormalise":"breval","typeCollectivite":"Commune","region":"Île-de-France","departement":"Yvelines","departementCode":"78","adresse":{"street":"3 place du Maréchal-Leclerc","postalCode":"78980","city":"Bréval","country":"France"},"contacts":{"email":"accueil@mairie-breval78.fr","telephone":"0134979090"},"horaires":"Le Lundi : de 08h30 à 12h00\nDu Jeudi au Vendredi : de 08h30 à 12h00\nLe premier samedi de chaque mois de 8h30 à 12h.","latitude":48.944603,"longitude":1.533967,"website":"https://www.mairie-breval.fr/","hasWebsite":true,"hasHoraires":true,"url":"https://lannuaire.service-public.gouv.fr/ile-de-france/yvelines/3f810a28-bfd7-43d7-bdb7-cf828c86baf0"}
{"nom":"Brueil-en-Vexin","nomNormalise":"brueilenvexin","typeCollectivite":"Commune","region":"Île-de-France","departement":"Yvelines","departementCode":"78","adresse":{"street":"14 rue de l'Église","postalCode":"78440","city":"Brueil-en-Vexin","country":"France"},"contacts":{"email":"mairie@brueil-en-vexin.fr","telephone":"0134753720"},"horaires":"Le Lundi : de 08h30 à 12h00\nLe Mardi : de 14h00 à 18h00\nLe Jeudi : de 08h30 à 12h00\nLe Vendredi : de 14h00 à 18h00","latitude":49.03004,"longitude":1.816391,"website":"https://www.brueil-en-vexin.fr/","hasWebsite":true,"hasHoraires":true,"url":"https://lannuaire.service-public.gouv.fr/ile-de-france/yvelines/580086b8-0ac6-4ad3-b2d5-731c2bb630d3"}
{"nom":"Buc","nomNormalise":"buc","typeCollectivite":"Commune","region":"Île-de-France","departement":"Yvelines","departementCode":"78","adresse":{"street":"3 rue des Frères-Robin","postalCode":"78530","city":"Buc","country":"France"},"contacts":{"email":"mairie@mairie-buc.fr","telephone":"0139207200"},"horaires":"Le Lundi : de 08h30 à 12h00 de 13h00 à 17h00\nLe Mardi : de 13h00 à 17h00\nLe Mercredi : de 08h30 à 12h00 de 13h00 à 17h00\nLe Jeudi : de 13h30 à 20h00\nLe Vendredi : de 13h00 à 16h30","latitude":48.774242,"longitude":2.1258,"website":"https://www.villedebuc.fr/","hasWebsite":true,"hasHoraires":true,"url":"https://lannuaire.service-public.gouv.fr/ile-de-france/yvelines/15014a6f-c392-47b4-bba5-ecd9ddd76801"}
{"nom":"Buchelay","nomNormalise":"buchelay","typeCollectivite":"Commune","region":"Île-de-France","departement":"Yvelines","departementCode":"78","adresse":{"street":"1 rue Gabriel-Péri","postalCode":"78200","city":"Buchelay","country":"France"},"contacts":{"email":"contact@buchelay.fr","telephone":"0130981078"},"horaires":"Du Lundi au Vendredi : de 08h30 à 12h00 de 13h30 à 17h30","latitude":48.980103,"longitude":1.6711235,"website":"http://www.buchelay.fr/","hasWebsite":true,"hasHoraires":true,"url":"https://lannuaire.service-public.gouv.fr/ile-de-france/yvelines/65308127-eba2-4786-a744-8a5594b79343"}
{"nom":"Bullion","nomNormalise":"bullion","typeCollectivite":"Commune","region":"Île-de-France","departement":"Yvelines","departementCode":"78","adresse":{"street":"149 rue de Guette","postalCode":"78830","city":"Bullion","country":"France"},"contacts":{"email":"mairie@bullion.fr","telephone":"0130413020"},"horaires":"Du Lundi au Mardi : de 11h00 à 12h00 de 16h00 à 18h00\nDu Jeudi au Vendredi : de 11h00 à 12h00 de 16h00 à 18h00\nLe Samedi : de 08h30 à 12h00","latitude":48.6206,"longitude":1.99891,"website":"https://www.bullion.fr/","hasWebsite":true,"hasHoraires":true,"url":"https://lannuaire.service-public.gouv.fr/ile-de-france/yvelines/3ab88809-2f11-4c6e-8d66-f12d3efa512d"}
{"nom":"Carrières-sous-Poissy","nomNormalise":"carrieressouspoissy","typeCollectivite":"Commune","region":"Île-de-France","departement":"Yvelines","departementCode":"78","adresse":{"street":"1 place Saint-Blaise","postalCode":"78955","city":"Carrières-sous-Poissy","country":"France"},"contacts":{"email":"mairie@carrieres-sous-poissy.fr","telephone":"0139223600"},"horaires":"Le Lundi : de 08h30 à 12h00 de 13h45 à 17h30\nLe Mardi : de 08h30 à 12h00\nLe Mercredi : de 08h30 à 12h00 de 13h45 à 19h00\nDu Jeudi au Vendredi : de 08h30 à 12h00 de 13h45 à 17h30\nLe Samedi : de 08h30 à 12h00","latitude":48.950867,"longitude":2.038692,"website":"http://www.carrieres-sous-poissy.fr/","hasWebsite":true,"hasHoraires":true,"url":"https://lannuaire.service-public.gouv.fr/ile-de-france/yvelines/f27a2dca-5d66-4680-b5d1-2ea501e4b6f2"}
{"nom":"Carrières-sur-Seine","nomNormalise":"carrieressurseine","typeCollectivite":"Commune","region":"Île-de-France","departement":"Yvelines","departementCode":"78","adresse":{"street":"1 rue Victor-Hugo","postalCode":"78420","city":"Carrières-sur-Seine","country":"France"},"contacts":{"email":"mairie@carrieres-sur-seine.fr","telephone":"0130868989"},"horaires":"Du Lundi au Vendredi : de 08h30 à 12h00 de 13h30 à 17h00","latitude":48.9061,"longitude":2.17596,"website":"http://www.carrieres-sur-seine.fr/","hasWebsite":true,"hasHoraires":true,"url":"https://lannuaire.service-public.gouv.fr/ile-de-france/yvelines/d380a978-e8a0-4944-8d16-5158e685699a"}
{"nom":"Cernay-la-Ville","nomNormalise":"cernaylaville","typeCollectivite":"Commune","region":"Île-de-France","departement":"Yvelines","departementCode":"78","adresse":{"street":"2 rue de l'Église","postalCode":"78720","city":"Cernay-la-Ville","country":"France"},"contacts":{"email":"mairie.secretariat@cernaylaville.net","telephone":"0134852135"},"horaires":"Du Lundi au Mardi : de 09h00 à 12h00 de 17h00 à 18h00\nLe Mercredi : de 09h00 à 12h00\nLe Jeudi : de 09h00 à 12h00 de 17h00 à 18h00\nLe Samedi : de 09h00 à 12h00","latitude":48.6729,"longitude":1.97162,"website":"http://www.cernaylaville.fr/","hasWebsite":true,"hasHoraires":true,"url":"https://lannuaire.service-public.gouv.fr/ile-de-france/yvelines/1d088e28-37a9-444d-a674-5cc697803248"}
{"nom":"Chambourcy","nomNormalise":"chambourcy","typeCollectivite":"Commune","region":"Île-de-France","departement":"Yvelines","departementCode":"78","adresse":{"street":"Place Charles-de-Gaulle","postalCode":"78240","city":"Chambourcy","country":"France"},"contacts":{"email":"mairie@chambourcy.fr","telephone":"0139223131"},"horaires":"Le Lundi : de 13h30 à 18h00\nDu Mardi au Vendredi : de 08h30 à 12h00 de 13h30 à 17h30\nLe Samedi : de 08h30 à 12h00\n\nPermanence de l'état civil et urbanisme uniquement.","latitude":48.905914,"longitude":2.0395834,"website":"http://www.chambourcy.fr/","hasWebsite":true,"hasHoraires":true,"url":"https://lannuaire.service-public.gouv.fr/ile-de-france/yvelines/6e50761d-0996-413e-ab28-794008c2b905"}
{"nom":"Chanteloup-les-Vignes","nomNormalise":"chantelouplesvignes","typeCollectivite":"Commune","region":"Île-de-France","departement":"Yvelines","departementCode":"78","adresse":{"street":"37 rue du Général-Leclerc","postalCode":"78570","city":"Chanteloup-les-Vignes","country":"France"},"contacts":{"email":"mairie@chanteloup-les-vignes.fr","telephone":"0134011050"},"horaires":"Du Lundi au Vendredi : de 09h00 à 12h00 de 13h30 à 18h00\nLe Samedi : de 09h00 à 12h00\n\nAccueil ouvert uniquement pour l'état civil et seulement les 1er et 4e samedis du mois.","latitude":48.97891,"longitude":2.0304751,"website":"http://www.chanteloup-les-vignes.fr/","hasWebsite":true,"hasHoraires":true,"url":"https://lannuaire.service-public.gouv.fr/ile-de-france/yvelines/6b11706c-54b7-4519-925b-4bb6403d6380"}
{"nom":"Chapet","nomNormalise":"chapet","typeCollectivite":"Commune","region":"Île-de-France","departement":"Yvelines","departementCode":"78","adresse":{"street":"Place de la Mairie","postalCode":"78130","city":"Chapet","country":"France"},"contacts":{"email":"mairie@chapet.com","telephone":"0134745115"},"horaires":"Le Mardi : de 09h00 à 12h00\nLe Mercredi : de 09h00 à 12h00 de 13h30 à 17h00\nLe Vendredi : de 09h00 à 12h00","latitude":48.9658,"longitude":1.9343998,"website":"https://www.chapet.fr/","hasWebsite":true,"hasHoraires":true,"url":"https://lannuaire.service-public.gouv.fr/ile-de-france/yvelines/491f61ee-5180-477b-b86d-f7656a8b22b9"}
{"nom":"Châteaufort","nomNormalise":"chateaufort","typeCollectivite":"Commune","region":"Île-de-France","departement":"Yvelines","departementCode":"78","adresse":{"street":"19 place Saint-Christophe","postalCode":"78117","city":"Châteaufort","country":"France"},"contacts":{"email":"accueil@mairie-chateaufort78.fr","telephone":"0139567676"},"horaires":"Le Lundi : de 10h00 à 12h00 de 14h00 à 17h00\nLe Mardi : de 10h00 à 12h00 de 14h00 à 19h00\nLe Mercredi : de 10h00 à 12h00 de 14h00 à 17h00\nLe Jeudi : de 10h00 à 12h00\nLe Vendredi : de 10h00 à 12h00 de 14h00 à 17h00\nLe Samedi : de 10h00 à 12h00\n\nOuvert un samedi sur 2","latitude":48.73716,"longitude":2.092082,"website":"https://www.mairie-chateaufort78.fr/accueil.php","hasWebsite":true,"hasHoraires":true,"url":"https://lannuaire.service-public.gouv.fr/ile-de-france/yvelines/80b3dde3-01fe-4d93-8701-3629d0e1d412"}
{"nom":"Chatou","nomNormalise":"chatou","typeCollectivite":"Commune","region":"Île-de-France","departement":"Yvelines","departementCode":"78","adresse":{"street":"Hôtel de Ville","postalCode":"78401","city":"Chatou Cedex","country":"France"},"contacts":{"email":"mairie@mairie-chatou.fr","telephone":"0134804600"},"horaires":"Du Lundi au Vendredi : de 08h00 à 12h00 de 14h00 à 17h30\n\nAccueil fermé à 16h45 pendant les vacances scolaires.\nLe Samedi : de 08h15 à 11h45\n\nAccueil ouvert uniquement pour l'état civil et l'urbanisme.","latitude":48.89,"longitude":2.15764,"website":"https://www.chatou.fr/","hasWebsite":true,"hasHoraires":true,"url":"https://lannuaire.service-public.gouv.fr/ile-de-france/yvelines/bd690a8a-350f-4107-936f-20166aa9314a"}
{"nom":"Chaufour-lès-Bonnières","nomNormalise":"chaufourlesbonnieres","typeCollectivite":"Commune","region":"Île-de-France","departement":"Yvelines","departementCode":"78","adresse":{"street":"13 rue de la Mairie","postalCode":"78270","city":"Chaufour-lès-Bonnières","country":"France"},"contacts":{"email":"mairie@chaufourlesbonnieres.fr","telephone":"0134761170"},"horaires":"Le Mardi : de 17h30 à 19h00\nLe Vendredi : de 17h30 à 19h00","latitude":49.015667,"longitude":1.483446,"website":"http://www.chaufourlesbonnieres.fr/","hasWebsite":true,"hasHoraires":true,"url":"https://lannuaire.service-public.gouv.fr/ile-de-france/yvelines/3504a2f0-a64e-4a87-a8e4-e0c11a339d3d"}
{"nom":"Chavenay","nomNormalise":"chavenay","typeCollectivite":"Commune","region":"Île-de-France","departement":"Yvelines","departementCode":"78","adresse":{"street":"Place de l'Église","postalCode":"78450","city":"Chavenay","country":"France"},"contacts":{"email":"mairie@chavenay.fr","telephone":"0130543170"},"horaires":"Du Lundi au Mardi : de 14h00 à 17h30\nLe Mercredi : de 08h30 à 12h00\nDu Jeudi au Vendredi : de 14h00 à 17h30","latitude":48.8533,"longitude":1.98676,"website":"http://www.chavenay.fr/","hasWebsite":true,"hasHoraires":true,"url":"https://lannuaire.service-public.gouv.fr/ile-de-france/yvelines/a49939aa-bb42-4de2-a0c4-8d10af90392b"}
{"nom":"Chevreuse","nomNormalise":"chevreuse","typeCollectivite":"Commune","region":"Île-de-France","departement":"Yvelines","departementCode":"78","adresse":{"street":"5 rue de la Division-Leclerc","postalCode":"78460","city":"Chevreuse","country":"France"},"contacts":{"email":"mairie@chevreuse.fr","telephone":"0130521530"},"horaires":"Le Lundi : de 08h30 à 12h00\nLe Mardi : de 08h30 à 12h00 de 13h30 à 18h00\nLe Mercredi : de 08h30 à 12h00\nLe Jeudi : de 08h30 à 12h00 de 13h30 à 18h00\nLe Vendredi : de 08h30 à 12h00 de 13h30 à 17h00\nLe Samedi : de 09h00 à 12h00\n\nAccueil ouvert uniquement pour l'état civil et consulter le site internet pour connaître les dates d'ouverture pour le samedi.","latitude":48.7075,"longitude":2.0445,"website":"http://www.chevreuse.fr/","hasWebsite":true,"hasHoraires":true,"url":"https://lannuaire.service-public.gouv.fr/ile-de-france/yvelines/d1804ec2-17e8-4cb4-89c1-a892056f621a"}
{"nom":"Choisel","nomNormalise":"choisel","typeCollectivite":"Commune","region":"Île-de-France","departement":"Yvelines","departementCode":"78","adresse":{"street":"1 route de la Grange-aux-Moines","postalCode":"78460","city":"Choisel","country":"France"},"contacts":{"email":"mairie.choisel@wanadoo.fr","telephone":"0130524215"},"horaires":"Du Lundi au Mardi : de 14h00 à 19h00\nLe Mercredi : de 14h00 à 17h00\nDu Jeudi au Vendredi : de 14h00 à 19h00","latitude":48.686672,"longitude":2.017795,"website":"http://www.choisel.fr/","hasWebsite":true,"hasHoraires":true,"url":"https://lannuaire.service-public.gouv.fr/ile-de-france/yvelines/d75be620-16e0-4ca6-9f75-7a5b9494c84e"}
{"nom":"Civry-la-Forêt","nomNormalise":"civrylaforet","typeCollectivite":"Commune","region":"Île-de-France","departement":"Yvelines","departementCode":"78","adresse":{"street":"564 Grande rue","postalCode":"78910","city":"Civry-la-Forêt","country":"France"},"contacts":{"email":"mairie.civrylaforet@gmail.com","telephone":"0134877127"},"horaires":"Le Mardi : de 10h00 à 12h00\nLe Vendredi : de 18h00 à 20h00","latitude":48.86691,"longitude":1.615347,"website":"","hasWebsite":false,"hasHoraires":true,"url":"https://lannuaire.service-public.gouv.fr/ile-de-france/yvelines/fea18190-a279-413c-8cab-7d95d44f964e"}
{"nom":"Clairefontaine-en-Yvelines","nomNormalise":"clairefontaineenyvelines","typeCollectivite":"Commune","region":"Île-de-France","departement":"Yvelines","departementCode":"78","adresse":{"street":"1 place de la Mairie","postalCode":"78120","city":"Clairefontaine-en-Yvelines","country":"France"},"contacts":{"email":"mairie@clairefontaine-yvelines.fr","telephone":"0134845068"},"horaires":"Du Lundi au Mardi : de 09h00 à 12h00\nDu Jeudi au Vendredi : de 09h00 à 12h00\nLe Samedi : de 10h00 à 12h00\n\nouvert 2 samedis par mois","latitude":48.612434,"longitude":1.909681,"website":"http://www.clairefontaine-en-yvelines.fr/","hasWebsite":true,"hasHoraires":true,"url":"https://lannuaire.service-public.gouv.fr/ile-de-france/yvelines/a292c784-f9db-4c0a-86bf-21b9e20c9ed7"}
{"nom":"Coignières","nomNormalise":"coignieres","typeCollectivite":"Commune","region":"Île-de-France","departement":"Yvelines","departementCode":"78","adresse":{"street":"Place de l'Église-Saint-Germain-d'Auxerre","postalCode":"78310","city":"Coignières","country":"France"},"contacts":{"email":"accueil@coignieres.fr","telephone":"0130131777"},"horaires":"Du Lundi au Mardi : de 08h30 à 12h00 de 13h45 à 17h00\nLe Mercredi : de 14h00 à 20h00\nDu Jeudi au Vendredi : de 08h30 à 12h00 de 13h45 à 17h00","latitude":48.7472,"longitude":1.9178156,"website":"http://www.coignieres.fr/","hasWebsite":true,"hasHoraires":true,"url":"https://lannuaire.service-public.gouv.fr/ile-de-france/yvelines/db64cb80-fff7-4756-96df-f916f4b9fc3b"}
{"nom":"Condé-sur-Vesgre","nomNormalise":"condesurvesgre","typeCollectivite":"Commune","region":"Île-de-France","departement":"Yvelines","departementCode":"78","adresse":{"street":"37 rue de la Vesgre","postalCode":"78113","city":"Condé-sur-Vesgre","country":"France"},"contacts":{"email":"mairie-condesurvesgre@wanadoo.fr","telephone":"0134870430"},"horaires":"Le Lundi : de 09h30 à 11h30 de 14h30 à 18h30\nLe Mardi : de 09h30 à 11h30 de 15h00 à 17h00\nLe Mercredi : de 09h00 à 12h00\nLe Jeudi : de 09h30 à 11h30 de 14h30 à 18h30\nLe Vendredi : de 09h30 à 11h30 de 15h00 à 17h00\nLe Samedi : de 09h00 à 12h00","latitude":48.7414,"longitude":1.66142,"website":"http://www.mairie-condesurvesgre.fr/","hasWebsite":true,"hasHoraires":true,"url":"https://lannuaire.service-public.gouv.fr/ile-de-france/yvelines/c6684708-a0bb-49bc-88ef-2f31faf40d0c"}
{"nom":"Conflans-Sainte-Honorine","nomNormalise":"conflanssaintehonorine","typeCollectivite":"Commune","region":"Île-de-France","departement":"Yvelines","departementCode":"78","adresse":{"street":"63 rue Maurice-Berteaux","postalCode":"78700","city":"Conflans-Sainte-Honorine","country":"France"},"contacts":{"email":"ville@mairie-conflans.fr","telephone":"0134908989"},"horaires":"Du Lundi au Mercredi : de 09h00 à 12h00 de 13h30 à 17h30\nLe Jeudi : de 13h30 à 17h30\nLe Vendredi : de 09h00 à 12h00 de 13h30 à 17h30\nLe Samedi : de 09h00 à 13h00","latitude":48.993687,"longitude":2.094956,"website":"https://www.conflans-sainte-honorine.fr/","hasWebsite":true,"hasHoraires":true,"url":"https://lannuaire.service-public.gouv.fr/ile-de-france/yvelines/37d78eee-dbb1-4e24-87bf-a39473aceb46"}
{"nom":"Courgent","nomNormalise":"courgent","typeCollectivite":"Commune","region":"Île-de-France","departement":"Yvelines","departementCode":"78","adresse":{"street":"Rue du Bois-l'Aîné","postalCode":"78790","city":"Courgent","country":"France"},"contacts":{"email":"mairie.courgent@wanadoo.fr","telephone":"0130934190"},"horaires":"Le Lundi : de 15h00 à 17h30\nLe Mardi : de 09h00 à 12h00\nLe Vendredi : de 10h00 à 12h00\nLe Samedi : de 09h30 à 12h00","latitude":48.89168,"longitude":1.663366,"website":"https://lapagelocale.fr/78790-courgent","hasWebsite":true,"hasHoraires":true,"url":"https://lannuaire.service-public.gouv.fr/ile-de-france/yvelines/08340378-bc3d-415e-b2f2-64deeed952c3"}
{"nom":"Cravent","nomNormalise":"cravent","typeCollectivite":"Commune","region":"Île-de-France","departement":"Yvelines","departementCode":"78","adresse":{"street":"25 rue André-Mojard","postalCode":"78270","city":"Cravent","country":"France"},"contacts":{"email":"secretariat@mairie-cravent.fr","telephone":"0134761169"},"horaires":"Le Mardi : de 16h00 à 18h30\nLe Vendredi : de 16h00 à 18h30","latitude":48.990738,"longitude":1.4904764,"website":"","hasWebsite":false,"hasHoraires":true,"url":"https://lannuaire.service-public.gouv.fr/ile-de-france/yvelines/b4ef0b4c-2b59-4d4b-a107-7342ae0f6cc0"}
{"nom":"Crespières","nomNormalise":"crespieres","typeCollectivite":"Commune","region":"Île-de-France","departement":"Yvelines","departementCode":"78","adresse":{"street":"Place de l'Église","postalCode":"78121","city":"Crespières","country":"France"},"contacts":{"email":"accueil@crespieres.fr","telephone":"0130544412"},"horaires":"Du Mardi au Mercredi : de 09h00 à 11h30 de 14h30 à 17h00\nLe Jeudi : de 14h30 à 17h00\nLe Vendredi : de 09h00 à 11h30 de 14h30 à 17h00\nLe Samedi : de 09h00 à 12h00","latitude":48.880905,"longitude":1.918497,"website":"http://www.crespieres.fr/","hasWebsite":true,"hasHoraires":true,"url":"https://lannuaire.service-public.gouv.fr/ile-de-france/yvelines/325db587-cd65-4d3b-916b-970544afde0f"}
{"nom":"Croissy-sur-Seine","nomNormalise":"croissysurseine","typeCollectivite":"Commune","region":"Île-de-France","departement":"Yvelines","departementCode":"78","adresse":{"street":"8 avenue de Verdun","postalCode":"78290","city":"Croissy-sur-Seine","country":"France"},"contacts":{"email":"accueil@croissy.com","telephone":"0130093100"},"horaires":"Du Lundi au Vendredi : de 08h30 à 12h00 de 13h30 à 17h00","latitude":48.88018,"longitude":2.1476333,"website":"http://www.croissy.com/","hasWebsite":true,"hasHoraires":true,"url":"https://lannuaire.service-public.gouv.fr/ile-de-france/yvelines/94e55aab-e069-405b-a796-177bfbff42ad"}
{"nom":"Dammartin-en-Serve","nomNormalise":"dammartinenserve","typeCollectivite":"Commune","region":"Île-de-France","departement":"Yvelines","departementCode":"78","adresse":{"street":"1 place de la Libération","postalCode":"78111","city":"Dammartin-en-Serve","country":"France"},"contacts":{"email":"mairie.dammartin-en-serve@wanadoo.fr","telephone":"0130425136"},"horaires":"Le Lundi : de 10h00 à 12h00\nLe Mardi : de 16h30 à 19h00\nLe Jeudi : de 10h00 à 12h00\nLe Vendredi : de 14h00 à 18h00\nLe Samedi : de 10h00 à 12h00","latitude":48.902958,"longitude":1.618555,"website":"http://www.dammartin-en-serve.fr/","hasWebsite":true,"hasHoraires":true,"url":"https://lannuaire.service-public.gouv.fr/ile-de-france/yvelines/f1b441c8-6451-4c11-853e-276e09e92405"}
{"nom":"Dampierre-en-Yvelines","nomNormalise":"dampierreenyvelines","typeCollectivite":"Commune","region":"Île-de-France","departement":"Yvelines","departementCode":"78","adresse":{"street":"9 Grande rue","postalCode":"78720","city":"Dampierre-en-Yvelines","country":"France"},"contacts":{"email":"secretariat@mairie-dampierre-yvelines.fr","telephone":"0130525370"},"horaires":"Le Mardi : de 16h00 à 19h00\nLe Vendredi : de 16h00 à 19h00","latitude":48.705,"longitude":1.98592,"website":"http://www.mairie-dampierre-yvelines.fr/","hasWebsite":true,"hasHoraires":true,"url":"https://lannuaire.service-public.gouv.fr/ile-de-france/yvelines/0a776682-9b6a-4aef-b006-60ce1e5a7c0a"}
{"nom":"Dannemarie","nomNormalise":"dannemarie","typeCollectivite":"Commune","region":"Île-de-France","departement":"Yvelines","departementCode":"78","adresse":{"street":"Rue de la Mairie","postalCode":"78550","city":"Dannemarie","country":"France"},"contacts":{"email":"commune-dannemarie@wanadoo.fr","telephone":"0130596423"},"horaires":"Le Mardi : de 17h00 à 19h00\nLe Mercredi : de 11h00 à 12h00\nLe Samedi : de 11h00 à 12h00","latitude":48.764076,"longitude":1.6061044,"website":"","hasWebsite":false,"hasHoraires":true,"url":"https://lannuaire.service-public.gouv.fr/ile-de-france/yvelines/baae16b5-1636-4446-bc18-f58916066665"}
{"nom":"Davron","nomNormalise":"davron","typeCollectivite":"Commune","region":"Île-de-France","departement":"Yvelines","departementCode":"78","adresse":{"street":"4 bis rue Saint-Jacques","postalCode":"78810","city":"Davron","country":"France"},"contacts":{"email":"mairie@davron.fr","telephone":"0130544714"},"horaires":"Le Lundi : de 09h00 à 12h00 de 14h00 à 16h00\nDu Mardi au Mercredi : de 09h00 à 12h00\nLe Jeudi : de 09h00 à 12h00 de 14h00 à 16h00\nLe Vendredi : de 09h00 à 12h00\nLe Samedi : de 10h00 à 12h00","latitude":48.8643,"longitude":1.94571,"website":"http://www.davron.fr/","hasWebsite":true,"hasHoraires":true,"url":"https://lannuaire.service-public.gouv.fr/ile-de-france/yvelines/4d3f7173-2d29-48fc-bb11-177bb941aaad"}
{"nom":"Drocourt","nomNormalise":"drocourt","typeCollectivite":"Commune","region":"Île-de-France","departement":"Yvelines","departementCode":"78","adresse":{"street":"1 rue du Gué","postalCode":"78440","city":"Drocourt","country":"France"},"contacts":{"email":"dgs@drocourt78.fr","telephone":"0134767157"},"horaires":"Le Lundi : de 16h30 à 19h00\nLe Mercredi : de 09h30 à 12h00\nLe Vendredi : de 16h30 à 19h00\nLe Samedi : de 09h30 à 12h00","latitude":49.0571,"longitude":1.77038,"website":"http://www.drocourt78.fr/","hasWebsite":true,"hasHoraires":true,"url":"https://lannuaire.service-public.gouv.fr/ile-de-france/yvelines/d10004e7-4fa4-4e16-90ea-c07739d8bd42"}
{"nom":"Ecquevilly","nomNormalise":"ecquevilly","typeCollectivite":"Commune","region":"Île-de-France","departement":"Yvelines","departementCode":"78","adresse":{"street":"1 place Henry-Deutsch-de-la-Meurthe","postalCode":"78920","city":"Ecquevilly","country":"France"},"contacts":{"email":"info@ville-ecquevilly.fr","telephone":"0134750101"},"horaires":"Le Lundi : de 14h00 à 17h30\nDu Mardi au Vendredi : de 09h00 à 12h00 de 14h00 à 17h30\nLe Samedi : de 09h00 à 12h00","latitude":48.949062,"longitude":1.924218,"website":"https://www.ville-ecquevilly.fr/","hasWebsite":true,"hasHoraires":true,"url":"https://lannuaire.service-public.gouv.fr/ile-de-france/yvelines/d6ed4193-d75a-4036-834b-497f16394f94"}
{"nom":"Élancourt","nomNormalise":"elancourt","typeCollectivite":"Commune","region":"Île-de-France","departement":"Yvelines","departementCode":"78","adresse":{"street":"Place du Général-de-Gaulle","postalCode":"78990","city":"Élancourt","country":"France"},"contacts":{"email":"contact@ville-elancourt.fr","telephone":"0130664444"},"horaires":"Le Lundi : de 13h30 à 17h30\nLe Mardi : de 09h00 à 12h00 de 13h30 à 17h30\nLe Mercredi : de 13h30 à 19h00\nDu Jeudi au Vendredi : de 09h00 à 12h00 de 13h30 à 17h30\nLe Samedi : de 09h00 à 12h00\n\nAccueil fermé pendant les congés scolaires.","latitude":48.7682,"longitude":1.948041,"website":"https://elancourt.fr/","hasWebsite":true,"hasHoraires":true,"url":"https://lannuaire.service-public.gouv.fr/ile-de-france/yvelines/3e31faaa-5705-4a32-b262-7a1705136687"}
{"nom":"Émancé","nomNormalise":"emance","typeCollectivite":"Commune","region":"Île-de-France","departement":"Yvelines","departementCode":"78","adresse":{"street":"Place de la Mairie","postalCode":"78125","city":"Émancé","country":"France"},"contacts":{"email":"mairie.emance@orange.fr","telephone":"0134859209"},"horaires":"Le Lundi : de 14h30 à 17h30\nLe Jeudi : de 14h30 à 17h30\nLe Samedi : de 09h00 à 11h30","latitude":48.588676,"longitude":1.729951,"website":"https://www.emance.fr/","hasWebsite":true,"hasHoraires":true,"url":"https://lannuaire.service-public.gouv.fr/ile-de-france/yvelines/7240105b-d9ec-4d95-ac33-d4ec4b725dcd"}
{"nom":"Épône","nomNormalise":"epone","typeCollectivite":"Commune","region":"Île-de-France","departement":"Yvelines","departementCode":"78","adresse":{"street":"90 avenue du Professeur-Émile-Sergent","postalCode":"78680","city":"Épône","country":"France"},"contacts":{"email":"contact@epone.fr","telephone":"0130950505"},"horaires":"Du Lundi au Vendredi : de 08h30 à 12h00 de 13h30 à 17h15\nLe Samedi : de 08h30 à 11h45\n\nAccueil ouvert uniquement pour l'état civil.","latitude":48.9571,"longitude":1.81336,"website":"http://www.epone.fr/","hasWebsite":true,"hasHoraires":true,"url":"https://lannuaire.service-public.gouv.fr/ile-de-france/yvelines/bccc0ca9-3288-488c-97ac-20f630ae3bf4"}
{"nom":"Évecquemont","nomNormalise":"evecquemont","typeCollectivite":"Commune","region":"Île-de-France","departement":"Yvelines","departementCode":"78","adresse":{"street":"32 bis rue d'Adhémar","postalCode":"78740","city":"Évecquemont","country":"France"},"contacts":{"email":"contact@evecquemont.fr","telephone":"0134740879"},"horaires":"Du Mardi au Jeudi : de 14h00 à 18h00\nLe Samedi : de 09h00 à 12h00","latitude":49.0139,"longitude":1.94338,"website":"http://www.evecquemont.fr/","hasWebsite":true,"hasHoraires":true,"url":"https://lannuaire.service-public.gouv.fr/ile-de-france/yvelines/7ee11b29-21f1-4b5c-82dc-dfc673f31ee8"}
{"nom":"Favrieux","nomNormalise":"favrieux","typeCollectivite":"Commune","region":"Île-de-France","departement":"Yvelines","departementCode":"78","adresse":{"street":"Route de Mantes","postalCode":"78200","city":"Favrieux","country":"France"},"contacts":{"email":"mairiefavrieux@orange.fr","telephone":"0134765348"},"horaires":"Le Mercredi : de 14h00 à 17h30\nLe Vendredi : de 14h00 à 17h30\nLe Samedi : de 10h00 à 12h00\n\nAccueil ouvert uniquement les semaines impaires.","latitude":48.94498,"longitude":1.64319,"website":"","hasWebsite":false,"hasHoraires":true,"url":"https://lannuaire.service-public.gouv.fr/ile-de-france/yvelines/634bfc7a-9d7f-4c43-809f-3806112450a3"}
{"nom":"Feucherolles","nomNormalise":"feucherolles","typeCollectivite":"Commune","region":"Île-de-France","departement":"Yvelines","departementCode":"78","adresse":{"street":"39 Grand'rue","postalCode":"78810","city":"Feucherolles","country":"France"},"contacts":{"email":"a.giera@feucherolles.fr","telephone":"0130799310"},"horaires":"Du Lundi au Mercredi : de 09h00 à 12h00 de 14h00 à 17h00\nLe Jeudi : de 14h00 à 17h00\nLe Vendredi : de 09h00 à 12h00 de 14h00 à 17h00\nLe Samedi : de 09h00 à 11h30","latitude":48.8744,"longitude":1.97405,"website":"https://feucherolles.fr/","hasWebsite":true,"hasHoraires":true,"url":"https://lannuaire.service-public.gouv.fr/ile-de-france/yvelines/fc20141b-3cdf-47ae-8baf-f9e2e7bc0e00"}
{"nom":"Flacourt","nomNormalise":"flacourt","typeCollectivite":"Commune","region":"Île-de-France","departement":"Yvelines","departementCode":"78","adresse":{"street":"Place de la Mairie","postalCode":"78200","city":"Flacourt","country":"France"},"contacts":{"email":"mairieflacourt@wanadoo.fr","telephone":"0130424451"},"horaires":"Le Mercredi : de 09h00 à 12h00\nLe Samedi : de 11h00 à 12h00","latitude":48.92808,"longitude":1.6467,"website":"http://www.flacourt.fr/","hasWebsite":true,"hasHoraires":true,"url":"https://lannuaire.service-public.gouv.fr/ile-de-france/yvelines/c88a8646-6791-48dc-b655-a09185bb7006"}
{"nom":"Flexanville","nomNormalise":"flexanville","typeCollectivite":"Commune","region":"Île-de-France","departement":"Yvelines","departementCode":"78","adresse":{"street":"3 rue de la Mairie","postalCode":"78910","city":"Flexanville","country":"France"},"contacts":{"email":"mairie.flexanville@wanadoo.fr","telephone":"0134872305"},"horaires":"Le Lundi : de 10h00 à 12h00\nLe Mardi : de 17h00 à 19h00\nDu Jeudi au Samedi : de 10h00 à 12h00","latitude":48.8558,"longitude":1.73859,"website":"http://www.flexanville.fr/","hasWebsite":true,"hasHoraires":true,"url":"https://lannuaire.service-public.gouv.fr/ile-de-france/yvelines/766e908f-308b-405b-a600-de3bd048a2f5"}
{"nom":"Flins-Neuve-Église","nomNormalise":"flinsneuveeglise","typeCollectivite":"Commune","region":"Île-de-France","departement":"Yvelines","departementCode":"78","adresse":{"street":"Grande-Rue","postalCode":"78790","city":"Flins-Neuve-Église","country":"France"},"contacts":{"email":"mairieflinsneuveeglise@orange.fr","telephone":"0130425620"},"horaires":"Le Mercredi : de 15h00 à 19h00","latitude":48.89147,"longitude":1.578877,"website":"","hasWebsite":false,"hasHoraires":true,"url":"https://lannuaire.service-public.gouv.fr/ile-de-france/yvelines/5d9f3e41-9114-42be-99f7-278711dd6bfe"}
{"nom":"Flins-sur-Seine","nomNormalise":"flinssurseine","typeCollectivite":"Commune","region":"Île-de-France","departement":"Yvelines","departementCode":"78","adresse":{"street":"Parc Jean-Boileau","postalCode":"78410","city":"Flins-sur-Seine","country":"France"},"contacts":{"email":"accueil@mairiedeflins.fr","telephone":"0130957119"},"horaires":"Du Lundi au Mardi : de 09h00 à 12h00 de 14h00 à 17h00\nLe Mercredi : de 09h00 à 12h00 de 14h00 à 18h00\nLe Jeudi : de 09h00 à 12h00 de 14h00 à 17h00\nLe Samedi : de 09h00 à 12h00","latitude":48.9615,"longitude":1.87078,"website":"http://www.flinssurseine.fr/","hasWebsite":true,"hasHoraires":true,"url":"https://lannuaire.service-public.gouv.fr/ile-de-france/yvelines/f6070a87-4e9e-4969-8f07-c703019e8ebc"}
{"nom":"Follainville-Dennemont","nomNormalise":"follainvilledennemont","typeCollectivite":"Commune","region":"Île-de-France","departement":"Yvelines","departementCode":"78","adresse":{"street":"2 place de la Mairie","postalCode":"78520","city":"Follainville-Dennemont","country":"France"},"contacts":{"email":"mairie@follainville-dennemont.fr","telephone":"0134772502"},"horaires":"Le Lundi : de 09h00 à 11h30 de 14h00 à 18h00\nLe Mercredi : de 09h00 à 11h30 de 14h00 à 18h00\nLe Vendredi : de 09h00 à 11h30 de 14h00 à 18h00\nLe Samedi : de 09h00 à 11h30\n\nAccueil fermé pendant les congés scolaires.","latitude":49.0214,"longitude":1.71431,"website":"http://www.follainville-dennemont.fr/","hasWebsite":true,"hasHoraires":true,"url":"https://lannuaire.service-public.gouv.fr/ile-de-france/yvelines/44fe1af9-cf55-4e0d-94b7-ea32201bb80e"}
{"nom":"Fontenay-le-Fleury","nomNormalise":"fontenaylefleury","typeCollectivite":"Commune","region":"Île-de-France","departement":"Yvelines","departementCode":"78","adresse":{"street":"Place du 8-Mai-1945","postalCode":"78330","city":"Fontenay-le-Fleury","country":"France"},"contacts":{"email":"mairie@fontenay-le-fleury.fr","telephone":"0130143300"},"horaires":"Le Lundi : de 08h30 à 12h00 de 14h00 à 17h30\nLe Samedi : de 09h00 à 12h00","latitude":48.81112,"longitude":2.0451145,"website":"http://www.fontenay-le-fleury.fr/","hasWebsite":true,"hasHoraires":true,"url":"https://lannuaire.service-public.gouv.fr/ile-de-france/yvelines/95051a60-8132-42c2-85ff-be18af9ecf05"}
{"nom":"Fontenay-Mauvoisin","nomNormalise":"fontenaymauvoisin","typeCollectivite":"Commune","region":"Île-de-France","departement":"Yvelines","departementCode":"78","adresse":{"street":"6 rue du Clos-Boulet","postalCode":"78200","city":"Fontenay-Mauvoisin","country":"France"},"contacts":{"email":"mairie.fontenaymauvoisin983@orange.fr","telephone":"0134765102"},"horaires":"Le Vendredi : de 17h30 à 19h30","latitude":48.96625,"longitude":1.653204,"website":"http://www.fontenay-mauvoisin.fr/","hasWebsite":true,"hasHoraires":true,"url":"https://lannuaire.service-public.gouv.fr/ile-de-france/yvelines/89ad0649-8684-4d27-b23d-6094b06c4b3b"}
{"nom":"Fontenay-Saint-Père","nomNormalise":"fontenaysaintpere","typeCollectivite":"Commune","region":"Île-de-France","departement":"Yvelines","departementCode":"78","adresse":{"street":"Place de la Mairie","postalCode":"78440","city":"Fontenay-Saint-Père","country":"France"},"contacts":{"email":"mairie-fontenay.st.pere@wanadoo.fr","telephone":"0134791121"},"horaires":"Le Lundi : de 09h00 à 12h00 de 16h00 à 18h00\nLe Mardi : de 09h00 à 12h00 de 16h00 à 19h00\nLe Mercredi : de 11h00 à 12h00\nLe Jeudi : de 09h00 à 12h00 de 16h00 à 18h00\nLe Vendredi : de 16h00 à 17h30\nLe Samedi : de 08h00 à 10h00","latitude":49.024765,"longitude":1.755638,"website":"http://www.fontenay-saint-pere.fr/","hasWebsite":true,"hasHoraires":true,"url":"https://lannuaire.service-public.gouv.fr/ile-de-france/yvelines/5bc9f07d-a915-4b1d-babd-f899b2a857b1"}
{"nom":"Mairie déléguée - Fourqueux","nomNormalise":"mairiedelegueefourqueux","typeCollectivite":"Commune","region":"Île-de-France","departement":"Yvelines","departementCode":"78","adresse":{"street":"Fourqueux","postalCode":"78100","city":"Saint-Germain-en-Laye","country":"France"},"contacts":{"email":"mairiefourqueux@saintgermainenlaye.fr","telephone":"0134512314"},"horaires":"Du Lundi au Jeudi : de 08h45 à 12h00 de 14h30 à 17h00\nLe Vendredi : de 08h45 à 12h00 de 14h30 à 16h45\nLe Samedi : de 08h45 à 12h00","latitude":48.8906,"longitude":2.06249,"website":"http://www.ville-fourqueux.fr/","hasWebsite":true,"hasHoraires":true,"url":"https://lannuaire.service-public.gouv.fr/ile-de-france/yvelines/0f060e04-7e00-445e-be59-65f689433a7c"}
{"nom":"Freneuse","nomNormalise":"freneuse","typeCollectivite":"Commune","region":"Île-de-France","departement":"Yvelines","departementCode":"78","adresse":{"street":"89 rue Charles-de-Gaulle","postalCode":"78840","city":"Freneuse","country":"France"},"contacts":{"email":"mairie@freneuse78.fr","telephone":"0130989797"},"horaires":"Du Lundi au Vendredi : de 09h00 à 12h00 de 14h00 à 17h00\nLe Samedi : de 09h00 à 12h00","latitude":49.0482,"longitude":1.60076,"website":"http://www.freneuse78.fr/","hasWebsite":true,"hasHoraires":true,"url":"https://lannuaire.service-public.gouv.fr/ile-de-france/yvelines/4c68e568-be67-4408-9e3b-042967273aad"}
{"nom":"Gaillon-sur-Montcient","nomNormalise":"gaillonsurmontcient","typeCollectivite":"Commune","region":"Île-de-France","departement":"Yvelines","departementCode":"78","adresse":{"street":"Rue de la Montcient","postalCode":"78250","city":"Gaillon-sur-Montcient","country":"France"},"contacts":{"email":"mairie.gaillon.sur.montcient@wanadoo.fr","telephone":"0134740658"},"horaires":"Du Lundi au Mardi : de 08h30 à 12h00\nLe Vendredi : de 08h30 à 12h00\nLe Samedi : de 08h30 à 12h00\n\nAccueil ouvert les 1er et 3e samedis du mois. Accueil fermé pendant les vacances scolaires.","latitude":49.0215,"longitude":1.89145,"website":"http://www.gaillon-sur-montcient.fr/","hasWebsite":true,"hasHoraires":true,"url":"https://lannuaire.service-public.gouv.fr/ile-de-france/yvelines/ce325154-67bb-4c8a-93f4-aca48ce7eff4"}
{"nom":"Galluis","nomNormalise":"galluis","typeCollectivite":"Commune","region":"Île-de-France","departement":"Yvelines","departementCode":"78","adresse":{"street":"1 rue de la Mairie","postalCode":"78490","city":"Galluis","country":"France"},"contacts":{"email":"mairie@galluis.fr","telephone":"0134570390"},"horaires":"Le Lundi : de 09h00 à 12h00\nLe Mardi : de 09h00 à 12h00 de 15h00 à 17h00\nLe Mercredi : de 09h00 à 12h00\nLe Jeudi : de 09h00 à 12h00\nLe Vendredi : de 09h00 à 12h00 de 15h00 à 17h00\nLe Samedi : de 09h00 à 12h00","latitude":48.796,"longitude":1.7956399,"website":"https://galluis.fr/","hasWebsite":true,"hasHoraires":true,"url":"https://lannuaire.service-public.gouv.fr/ile-de-france/yvelines/3bcd3797-0a67-4cac-b54b-4823b90a0d27"}
{"nom":"Gambais","nomNormalise":"gambais","typeCollectivite":"Commune","region":"Île-de-France","departement":"Yvelines","departementCode":"78","adresse":{"street":"1 place Charles-de-Gaulle","postalCode":"78950","city":"Gambais","country":"France"},"contacts":{"email":"mairie@mairie-gambais.fr","telephone":"0134870168"},"horaires":"Le Lundi : de 09h00 à 12h00 de 14h00 à 17h00\nDu Mardi au Mercredi : de 09h00 à 12h00\nLe Jeudi : de 09h00 à 12h00 de 14h00 à 17h00\nDu Vendredi au Samedi : de 09h00 à 12h00","latitude":48.773468,"longitude":1.674464,"website":"https://www.gambais.fr/","hasWebsite":true,"hasHoraires":true,"url":"https://lannuaire.service-public.gouv.fr/ile-de-france/yvelines/592976ab-5bd7-48a8-a31f-2b4b06211489"}
{"nom":"Gambaiseuil","nomNormalise":"gambaiseuil","typeCollectivite":"Commune","region":"Île-de-France","departement":"Yvelines","departementCode":"78","adresse":{"street":"9 route de Montfort","postalCode":"78490","city":"Gambaiseuil","country":"France"},"contacts":{"email":"mairiegambaiseuil@wanadoo.fr","telephone":"0134863920"},"horaires":"Le Dimanche : de 10h00 à 12h00","latitude":48.7574,"longitude":1.73433,"website":"","hasWebsite":false,"hasHoraires":true,"url":"https://lannuaire.service-public.gouv.fr/ile-de-france/yvelines/28b5fce4-5981-4937-abbe-0f3c007028a2"}
{"nom":"Garancières","nomNormalise":"garancieres","typeCollectivite":"Commune","region":"Île-de-France","departement":"Yvelines","departementCode":"78","adresse":{"street":"Place Saint-Pierre","postalCode":"78890","city":"Garancières","country":"France"},"contacts":{"email":"contact@mairie-garancieres.com","telephone":"0134864133"},"horaires":"Le Lundi : de 10h00 à 12h15 de 16h00 à 18h00\nLe Mardi : de 10h00 à 12h15\nDu Mercredi au Vendredi : de 10h00 à 12h15 de 16h00 à 18h00\nLe Samedi : de 09h30 à 11h30","latitude":48.8219,"longitude":1.75347,"website":"http://www.mairie-garancieres78.fr/","hasWebsite":true,"hasHoraires":true,"url":"https://lannuaire.service-public.gouv.fr/ile-de-france/yvelines/4cf2a992-bc55-429c-8158-6a9c82cd58f5"}
{"nom":"Gargenville","nomNormalise":"gargenville","typeCollectivite":"Commune","region":"Île-de-France","departement":"Yvelines","departementCode":"78","adresse":{"street":"Avenue Mademoiselle Dosne","postalCode":"78440","city":"Gargenville","country":"France"},"contacts":{"email":"contact@ville-gargenville.fr","telephone":"0130988900"},"horaires":"Du Lundi au Vendredi : de 08h30 à 12h00 de 13h30 à 17h30\nLe Samedi : de 09h00 à 12h00","latitude":48.98988,"longitude":1.8097527,"website":"https://gargenville.fr/","hasWebsite":true,"hasHoraires":true,"url":"https://lannuaire.service-public.gouv.fr/ile-de-france/yvelines/d3051eb0-537a-4c85-8c1c-d44990ae131e"}
{"nom":"Gazeran","nomNormalise":"gazeran","typeCollectivite":"Commune","region":"Île-de-France","departement":"Yvelines","departementCode":"78","adresse":{"street":"Rue de la Mairie","postalCode":"78125","city":"Gazeran","country":"France"},"contacts":{"email":"accueil@mairie-gazeran.fr","telephone":"0134831915"},"horaires":"Du Lundi au Mardi : de 16h00 à 18h00\n\nAccueil fermé le lundi en juillet-août.\nLe Mercredi : de 16h00 à 18h30\nLe Jeudi : de 09h00 à 12h15\nLe Vendredi : de 16h00 à 18h00\nLe Samedi : de 08h30 à 12h00","latitude":48.6369,"longitude":1.77387,"website":"https://www.mairie-gazeran.fr/","hasWebsite":true,"hasHoraires":true,"url":"https://lannuaire.service-public.gouv.fr/ile-de-france/yvelines/52a773e4-7d35-48c9-b9d9-3a99c0373c3e"}
{"nom":"Gommecourt","nomNormalise":"gommecourt","typeCollectivite":"Commune","region":"Île-de-France","departement":"Yvelines","departementCode":"78","adresse":{"street":"12 bis rue des Écoles","postalCode":"78270","city":"Gommecourt","country":"France"},"contacts":{"email":"mairie.gommecourt@bbox.fr","telephone":"0981416590"},"horaires":"Le Lundi : de 17h30 à 19h00\nDu Mercredi au Jeudi : de 17h30 à 19h00","latitude":49.0747,"longitude":1.5951,"website":"http://www.gommecourt.fr/","hasWebsite":true,"hasHoraires":true,"url":"https://lannuaire.service-public.gouv.fr/ile-de-france/yvelines/2d19decf-3b5a-49aa-9137-d21fe9f187b2"}
{"nom":"Goupillières","nomNormalise":"goupillieres","typeCollectivite":"Commune","region":"Île-de-France","departement":"Yvelines","departementCode":"78","adresse":{"street":"24 Vallée-Penaut","postalCode":"78770","city":"Goupillières","country":"France"},"contacts":{"email":"","telephone":"0134874107"},"horaires":"Le Lundi : de 09h00 à 12h00\nLe Jeudi : de 09h00 à 12h00\nLe Samedi : de 10h30 à 12h00","latitude":48.876682,"longitude":1.760667,"website":"http://www.goupillieres78.fr/","hasWebsite":true,"hasHoraires":true,"url":"https://lannuaire.service-public.gouv.fr/ile-de-france/yvelines/217ed14b-02d0-44bc-a6da-3ad4586c6681"}
{"nom":"Goussonville","nomNormalise":"goussonville","typeCollectivite":"Commune","region":"Île-de-France","departement":"Yvelines","departementCode":"78","adresse":{"street":"2 rue du Bois-de-l'Aulnaie","postalCode":"78930","city":"Goussonville","country":"France"},"contacts":{"email":"goussonville.mairie@gmail.com","telephone":"0130426114"},"horaires":"Du Lundi au Mardi : de 15h00 à 16h30\nLe Mercredi : de 10h00 à 11h30\nLe Jeudi : de 17h00 à 20h00\nLe Vendredi : de 10h00 à 11h30\nLes demandes d'urbanisme sont à déposer depuis le 1er janvier 2022 sur le","latitude":48.919956,"longitude":1.765081,"website":"http://www.goussonville78.fr/","hasWebsite":true,"hasHoraires":true,"url":"https://lannuaire.service-public.gouv.fr/ile-de-france/yvelines/af07c25a-a407-423b-a43c-cbdb0b87094f"}
{"nom":"Grandchamp","nomNormalise":"grandchamp","typeCollectivite":"Commune","region":"Île-de-France","departement":"Yvelines","departementCode":"78","adresse":{"street":"10 route de Nogent","postalCode":"78113","city":"Grandchamp","country":"France"},"contacts":{"email":"gr78113@orange.fr","telephone":"0134850603"},"horaires":"Le Mercredi : de 10h00 à 12h00\nLe Samedi : de 10h00 à 12h00","latitude":48.7363,"longitude":1.64667,"website":"http://www.mairie-grandchamp78.fr/","hasWebsite":true,"hasHoraires":true,"url":"https://lannuaire.service-public.gouv.fr/ile-de-france/yvelines/7f8b4a1b-7862-44a1-806f-080a8d20a677"}
{"nom":"Gressey","nomNormalise":"gressey","typeCollectivite":"Commune","region":"Île-de-France","departement":"Yvelines","departementCode":"78","adresse":{"street":"2 rue des Plantes","postalCode":"78550","city":"Gressey","country":"France"},"contacts":{"email":"mairie.gressey@wanadoo.fr","telephone":"0134876603"},"horaires":"Le Lundi : de 17h00 à 19h00\nLe Mercredi : de 10h00 à 12h00\nLe Vendredi : de 17h00 à 19h00","latitude":48.83133,"longitude":1.608776,"website":"https://gressey.com/","hasWebsite":true,"hasHoraires":true,"url":"https://lannuaire.service-public.gouv.fr/ile-de-france/yvelines/07fa7459-b31f-484f-a6e4-90d23faf93e9"}
{"nom":"Grosrouvre","nomNormalise":"grosrouvre","typeCollectivite":"Commune","region":"Île-de-France","departement":"Yvelines","departementCode":"78","adresse":{"street":"1 chemin de la Masse","postalCode":"78490","city":"Grosrouvre","country":"France"},"contacts":{"email":"mairie@mairie-grosrouvre.fr","telephone":"0134860612"},"horaires":"Du Lundi au Mardi : de 09h00 à 12h00 de 14h00 à 17h00\nDu Jeudi au Vendredi : de 09h00 à 12h00 de 14h00 à 17h00\nLe Samedi : de 09h00 à 12h00","latitude":48.782,"longitude":1.76128,"website":"http://www.mairie-grosrouvre.fr/","hasWebsite":true,"hasHoraires":true,"url":"https://lannuaire.service-public.gouv.fr/ile-de-france/yvelines/248f8bd9-cf23-4136-ba12-90d4b9245dde"}
{"nom":"Guernes","nomNormalise":"guernes","typeCollectivite":"Commune","region":"Île-de-France","departement":"Yvelines","departementCode":"78","adresse":{"street":"3 place de la Mairie","postalCode":"78520","city":"Guernes","country":"France"},"contacts":{"email":"mairie@guernes.fr","telephone":"0972647339"},"horaires":"Le Lundi : de 16h00 à 18h30\nLe Mercredi : de 10h30 à 12h00 de 15h00 à 17h00\nLe Vendredi : de 16h00 à 17h30","latitude":49.0111,"longitude":1.63674,"website":"http://www.guernes.fr/","hasWebsite":true,"hasHoraires":true,"url":"https://lannuaire.service-public.gouv.fr/ile-de-france/yvelines/98ad248d-ae83-41d0-a751-06e70751969b"}
{"nom":"Guerville","nomNormalise":"guerville","typeCollectivite":"Commune","region":"Île-de-France","departement":"Yvelines","departementCode":"78","adresse":{"street":"4 place de la Mairie","postalCode":"78930","city":"Guerville","country":"France"},"contacts":{"email":"mairie.guerville@wanadoo.fr","telephone":"0130426322"},"horaires":"Le Lundi : de 09h00 à 12h00 de 13h30 à 19h00\nLe Mardi : de 09h00 à 12h00 de 13h30 à 17h45\nLe Mercredi : de 13h30 à 17h45\nDu Jeudi au Vendredi : de 09h00 à 12h00 de 13h30 à 17h45","latitude":48.944798,"longitude":1.734788,"website":"http://www.guerville.fr/","hasWebsite":true,"hasHoraires":true,"url":"https://lannuaire.service-public.gouv.fr/ile-de-france/yvelines/3d0825f9-b967-4de0-8d22-708a1a3cfff1"}
{"nom":"Guitrancourt","nomNormalise":"guitrancourt","typeCollectivite":"Commune","region":"Île-de-France","departement":"Yvelines","departementCode":"78","adresse":{"street":"Place de la Mairie","postalCode":"78440","city":"Guitrancourt","country":"France"},"contacts":{"email":"secretariat-mairie@guitrancourt.fr","telephone":"0134791209"},"horaires":"Le Mardi : de 09h00 à 12h00 de 14h00 à 19h00\nDu Jeudi au Vendredi : de 09h00 à 12h00 de 14h00 à 19h00","latitude":49.0083,"longitude":1.77833,"website":"http://www.guitrancourt.fr/","hasWebsite":true,"hasHoraires":true,"url":"https://lannuaire.service-public.gouv.fr/ile-de-france/yvelines/8abc6854-4b7f-4133-bb40-94a8fa405d40"}
{"nom":"Guyancourt","nomNormalise":"guyancourt","typeCollectivite":"Commune","region":"Île-de-France","departement":"Yvelines","departementCode":"78","adresse":{"street":"14 rue Ambroise-Croizat","postalCode":"78041","city":"Guyancourt Cedex","country":"France"},"contacts":{"email":"","telephone":"0130483333"},"horaires":"Du Lundi au Mardi : de 08h30 à 12h00 de 13h30 à 17h00\nLe Mercredi : de 13h30 à 17h00\nLe Jeudi : de 13h00 à 20h00\nLe Vendredi : de 08h30 à 12h00 de 13h30 à 17h00","latitude":48.77087,"longitude":2.070965,"website":"https://www.ville-guyancourt.fr/","hasWebsite":true,"hasHoraires":true,"url":"https://lannuaire.service-public.gouv.fr/ile-de-france/yvelines/e4f23222-be40-4f4e-9450-794d201e73d3"}
{"nom":"Hardricourt","nomNormalise":"hardricourt","typeCollectivite":"Commune","region":"Île-de-France","departement":"Yvelines","departementCode":"78","adresse":{"street":"33 rue Guillaume de Beaumont","postalCode":"78250","city":"Hardricourt","country":"France"},"contacts":{"email":"hardricourt@orange.fr","telephone":"0130999100"},"horaires":"Du Lundi au Mercredi : de 08h30 à 12h00 de 14h00 à 17h00\nLe Jeudi : de 08h30 à 12h00 de 14h00 à 19h00\nLe Vendredi : de 08h30 à 12h00 de 14h00 à 17h00\nLe Samedi : de 08h30 à 12h00","latitude":49.007915,"longitude":1.894372,"website":"http://www.hardricourt.fr/","hasWebsite":true,"hasHoraires":true,"url":"https://lannuaire.service-public.gouv.fr/ile-de-france/yvelines/8924d39c-f0e9-444a-ae30-ce6b2ee2c9cc"}
{"nom":"Hargeville","nomNormalise":"hargeville","typeCollectivite":"Commune","region":"Île-de-France","departement":"Yvelines","departementCode":"78","adresse":{"street":"Place de l'Église","postalCode":"78790","city":"Hargeville","country":"France"},"contacts":{"email":"mairie.hargeville@gmail.com","telephone":"0130426093"},"horaires":"Le Mardi : de 09h00 à 12h00\nLe Samedi : de 09h00 à 12h00","latitude":48.890533,"longitude":1.741688,"website":"https://hargeville78.wordpress.com/","hasWebsite":true,"hasHoraires":true,"url":"https://lannuaire.service-public.gouv.fr/ile-de-france/yvelines/9c82a5be-a4ec-4e66-a8da-e31fd35c0104"}
{"nom":"Herbeville","nomNormalise":"herbeville","typeCollectivite":"Commune","region":"Île-de-France","departement":"Yvelines","departementCode":"78","adresse":{"street":"11 rue Saint-Clair","postalCode":"78580","city":"Herbeville","country":"France"},"contacts":{"email":"mairie@herbeville.fr","telephone":"0130908094"},"horaires":"Le Jeudi : de 09h00 à 13h00 de 14h00 à 17h30\nLe Samedi : de 09h00 à 12h00\n\nAccueil ouvert les 1er et 3e samedis du mois.","latitude":48.90599,"longitude":1.887169,"website":"http://www.herbeville.fr/","hasWebsite":true,"hasHoraires":true,"url":"https://lannuaire.service-public.gouv.fr/ile-de-france/yvelines/7f56bd15-9b66-4be3-b31e-2977ff67cfa8"}
{"nom":"Hermeray","nomNormalise":"hermeray","typeCollectivite":"Commune","region":"Île-de-France","departement":"Yvelines","departementCode":"78","adresse":{"street":"4 rue de la Mairie","postalCode":"78125","city":"Hermeray","country":"France"},"contacts":{"email":"mairie@hermeray.fr","telephone":"0134835038"},"horaires":"Du Lundi au Mardi : de 09h30 à 12h00\nLe Mercredi : de 14h00 à 19h00\nMme Le Maire et Messieurs les Adjoints vous accueillent sur RDV : Du Lundi au Vendredi : 9h30 à 12h et 14h à 17h Et le Samedi matin 9h30 à 12h","latitude":48.64979,"longitude":1.688448,"website":"https://hermeray.fr/","hasWebsite":true,"hasHoraires":true,"url":"https://lannuaire.service-public.gouv.fr/ile-de-france/yvelines/b58c6286-4e61-4c75-a221-ad374cc6b284"}
{"nom":"Houdan","nomNormalise":"houdan","typeCollectivite":"Commune","region":"Île-de-France","departement":"Yvelines","departementCode":"78","adresse":{"street":"69 Grande rue","postalCode":"78550","city":"Houdan","country":"France"},"contacts":{"email":"accueil@villehoudan.fr","telephone":"0130468130"},"horaires":"Le Lundi : de 09h00 à 12h00 de 15h00 à 17h30\nLe Mardi : de 15h00 à 20h00\nDu Mercredi au Vendredi : de 09h00 à 12h00 de 15h00 à 17h30\nLe Samedi : de 10h00 à 12h00\n\nAccueil ouvert uniquement pour l'état civil.","latitude":48.7895,"longitude":1.6018099,"website":"","hasWebsite":false,"hasHoraires":true,"url":"https://lannuaire.service-public.gouv.fr/ile-de-france/yvelines/03e2deb1-788c-4cf2-862a-03e5d08d6d61"}
{"nom":"Houilles","nomNormalise":"houilles","typeCollectivite":"Commune","region":"Île-de-France","departement":"Yvelines","departementCode":"78","adresse":{"street":"16 rue Gambetta","postalCode":"78800","city":"Houilles","country":"France"},"contacts":{"email":"","telephone":"0130863232"},"horaires":"Du Lundi au Jeudi : de 08h30 à 12h00 de 13h30 à 17h30\nLe Vendredi : de 08h30 à 12h00 de 13h30 à 17h00\nLe Samedi : de 08h30 à 12h00\n\nAccueil ouvert uniquement pour l'état civil.","latitude":48.92324,"longitude":2.1869912,"website":"https://www.ville-houilles.fr/","hasWebsite":true,"hasHoraires":true,"url":"https://lannuaire.service-public.gouv.fr/ile-de-france/yvelines/57d89683-67c5-4ab8-a855-1e3c5b9439e6"}
{"nom":"Issou","nomNormalise":"issou","typeCollectivite":"Commune","region":"Île-de-France","departement":"Yvelines","departementCode":"78","adresse":{"street":"Place Ferdinand-Famy","postalCode":"78440","city":"Issou","country":"France"},"contacts":{"email":"dgs@mairie-issou.fr","telephone":"0134971919"},"horaires":"Du Lundi au Vendredi : de 08h45 à 12h15 de 13h45 à 17h30","latitude":48.9878,"longitude":1.79431,"website":"http://www.issou.fr/","hasWebsite":true,"hasHoraires":true,"url":"https://lannuaire.service-public.gouv.fr/ile-de-france/yvelines/2fda29a5-6430-4aff-b625-75a7b0a23d39"}
{"nom":"Jambville","nomNormalise":"jambville","typeCollectivite":"Commune","region":"Île-de-France","departement":"Yvelines","departementCode":"78","adresse":{"street":"52 rue du Moustier","postalCode":"78440","city":"Jambville","country":"France"},"contacts":{"email":"secretariat@mairie-jambville.fr","telephone":"0134754016"},"horaires":"Le Lundi : de 18h00 à 19h30\nLe Mercredi : de 15h00 à 17h30\nLe Jeudi : de 18h00 à 19h30\nLe Samedi : de 10h00 à 12h00\n\nAccueil ouvert uniquement 2 samedis par mois, voir les dates sur le site internet de la mairie.","latitude":49.04608,"longitude":1.8538353,"website":"http://www.jambville.fr/","hasWebsite":true,"hasHoraires":true,"url":"https://lannuaire.service-public.gouv.fr/ile-de-france/yvelines/bd0fdc12-839b-4807-98d3-37acec1852df"}
{"nom":"Jouars-Pontchartrain","nomNormalise":"jouarspontchartrain","typeCollectivite":"Commune","region":"Île-de-France","departement":"Yvelines","departementCode":"78","adresse":{"street":"1 rue Sainte-Anne","postalCode":"78760","city":"Jouars-Pontchartrain","country":"France"},"contacts":{"email":"mairie@jouars-pontchartrain.fr","telephone":"0134910101"},"horaires":"Le Lundi : de 08h30 à 12h00 de 14h00 à 17h30\nDu Mardi au Mercredi : de 08h30 à 12h00 de 14h00 à 17h15\nLe Jeudi : de 08h30 à 12h00\nLe Vendredi : de 08h30 à 12h00 de 14h00 à 17h15\nLe Samedi : de 10h00 à 12h00\n\nAccueil ouvert uniquement le 1er samedi du mois.","latitude":48.801632,"longitude":1.9002948,"website":"http://www.jouars-pontchartrain.fr/","hasWebsite":true,"hasHoraires":true,"url":"https://lannuaire.service-public.gouv.fr/ile-de-france/yvelines/e7da47dc-8aff-483f-9fc9-33c8a4fc2063"}
{"nom":"Jouy-en-Josas","nomNormalise":"jouyenjosas","typeCollectivite":"Commune","region":"Île-de-France","departement":"Yvelines","departementCode":"78","adresse":{"street":"19 avenue Jean-Jaurès","postalCode":"78354","city":"Jouy-en-Josas Cedex","country":"France"},"contacts":{"email":"","telephone":"0139201111"},"horaires":"Le Lundi : de 08h30 à 12h00 de 13h30 à 17h00\nLe Mardi : de 13h30 à 17h00\nDu Mercredi au Vendredi : de 08h30 à 12h00 de 13h30 à 17h00\nLe Samedi : de 09h00 à 12h00","latitude":48.764835,"longitude":2.168138,"website":"https://www.jouy-en-josas.fr/","hasWebsite":true,"hasHoraires":true,"url":"https://lannuaire.service-public.gouv.fr/ile-de-france/yvelines/e030bd8c-da58-41ea-b255-bc9b409aab92"}
{"nom":"Jouy-Mauvoisin","nomNormalise":"jouymauvoisin","typeCollectivite":"Commune","region":"Île-de-France","departement":"Yvelines","departementCode":"78","adresse":{"street":"Place de la Mairie","postalCode":"78200","city":"Jouy-Mauvoisin","country":"France"},"contacts":{"email":"mairie.jouy.mauvoisin@wanadoo.fr","telephone":"0134765121"},"horaires":"Le Lundi : de 17h00 à 19h00\nLe Mercredi : de 09h00 à 12h00\nLe Jeudi : de 17h00 à 19h00","latitude":48.9747,"longitude":1.64907,"website":"http://www.jouy-mauvoisin.fr/","hasWebsite":true,"hasHoraires":true,"url":"https://lannuaire.service-public.gouv.fr/ile-de-france/yvelines/ed2a385c-500b-4e10-8642-02bb28b733bc"}
{"nom":"Jumeauville","nomNormalise":"jumeauville","typeCollectivite":"Commune","region":"Île-de-France","departement":"Yvelines","departementCode":"78","adresse":{"street":"72 Grande-Rue","postalCode":"78580","city":"Jumeauville","country":"France"},"contacts":{"email":"mairie.jumeauville@wanadoo.fr","telephone":"0130426129"},"horaires":"Du Lundi au Vendredi : de 09h30 à 11h30","latitude":48.91008,"longitude":1.790568,"website":"http://www.mairie-jumeauville.fr/","hasWebsite":true,"hasHoraires":true,"url":"https://lannuaire.service-public.gouv.fr/ile-de-france/yvelines/028f0b45-60e3-4ab1-a9ca-0894d2590d79"}
{"nom":"Juziers","nomNormalise":"juziers","typeCollectivite":"Commune","region":"Île-de-France","departement":"Yvelines","departementCode":"78","adresse":{"street":"Place du Général-de-Gaulle","postalCode":"78820","city":"Juziers","country":"France"},"contacts":{"email":"secretariat-mairie@juziers.org","telephone":"0134752800"},"horaires":"Du Lundi au Vendredi : de 08h30 à 12h00 de 14h00 à 17h30\nLe Samedi : de 09h00 à 12h00\n\nAccueil ouvert uniquement pour l'état civil.","latitude":48.9927,"longitude":1.8458,"website":"http://www.juziers.fr/","hasWebsite":true,"hasHoraires":true,"url":"https://lannuaire.service-public.gouv.fr/ile-de-france/yvelines/5be61e24-b4d9-4ed3-8523-416df5a2437c"}
{"nom":"L'Étang-la-Ville","nomNormalise":"letanglaville","typeCollectivite":"Commune","region":"Île-de-France","departement":"Yvelines","departementCode":"78","adresse":{"street":"8 rue de Fonton","postalCode":"78620","city":"L'Étang-la-Ville","country":"France"},"contacts":{"email":"mairie@letanglaville.fr","telephone":"0139588004"},"horaires":"Du Lundi au Mardi : de 09h00 à 11h45 de 14h30 à 17h15\nLe Mercredi : de 09h00 à 11h45\nDu Jeudi au Vendredi : de 09h00 à 11h45 de 14h30 à 17h15\nLe Samedi : de 09h00 à 12h30\n\nAccueil ouvert uniquement pour l'état civil.","latitude":48.87073,"longitude":2.0727339,"website":"http://www.letanglaville.fr/","hasWebsite":true,"hasHoraires":true,"url":"https://lannuaire.service-public.gouv.fr/ile-de-france/yvelines/13836561-9721-4268-9bf3-cc6a64cf3844"}
{"nom":"La Boissière-École","nomNormalise":"laboissiereecole","typeCollectivite":"Commune","region":"Île-de-France","departement":"Yvelines","departementCode":"78","adresse":{"street":"21 rue des Écoles","postalCode":"78125","city":"La Boissière-École","country":"France"},"contacts":{"email":"mairie.boissiere-ecole@wanadoo.fr","telephone":"0134850125"},"horaires":"Le Mardi : de 09h00 à 11h00 de 16h30 à 17h30\nLe Mercredi : de 09h00 à 11h00\nDu Jeudi au Vendredi : de 09h00 à 11h00 de 16h30 à 17h30\nLe Samedi : de 10h00 à 11h00","latitude":48.681,"longitude":1.6489654,"website":"http://www.mairie-boissiere-ecole.fr/","hasWebsite":true,"hasHoraires":true,"url":"https://lannuaire.service-public.gouv.fr/ile-de-france/yvelines/4f497cb0-7aa1-423e-a538-a5495e3f5ea5"}
{"nom":"La Celle-les-Bordes","nomNormalise":"lacellelesbordes","typeCollectivite":"Commune","region":"Île-de-France","departement":"Yvelines","departementCode":"78","adresse":{"street":"5 rue du Bois-des-Gaules","postalCode":"78720","city":"La Celle-les-Bordes","country":"France"},"contacts":{"email":"mairie@lacellelesbordes.fr","telephone":"0134852228"},"horaires":"Du Lundi au Vendredi : de 14h00 à 17h30\nLe Samedi : de 10h00 à 12h00","latitude":48.640476,"longitude":1.9558663,"website":"http://www.lacellelesbordes.fr/","hasWebsite":true,"hasHoraires":true,"url":"https://lannuaire.service-public.gouv.fr/ile-de-france/yvelines/78629931-8dd7-4098-87ae-814a5da44b96"}
{"nom":"La Celle-Saint-Cloud","nomNormalise":"lacellesaintcloud","typeCollectivite":"Commune","region":"Île-de-France","departement":"Yvelines","departementCode":"78","adresse":{"street":"8 E avenue Charles-de-Gaulle","postalCode":"78170","city":"La Celle-Saint-Cloud","country":"France"},"contacts":{"email":"elus@ville-lacellesaintcloud.fr","telephone":"0130781000"},"horaires":"Du Lundi au Vendredi : de 08h30 à 12h30 de 14h00 à 17h00\nLe Samedi : de 09h00 à 12h00\n\naccueil ouvert uniquement pour l'état-civil.","latitude":48.8481,"longitude":2.13683,"website":"http://www.lacellesaintcloud.fr/","hasWebsite":true,"hasHoraires":true,"url":"https://lannuaire.service-public.gouv.fr/ile-de-france/yvelines/2dad54f2-8b78-4f7d-959a-dede277e84c0"}
{"nom":"La Falaise","nomNormalise":"lafalaise","typeCollectivite":"Commune","region":"Île-de-France","departement":"Yvelines","departementCode":"78","adresse":{"street":"6 rue des Grands-Prés","postalCode":"78410","city":"La Falaise","country":"France"},"contacts":{"email":"mairie@la-falaise.fr","telephone":"0130956445"},"horaires":"Du Lundi au Mardi : de 15h00 à 17h30\nLe Vendredi : de 15h00 à 18h30","latitude":48.9455,"longitude":1.83167,"website":"https://la-falaise.fr/","hasWebsite":true,"hasHoraires":true,"url":"https://lannuaire.service-public.gouv.fr/ile-de-france/yvelines/51c4efc1-4b9e-4707-acb1-9cb4fb362c70"}
{"nom":"La Hauteville","nomNormalise":"lahauteville","typeCollectivite":"Commune","region":"Île-de-France","departement":"Yvelines","departementCode":"78","adresse":{"street":"Place du Village","postalCode":"78113","city":"La Hauteville","country":"France"},"contacts":{"email":"mairie@lahauteville.fr","telephone":"0134850206"},"horaires":"Du Mardi au Samedi : de 09h00 à 11h00","latitude":48.704834,"longitude":1.618527,"website":"http://www.lahauteville.fr/","hasWebsite":true,"hasHoraires":true,"url":"https://lannuaire.service-public.gouv.fr/ile-de-france/yvelines/1c2ef89d-b0c8-46d0-9f8b-7157086c6635"}
{"nom":"Lainville-en-Vexin","nomNormalise":"lainvilleenvexin","typeCollectivite":"Commune","region":"Île-de-France","departement":"Yvelines","departementCode":"78","adresse":{"street":"2 rue de la Mairie","postalCode":"78440","city":"Lainville-en-Vexin","country":"France"},"contacts":{"email":"mairie.lainville@orange.fr","telephone":"0134753830"},"horaires":"Le Mercredi : de 09h00 à 12h00\n\nfermé le mercredi suivant le samedi d'ouverture\nLe Jeudi : de 16h30 à 19h30\nLe Samedi : de 09h00 à 12h00\n\nAccueil ouvert uniquement le 1e samedi du mois.","latitude":49.0597,"longitude":1.815999,"website":"https://lainville-en-vexin.fr/","hasWebsite":true,"hasHoraires":true,"url":"https://lannuaire.service-public.gouv.fr/ile-de-france/yvelines/88c5cc9a-ba41-4af0-bc57-1d1a0f7db36b"}
{"nom":"La Queue-lez-Yvelines","nomNormalise":"laqueuelezyvelines","typeCollectivite":"Commune","region":"Île-de-France","departement":"Yvelines","departementCode":"78","adresse":{"street":"50 bis rue Nationale","postalCode":"78940","city":"La Queue-lez-Yvelines","country":"France"},"contacts":{"email":"mairie@la-queue-lez-yvelines.fr","telephone":"0134864055"},"horaires":"Du Lundi au Mercredi : de 10h00 à 12h00 de 15h00 à 17h30\nLe Jeudi : de 10h00 à 12h00\nLe Vendredi : de 10h00 à 12h00 de 15h00 à 17h30\nLe Samedi : de 09h00 à 11h30","latitude":48.8032,"longitude":1.75832,"website":"http://www.la-queue-lez-yvelines.fr/","hasWebsite":true,"hasHoraires":true,"url":"https://lannuaire.service-public.gouv.fr/ile-de-france/yvelines/5ad410cb-a605-40e1-b0f4-5440c337085c"}
{"nom":"La Verrière","nomNormalise":"laverriere","typeCollectivite":"Commune","region":"Île-de-France","departement":"Yvelines","departementCode":"78","adresse":{"street":"1 avenue des Noës","postalCode":"78320","city":"La Verrière","country":"France"},"contacts":{"email":"affaires.generales@mairie-laverriere.fr","telephone":"0130137600"},"horaires":"Du Lundi au Mercredi : de 08h30 à 12h00 de 13h30 à 17h00\nLe Jeudi : de 13h30 à 19h00\nLe Vendredi : de 08h30 à 12h00 de 13h30 à 17h00","latitude":48.757988,"longitude":1.957112,"website":"https://www.ville-laverriere.com/","hasWebsite":true,"hasHoraires":true,"url":"https://lannuaire.service-public.gouv.fr/ile-de-france/yvelines/4f286db6-a8ea-423f-911f-a3e5c1c31a3e"}
{"nom":"La Villeneuve-en-Chevrie","nomNormalise":"lavilleneuveenchevrie","typeCollectivite":"Commune","region":"Île-de-France","departement":"Yvelines","departementCode":"78","adresse":{"street":"42 rue Grande","postalCode":"78270","city":"La Villeneuve-en-Chevrie","country":"France"},"contacts":{"email":"mairie@lavilleneuveenchevrie.fr","telephone":"0134761202"},"horaires":"Le Mardi : de 16h30 à 19h00\nLe Jeudi : de 11h00 à 12h30\nLe Vendredi : de 16h30 à 19h00","latitude":49.01484,"longitude":1.527849,"website":"https://www.lavilleneuveenchevrie.fr/","hasWebsite":true,"hasHoraires":true,"url":"https://lannuaire.service-public.gouv.fr/ile-de-france/yvelines/4de95aa4-6b88-451b-8603-ae93269006e0"}
{"nom":"Le Chesnay-Rocquencourt","nomNormalise":"lechesnayrocquencourt","typeCollectivite":"Commune","region":"Île-de-France","departement":"Yvelines","departementCode":"78","adresse":{"street":"Le Chesnay","postalCode":"78150","city":"Le Chesnay-Rocquencourt","country":"France"},"contacts":{"email":"mairie@lechesnay-rocquencourt.fr","telephone":"0139232323"},"horaires":"Le Lundi : de 08h30 à 17h00\nLe Mardi : de 08h30 à 19h00\n\nAccueil ouvert uniquement pour le service de l'état civil, la caisse, l'urbanisme et l'accueil.\nDu Mercredi au Vendredi : de 08h30 à 17h00\nLe Samedi : de 09h00 à 12h00\n\nAccueil ouvert uniquement pour le service de l'état civil, la caisse, l'urbanisme et l'accueil.","latitude":48.826607,"longitude":2.1257403,"website":"https://www.lechesnay-rocquencourt.fr/","hasWebsite":true,"hasHoraires":true,"url":"https://lannuaire.service-public.gouv.fr/ile-de-france/yvelines/23434cbf-52d1-45bd-ae04-598c623ed220"}
{"nom":"Le Mesnil-le-Roi","nomNormalise":"lemesnilleroi","typeCollectivite":"Commune","region":"Île-de-France","departement":"Yvelines","departementCode":"78","adresse":{"street":"Hôtel-de-Ville","postalCode":"78600","city":"Le Mesnil-le-Roi","country":"France"},"contacts":{"email":"mairie@ville-lemesnilleroi.fr","telephone":"0134932600"},"horaires":"Du Mardi au Vendredi : de 08h45 à 11h45 de 13h30 à 17h45\nLe Samedi : de 08h45 à 12h15","latitude":48.9337,"longitude":2.12429,"website":"http://www.lemesnilleroi.com/","hasWebsite":true,"hasHoraires":true,"url":"https://lannuaire.service-public.gouv.fr/ile-de-france/yvelines/2e4cd50d-2ce5-4f7e-85ee-2ef7e8f13d47"}
{"nom":"Le Mesnil-Saint-Denis","nomNormalise":"lemesnilsaintdenis","typeCollectivite":"Commune","region":"Île-de-France","departement":"Yvelines","departementCode":"78","adresse":{"street":"1 rue Henri-Husson","postalCode":"78322","city":"Le Mesnil-Saint-Denis Cedex","country":"France"},"contacts":{"email":"mairie@lemesnilsaintdenis.fr","telephone":"0130138650"},"horaires":"Du Lundi au Mercredi : de 08h45 à 11h45 de 13h30 à 17h15\nLe Jeudi : de 13h00 à 19h15\nLe Vendredi : de 08h45 à 11h45 de 13h30 à 16h45","latitude":48.74152,"longitude":1.963701,"website":"http://www.lemesnilsaintdenis.fr/","hasWebsite":true,"hasHoraires":true,"url":"https://lannuaire.service-public.gouv.fr/ile-de-france/yvelines/04aca484-7308-4454-ac43-6bbdee72ce9e"}
{"nom":"Le Pecq","nomNormalise":"lepecq","typeCollectivite":"Commune","region":"Île-de-France","departement":"Yvelines","departementCode":"78","adresse":{"street":"13 bis quai Maurice-Berteaux","postalCode":"78231","city":"Le Pecq Cedex","country":"France"},"contacts":{"email":"secretariat.general@ville-lepecq.org","telephone":"0130612121"},"horaires":"Du Lundi au Vendredi : de 08h30 à 12h00 de 13h30 à 17h00\nLe Samedi : de 08h30 à 12h00","latitude":48.89742,"longitude":2.106157,"website":"https://www.ville-lepecq.fr/","hasWebsite":true,"hasHoraires":true,"url":"https://lannuaire.service-public.gouv.fr/ile-de-france/yvelines/e27e6aef-869e-42b5-a2cc-e3a225ced3a0"}
{"nom":"Le Perray-en-Yvelines","nomNormalise":"leperrayenyvelines","typeCollectivite":"Commune","region":"Île-de-France","departement":"Yvelines","departementCode":"78","adresse":{"street":"Place de la Mairie","postalCode":"78610","city":"Le Perray-en-Yvelines","country":"France"},"contacts":{"email":"etatcivil@leperray.fr","telephone":"0130463124"},"horaires":"Le Lundi : de 08h30 à 11h45 de 14h00 à 17h00\nLe Mardi : de 08h30 à 11h45\nLe Mercredi : de 08h30 à 11h45\nLe Jeudi : de 08h30 à 11h45 de 14h00 à 19h00\nLe Vendredi : de 08h30 à 11h45 de 14h00 à 17h00\nLe Samedi : de 09h00 à 11h30\n\nAccueil ouvert uniquement pour l'état civil.","latitude":48.69403,"longitude":1.8548034,"website":"https://leperray.fr/","hasWebsite":true,"hasHoraires":true,"url":"https://lannuaire.service-public.gouv.fr/ile-de-france/yvelines/40dafa84-75f1-445e-8d9c-325e6f2c2799"}
{"nom":"Le Port-Marly","nomNormalise":"leportmarly","typeCollectivite":"Commune","region":"Île-de-France","departement":"Yvelines","departementCode":"78","adresse":{"street":"13 avenue Simon-Vouet","postalCode":"78560","city":"Le Port-Marly","country":"France"},"contacts":{"email":"accueil@port-marly.fr","telephone":"0139173150"},"horaires":"Du Lundi au Jeudi : de 08h30 à 12h00 de 13h30 à 17h30\nLe Vendredi : de 08h30 à 16h00\nLe Samedi : de 09h00 à 12h00","latitude":48.87836,"longitude":2.111638,"website":"http://www.port-marly.fr/","hasWebsite":true,"hasHoraires":true,"url":"https://lannuaire.service-public.gouv.fr/ile-de-france/yvelines/26926a54-e66e-43ee-aca5-845c4e1dfa9a"}
{"nom":"Les Alluets-le-Roi","nomNormalise":"lesalluetsleroi","typeCollectivite":"Commune","region":"Île-de-France","departement":"Yvelines","departementCode":"78","adresse":{"street":"4 rue d'Orgeval","postalCode":"78580","city":"Les Alluets-le-Roi","country":"France"},"contacts":{"email":"mairie@les-alluets-le-roi.fr","telephone":"0139759134"},"horaires":"Le Lundi : de 13h30 à 17h00\nLe Mercredi : de 09h00 à 12h30\nDu Jeudi au Vendredi : de 13h30 à 17h30","latitude":48.91385,"longitude":1.918716,"website":"https://www.les-alluets-le-roi.fr/","hasWebsite":true,"hasHoraires":true,"url":"https://lannuaire.service-public.gouv.fr/ile-de-france/yvelines/ac49252a-2525-43e2-85d9-d969d1abc8c6"}
{"nom":"Les Bréviaires","nomNormalise":"lesbreviaires","typeCollectivite":"Commune","region":"Île-de-France","departement":"Yvelines","departementCode":"78","adresse":{"street":"12 route des Haras","postalCode":"78610","city":"Les Bréviaires","country":"France"},"contacts":{"email":"secretariat@mairie-breviaires78.fr","telephone":"0134578310"},"horaires":"Du Lundi au Mardi : de 08h30 à 12h00 de 14h00 à 17h00\nLe Jeudi : de 08h30 à 12h00\nLe Vendredi : de 08h30 à 12h00 de 14h00 à 17h00\nL'ouverture du matin est décalée à 9h en période de vacances scolaires.","latitude":48.7085,"longitude":1.81397,"website":"https://mairie-breviaires78.fr/","hasWebsite":true,"hasHoraires":true,"url":"https://lannuaire.service-public.gouv.fr/ile-de-france/yvelines/0d285d10-7590-4014-9802-fda50e6d1814"}
{"nom":"Les Clayes-sous-Bois","nomNormalise":"lesclayessousbois","typeCollectivite":"Commune","region":"Île-de-France","departement":"Yvelines","departementCode":"78","adresse":{"street":"Place Charles-de-Gaulle","postalCode":"78340","city":"Les Clayes-sous-Bois","country":"France"},"contacts":{"email":"citoyennete@lesclayessousbois.fr","telephone":"0130793939"},"horaires":"Le Lundi : de 14h00 à 20h00\nDu Mardi au Mercredi : de 08h30 à 12h00 de 13h30 à 17h30\nLe Jeudi : de 08h30 à 12h00 de 15h00 à 17h30\nLe Vendredi : de 08h30 à 12h00 de 13h30 à 17h00","latitude":48.821312,"longitude":1.986541,"website":"https://www.lesclayessousbois.fr/","hasWebsite":true,"hasHoraires":true,"url":"https://lannuaire.service-public.gouv.fr/ile-de-france/yvelines/106ef528-0bef-4561-ad77-db6ecb6faa48"}
{"nom":"Les Essarts-le-Roi","nomNormalise":"lesessartsleroi","typeCollectivite":"Commune","region":"Île-de-France","departement":"Yvelines","departementCode":"78","adresse":{"street":"18 rue du 11-Novembre-1918","postalCode":"78612","city":"Les Essarts-le-Roi","country":"France"},"contacts":{"email":"mairie@essarts-le-roi.org","telephone":"0130464884"},"horaires":"Du Lundi au Mercredi : de 08h30 à 11h45 de 13h45 à 17h30\nLe Vendredi : de 08h30 à 11h45 de 13h45 à 17h30","latitude":48.717598,"longitude":1.894862,"website":"http://www.essarts-le-roi.org/","hasWebsite":true,"hasHoraires":true,"url":"https://lannuaire.service-public.gouv.fr/ile-de-france/yvelines/82f70682-834c-4cd4-99be-23fe8345ef44"}
{"nom":"Les Loges-en-Josas","nomNormalise":"leslogesenjosas","typeCollectivite":"Commune","region":"Île-de-France","departement":"Yvelines","departementCode":"78","adresse":{"street":"2 Grande rue","postalCode":"78350","city":"Les Loges-en-Josas","country":"France"},"contacts":{"email":"accueil@mairieleslogesenjosas.fr","telephone":"0139071670"},"horaires":"Le Lundi : de 08h30 à 12h00 de 14h00 à 17h30\nLe Mardi : de 08h30 à 12h00\nLe Mercredi : de 08h30 à 11h30\nLe Jeudi : de 08h30 à 12h00\nLe Vendredi : de 08h30 à 12h00 de 14h00 à 17h00\nLe Samedi : de 09h30 à 12h00\n\nAccueil fermé pendant les vacances scolaires.","latitude":48.7644,"longitude":2.14094,"website":"http://www.mairieleslogesenjosas.fr/","hasWebsite":true,"hasHoraires":true,"url":"https://lannuaire.service-public.gouv.fr/ile-de-france/yvelines/37d60ca7-fc95-4735-9835-aea50ba143d7"}
{"nom":"Les Mesnuls","nomNormalise":"lesmesnuls","typeCollectivite":"Commune","region":"Île-de-France","departement":"Yvelines","departementCode":"78","adresse":{"street":"6 Grande rue","postalCode":"78490","city":"Les Mesnuls","country":"France"},"contacts":{"email":"mairie@lesmesnuls.fr","telephone":"0134570440"},"horaires":"Le Mardi : de 14h00 à 17h45\nDu Jeudi au Vendredi : de 09h00 à 12h30\nLe Samedi : de 10h00 à 12h00\n\nPermanence des élus.","latitude":48.758266,"longitude":1.836981,"website":"http://www.lesmesnuls.fr/","hasWebsite":true,"hasHoraires":true,"url":"https://lannuaire.service-public.gouv.fr/ile-de-france/yvelines/2d2ba6fe-1f6b-49ff-8ea8-78eef864032d"}
{"nom":"Les Mureaux","nomNormalise":"lesmureaux","typeCollectivite":"Commune","region":"Île-de-France","departement":"Yvelines","departementCode":"78","adresse":{"street":"Place de la Libération","postalCode":"78135","city":"Les Mureaux Cedex","country":"France"},"contacts":{"email":"nous.contacter@ville-lesmureaux.fr","telephone":"0130913737"},"horaires":"Du Lundi au Vendredi : de 08h30 à 12h00 de 14h30 à 17h30\nLe Samedi : de 08h30 à 12h00\n\nAccueil ouvert uniquement pour l'état civil, la régie et la scolarité.","latitude":48.9934,"longitude":1.91034,"website":"https://www.lesmureaux.fr/","hasWebsite":true,"hasHoraires":true,"url":"https://lannuaire.service-public.gouv.fr/ile-de-france/yvelines/861a9017-efe8-41b6-a699-58c66ea5c77b"}
{"nom":"Le Tartre-Gaudran","nomNormalise":"letartregaudran","typeCollectivite":"Commune","region":"Île-de-France","departement":"Yvelines","departementCode":"78","adresse":{"street":"Place Aristide-Bieuville","postalCode":"78113","city":"Le Tartre-Gaudran","country":"France"},"contacts":{"email":"mairiedutartre@orange.fr","telephone":"0134850453"},"horaires":"Le Mercredi : de 14h30 à 18h00","latitude":48.700077,"longitude":1.595777,"website":"","hasWebsite":false,"hasHoraires":true,"url":"https://lannuaire.service-public.gouv.fr/ile-de-france/yvelines/42062920-1625-4b3e-8d5a-f66ad3f0f451"}
{"nom":"Le Tertre-Saint-Denis","nomNormalise":"letertresaintdenis","typeCollectivite":"Commune","region":"Île-de-France","departement":"Yvelines","departementCode":"78","adresse":{"street":"3 rue de la Mairie","postalCode":"78980","city":"Le Tertre-Saint-Denis","country":"France"},"contacts":{"email":"mairie-tertrestdenis@wanadoo.fr","telephone":"0130425533"},"horaires":"Le Mercredi : de 15h30 à 18h00","latitude":48.937767,"longitude":1.6072525,"website":"","hasWebsite":false,"hasHoraires":true,"url":"https://lannuaire.service-public.gouv.fr/ile-de-france/yvelines/aea39223-3f07-4576-bb0d-0f3fbecdda85"}
{"nom":"Le Tremblay-sur-Mauldre","nomNormalise":"letremblaysurmauldre","typeCollectivite":"Commune","region":"Île-de-France","departement":"Yvelines","departementCode":"78","adresse":{"street":"17 rue du Pavé","postalCode":"78490","city":"Le Tremblay-sur-Mauldre","country":"France"},"contacts":{"email":"mairie.tremblaysurmauldre@wanadoo.fr","telephone":"0134878264"},"horaires":"Le Lundi : de 10h00 à 12h00\nLe Mercredi : de 10h00 à 12h00 de 14h00 à 16h00\nLe Jeudi : de 14h00 à 18h00\nLe Vendredi : de 10h00 à 12h00","latitude":48.778408,"longitude":1.875157,"website":"https://www.letremblaysurmauldre.fr/","hasWebsite":true,"hasHoraires":true,"url":"https://lannuaire.service-public.gouv.fr/ile-de-france/yvelines/c99d6359-3799-4c62-9906-c76586a6b0bd"}
{"nom":"Le Vésinet","nomNormalise":"levesinet","typeCollectivite":"Commune","region":"Île-de-France","departement":"Yvelines","departementCode":"78","adresse":{"street":"60 boulevard Carnot","postalCode":"78116","city":"Le Vésinet Cedex","country":"France"},"contacts":{"email":"mairie@levesinet.fr","telephone":"0130154700"},"horaires":"Du Lundi au Mercredi : de 08h30 à 12h00 de 13h30 à 17h30\nLe Jeudi : de 13h30 à 17h30\nLe Vendredi : de 08h30 à 12h00 de 13h30 à 17h30","latitude":48.89412,"longitude":2.134595,"website":"https://www.levesinet.fr/","hasWebsite":true,"hasHoraires":true,"url":"https://lannuaire.service-public.gouv.fr/ile-de-france/yvelines/49f84f55-ab89-4ae8-98a6-dd3b651901e4"}
{"nom":"Lévis-Saint-Nom","nomNormalise":"levissaintnom","typeCollectivite":"Commune","region":"Île-de-France","departement":"Yvelines","departementCode":"78","adresse":{"street":"Place Yvon-Esnault","postalCode":"78320","city":"Lévis-Saint-Nom","country":"France"},"contacts":{"email":"mairie@levis-saint-nom.fr","telephone":"0134618205"},"horaires":"Du Lundi au Mercredi : de 08h30 à 12h00\nLe Jeudi : de 08h30 à 12h00 de 14h00 à 20h00\nLe Vendredi : de 08h30 à 12h00","latitude":48.721508,"longitude":1.948299,"website":"http://www.levis-saint-nom.fr/","hasWebsite":true,"hasHoraires":true,"url":"https://lannuaire.service-public.gouv.fr/ile-de-france/yvelines/a52e744b-b273-4d98-b256-3d228fed45a3"}
{"nom":"Limay","nomNormalise":"limay","typeCollectivite":"Commune","region":"Île-de-France","departement":"Yvelines","departementCode":"78","adresse":{"street":"5 avenue du Président-Wilson","postalCode":"78520","city":"Limay","country":"France"},"contacts":{"email":"accueil@ville-limay.fr","telephone":"0134972727"},"horaires":"Du Lundi au Vendredi : de 08h30 à 12h00 de 13h30 à 17h30\nLe Samedi : de 09h00 à 12h30","latitude":48.992,"longitude":1.73534,"website":"http://www.ville-limay.fr/","hasWebsite":true,"hasHoraires":true,"url":"https://lannuaire.service-public.gouv.fr/ile-de-france/yvelines/a131b166-0c3c-468e-bdca-04b2195ae32c"}
{"nom":"Limetz-Villez","nomNormalise":"limetzvillez","typeCollectivite":"Commune","region":"Île-de-France","departement":"Yvelines","departementCode":"78","adresse":{"street":"11 rue de la Mairie","postalCode":"78270","city":"Limetz-Villez","country":"France"},"contacts":{"email":"mairie@limetz-villez.fr","telephone":"0130931120"},"horaires":"Du Lundi au Mardi : de 08h00 à 12h00 de 13h00 à 17h00\nDu Jeudi au Vendredi : de 08h00 à 12h00 de 13h00 à 17h00\nLe Samedi : de 09h00 à 12h00","latitude":49.060818,"longitude":1.545707,"website":"http://www.limetz-villez.fr/","hasWebsite":true,"hasHoraires":true,"url":"https://lannuaire.service-public.gouv.fr/ile-de-france/yvelines/072cf4c3-d8c1-4443-ae6a-b44f4bad6fc2"}
{"nom":"Lommoye","nomNormalise":"lommoye","typeCollectivite":"Commune","region":"Île-de-France","departement":"Yvelines","departementCode":"78","adresse":{"street":"10 rue Pasteur","postalCode":"78270","city":"Lommoye","country":"France"},"contacts":{"email":"mairie.lommoye@lommoye.fr","telephone":"0134761114"},"horaires":"Le Mardi : de 18h00 à 19h00\nLe Vendredi : de 18h00 à 19h00","latitude":48.994,"longitude":1.515642,"website":"","hasWebsite":false,"hasHoraires":true,"url":"https://lannuaire.service-public.gouv.fr/ile-de-france/yvelines/dd73a4b2-63ed-4bef-8925-ccd75193b31e"}
{"nom":"Longnes","nomNormalise":"longnes","typeCollectivite":"Commune","region":"Île-de-France","departement":"Yvelines","departementCode":"78","adresse":{"street":"2 rue des Tourelles","postalCode":"78980","city":"Longnes","country":"France"},"contacts":{"email":"mairie@longnes.fr","telephone":"0130425068"},"horaires":"Du Lundi au Mardi : de 15h00 à 17h00\nDu Jeudi au Vendredi : de 15h00 à 17h00\nLe Samedi : de 09h00 à 12h00\n\nLe premier samedi du mois de 09h00 à 12h00","latitude":48.919983,"longitude":1.585325,"website":"https://www.longnes.fr/","hasWebsite":true,"hasHoraires":true,"url":"https://lannuaire.service-public.gouv.fr/ile-de-france/yvelines/e6122ee0-c421-4f00-8831-f21ceffb2869"}
{"nom":"Longvilliers","nomNormalise":"longvilliers","typeCollectivite":"Commune","region":"Île-de-France","departement":"Yvelines","departementCode":"78","adresse":{"street":"4 route de Rochefort","postalCode":"78730","city":"Longvilliers","country":"France"},"contacts":{"email":"mairie.longvilliers@wanadoo.fr","telephone":"0130413396"},"horaires":"Le Mardi : de 14h00 à 17h00\nLe Jeudi : de 14h00 à 17h00\nLe Samedi : de 09h00 à 12h00","latitude":48.578266,"longitude":1.9911039,"website":"http://longvilliers.free.fr/","hasWebsite":true,"hasHoraires":true,"url":"https://lannuaire.service-public.gouv.fr/ile-de-france/yvelines/31fe05e3-b792-4caa-bdc1-19f895d30066"}
{"nom":"Louveciennes","nomNormalise":"louveciennes","typeCollectivite":"Commune","region":"Île-de-France","departement":"Yvelines","departementCode":"78","adresse":{"street":"30 rue du Général-Leclerc","postalCode":"78430","city":"Louveciennes","country":"France"},"contacts":{"email":"info@mairie-louveciennes.fr","telephone":"0130821313"},"horaires":"Du Lundi au Vendredi : de 08h30 à 12h00 de 13h30 à 17h30\nLe Samedi : de 09h30 à 12h00\n\nAccueil ouvert uniquement 2 samedis par mois, voir les dates sur le site internet de la mairie.","latitude":48.861057,"longitude":2.114929,"website":"http://www.mairie-louveciennes.fr/","hasWebsite":true,"hasHoraires":true,"url":"https://lannuaire.service-public.gouv.fr/ile-de-france/yvelines/e2b9ab8c-d1b5-4074-a001-bca4055dab3b"}
{"nom":"Magnanville","nomNormalise":"magnanville","typeCollectivite":"Commune","region":"Île-de-France","departement":"Yvelines","departementCode":"78","adresse":{"street":"Rue de la Ferme","postalCode":"78200","city":"Magnanville","country":"France"},"contacts":{"email":"contact@mairie-magnanville.fr","telephone":"0130928727"},"horaires":"Du Lundi au Mercredi : de 08h30 à 12h00 de 13h30 à 17h00\nLe Jeudi : de 13h30 à 17h00\nLe Vendredi : de 08h30 à 12h00 de 13h30 à 19h00","latitude":48.9672,"longitude":1.68032,"website":"http://www.magnanville.fr/","hasWebsite":true,"hasHoraires":true,"url":"https://lannuaire.service-public.gouv.fr/ile-de-france/yvelines/4c6e4510-8740-48ac-b5d7-1625faee9017"}
{"nom":"Magny-les-Hameaux","nomNormalise":"magnyleshameaux","typeCollectivite":"Commune","region":"Île-de-France","departement":"Yvelines","departementCode":"78","adresse":{"street":"1 place Pierre-Bérégovoy","postalCode":"78114","city":"Magny-les-Hameaux","country":"France"},"contacts":{"email":"hoteldeville@magny-les-hameaux.fr","telephone":"0139447171"},"horaires":"Du Lundi au Mardi : de 08h45 à 12h30 de 13h30 à 18h00\nLe Mercredi : de 13h30 à 19h00\nLe Jeudi : de 08h45 à 12h30 de 13h30 à 18h00\nLe Vendredi : de 08h45 à 12h30 de 13h30 à 16h30\nLe Samedi : de 09h00 à 12h00\n\nAccueil fermé durant les vacances scolaire.","latitude":48.72465,"longitude":2.083532,"website":"http://www.magny-les-hameaux.fr/","hasWebsite":true,"hasHoraires":true,"url":"https://lannuaire.service-public.gouv.fr/ile-de-france/yvelines/d5b04249-07c0-453e-9833-ece522ee1779"}
{"nom":"Maisons-Laffitte","nomNormalise":"maisonslaffitte","typeCollectivite":"Commune","region":"Île-de-France","departement":"Yvelines","departementCode":"78","adresse":{"street":"48 avenue de Longueil","postalCode":"78605","city":"Maisons-Laffitte Cedex","country":"France"},"contacts":{"email":"accueil@maisonslaffitte.fr","telephone":"0134931200"},"horaires":"Du Lundi au Vendredi : de 08h30 à 12h00 de 13h30 à 17h30","latitude":48.9461,"longitude":2.14528,"website":"http://www.maisonslaffitte.fr/","hasWebsite":true,"hasHoraires":true,"url":"https://lannuaire.service-public.gouv.fr/ile-de-france/yvelines/cde880df-1410-4710-bf11-8cab86cbdaa2"}
{"nom":"Mantes-la-Jolie","nomNormalise":"manteslajolie","typeCollectivite":"Commune","region":"Île-de-France","departement":"Yvelines","departementCode":"78","adresse":{"street":"31 rue Gambetta","postalCode":"78200","city":"Mantes-la-Jolie","country":"France"},"contacts":{"email":"serviceetatcivil@manteslajolie.fr","telephone":"0134788100"},"horaires":"Le Lundi : de 09h00 à 12h00 de 13h00 à 17h00\nLe Mardi : de 09h00 à 12h00 de 13h00 à 19h00\nLe Mercredi : de 09h00 à 12h00 de 13h00 à 17h00\nLe Jeudi : de 13h00 à 17h00\nLe Vendredi : de 09h00 à 12h00 de 13h00 à 17h00\nLe Samedi : de 09h00 à 12h00","latitude":48.989372,"longitude":1.715374,"website":"https://www.manteslajolie.fr/","hasWebsite":true,"hasHoraires":true,"url":"https://lannuaire.service-public.gouv.fr/ile-de-france/yvelines/7eb6580d-f760-471c-8e83-f695494b5389"}
{"nom":"Mantes-la-Ville","nomNormalise":"manteslaville","typeCollectivite":"Commune","region":"Île-de-France","departement":"Yvelines","departementCode":"78","adresse":{"street":"Place de la Mairie","postalCode":"78711","city":"Mantes-la-Ville","country":"France"},"contacts":{"email":"population@manteslaville.fr","telephone":"0130985549"},"horaires":"Le Lundi : de 08h30 à 12h00 de 13h30 à 17h30\nLe Mardi : de 13h00 à 19h00\nDu Mercredi au Jeudi : de 08h30 à 12h00 de 13h30 à 17h30\nLe Vendredi : de 08h30 à 12h00 de 13h30 à 16h00\nLe Samedi : de 09h00 à 12h00","latitude":48.978153,"longitude":1.713371,"website":"https://www.manteslaville.fr/","hasWebsite":true,"hasHoraires":true,"url":"https://lannuaire.service-public.gouv.fr/ile-de-france/yvelines/68e4009e-3f37-4622-b0e8-eb12fb6ae289"}
{"nom":"Marcq-en-Yvelines","nomNormalise":"marcqenyvelines","typeCollectivite":"Commune","region":"Île-de-France","departement":"Yvelines","departementCode":"78","adresse":{"street":"Place de la Mairie","postalCode":"78770","city":"Marcq","country":"France"},"contacts":{"email":"mairiedemarcq@wanadoo.fr","telephone":"0134874164"},"horaires":"Le Lundi : de 16h00 à 19h00\nLe Vendredi : de 16h00 à 20h00","latitude":48.85971,"longitude":1.81912,"website":"http://www.marcq-en-yvelines.fr/","hasWebsite":true,"hasHoraires":true,"url":"https://lannuaire.service-public.gouv.fr/ile-de-france/yvelines/bcfd811a-250d-492c-bedf-b354e8868f57"}
{"nom":"Mareil-le-Guyon","nomNormalise":"mareilleguyon","typeCollectivite":"Commune","region":"Île-de-France","departement":"Yvelines","departementCode":"78","adresse":{"street":"6 rue de l'Hirondelle","postalCode":"78490","city":"Mareil-le-Guyon","country":"France"},"contacts":{"email":"mairie@mareil-le-guyon.fr","telephone":"0134861103"},"horaires":"Le Lundi : de 16h00 à 19h00\nLe Mardi : de 09h00 à 11h00\nLe Jeudi : de 09h00 à 11h00","latitude":48.7898,"longitude":1.84765,"website":"http://www.mareil-le-guyon.fr/","hasWebsite":true,"hasHoraires":true,"url":"https://lannuaire.service-public.gouv.fr/ile-de-france/yvelines/3c06493c-0aa8-449b-bd39-93719d558579"}
{"nom":"Mareil-Marly","nomNormalise":"mareilmarly","typeCollectivite":"Commune","region":"Île-de-France","departement":"Yvelines","departementCode":"78","adresse":{"street":"2 rue Tellier-Frères","postalCode":"78750","city":"Mareil-Marly","country":"France"},"contacts":{"email":"contact@mareil-marly.fr","telephone":"0139171490"},"horaires":"Du Lundi au Mardi : de 08h30 à 12h00 de 13h30 à 17h00\nLe Mercredi : de 08h30 à 12h00 de 13h30 à 16h45\nLe Jeudi : de 08h30 à 12h00\nLe Vendredi : de 08h30 à 12h00 de 13h30 à 16h00","latitude":48.88242,"longitude":2.0768,"website":"http://www.mareil-marly.fr/","hasWebsite":true,"hasHoraires":true,"url":"https://lannuaire.service-public.gouv.fr/ile-de-france/yvelines/38d808d0-e96a-4ea7-a875-955a2b8786a8"}
{"nom":"Mareil-sur-Mauldre","nomNormalise":"mareilsurmauldre","typeCollectivite":"Commune","region":"Île-de-France","departement":"Yvelines","departementCode":"78","adresse":{"street":"8 rue Degly-Maillot","postalCode":"78124","city":"Mareil-sur-Mauldre","country":"France"},"contacts":{"email":"mairie@mareil-sur-mauldre.fr","telephone":"0130907166"},"horaires":"Du Lundi au Vendredi : de 14h00 à 17h30\nLe Samedi : de 09h00 à 12h00","latitude":48.8942,"longitude":1.86559,"website":"https://www.mareil-sur-mauldre.fr/","hasWebsite":true,"hasHoraires":true,"url":"https://lannuaire.service-public.gouv.fr/ile-de-france/yvelines/49f14c14-d073-4c31-9f9f-1301d6c6a8bb"}
{"nom":"Marly-le-Roi","nomNormalise":"marlyleroi","typeCollectivite":"Commune","region":"Île-de-France","departement":"Yvelines","departementCode":"78","adresse":{"street":"Place du Général-de-Gaulle","postalCode":"78160","city":"Marly-le-Roi","country":"France"},"contacts":{"email":"info@marlyleroi.fr","telephone":"0130616000"},"horaires":"Du Lundi au Vendredi : de 08h30 à 12h00 de 13h30 à 17h30\nLe Samedi : de 09h00 à 12h00","latitude":48.867893,"longitude":2.096781,"website":"https://www.marlyleroi.fr/","hasWebsite":true,"hasHoraires":true,"url":"https://lannuaire.service-public.gouv.fr/ile-de-france/yvelines/15089681-1ae4-4b40-b8de-1e5946e3ccab"}
{"nom":"Maule","nomNormalise":"maule","typeCollectivite":"Commune","region":"Île-de-France","departement":"Yvelines","departementCode":"78","adresse":{"street":"Rue des Galliens","postalCode":"78580","city":"Maule","country":"France"},"contacts":{"email":"contact.mairie@maule.fr","telephone":"0130904900"},"horaires":"Du Lundi au Vendredi : de 09h00 à 12h00 de 14h00 à 17h00\nLe Samedi : de 09h00 à 12h00","latitude":48.9094,"longitude":1.8483,"website":"http://www.maule.fr/","hasWebsite":true,"hasHoraires":true,"url":"https://lannuaire.service-public.gouv.fr/ile-de-france/yvelines/f97ed03a-8784-4fcc-a4f8-4fb31335ee33"}
{"nom":"Maulette","nomNormalise":"maulette","typeCollectivite":"Commune","region":"Île-de-France","departement":"Yvelines","departementCode":"78","adresse":{"street":"5 rue de l'École","postalCode":"78550","city":"Maulette","country":"France"},"contacts":{"email":"mairie@maulette.fr","telephone":"0130596254"},"horaires":"Le Lundi : de 14h00 à 18h00\nLe Mardi : de 14h00 à 19h00\nLe Mercredi : de 09h00 à 14h00\nLe Vendredi : de 14h00 à 19h00\nLe Samedi : de 09h00 à 12h00\n\nAccueil ouvert les 1er et 3e samedis du mois.","latitude":48.7912,"longitude":1.62781,"website":"http://www.maulette.fr/","hasWebsite":true,"hasHoraires":true,"url":"https://lannuaire.service-public.gouv.fr/ile-de-france/yvelines/685dfb9c-73d0-40a4-936e-5fd191d6fa80"}
{"nom":"Maurecourt","nomNormalise":"maurecourt","typeCollectivite":"Commune","region":"Île-de-France","departement":"Yvelines","departementCode":"78","adresse":{"street":"1 rue du Maréchal-Leclerc","postalCode":"78780","city":"Maurecourt","country":"France"},"contacts":{"email":"accueil@ville-maurecourt.fr","telephone":"0139702320"},"horaires":"Du Lundi au Mardi : de 09h00 à 12h00 de 15h00 à 18h00\nLe Mercredi : de 09h00 à 12h00\nLe Jeudi : de 08h30 à 12h00 de 15h00 à 18h00\nLe Vendredi : de 09h00 à 12h00 de 15h00 à 18h00\nLe Samedi : de 08h30 à 12h00","latitude":48.996445,"longitude":2.062657,"website":"http://www.ville-maurecourt.fr/","hasWebsite":true,"hasHoraires":true,"url":"https://lannuaire.service-public.gouv.fr/ile-de-france/yvelines/37e26ffb-a9f4-443a-8742-03105b8bd1b3"}
{"nom":"Maurepas","nomNormalise":"maurepas","typeCollectivite":"Commune","region":"Île-de-France","departement":"Yvelines","departementCode":"78","adresse":{"street":"2 place d'Auxois","postalCode":"78310","city":"Maurepas","country":"France"},"contacts":{"email":"mairie@maurepas.fr","telephone":"0130665400"},"horaires":"Le Lundi : de 14h00 à 17h00\nDu Mardi au Mercredi : de 08h30 à 12h30 de 14h00 à 17h00\nLe Jeudi : de 14h00 à 17h00\nLe Vendredi : de 08h30 à 12h30 de 14h00 à 17h00\nLe Samedi : de 09h00 à 12h30\n\nAccueil fermé pendant les congés scolaires.","latitude":48.762093,"longitude":1.9451782,"website":"https://www.maurepas.fr/","hasWebsite":true,"hasHoraires":true,"url":"https://lannuaire.service-public.gouv.fr/ile-de-france/yvelines/7ffae8b5-6397-4540-98dc-fb53a35d0b8c"}
{"nom":"Médan","nomNormalise":"medan","typeCollectivite":"Commune","region":"Île-de-France","departement":"Yvelines","departementCode":"78","adresse":{"street":"18 rue de Verdun","postalCode":"78670","city":"Médan","country":"France"},"contacts":{"email":"communedemedan.accueil@orange.fr","telephone":"0139081000"},"horaires":"Du Lundi au Samedi : de 09h00 à 12h00","latitude":48.952995,"longitude":1.9959388,"website":"http://villemedan.fr/","hasWebsite":true,"hasHoraires":true,"url":"https://lannuaire.service-public.gouv.fr/ile-de-france/yvelines/2ad915fa-9679-494a-87cb-d3c81d4e21fd"}
{"nom":"Ménerville","nomNormalise":"menerville","typeCollectivite":"Commune","region":"Île-de-France","departement":"Yvelines","departementCode":"78","adresse":{"street":"Place de la Gare","postalCode":"78200","city":"Ménerville","country":"France"},"contacts":{"email":"mairiemenerville@wanadoo.fr","telephone":"0134783560"},"horaires":"Le Lundi : de 09h00 à 12h00 de 13h00 à 18h00\nLe Jeudi : de 09h00 à 12h00 de 13h00 à 16h00\n\nAccueil ouvert jusqu'à 18h les semaines impaires.\nLe Samedi : de 10h00 à 12h00\n\nAccueil ouvert uniquement les semaines paires.","latitude":48.966415,"longitude":1.6016438,"website":"","hasWebsite":false,"hasHoraires":true,"url":"https://lannuaire.service-public.gouv.fr/ile-de-france/yvelines/e2358ac4-c1fc-40c8-bc29-3f09e9472807"}
{"nom":"Méré","nomNormalise":"mere","typeCollectivite":"Commune","region":"Île-de-France","departement":"Yvelines","departementCode":"78","adresse":{"street":"Square Raoul-Breton","postalCode":"78490","city":"Méré","country":"France"},"contacts":{"email":"secretariat@mairie-mere.fr","telephone":"0134860213"},"horaires":"Le Lundi : de 09h00 à 12h00\nLe Mardi : de 15h00 à 18h00\nLe Mercredi : de 09h00 à 12h00 de 15h00 à 17h00\nLe Jeudi : de 09h00 à 12h00\nLe Vendredi : de 09h00 à 12h00 de 15h00 à 17h00\nLe Samedi : de 10h00 à 12h00\n\nLe 1er et 3ème Samedi de chaque mois (hors vacances scolaires).","latitude":48.787613,"longitude":1.820012,"website":"https://www.mere-village.fr/","hasWebsite":true,"hasHoraires":true,"url":"https://lannuaire.service-public.gouv.fr/ile-de-france/yvelines/b6f1c8ae-2654-4488-879d-1215ac5e90b7"}
{"nom":"Méricourt","nomNormalise":"mericourt","typeCollectivite":"Commune","region":"Île-de-France","departement":"Yvelines","departementCode":"78","adresse":{"street":"22 Grande rue","postalCode":"78270","city":"Méricourt","country":"France"},"contacts":{"email":"mericourt.mairie@wanadoo.fr","telephone":"0134793306"},"horaires":"Le Mardi : de 17h00 à 19h00\nLe Vendredi : de 17h00 à 19h00","latitude":49.0369,"longitude":1.6296,"website":"","hasWebsite":false,"hasHoraires":true,"url":"https://lannuaire.service-public.gouv.fr/ile-de-france/yvelines/207d6b75-0d73-4774-9e1a-651714413c54"}
{"nom":"Meulan-en-Yvelines","nomNormalise":"meulanenyvelines","typeCollectivite":"Commune","region":"Île-de-France","departement":"Yvelines","departementCode":"78","adresse":{"street":"10 place Brigitte-Gros","postalCode":"78250","city":"Meulan-en-Yvelines","country":"France"},"contacts":{"email":"mairie@ville-meulan.fr","telephone":"0130904141"},"horaires":"Le Lundi : de 08h30 à 12h30 de 13h30 à 17h00\n\nContacter l'accueil pour obtenir les horaires d'ouverture en juillet-août.\nLe Mardi : de 08h30 à 12h30\nLe Mercredi : de 08h30 à 17h00\nDu Jeudi au Vendredi : de 08h30 à 12h30 de 13h30 à 17h00\nLe Samedi : de 08h30 à 12h00","latitude":49.0046,"longitude":1.9105,"website":"https://www.ville-meulan.fr/","hasWebsite":true,"hasHoraires":true,"url":"https://lannuaire.service-public.gouv.fr/ile-de-france/yvelines/46f159f9-ba95-47d1-9d89-130f716d372c"}
{"nom":"Mézières-sur-Seine","nomNormalise":"mezieressurseine","typeCollectivite":"Commune","region":"Île-de-France","departement":"Yvelines","departementCode":"78","adresse":{"street":"Place du Commandant-Grimblot","postalCode":"78970","city":"Mézières-sur-Seine","country":"France"},"contacts":{"email":"accueil@mezieres78.fr","telephone":"0130956113"},"horaires":"Du Lundi au Vendredi : de 08h30 à 12h00 de 13h30 à 17h00\n\n1 Jeudi par mois de 10h30 à 12h et de 13h30 à 19h","latitude":48.9606,"longitude":1.79539,"website":"https://www.mezieres78.fr/","hasWebsite":true,"hasHoraires":true,"url":"https://lannuaire.service-public.gouv.fr/ile-de-france/yvelines/4de4d599-692d-4679-a8c0-d5b0140bbd2b"}
{"nom":"Mézy-sur-Seine","nomNormalise":"mezysurseine","typeCollectivite":"Commune","region":"Île-de-France","departement":"Yvelines","departementCode":"78","adresse":{"street":"1 place Paul-Bargeton","postalCode":"78250","city":"Mézy-sur-Seine","country":"France"},"contacts":{"email":"contact@mairie-mezy.fr","telephone":"0134741331"},"horaires":"Du Lundi au Vendredi : de 09h00 à 11h45 de 15h30 à 17h00\nLe Samedi : de 09h00 à 11h45","latitude":48.9995,"longitude":1.88189,"website":"https://www.mairie-mezy.fr/","hasWebsite":true,"hasHoraires":true,"url":"https://lannuaire.service-public.gouv.fr/ile-de-france/yvelines/056e83e3-a350-4170-8ced-df0465318d29"}
{"nom":"Millemont","nomNormalise":"millemont","typeCollectivite":"Commune","region":"Île-de-France","departement":"Yvelines","departementCode":"78","adresse":{"street":"2 place Maurice-Richard","postalCode":"78940","city":"Millemont","country":"France"},"contacts":{"email":"mairie.millemont@wanadoo.fr","telephone":"0134864168"},"horaires":"Le Lundi : de 16h00 à 18h00\nLe Mercredi : de 16h00 à 18h00\nLe Vendredi : de 16h00 à 18h00","latitude":48.808994,"longitude":1.744839,"website":"http://www.millemont.fr/","hasWebsite":true,"hasHoraires":true,"url":"https://lannuaire.service-public.gouv.fr/ile-de-france/yvelines/277fd8cf-1a40-4921-9f2b-53a99a428c02"}
{"nom":"Milon-la-Chapelle","nomNormalise":"milonlachapelle","typeCollectivite":"Commune","region":"Île-de-France","departement":"Yvelines","departementCode":"78","adresse":{"street":"2 route de Romainville","postalCode":"78470","city":"Milon-la-Chapelle","country":"France"},"contacts":{"email":"mairie-de-milon@wanadoo.fr","telephone":"0130521922"},"horaires":"Du Lundi au Mardi : de 09h00 à 11h30\nDu Jeudi au Samedi : de 09h00 à 11h30","latitude":48.7288,"longitude":2.0443,"website":"http://www.milon-la-chapelle.fr/","hasWebsite":true,"hasHoraires":true,"url":"https://lannuaire.service-public.gouv.fr/ile-de-france/yvelines/c63dafee-56b5-4045-9396-1fbf603f0922"}
{"nom":"Mittainville","nomNormalise":"mittainville","typeCollectivite":"Commune","region":"Île-de-France","departement":"Yvelines","departementCode":"78","adresse":{"street":"5 rue de la Mairie","postalCode":"78125","city":"Mittainville","country":"France"},"contacts":{"email":"secretariat@mairie-mittainville.fr","telephone":"0134850162"},"horaires":"Le Mardi : de 16h00 à 18h00\nLe Jeudi : de 15h00 à 18h00\nLe Samedi : de 10h00 à 12h00","latitude":48.665337,"longitude":1.623557,"website":"http://www.mairie-mittainville.fr/","hasWebsite":true,"hasHoraires":true,"url":"https://lannuaire.service-public.gouv.fr/ile-de-france/yvelines/58924eac-7ae1-41a1-81cd-2f1725a9c77e"}
{"nom":"Moisson","nomNormalise":"moisson","typeCollectivite":"Commune","region":"Île-de-France","departement":"Yvelines","departementCode":"78","adresse":{"street":"34 route de Lavacourt","postalCode":"78840","city":"Moisson","country":"France"},"contacts":{"email":"accueil@moisson.fr","telephone":"0134793041"},"horaires":"Du Lundi au Mardi : de 09h00 à 12h00\nLe Jeudi : de 09h00 à 12h00\nLe Samedi : de 09h00 à 12h00","latitude":49.07304,"longitude":1.6703027,"website":"http://www.moisson.fr/","hasWebsite":true,"hasHoraires":true,"url":"https://lannuaire.service-public.gouv.fr/ile-de-france/yvelines/b9f2d8db-70e6-4a7e-8000-d101043d8fbd"}
{"nom":"Mondreville","nomNormalise":"mondreville","typeCollectivite":"Commune","region":"Île-de-France","departement":"Yvelines","departementCode":"78","adresse":{"street":"14 route Nationale","postalCode":"78980","city":"Mondreville","country":"France"},"contacts":{"email":"mairie-mondreville@wanadoo.fr","telephone":"0130425224"},"horaires":"Le Mardi : de 16h00 à 18h00\nLe Jeudi : de 16h00 à 19h00\nLe Samedi : de 10h00 à 12h00\n\nAccueil ouvert uniquement le 1er samedi du mois.","latitude":48.9031,"longitude":1.551,"website":"https://www.mondreville.fr/","hasWebsite":true,"hasHoraires":true,"url":"https://lannuaire.service-public.gouv.fr/ile-de-france/yvelines/57bfe055-e939-44d9-94d8-1cdca4090a9b"}
{"nom":"Montainville","nomNormalise":"montainville","typeCollectivite":"Commune","region":"Île-de-France","departement":"Yvelines","departementCode":"78","adresse":{"street":"Place de la Mairie","postalCode":"78124","city":"Montainville","country":"France"},"contacts":{"email":"mairie@montainville78.com","telephone":"0130906762"},"horaires":"Le Lundi : de 09h30 à 11h30 de 14h30 à 16h30\nLe Samedi : de 09h30 à 11h30","latitude":48.8784,"longitude":1.82255,"website":"http://www.montainville78.com/","hasWebsite":true,"hasHoraires":true,"url":"https://lannuaire.service-public.gouv.fr/ile-de-france/yvelines/268e184f-454d-4bdb-a615-5890e7679eb3"}
{"nom":"Montalet-le-Bois","nomNormalise":"montaletlebois","typeCollectivite":"Commune","region":"Île-de-France","departement":"Yvelines","departementCode":"78","adresse":{"street":"2 rue de l'Église","postalCode":"78440","city":"Montalet-le-Bois","country":"France"},"contacts":{"email":"contact@montaletlebois.fr","telephone":"0134753835"},"horaires":"Le Lundi : de 16h00 à 19h00\nLe Mardi : de 10h00 à 12h00 de 14h00 à 17h00\nLe Jeudi : de 10h00 à 12h00 de 14h00 à 17h00\nLe Vendredi : de 10h00 à 12h00\nMercredi et Samedi : Fermé","latitude":49.045998,"longitude":1.825897,"website":"https://montaletlebois.fr/","hasWebsite":true,"hasHoraires":true,"url":"https://lannuaire.service-public.gouv.fr/ile-de-france/yvelines/1fec2098-3ea7-41df-8356-9911ad4309bf"}
{"nom":"Montchauvet","nomNormalise":"montchauvet","typeCollectivite":"Commune","region":"Île-de-France","departement":"Yvelines","departementCode":"78","adresse":{"street":"8 rue de la Mairie","postalCode":"78790","city":"Montchauvet","country":"France"},"contacts":{"email":"m.montchauvet@wanadoo.fr","telephone":"0130934359"},"horaires":"Le Lundi : de 17h30 à 18h30\nLe Jeudi : de 17h30 à 18h30\nLe samedi uniquement sur rendez-vous.","latitude":48.891384,"longitude":1.630631,"website":"https://www.montchauvet.fr/","hasWebsite":true,"hasHoraires":true,"url":"https://lannuaire.service-public.gouv.fr/ile-de-france/yvelines/7dd0ed49-97c3-4596-895f-373b28c33544"}
{"nom":"Montesson","nomNormalise":"montesson","typeCollectivite":"Commune","region":"Île-de-France","departement":"Yvelines","departementCode":"78","adresse":{"street":"1 place Roland-Gauthier","postalCode":"78362","city":"Montesson","country":"France"},"contacts":{"email":"citoyennete@montesson.fr","telephone":"0130153939"},"horaires":"Du Lundi au Mardi : de 08h30 à 12h00 de 13h30 à 17h30\nLe Mercredi : de 08h30 à 12h00 de 13h30 à 16h30\nLe Jeudi : de 08h30 à 12h00 de 13h30 à 17h30\nLe Vendredi : de 08h30 à 12h00 de 13h30 à 16h30\nLe Samedi : de 09h00 à 12h00","latitude":48.908287,"longitude":2.1498263,"website":"https://www.montesson.fr/","hasWebsite":true,"hasHoraires":true,"url":"https://lannuaire.service-public.gouv.fr/ile-de-france/yvelines/590805b5-5383-44d4-8f62-051ac9e8fbc6"}
{"nom":"Montfort-l'Amaury","nomNormalise":"montfortlamaury","typeCollectivite":"Commune","region":"Île-de-France","departement":"Yvelines","departementCode":"78","adresse":{"street":"36 rue de Paris","postalCode":"78490","city":"Montfort-l'Amaury","country":"France"},"contacts":{"email":"accueil@montfortlamaury.fr","telephone":"0134862345"},"horaires":"Du Lundi au Vendredi : de 09h00 à 12h00 de 13h30 à 17h30\nLe Samedi : de 09h00 à 12h00","latitude":48.778034,"longitude":1.808785,"website":"https://www.montfortlamaury.fr/","hasWebsite":true,"hasHoraires":true,"url":"https://lannuaire.service-public.gouv.fr/ile-de-france/yvelines/131c5080-2041-416e-9a3a-7d8aa7589f46"}
{"nom":"Montigny-le-Bretonneux","nomNormalise":"montignylebretonneux","typeCollectivite":"Commune","region":"Île-de-France","departement":"Yvelines","departementCode":"78","adresse":{"street":"Hôtel de Ville","postalCode":"78180","city":"Montigny-le-Bretonneux","country":"France"},"contacts":{"email":"mairie@montigny78.fr","telephone":"0139303132"},"horaires":"Le Lundi : de 08h15 à 12h00 de 13h15 à 17h15\nLe Mardi : de 08h15 à 12h00 de 13h15 à 20h00\n\nAccueil ouvert le mardi jusqu'à 17h15 pendant les vacances scolaires.\nLe Mercredi : de 13h15 à 20h00\nLe Jeudi : de 08h15 à 12h00 de 14h00 à 17h15\nLe Vendredi : de 08h15 à 12h00 de 13h15 à 17h15","latitude":48.76976,"longitude":2.037005,"website":"http://www.montigny78.fr/","hasWebsite":true,"hasHoraires":true,"url":"https://lannuaire.service-public.gouv.fr/ile-de-france/yvelines/5e70e5bf-1865-48ed-a75d-b767b7db8e47"}
{"nom":"Morainvilliers","nomNormalise":"morainvilliers","typeCollectivite":"Commune","region":"Île-de-France","departement":"Yvelines","departementCode":"78","adresse":{"street":"6 allée des Tilleuls","postalCode":"78630","city":"Morainvilliers","country":"France"},"contacts":{"email":"accueil-mairie@morainvilliers-bures.fr","telephone":"0139758753"},"horaires":"Le Lundi : de 09h00 à 12h00 de 14h00 à 17h00\nDu Mardi au Mercredi : de 09h00 à 12h00\nLe Jeudi : de 09h00 à 12h00 de 14h00 à 18h00\nLe Vendredi : de 14h00 à 17h00\nLe Samedi : de 09h00 à 12h00","latitude":48.9284,"longitude":1.932376,"website":"https://www.morainvilliers-bures.fr/","hasWebsite":true,"hasHoraires":true,"url":"https://lannuaire.service-public.gouv.fr/ile-de-france/yvelines/9577ff9d-bffd-450f-bfc0-f07a0727ddc8"}
{"nom":"Mousseaux-sur-Seine","nomNormalise":"mousseauxsurseine","typeCollectivite":"Commune","region":"Île-de-France","departement":"Yvelines","departementCode":"78","adresse":{"street":"81 bis Grande rue","postalCode":"78270","city":"Mousseaux-sur-Seine","country":"France"},"contacts":{"email":"mairie.mousseaux@wanadoo.fr","telephone":"0134793173"},"horaires":"Le Lundi : de 16h00 à 19h00\nLe Samedi : de 09h00 à 12h00","latitude":49.0433,"longitude":1.64908,"website":"http://www.mousseaux-sur-seine.com/","hasWebsite":true,"hasHoraires":true,"url":"https://lannuaire.service-public.gouv.fr/ile-de-france/yvelines/d5ebc817-c20b-47b9-a424-b7c23e8fa93a"}
{"nom":"Mulcent","nomNormalise":"mulcent","typeCollectivite":"Commune","region":"Île-de-France","departement":"Yvelines","departementCode":"78","adresse":{"street":"Place de la Mairie","postalCode":"78790","city":"Mulcent","country":"France"},"contacts":{"email":"mulcent.mairie@orange.fr","telephone":"0134876639"},"horaires":"Le Mercredi : de 09h00 à 12h00\n\nAccueil ouvert uniquement sur rendez-vous.","latitude":48.891457,"longitude":1.630653,"website":"","hasWebsite":false,"hasHoraires":true,"url":"https://lannuaire.service-public.gouv.fr/ile-de-france/yvelines/8e714b3b-4270-4093-8e35-1ed3b3eb6131"}
{"nom":"Neauphle-le-Château","nomNormalise":"neauphlelechateau","typeCollectivite":"Commune","region":"Île-de-France","departement":"Yvelines","departementCode":"78","adresse":{"street":"2 place aux Herbes","postalCode":"78640","city":"Neauphle-le-Château","country":"France"},"contacts":{"email":"mairie@neauphle-le-chateau.com","telephone":"0134910074"},"horaires":"Du Lundi au Mardi : de 08h30 à 12h00 de 13h30 à 17h00\nLe Vendredi : de 08h30 à 12h00 de 13h30 à 17h00","latitude":48.813843,"longitude":1.899033,"website":"https://www.neauphle-le-chateau.com/","hasWebsite":true,"hasHoraires":true,"url":"https://lannuaire.service-public.gouv.fr/ile-de-france/yvelines/37d06178-3e98-442a-a64d-4f962af43e9e"}
{"nom":"Neauphle-le-Vieux","nomNormalise":"neauphlelevieux","typeCollectivite":"Commune","region":"Île-de-France","departement":"Yvelines","departementCode":"78","adresse":{"street":"7 rue aux Moutons","postalCode":"78640","city":"Neauphle-le-Vieux","country":"France"},"contacts":{"email":"mairie.neauphlelevieux@wanadoo.fr","telephone":"0134890166"},"horaires":"Le Lundi : de 14h00 à 18h30\nDu Mardi au Mercredi : de 09h00 à 12h00\nDu Jeudi au Vendredi : de 14h00 à 18h30\nLe Samedi : de 09h00 à 12h00","latitude":48.8149,"longitude":1.86374,"website":"http://www.mairie-neauphlelevieux.fr/","hasWebsite":true,"hasHoraires":true,"url":"https://lannuaire.service-public.gouv.fr/ile-de-france/yvelines/38388fed-a2aa-47f5-a098-3343a98f1cac"}
{"nom":"Neauphlette","nomNormalise":"neauphlette","typeCollectivite":"Commune","region":"Île-de-France","departement":"Yvelines","departementCode":"78","adresse":{"street":"3 rue des Loges","postalCode":"78980","city":"Neauphlette","country":"France"},"contacts":{"email":"secretariat.mairie@neauphlette.fr","telephone":"0134783491"},"horaires":"Du Lundi au Mardi : de 16h00 à 18h00\nLe Jeudi : de 16h00 à 18h00\nLe Vendredi : de 15h00 à 17h00","latitude":48.93146,"longitude":1.52516,"website":"https://www.neauphlette.fr/","hasWebsite":true,"hasHoraires":true,"url":"https://lannuaire.service-public.gouv.fr/ile-de-france/yvelines/db9b4e08-49d9-420e-8ab1-224945f7d8f6"}
{"nom":"Nézel","nomNormalise":"nezel","typeCollectivite":"Commune","region":"Île-de-France","departement":"Yvelines","departementCode":"78","adresse":{"street":"27 rue Saint-Blaise","postalCode":"78410","city":"Nézel","country":"France"},"contacts":{"email":"secretariat.mairie@nezel.fr","telephone":"0130956428"},"horaires":"Le Lundi : de 09h00 à 12h30\nLe Mardi : de 15h00 à 17h30\nLe Mercredi : de 09h00 à 12h30\nLe Jeudi : de 16h00 à 19h00\nLe Samedi : de 09h00 à 12h30","latitude":48.945663,"longitude":1.835684,"website":"https://www.nezel.fr/","hasWebsite":true,"hasHoraires":true,"url":"https://lannuaire.service-public.gouv.fr/ile-de-france/yvelines/432c7eeb-d614-49b1-9441-6819050a4808"}
{"nom":"Noisy-le-Roi","nomNormalise":"noisyleroi","typeCollectivite":"Commune","region":"Île-de-France","departement":"Yvelines","departementCode":"78","adresse":{"street":"37 rue André-le-Bourblanc","postalCode":"78592","city":"Noisy-le-Roi Cedex","country":"France"},"contacts":{"email":"mairie@noisyleroi.fr","telephone":"0130800830"},"horaires":"Du Lundi au Vendredi : de 09h00 à 12h00 de 14h00 à 17h00\nLe Samedi : de 09h00 à 12h00\n\nAccueil ouvert uniquement pour l'état civil.","latitude":48.844,"longitude":2.06461,"website":"https://www.noisyleroi.fr/","hasWebsite":true,"hasHoraires":true,"url":"https://lannuaire.service-public.gouv.fr/ile-de-france/yvelines/34129061-aff5-4a90-8817-15e732df7147"}
{"nom":"Notre-Dame-de-la-Mer","nomNormalise":"notredamedelamer","typeCollectivite":"Commune","region":"Île-de-France","departement":"Yvelines","departementCode":"78","adresse":{"street":"1 place de la Mairie","postalCode":"78270","city":"Notre-Dame-de-la-Mer","country":"France"},"contacts":{"email":"secretariat@ndlm78.fr","telephone":"0130930616"},"horaires":"Le Jeudi : de 09h30 à 12h00 de 14h00 à 19h00","latitude":49.037476,"longitude":1.528043,"website":"https://www.notre-dame-de-la-mer.fr/","hasWebsite":true,"hasHoraires":true,"url":"https://lannuaire.service-public.gouv.fr/ile-de-france/yvelines/b81c5cae-d535-4f34-826d-42fa04b7c303"}
{"nom":"Oinville-sur-Montcient","nomNormalise":"oinvillesurmontcient","typeCollectivite":"Commune","region":"Île-de-France","departement":"Yvelines","departementCode":"78","adresse":{"street":"29 rue de Gournay","postalCode":"78250","city":"Oinville-sur-Montcient","country":"France"},"contacts":{"email":"mairie.78250oinville@wanadoo.fr","telephone":"0134754900"},"horaires":"Le Lundi : de 14h00 à 17h00\nLe Mercredi : de 09h00 à 11h30 de 14h00 à 17h00\nLe Vendredi : de 14h00 à 17h00\nLe Samedi : de 09h00 à 11h30\n\nAccueil ouvert uniquement les 1er et 3e samedis du mois.","latitude":49.0284,"longitude":1.85216,"website":"http://www.oinville-sur-montcient.fr/","hasWebsite":true,"hasHoraires":true,"url":"https://lannuaire.service-public.gouv.fr/ile-de-france/yvelines/66e1ab64-20aa-4ec0-bfbb-0c1d4af9eadc"}
{"nom":"Orcemont","nomNormalise":"orcemont","typeCollectivite":"Commune","region":"Île-de-France","departement":"Yvelines","departementCode":"78","adresse":{"street":"1 rue de la Mairie","postalCode":"78125","city":"Orcemont","country":"France"},"contacts":{"email":"mairie-orcemont@wanadoo.fr","telephone":"0134859168"},"horaires":"Le Lundi : de 14h00 à 17h00\nLe Mercredi : de 09h00 à 12h00\nLe Vendredi : de 17h00 à 19h00\nLe Samedi : de 09h00 à 12h00","latitude":48.5874,"longitude":1.81155,"website":"http://www.mairie-orcemont.fr/","hasWebsite":true,"hasHoraires":true,"url":"https://lannuaire.service-public.gouv.fr/ile-de-france/yvelines/7bf9c912-a33b-471a-9847-e69b3815282c"}
{"nom":"Orgerus","nomNormalise":"orgerus","typeCollectivite":"Commune","region":"Île-de-France","departement":"Yvelines","departementCode":"78","adresse":{"street":"Place des Halles","postalCode":"78910","city":"Orgerus","country":"France"},"contacts":{"email":"mairie@orgerus.fr","telephone":"0134872031"},"horaires":"Du Lundi au Vendredi : de 10h00 à 12h00 de 15h00 à 17h00\nLe Samedi : de 09h00 à 12h00","latitude":48.8391,"longitude":1.70182,"website":"http://www.orgerus.fr/","hasWebsite":true,"hasHoraires":true,"url":"https://lannuaire.service-public.gouv.fr/ile-de-france/yvelines/7f601027-c49a-4e55-8d4d-f7f3135c500f"}
{"nom":"Orgeval","nomNormalise":"orgeval","typeCollectivite":"Commune","region":"Île-de-France","departement":"Yvelines","departementCode":"78","adresse":{"street":"123 rue du Docteur-Maurer","postalCode":"78630","city":"Orgeval","country":"France"},"contacts":{"email":"communication@mairie-orgeval.fr","telephone":"0139223550"},"horaires":"Du Lundi au Mardi : de 08h30 à 12h30 de 13h30 à 17h30\nLe Mercredi : de 08h30 à 12h30\nDu Jeudi au Vendredi : de 08h30 à 12h30 de 13h30 à 17h30\nLe Samedi : de 08h30 à 12h30","latitude":48.9185,"longitude":1.9747186,"website":"http://www.ville-orgeval.fr/","hasWebsite":true,"hasHoraires":true,"url":"https://lannuaire.service-public.gouv.fr/ile-de-france/yvelines/1a2bcc46-c1af-4285-b486-fd51a60f9016"}
{"nom":"Orphin","nomNormalise":"orphin","typeCollectivite":"Commune","region":"Île-de-France","departement":"Yvelines","departementCode":"78","adresse":{"street":"22 Grande rue","postalCode":"78125","city":"Orphin","country":"France"},"contacts":{"email":"mairie-orphin@wanadoo.fr","telephone":"0134859105"},"horaires":"Le Lundi : de 09h00 à 11h45\nLe Mercredi : de 09h00 à 11h45\nDu Vendredi au Samedi : de 09h00 à 11h45","latitude":48.5783,"longitude":1.77942,"website":"http://www.orphin.fr/","hasWebsite":true,"hasHoraires":true,"url":"https://lannuaire.service-public.gouv.fr/ile-de-france/yvelines/940b5c4b-3e20-475d-9051-1b99cfd008af"}
{"nom":"Orsonville","nomNormalise":"orsonville","typeCollectivite":"Commune","region":"Île-de-France","departement":"Yvelines","departementCode":"78","adresse":{"street":"1 rue des Écoles","postalCode":"78660","city":"Orsonville","country":"France"},"contacts":{"email":"orsonville@orange.fr","telephone":"0130591171"},"horaires":"Le Lundi : de 15h00 à 19h00\nLe Jeudi : de 15h00 à 19h00\nLe Samedi : de 09h00 à 12h00\n\nAccueil ouvert uniquement un samedi sur deux, se renseigner en mairie.","latitude":48.47662,"longitude":1.836356,"website":"http://www.orsonville.fr/","hasWebsite":true,"hasHoraires":true,"url":"https://lannuaire.service-public.gouv.fr/ile-de-france/yvelines/6b7daf07-bb1d-46d7-a35b-6fb3114a0712"}
{"nom":"Orvilliers","nomNormalise":"orvilliers","typeCollectivite":"Commune","region":"Île-de-France","departement":"Yvelines","departementCode":"78","adresse":{"street":"Place Georges-Pompidou","postalCode":"78910","city":"Orvilliers","country":"France"},"contacts":{"email":"mairieorvilliers@wanadoo.fr","telephone":"0134876421"},"horaires":"Le Lundi : de 15h00 à 17h30\nLe Mardi : de 16h30 à 18h30\nLe Vendredi : de 16h00 à 19h15\nLe Samedi : de 09h30 à 12h30\n\nAccueil ouvert uniquement le 1er samedi du mois.","latitude":48.8623,"longitude":1.66523,"website":"","hasWebsite":false,"hasHoraires":true,"url":"https://lannuaire.service-public.gouv.fr/ile-de-france/yvelines/458369e8-27aa-4953-a649-f4b8e4b18d7e"}
{"nom":"Osmoy","nomNormalise":"osmoy","typeCollectivite":"Commune","region":"Île-de-France","departement":"Yvelines","departementCode":"78","adresse":{"street":"14 chemin du Moutier","postalCode":"78910","city":"Osmoy","country":"France"},"contacts":{"email":"","telephone":"0134872367"},"horaires":"Du Lundi au Mardi : de 14h00 à 18h00\nLe Mercredi : de 09h00 à 12h00 de 14h00 à 18h00\nLe Vendredi : de 09h00 à 11h45 de 14h30 à 19h00","latitude":48.86618,"longitude":1.716662,"website":"https://osmoy78.eu/","hasWebsite":true,"hasHoraires":true,"url":"https://lannuaire.service-public.gouv.fr/ile-de-france/yvelines/a0f81e09-1f7d-41a3-93a6-d67da65a2726"}
{"nom":"Paray-Douaville","nomNormalise":"paraydouaville","typeCollectivite":"Commune","region":"Île-de-France","departement":"Yvelines","departementCode":"78","adresse":{"street":"1 rue du Buisson-à-l'Oiseau","postalCode":"78660","city":"Paray-Douaville","country":"France"},"contacts":{"email":"mairie@paraydouaville.fr","telephone":"0130590898"},"horaires":"Le Mardi : de 15h00 à 18h30\nLe Vendredi : de 15h00 à 18h30","latitude":48.4624,"longitude":1.87589,"website":"","hasWebsite":false,"hasHoraires":true,"url":"https://lannuaire.service-public.gouv.fr/ile-de-france/yvelines/c0e6d4af-a4f7-47fb-9fbc-8771e5bc5f28"}
{"nom":"Perdreauville","nomNormalise":"perdreauville","typeCollectivite":"Commune","region":"Île-de-France","departement":"Yvelines","departementCode":"78","adresse":{"street":"1 rue des Écoles","postalCode":"78200","city":"Perdreauville","country":"France"},"contacts":{"email":"mairie.perdreauville@orange.fr","telephone":"0134765123"},"horaires":"Le Mardi : de 14h00 à 18h00\nLe Samedi : de 09h00 à 12h00","latitude":48.9668,"longitude":1.62563,"website":"http://www.perdreauville.fr/","hasWebsite":true,"hasHoraires":true,"url":"https://lannuaire.service-public.gouv.fr/ile-de-france/yvelines/04326776-2538-4541-bfc8-b20d7508719b"}
{"nom":"Plaisir","nomNormalise":"plaisir","typeCollectivite":"Commune","region":"Île-de-France","departement":"Yvelines","departementCode":"78","adresse":{"street":"2 rue de la République","postalCode":"78370","city":"Plaisir","country":"France"},"contacts":{"email":"plaisiravotreecoute@ville-plaisir.fr","telephone":"0130796200"},"horaires":"Le Lundi : de 13h30 à 19h00\nDu Mardi au Mercredi : de 09h00 à 12h00 de 13h30 à 17h30\nLe Jeudi : de 10h00 à 12h00 de 13h30 à 17h30\nLe Vendredi : de 09h00 à 12h00 de 13h30 à 17h30\nLe Samedi : de 09h00 à 11h45","latitude":48.818584,"longitude":1.946818,"website":"http://www.ville-plaisir.fr/","hasWebsite":true,"hasHoraires":true,"url":"https://lannuaire.service-public.gouv.fr/ile-de-france/yvelines/dbad00dd-df25-4ff5-b107-8f0b67655c6d"}
{"nom":"Poigny-la-Forêt","nomNormalise":"poignylaforet","typeCollectivite":"Commune","region":"Île-de-France","departement":"Yvelines","departementCode":"78","adresse":{"street":"11 route de la Butte du Moulin","postalCode":"78125","city":"Poigny-la-Forêt","country":"France"},"contacts":{"email":"mairie@poigny78.fr","telephone":"0134847120"},"horaires":"Du Lundi au Mardi : de 15h00 à 18h00\nLe Jeudi : de 09h00 à 12h00\nLe Vendredi : de 15h00 à 19h00","latitude":48.683743,"longitude":1.758578,"website":"https://www.poigny-la-foret.fr/","hasWebsite":true,"hasHoraires":true,"url":"https://lannuaire.service-public.gouv.fr/ile-de-france/yvelines/17197ef7-0109-4f3e-8d9b-f97cd37b1f3f"}
{"nom":"Poissy","nomNormalise":"poissy","typeCollectivite":"Commune","region":"Île-de-France","departement":"Yvelines","departementCode":"78","adresse":{"street":"Place de la République","postalCode":"78303","city":"Poissy Cedex","country":"France"},"contacts":{"email":"courrier@ville-poissy.fr","telephone":"0139225640"},"horaires":"Le Lundi : de 08h30 à 12h00 de 13h30 à 17h30\nLe Mardi : de 08h30 à 17h30\n\nSans interruption pour le service état civil/biométrie.\nDu Mercredi au Vendredi : de 08h30 à 12h00 de 13h30 à 17h30\nLe Samedi : de 09h00 à 12h00","latitude":48.9277,"longitude":2.042802,"website":"https://www.ville-poissy.fr/","hasWebsite":true,"hasHoraires":true,"url":"https://lannuaire.service-public.gouv.fr/ile-de-france/yvelines/05724710-ca34-4318-9743-e8fbad64ca66"}
{"nom":"Ponthévrard","nomNormalise":"ponthevrard","typeCollectivite":"Commune","region":"Île-de-France","departement":"Yvelines","departementCode":"78","adresse":{"street":"5 place de la Mairie","postalCode":"78730","city":"Ponthévrard","country":"France"},"contacts":{"email":"mairie@ponthevrard.fr","telephone":"0130412213"},"horaires":"Du Lundi au Mardi : de 09h00 à 12h00 de 14h00 à 18h00\nLe Vendredi : de 09h00 à 12h00 de 14h00 à 18h00","latitude":48.5531,"longitude":1.911569,"website":"https://ponthevrard.fr/","hasWebsite":true,"hasHoraires":true,"url":"https://lannuaire.service-public.gouv.fr/ile-de-france/yvelines/01f14860-676e-402b-9c0f-842dbbd3f663"}
{"nom":"Porcheville","nomNormalise":"porcheville","typeCollectivite":"Commune","region":"Île-de-France","departement":"Yvelines","departementCode":"78","adresse":{"street":"17 boulevard de la République","postalCode":"78440","city":"Porcheville","country":"France"},"contacts":{"email":"hotel-de-ville@mairie-porcheville.fr","telephone":"0130988787"},"horaires":"Du Lundi au Vendredi : de 09h00 à 12h00 de 13h30 à 17h30","latitude":48.972233,"longitude":1.7773868,"website":"http://www.mairie-porcheville.fr/","hasWebsite":true,"hasHoraires":true,"url":"https://lannuaire.service-public.gouv.fr/ile-de-france/yvelines/7df88ad4-da9a-4607-8902-57e4468baaca"}
{"nom":"Prunay-en-Yvelines","nomNormalise":"prunayenyvelines","typeCollectivite":"Commune","region":"Île-de-France","departement":"Yvelines","departementCode":"78","adresse":{"street":"4 rue d'Andret","postalCode":"78660","city":"Prunay-en-Yvelines","country":"France"},"contacts":{"email":"mairie@prunay-en-yvelines.fr","telephone":"0130460720"},"horaires":"Le Lundi : de 09h00 à 12h00 de 14h00 à 17h00\nDu Mardi au Mercredi : de 09h00 à 12h00\nLe Jeudi : de 09h00 à 12h00 de 14h00 à 17h00\nLe Vendredi : de 09h00 à 12h00 de 14h00 à 16h30\nLe Samedi : de 10h00 à 12h00","latitude":48.527786,"longitude":1.79445,"website":"https://prunay-en-yvelines.fr/","hasWebsite":true,"hasHoraires":true,"url":"https://lannuaire.service-public.gouv.fr/ile-de-france/yvelines/c1b02485-dd6c-42fe-a3cb-60b43e0df6d6"}
{"nom":"Prunay-le-Temple","nomNormalise":"prunayletemple","typeCollectivite":"Commune","region":"Île-de-France","departement":"Yvelines","departementCode":"78","adresse":{"street":"2 rue de la Commanderie","postalCode":"78910","city":"Prunay-le-Temple","country":"France"},"contacts":{"email":"mairie.prunay@wanadoo.fr","telephone":"0134872268"},"horaires":"Le Mardi : de 18h00 à 19h00\nLe Vendredi : de 18h00 à 19h30\nLe Samedi : de 10h00 à 12h30\n\n1 Samedi sur 2","latitude":48.8602,"longitude":1.67441,"website":"https://mairie-prunayletemple.fr/","hasWebsite":true,"hasHoraires":true,"url":"https://lannuaire.service-public.gouv.fr/ile-de-france/yvelines/6b7c9b4c-f338-4ecf-b722-b1e6db2e1cd3"}
{"nom":"Raizeux","nomNormalise":"raizeux","typeCollectivite":"Commune","region":"Île-de-France","departement":"Yvelines","departementCode":"78","adresse":{"street":"2 route des Ponts","postalCode":"78125","city":"Raizeux","country":"France"},"contacts":{"email":"mairie-de-raizeux@wanadoo.fr","telephone":"0134835606"},"horaires":"Le Lundi : de 14h00 à 17h00\nLe Jeudi : de 14h00 à 17h00\nLe Samedi : de 10h00 à 12h00","latitude":48.6239,"longitude":1.68104,"website":"http://www.mairie-raizeux.fr/","hasWebsite":true,"hasHoraires":true,"url":"https://lannuaire.service-public.gouv.fr/ile-de-france/yvelines/d5446cfa-221c-4d16-893a-ea4ce7e5708b"}
{"nom":"Rambouillet","nomNormalise":"rambouillet","typeCollectivite":"Commune","region":"Île-de-France","departement":"Yvelines","departementCode":"78","adresse":{"street":"2 place de la Libération","postalCode":"78120","city":"Rambouillet","country":"France"},"contacts":{"email":"accueil@rambouillet.fr","telephone":"0175034000"},"horaires":"Du Lundi au Mercredi : de 08h45 à 12h15 de 13h30 à 17h30\nLe Jeudi : de 13h30 à 17h30\nLe Vendredi : de 08h45 à 12h15 de 13h30 à 17h30\nLe Samedi : de 08h45 à 12h15\n\nSauf de mi-juillet à mi-août.","latitude":48.64517,"longitude":1.81971,"website":"https://www.rambouillet.fr/","hasWebsite":true,"hasHoraires":true,"url":"https://lannuaire.service-public.gouv.fr/ile-de-france/yvelines/0f386a48-3d38-4e23-a8e5-97a274a772d1"}
{"nom":"Rennemoulin","nomNormalise":"rennemoulin","typeCollectivite":"Commune","region":"Île-de-France","departement":"Yvelines","departementCode":"78","adresse":{"street":"1 chemin des Vignes","postalCode":"78590","city":"Rennemoulin","country":"France"},"contacts":{"email":"commune.rennemoulin@wanadoo.fr","telephone":"0134626280"},"horaires":"Le Mardi : de 09h00 à 12h30 de 13h00 à 18h00\nLe Mercredi : de 09h00 à 12h30\nLe Jeudi : de 09h00 à 12h30 de 13h00 à 19h00\nLe Vendredi : de 09h00 à 12h30 de 13h00 à 17h00\nLe Samedi : de 09h00 à 12h30","latitude":48.831905,"longitude":2.042652,"website":"https://www.rennemoulin.fr/","hasWebsite":true,"hasHoraires":true,"url":"https://lannuaire.service-public.gouv.fr/ile-de-france/yvelines/da294a2d-c99e-4731-96d6-80c8d0bb634d"}
{"nom":"Richebourg","nomNormalise":"richebourg","typeCollectivite":"Commune","region":"Île-de-France","departement":"Yvelines","departementCode":"78","adresse":{"street":"1 route de Houdan","postalCode":"78550","city":"Richebourg","country":"France"},"contacts":{"email":"mairie@richebourg78.fr","telephone":"0134942510"},"horaires":"Le Lundi : de 09h00 à 12h00 de 14h30 à 17h30\nDu Mardi au Jeudi : de 09h00 à 12h00\nLe Vendredi : de 09h00 à 12h00 de 14h30 à 17h30","latitude":48.8155,"longitude":1.62916,"website":"http://www.richebourg78.fr/","hasWebsite":true,"hasHoraires":true,"url":"https://lannuaire.service-public.gouv.fr/ile-de-france/yvelines/0a3bf743-e033-416e-925b-bd659f64c1a7"}
{"nom":"Rochefort-en-Yvelines","nomNormalise":"rochefortenyvelines","typeCollectivite":"Commune","region":"Île-de-France","departement":"Yvelines","departementCode":"78","adresse":{"street":"37 rue Guy le Rouge","postalCode":"78730","city":"Rochefort-en-Yvelines","country":"France"},"contacts":{"email":"mairie@rey78.fr","telephone":"0130413106"},"horaires":"Le Mardi : de 09h00 à 11h30 de 15h00 à 17h00\nLe Mercredi : de 09h00 à 11h30\nLe Jeudi : de 09h00 à 11h30 de 15h00 à 17h00\nLe Vendredi : de 15h00 à 17h00\nLe Samedi : de 09h00 à 11h30","latitude":48.585316,"longitude":1.988223,"website":"https://www.rey78.fr/","hasWebsite":true,"hasHoraires":true,"url":"https://lannuaire.service-public.gouv.fr/ile-de-france/yvelines/64db010a-ad93-4d2e-8779-f580ce62f90b"}
{"nom":"Rolleboise","nomNormalise":"rolleboise","typeCollectivite":"Commune","region":"Île-de-France","departement":"Yvelines","departementCode":"78","adresse":{"street":"43 route Nationale","postalCode":"78270","city":"Rolleboise","country":"France"},"contacts":{"email":"maire@mairie-rolleboise.fr","telephone":"0130932140"},"horaires":"Du Lundi au Mardi : de 09h00 à 12h00 de 14h00 à 18h00\nLe Mercredi : de 14h00 à 17h00\nLe Jeudi : de 14h00 à 19h00\nLe Vendredi : de 09h00 à 12h00 de 14h00 à 17h00","latitude":49.031113,"longitude":1.6048245,"website":"","hasWebsite":false,"hasHoraires":true,"url":"https://lannuaire.service-public.gouv.fr/ile-de-france/yvelines/bdc8ef82-fcf7-48e3-9735-3a979edbd641"}
{"nom":"Rosay","nomNormalise":"rosay","typeCollectivite":"Commune","region":"Île-de-France","departement":"Yvelines","departementCode":"78","adresse":{"street":"49 boulevard de l'Europe","postalCode":"78790","city":"Rosay","country":"France"},"contacts":{"email":"mairie.rosay@wanadoo.fr","telephone":"0134763105"},"horaires":"Le Lundi : de 10h00 à 12h00\nLe Mardi : de 14h00 à 18h00\nLe Jeudi : de 14h00 à 16h00\nLe Samedi : de 09h00 à 11h00","latitude":48.9145,"longitude":1.68061,"website":"http://www.rosay.fr/","hasWebsite":true,"hasHoraires":true,"url":"https://lannuaire.service-public.gouv.fr/ile-de-france/yvelines/0a2fb0f6-438e-4630-8bee-eb50c3db4670"}
{"nom":"Rosny-sur-Seine","nomNormalise":"rosnysurseine","typeCollectivite":"Commune","region":"Île-de-France","departement":"Yvelines","departementCode":"78","adresse":{"street":"64 rue Nationale","postalCode":"78710","city":"Rosny-sur-Seine","country":"France"},"contacts":{"email":"hoteldeville@ville-rosny78.fr","telephone":"0130429056"},"horaires":"Le Lundi : de 08h30 à 12h00 de 13h30 à 19h00\nLe Mardi : de 08h30 à 12h00\nLe Mercredi : de 09h00 à 12h00 de 13h30 à 17h30\nLe Jeudi : de 08h30 à 12h00 de 13h30 à 17h30\nLe Vendredi : de 08h30 à 12h00 de 13h30 à 16h30\nLe Samedi : de 09h00 à 12h00\n\nOuvert un samedi par mois le (20/01, 3/02, 9/03, 06/04, 4/05, 8/06 et le 6/07).","latitude":49.000645,"longitude":1.6324059,"website":"http://www.ville-rosny78.fr/","hasWebsite":true,"hasHoraires":true,"url":"https://lannuaire.service-public.gouv.fr/ile-de-france/yvelines/d5aa47f9-69cd-46d0-8ec0-0b6ac595a372"}
{"nom":"Sailly","nomNormalise":"sailly","typeCollectivite":"Commune","region":"Île-de-France","departement":"Yvelines","departementCode":"78","adresse":{"street":"21 rue Saint-Laurent","postalCode":"78440","city":"Sailly","country":"France"},"contacts":{"email":"mairie-sailly78@orange.fr","telephone":"0130336095"},"horaires":"Le Mardi : de 18h00 à 19h30\nLe Vendredi : de 18h00 à 19h30","latitude":49.0386,"longitude":1.80233,"website":"","hasWebsite":false,"hasHoraires":true,"url":"https://lannuaire.service-public.gouv.fr/ile-de-france/yvelines/f8c69c5f-a73b-45b6-bf38-30e4c8b46c4b"}
{"nom":"Saint-Arnoult-en-Yvelines","nomNormalise":"saintarnoultenyvelines","typeCollectivite":"Commune","region":"Île-de-France","departement":"Yvelines","departementCode":"78","adresse":{"street":"Place du Jeu-de-Paume","postalCode":"78730","city":"Saint-Arnoult-en-Yvelines","country":"France"},"contacts":{"email":"accueil@say78.fr","telephone":"0130882525"},"horaires":"Le Lundi : de 13h30 à 18h00\nLe Mardi : de 08h30 à 12h30 de 15h30 à 17h30\nLe Mercredi : de 08h30 à 12h30 de 13h30 à 17h30\nLe Jeudi : de 08h30 à 12h30 de 15h30 à 17h30\nLe Vendredi : de 08h30 à 12h30 de 13h30 à 17h30\nLe Samedi : de 08h30 à 12h30","latitude":48.57131,"longitude":1.940096,"website":"http://www.saintarnoultenyvelines.fr/","hasWebsite":true,"hasHoraires":true,"url":"https://lannuaire.service-public.gouv.fr/ile-de-france/yvelines/081c574d-9868-4fd1-a1c9-d52347eb9c5c"}
{"nom":"Saint-Cyr-l'École","nomNormalise":"saintcyrlecole","typeCollectivite":"Commune","region":"Île-de-France","departement":"Yvelines","departementCode":"78","adresse":{"street":"Square de l'Hôtel-de-Ville","postalCode":"78210","city":"Saint-Cyr-l'École","country":"France"},"contacts":{"email":"etcv@saintcyr78.fr","telephone":"0130148282"},"horaires":"Du Lundi au Mercredi : de 08h00 à 12h00 de 14h00 à 17h15\nLe Jeudi : de 13h00 à 20h00\nLe Vendredi : de 08h00 à 12h00 de 14h00 à 17h15\nLe Samedi : de 09h00 à 11h00\n\nAccueil ouvert les 1er et le 3e samedis du mois hors vacances scolaires.","latitude":48.799374,"longitude":2.0671394,"website":"https://www.saintcyr78.fr/","hasWebsite":true,"hasHoraires":true,"url":"https://lannuaire.service-public.gouv.fr/ile-de-france/yvelines/544b43ae-3f35-48bb-9eeb-4fea88d7aad6"}
{"nom":"Sainte-Mesme","nomNormalise":"saintemesme","typeCollectivite":"Commune","region":"Île-de-France","departement":"Yvelines","departementCode":"78","adresse":{"street":"4 rue Charles-Legaigneur","postalCode":"78730","city":"Sainte-Mesme","country":"France"},"contacts":{"email":"mairie@saintemesme.fr","telephone":"0130594127"},"horaires":"Du Lundi au Mardi : de 14h00 à 18h00\nDu Jeudi au Vendredi : de 14h00 à 18h00","latitude":48.531193,"longitude":1.960859,"website":"http://www.saintemesme.fr/","hasWebsite":true,"hasHoraires":true,"url":"https://lannuaire.service-public.gouv.fr/ile-de-france/yvelines/f206fcce-5cb9-4310-9bbe-663cd132e0c7"}
{"nom":"Saint-Forget","nomNormalise":"saintforget","typeCollectivite":"Commune","region":"Île-de-France","departement":"Yvelines","departementCode":"78","adresse":{"street":"16 rue de la Mairie","postalCode":"78720","city":"Saint-Forget","country":"France"},"contacts":{"email":"mairie-saint-forget@wanadoo.fr","telephone":"0130525055"},"horaires":"Le Lundi : de 09h00 à 12h00\nLe Mercredi : de 14h00 à 18h00\nLe Vendredi : de 14h00 à 18h00","latitude":48.7094,"longitude":1.99395,"website":"","hasWebsite":false,"hasHoraires":true,"url":"https://lannuaire.service-public.gouv.fr/ile-de-france/yvelines/2fd7efa8-6841-4ad5-a5d1-cf2091e365d7"}
{"nom":"Saint-Germain-de-la-Grange","nomNormalise":"saintgermaindelagrange","typeCollectivite":"Commune","region":"Île-de-France","departement":"Yvelines","departementCode":"78","adresse":{"street":"1 rue de la Mairie","postalCode":"78640","city":"Saint-Germain-de-la-Grange","country":"France"},"contacts":{"email":"mairie@sgdlg.fr","telephone":"0134910210"},"horaires":"Le Lundi : de 09h00 à 12h00 de 13h30 à 17h30\nLe Mardi : de 09h00 à 12h00\nLe Mercredi : de 09h00 à 12h00 de 13h30 à 17h30\nLe Vendredi : de 13h30 à 17h30","latitude":48.8347,"longitude":1.89841,"website":"https://www.sgdlg.fr/","hasWebsite":true,"hasHoraires":true,"url":"https://lannuaire.service-public.gouv.fr/ile-de-france/yvelines/df4cb96d-23ac-4f89-a388-faf436831b76"}
{"nom":"Saint-Germain-en-Laye","nomNormalise":"saintgermainenlaye","typeCollectivite":"Commune","region":"Île-de-France","departement":"Yvelines","departementCode":"78","adresse":{"street":"16 rue de Pontoise","postalCode":"78100","city":"Saint-Germain-en-Laye","country":"France"},"contacts":{"email":"courrier@saintgermainenlaye.fr","telephone":"0130872000"},"horaires":"Du Lundi au Vendredi : de 08h30 à 17h30","latitude":48.89886,"longitude":2.09361,"website":"https://www.saintgermainenlaye.fr/","hasWebsite":true,"hasHoraires":true,"url":"https://lannuaire.service-public.gouv.fr/ile-de-france/yvelines/9eaf3ee7-0859-4743-846b-47320bf7bb04"}
{"nom":"Saint-Hilarion","nomNormalise":"sainthilarion","typeCollectivite":"Commune","region":"Île-de-France","departement":"Yvelines","departementCode":"78","adresse":{"street":"40 route de Rambouillet","postalCode":"78125","city":"Saint-Hilarion","country":"France"},"contacts":{"email":"mairie@saint-hilarion.fr","telephone":"0134835715"},"horaires":"Le Lundi : de 09h00 à 11h30\nLe Mercredi : de 09h00 à 11h30\nLe Jeudi : de 15h00 à 17h00\nLe Vendredi : de 16h00 à 17h00\nLe samedi : uniquement sur rendez-vous","latitude":48.620026,"longitude":1.732764,"website":"http://www.saint-hilarion.fr/","hasWebsite":true,"hasHoraires":true,"url":"https://lannuaire.service-public.gouv.fr/ile-de-france/yvelines/c9e24a4d-1cb8-4ad0-9d7c-f3bd318f2ed5"}
{"nom":"Saint-Illiers-la-Ville","nomNormalise":"saintillierslaville","typeCollectivite":"Commune","region":"Île-de-France","departement":"Yvelines","departementCode":"78","adresse":{"street":"1 rue de l'Épine-Marie","postalCode":"78980","city":"Saint-Illiers-la-Ville","country":"France"},"contacts":{"email":"mairie@saintillierslaville.fr","telephone":"0134761002"},"horaires":"Du Lundi au Mardi : de 09h00 à 12h30 de 13h30 à 18h00\nLe Mercredi : de 09h00 à 12h00\nDu Jeudi au Vendredi : de 09h00 à 12h30 de 13h30 à 18h00","latitude":48.976433,"longitude":1.537809,"website":"https://saintillierslaville.fr/","hasWebsite":true,"hasHoraires":true,"url":"https://lannuaire.service-public.gouv.fr/ile-de-france/yvelines/a307e4ef-26ac-4bac-9dd0-2f8f7d6808d4"}
{"nom":"Saint-Illiers-le-Bois","nomNormalise":"saintillierslebois","typeCollectivite":"Commune","region":"Île-de-France","departement":"Yvelines","departementCode":"78","adresse":{"street":"5 rue de la Mairie","postalCode":"78980","city":"Saint-Illiers-le-Bois","country":"France"},"contacts":{"email":"mairie@saintillierslebois.fr","telephone":"0134783974"},"horaires":"Le Mardi : de 09h00 à 12h00 de 13h30 à 19h00\nLe Vendredi : de 09h00 à 12h00 de 13h30 à 18h30","latitude":48.956635,"longitude":1.5078781,"website":"https://www.saintillierslebois.fr/","hasWebsite":true,"hasHoraires":true,"url":"https://lannuaire.service-public.gouv.fr/ile-de-france/yvelines/cf381d03-6ca0-4e25-89bc-603f3670a079"}
{"nom":"Saint-Lambert-des-Bois","nomNormalise":"saintlambertdesbois","typeCollectivite":"Commune","region":"Île-de-France","departement":"Yvelines","departementCode":"78","adresse":{"street":"13 rue de la Mairie","postalCode":"78470","city":"Saint-Lambert-des-Bois","country":"France"},"contacts":{"email":"secretariat@saintlambertdesbois.fr","telephone":"0130437725"},"horaires":"Du Lundi au Mardi : de 09h00 à 11h00 de 14h00 à 17h00\nLe Mercredi : de 17h00 à 19h00\nDu Jeudi au Vendredi : de 09h00 à 11h00 de 14h00 à 17h00\nLe Samedi : de 10h30 à 12h00","latitude":48.7316,"longitude":2.01997,"website":"https://www.saintlambertdesbois.fr/","hasWebsite":true,"hasHoraires":true,"url":"https://lannuaire.service-public.gouv.fr/ile-de-france/yvelines/04ce446c-bdf7-483f-b3df-b417742ac0b0"}
{"nom":"Saint-Léger-en-Yvelines","nomNormalise":"saintlegerenyvelines","typeCollectivite":"Commune","region":"Île-de-France","departement":"Yvelines","departementCode":"78","adresse":{"street":"6 place de la Mairie","postalCode":"78610","city":"Saint-Léger-en-Yvelines","country":"France"},"contacts":{"email":"sg@st-leger.fr","telephone":"0134863061"},"horaires":"Le Lundi : de 09h00 à 12h00 de 14h00 à 17h00\nLe Mardi : de 09h00 à 12h00\nLe Jeudi : de 09h00 à 12h00\nLe Vendredi : de 09h00 à 12h00 de 14h00 à 17h00\nLe Samedi : de 09h00 à 12h00","latitude":48.7213,"longitude":1.76571,"website":"http://www.saint-leger-en-yvelines.fr/","hasWebsite":true,"hasHoraires":true,"url":"https://lannuaire.service-public.gouv.fr/ile-de-france/yvelines/22d174fe-dab6-4a25-a30e-ecd2e9542d2a"}
{"nom":"Saint-Martin-de-Bréthencourt","nomNormalise":"saintmartindebrethencourt","typeCollectivite":"Commune","region":"Île-de-France","departement":"Yvelines","departementCode":"78","adresse":{"street":"7 Grande rue","postalCode":"78660","city":"Saint-Martin-de-Bréthencourt","country":"France"},"contacts":{"email":"saint.martin.brethencourt@wanadoo.fr","telephone":"0130594009"},"horaires":"Le Lundi : de 15h00 à 18h00\nLe Jeudi : de 09h00 à 11h00 de 14h30 à 16h30\nLe Samedi : de 09h00 à 12h00","latitude":48.5109,"longitude":1.92982,"website":"","hasWebsite":false,"hasHoraires":true,"url":"https://lannuaire.service-public.gouv.fr/ile-de-france/yvelines/6709be0c-409a-45d7-a6cc-eef7f9182dee"}
{"nom":"Saint-Martin-des-Champs","nomNormalise":"saintmartindeschamps","typeCollectivite":"Commune","region":"Île-de-France","departement":"Yvelines","departementCode":"78","adresse":{"street":"8 chemin de Fontenelle","postalCode":"78790","city":"Saint-Martin-des-Champs","country":"France"},"contacts":{"email":"mairiesm@orange.fr","telephone":"0130934260"},"horaires":"Le Lundi : de 10h00 à 12h00\nLe Jeudi : de 15h00 à 16h30\nLe Samedi : de 09h30 à 12h00\n\nAccueil ouvert uniquement les 1er et 3e samedis du mois.","latitude":48.8823,"longitude":1.71807,"website":"","hasWebsite":false,"hasHoraires":true,"url":"https://lannuaire.service-public.gouv.fr/ile-de-france/yvelines/a283732f-cea8-4d9e-bcf9-3e3c7642644b"}
{"nom":"Saint-Martin-la-Garenne","nomNormalise":"saintmartinlagarenne","typeCollectivite":"Commune","region":"Île-de-France","departement":"Yvelines","departementCode":"78","adresse":{"street":"105 rue du Vieux-Puits","postalCode":"78520","city":"Saint-Martin-la-Garenne","country":"France"},"contacts":{"email":"mairiesaintmartinlagarenne@wanadoo.fr","telephone":"0134770772"},"horaires":"Le Lundi : de 14h00 à 19h00\nLe Vendredi : de 15h00 à 17h00\nLe Samedi : de 10h00 à 12h00","latitude":49.040413,"longitude":1.6888725,"website":"http://www.saint-martin-la-garenne.fr/","hasWebsite":true,"hasHoraires":true,"url":"https://lannuaire.service-public.gouv.fr/ile-de-france/yvelines/6d37debf-8008-4cb4-99a6-8a6ea15949f6"}
{"nom":"Saint-Nom-la-Bretèche","nomNormalise":"saintnomlabreteche","typeCollectivite":"Commune","region":"Île-de-France","departement":"Yvelines","departementCode":"78","adresse":{"street":"32 rue de la Fontaine-des-Vaux","postalCode":"78860","city":"Saint-Nom-la-Bretèche","country":"France"},"contacts":{"email":"","telephone":"0130800700"},"horaires":"Du Lundi au Mardi : de 08h30 à 12h00 de 14h00 à 17h00\nLe Mercredi : de 09h30 à 12h00\nDu Jeudi au Vendredi : de 08h30 à 12h00 de 14h00 à 17h00\nLe Samedi : de 09h30 à 12h00\n\nAccueil ouvert uniquement le 1er samedi de chaque mois pour l'état civil.","latitude":48.859783,"longitude":2.021314,"website":"http://www.saint-nom-la-breteche.fr/","hasWebsite":true,"hasHoraires":true,"url":"https://lannuaire.service-public.gouv.fr/ile-de-france/yvelines/ba438be7-0b14-4873-b78b-2b3d2b31f2d8"}
{"nom":"Saint-Rémy-l'Honoré","nomNormalise":"saintremylhonore","typeCollectivite":"Commune","region":"Île-de-France","departement":"Yvelines","departementCode":"78","adresse":{"street":"17 rue du Professeur-Mariller","postalCode":"78690","city":"Saint-Rémy-l'Honoré","country":"France"},"contacts":{"email":"mairie@saintremylhonore.fr","telephone":"0134878328"},"horaires":"Le Lundi : de 09h00 à 12h00 de 14h00 à 17h00\nLe Mercredi : de 09h00 à 12h00\nDu Jeudi au Vendredi : de 09h00 à 12h00 de 14h00 à 17h00\nLe Samedi : de 09h00 à 12h00","latitude":48.75657,"longitude":1.8817163,"website":"http://www.saintremylhonore.fr/","hasWebsite":true,"hasHoraires":true,"url":"https://lannuaire.service-public.gouv.fr/ile-de-france/yvelines/5b73e340-d1ef-48dd-9255-257d1d2b6beb"}
{"nom":"Saint-Rémy-lès-Chevreuse","nomNormalise":"saintremyleschevreuse","typeCollectivite":"Commune","region":"Île-de-France","departement":"Yvelines","departementCode":"78","adresse":{"street":"2 rue Victor-Hugo","postalCode":"78470","city":"Saint-Rémy-lès-Chevreuse","country":"France"},"contacts":{"email":"","telephone":"0130470500"},"horaires":"Du Lundi au Vendredi : de 08h30 à 12h00 de 13h15 à 17h00\nLe Samedi : de 09h00 à 12h30\nFermé le Mardi après-midi","latitude":48.70599,"longitude":2.072721,"website":"http://www.ville-st-remy-chevreuse.fr/","hasWebsite":true,"hasHoraires":true,"url":"https://lannuaire.service-public.gouv.fr/ile-de-france/yvelines/ed858d7c-aa60-4c4e-bcc4-3ea38a14255c"}
{"nom":"Sartrouville","nomNormalise":"sartrouville","typeCollectivite":"Commune","region":"Île-de-France","departement":"Yvelines","departementCode":"78","adresse":{"street":"2 rue Buffon","postalCode":"78500","city":"Sartrouville","country":"France"},"contacts":{"email":"mairie@ville-sartrouville.fr","telephone":"0130863900"},"horaires":"Du Lundi au Vendredi : de 08h00 à 12h00 de 13h30 à 17h15\n\nContacter l'accueil pour obtenir les horaires d'ouverture des différents services.","latitude":48.94011,"longitude":2.15792,"website":"https://www.sartrouville.fr/","hasWebsite":true,"hasHoraires":true,"url":"https://lannuaire.service-public.gouv.fr/ile-de-france/yvelines/e02f7470-d97d-4322-b663-cbe3e790fa9d"}
{"nom":"Saulx-Marchais","nomNormalise":"saulxmarchais","typeCollectivite":"Commune","region":"Île-de-France","departement":"Yvelines","departementCode":"78","adresse":{"street":"Rue de la Mairie","postalCode":"78650","city":"Saulx-Marchais","country":"France"},"contacts":{"email":"mairie@saulx-marchais.fr","telephone":"0134874518"},"horaires":"Le Lundi : de 14h00 à 19h00\nDu Mardi au Vendredi : de 14h00 à 17h30\nLe Samedi : de 10h00 à 12h00\n\nAccueil ouvert uniquement les 1er et 3e samedis du mois.","latitude":48.8382,"longitude":1.8378,"website":"http://www.saulx-marchais.fr/","hasWebsite":true,"hasHoraires":true,"url":"https://lannuaire.service-public.gouv.fr/ile-de-france/yvelines/0861840e-4cd1-4d9b-8985-dedacf1be8e4"}
{"nom":"Senlisse","nomNormalise":"senlisse","typeCollectivite":"Commune","region":"Île-de-France","departement":"Yvelines","departementCode":"78","adresse":{"street":"13 rue de Cernay","postalCode":"78720","city":"Senlisse","country":"France"},"contacts":{"email":"mairie.senlisse@wanadoo.fr","telephone":"0130525071"},"horaires":"Le Mercredi : de 16h00 à 18h00\n\nPossibilité de rendez-vous en dehors des horaires d'ouvertures.\nLe Samedi : de 10h00 à 12h00","latitude":48.686153,"longitude":1.9813246,"website":"https://www.senlisse.fr/","hasWebsite":true,"hasHoraires":true,"url":"https://lannuaire.service-public.gouv.fr/ile-de-france/yvelines/1e24a5c1-321f-4652-9cda-6eabe4cd8882"}
{"nom":"Septeuil","nomNormalise":"septeuil","typeCollectivite":"Commune","region":"Île-de-France","departement":"Yvelines","departementCode":"78","adresse":{"street":"6 place Louis-Fouché","postalCode":"78790","city":"Septeuil","country":"France"},"contacts":{"email":"mairie@septeuil.fr","telephone":"0130934044"},"horaires":"Du Lundi au Jeudi : de 08h30 à 12h00 de 14h00 à 17h00\nLe Vendredi : de 08h30 à 12h00 de 14h00 à 16h00\nLe Samedi : de 09h00 à 12h00\n\nAccueil physique fermé jusqu'à 10h30.","latitude":48.8924,"longitude":1.67941,"website":"http://www.mairie-septeuil.fr/","hasWebsite":true,"hasHoraires":true,"url":"https://lannuaire.service-public.gouv.fr/ile-de-france/yvelines/cc4b98a1-1810-47d2-8eef-5dd4e6844e1f"}
{"nom":"Soindres","nomNormalise":"soindres","typeCollectivite":"Commune","region":"Île-de-France","departement":"Yvelines","departementCode":"78","adresse":{"street":"2 route de Mantes","postalCode":"78200","city":"Soindres","country":"France"},"contacts":{"email":"mairie.soindres@wanadoo.fr","telephone":"0134765013"},"horaires":"Le Lundi : de 16h00 à 17h30\nLe Mardi : de 16h00 à 19h30\nLe Jeudi : de 17h00 à 19h00","latitude":48.9581,"longitude":1.67509,"website":"","hasWebsite":false,"hasHoraires":true,"url":"https://lannuaire.service-public.gouv.fr/ile-de-france/yvelines/c174fa21-8e1a-4e2f-818f-3d3ef9f3a49a"}
{"nom":"Sonchamp","nomNormalise":"sonchamp","typeCollectivite":"Commune","region":"Île-de-France","departement":"Yvelines","departementCode":"78","adresse":{"street":"42 rue André-Thome","postalCode":"78120","city":"Sonchamp","country":"France"},"contacts":{"email":"mairie@sonchamp.fr","telephone":"0134844108"},"horaires":"Du Lundi au Mardi : de 08h30 à 12h00 de 16h00 à 18h00\nDu Jeudi au Vendredi : de 08h30 à 12h00 de 16h00 à 18h00\nLe Samedi : de 09h00 à 12h00","latitude":48.57641,"longitude":1.877018,"website":"http://sonchamp.fr/","hasWebsite":true,"hasHoraires":true,"url":"https://lannuaire.service-public.gouv.fr/ile-de-france/yvelines/3601a1d3-4f3b-4b9d-97a6-db4f566d4bdf"}
{"nom":"Tacoignières","nomNormalise":"tacoignieres","typeCollectivite":"Commune","region":"Île-de-France","departement":"Yvelines","departementCode":"78","adresse":{"street":"1 rue du Clos-de-l'Isle","postalCode":"78910","city":"Tacoignières","country":"France"},"contacts":{"email":"contact@mairietacoignieres.fr","telephone":"0134872224"},"horaires":"Le Lundi : de 09h00 à 12h00 de 14h00 à 17h30\nLe Mardi : de 09h00 à 12h00 de 14h00 à 18h30\nLe Mercredi : de 09h00 à 12h00\nDu Jeudi au Vendredi : de 09h00 à 12h00 de 14h00 à 17h30\nLe Samedi : de 09h00 à 12h00","latitude":48.83592,"longitude":1.674762,"website":"https://www.mairie-tacoignieres.fr/","hasWebsite":true,"hasHoraires":true,"url":"https://lannuaire.service-public.gouv.fr/ile-de-france/yvelines/1b5c0fc6-3429-4e70-ba12-ea572b5d1e03"}
{"nom":"Tessancourt-sur-Aubette","nomNormalise":"tessancourtsuraubette","typeCollectivite":"Commune","region":"Île-de-France","departement":"Yvelines","departementCode":"78","adresse":{"street":"4 Grande rue","postalCode":"78250","city":"Tessancourt-sur-Aubette","country":"France"},"contacts":{"email":"accueil@tessancourt.fr","telephone":"0134742215"},"horaires":"Du Mardi au Vendredi : de 16h00 à 18h00","latitude":49.023464,"longitude":1.9182147,"website":"https://www.tessancourt.fr/","hasWebsite":true,"hasHoraires":true,"url":"https://lannuaire.service-public.gouv.fr/ile-de-france/yvelines/63f4bd29-8fe0-4fde-9bf2-410967d6b63b"}
{"nom":"Thiverval-Grignon","nomNormalise":"thivervalgrignon","typeCollectivite":"Commune","region":"Île-de-France","departement":"Yvelines","departementCode":"78","adresse":{"street":"Grande rue","postalCode":"78850","city":"Thiverval-Grignon","country":"France"},"contacts":{"email":"mairie@mairie-thiverval-grignon.fr","telephone":"0130799110"},"horaires":"Du Mardi au Samedi : de 09h00 à 12h00","latitude":48.8511,"longitude":1.91777,"website":"http://www.thiverval-grignon.com/","hasWebsite":true,"hasHoraires":true,"url":"https://lannuaire.service-public.gouv.fr/ile-de-france/yvelines/8dc84289-261e-4ead-bc0f-fe4b01ae1e38"}
{"nom":"Thoiry","nomNormalise":"thoiry","typeCollectivite":"Commune","region":"Île-de-France","departement":"Yvelines","departementCode":"78","adresse":{"street":"3 place de la Fontaine","postalCode":"78770","city":"Thoiry","country":"France"},"contacts":{"email":"mairie@thoiry78.fr","telephone":"0134947739"},"horaires":"Du Lundi au Mardi : de 09h30 à 12h30 de 14h00 à 18h00\nLe Jeudi : de 09h00 à 12h30 de 14h00 à 18h00\nLe Vendredi : de 10h00 à 12h30 de 14h00 à 19h00\nLe Samedi : de 09h30 à 12h00","latitude":48.864933,"longitude":1.795123,"website":"https://thoiry78.com/","hasWebsite":true,"hasHoraires":true,"url":"https://lannuaire.service-public.gouv.fr/ile-de-france/yvelines/da6913f0-b004-4776-a070-4cde46956a4f"}
{"nom":"Tilly","nomNormalise":"tilly","typeCollectivite":"Commune","region":"Île-de-France","departement":"Yvelines","departementCode":"78","adresse":{"street":"8 Grand'rue","postalCode":"78790","city":"Tilly","country":"France"},"contacts":{"email":"mairie-tilly78@wanadoo.fr","telephone":"0130425336"},"horaires":"Le Lundi : de 14h00 à 16h00\nLe Mardi : de 09h30 à 11h30\nLe Jeudi : de 17h00 à 19h00","latitude":48.881916,"longitude":1.5728573,"website":"http://www.mairie-tilly78.fr/","hasWebsite":true,"hasHoraires":true,"url":"https://lannuaire.service-public.gouv.fr/ile-de-france/yvelines/7496ef02-4dc4-485d-a000-59f792ea61c1"}
{"nom":"Toussus-le-Noble","nomNormalise":"toussuslenoble","typeCollectivite":"Commune","region":"Île-de-France","departement":"Yvelines","departementCode":"78","adresse":{"street":"Place Maréchal-Leclerc-de-Hauteclocque","postalCode":"78117","city":"Toussus-le-Noble","country":"France"},"contacts":{"email":"mairie@toussus.fr","telephone":"0139562409"},"horaires":"Le Lundi : de 08h30 à 12h00 de 14h00 à 17h00\nLe Mardi : de 08h30 à 12h00\nLe Mercredi : de 08h30 à 12h00 de 14h00 à 17h00\nLe Jeudi : de 08h30 à 12h00\nLe Vendredi : de 08h30 à 12h00 de 14h00 à 17h00\nLe Samedi : de 10h00 à 12h00\n\nAccueil fermé pendant les vacances scolaires.","latitude":48.7458,"longitude":2.114048,"website":"http://www.mairie-toussus.fr/","hasWebsite":true,"hasHoraires":true,"url":"https://lannuaire.service-public.gouv.fr/ile-de-france/yvelines/3410064f-ded8-4e07-9fc1-c3b4411ba93f"}
{"nom":"Trappes","nomNormalise":"trappes","typeCollectivite":"Commune","region":"Île-de-France","departement":"Yvelines","departementCode":"78","adresse":{"street":"1 place de la République","postalCode":"78195","city":"Trappes Cedex","country":"France"},"contacts":{"email":"courrier.dg@mairie-trappes.fr","telephone":"0130691700"},"horaires":"Le Lundi : de 13h00 à 19h30\nDu Mardi au Vendredi : de 09h00 à 12h00 de 13h15 à 17h00","latitude":48.776093,"longitude":1.999091,"website":"https://www.trappes.fr/","hasWebsite":true,"hasHoraires":true,"url":"https://lannuaire.service-public.gouv.fr/ile-de-france/yvelines/ffcabcc8-fa27-428e-b193-fb2e9503c08b"}
{"nom":"Triel-sur-Seine","nomNormalise":"trielsurseine","typeCollectivite":"Commune","region":"Île-de-France","departement":"Yvelines","departementCode":"78","adresse":{"street":"Place Charles-de-Gaulle","postalCode":"78510","city":"Triel-sur-Seine","country":"France"},"contacts":{"email":"mairie@triel.fr","telephone":"0139702200"},"horaires":"Le Lundi : de 13h45 à 18h00\n\nOuverture 13h40.\nDu Mardi au Mercredi : de 09h00 à 12h00 de 13h30 à 17h00\nLe Jeudi : de 09h00 à 12h00\nLe Vendredi : de 09h00 à 12h00 de 13h30 à 17h00\nLe Samedi : de 09h00 à 12h00","latitude":48.9805,"longitude":1.98163,"website":"http://www.triel-sur-seine.fr/","hasWebsite":true,"hasHoraires":true,"url":"https://lannuaire.service-public.gouv.fr/ile-de-france/yvelines/6d962433-7402-472b-b9f3-b5262065989a"}
{"nom":"Vaux-sur-Seine","nomNormalise":"vauxsurseine","typeCollectivite":"Commune","region":"Île-de-France","departement":"Yvelines","departementCode":"78","adresse":{"street":"218 rue du Général-de-Gaulle","postalCode":"78740","city":"Vaux-sur-Seine","country":"France"},"contacts":{"email":"mairie@vauxsurseine.fr","telephone":"0130999150"},"horaires":"Le Lundi : de 14h30 à 17h30\nLe Mardi : de 09h00 à 12h00 de 14h30 à 17h30\nLe Mercredi : de 09h00 à 12h00\nDu Jeudi au Vendredi : de 09h00 à 12h00 de 14h30 à 17h30\nLe Samedi : de 09h00 à 12h00","latitude":49.006012,"longitude":1.963358,"website":"https://www.vauxsurseine.fr/","hasWebsite":true,"hasHoraires":true,"url":"https://lannuaire.service-public.gouv.fr/ile-de-france/yvelines/8711cb98-ac3b-4996-8f37-34693c3aa409"}
{"nom":"Vélizy-Villacoublay","nomNormalise":"velizyvillacoublay","typeCollectivite":"Commune","region":"Île-de-France","departement":"Yvelines","departementCode":"78","adresse":{"street":"2 place de l'Hôtel-de-Ville","postalCode":"78140","city":"Vélizy-Villacoublay Cedex","country":"France"},"contacts":{"email":"directiongenerale@velizy-villacoublay.fr","telephone":"0134585000"},"horaires":"Le Lundi : de 08h30 à 17h00\nLe Mardi : de 08h30 à 12h00 de 14h30 à 20h00\nDu Mercredi au Vendredi : de 08h30 à 12h00 de 13h30 à 17h00\nLe Samedi : de 09h00 à 12h00","latitude":48.7823,"longitude":2.19105,"website":"https://www.velizy-villacoublay.fr/","hasWebsite":true,"hasHoraires":true,"url":"https://lannuaire.service-public.gouv.fr/ile-de-france/yvelines/56f61288-9900-46a3-ad91-f028a085e086"}
{"nom":"Verneuil-sur-Seine","nomNormalise":"verneuilsurseine","typeCollectivite":"Commune","region":"Île-de-France","departement":"Yvelines","departementCode":"78","adresse":{"street":"6 boulevard André-Malraux","postalCode":"78480","city":"Verneuil-sur-Seine","country":"France"},"contacts":{"email":"techniques@verneuil78.fr","telephone":"0139715700"},"horaires":"Du Lundi au Vendredi : de 08h45 à 12h00 de 14h00 à 17h30\nLe Samedi : de 09h00 à 12h00\n\nAccueil fermé en juillet-août.\nAccueil fermé en juillet-août. Etat Civil : Le Lundi, Mardi, Mercredi et Vendredi : de 08h45 à 12h00 de 14h00 à 17h30 - Le Jeudi : de 14h00 à 17h30 - Le Samedi : de 9h00 à 12h00","latitude":48.979023,"longitude":1.975123,"website":"https://www.verneuil78.fr/","hasWebsite":true,"hasHoraires":true,"url":"https://lannuaire.service-public.gouv.fr/ile-de-france/yvelines/886174b8-51c8-4581-998c-e97dce0e12b7"}
{"nom":"Vernouillet","nomNormalise":"vernouillet","typeCollectivite":"Commune","region":"Île-de-France","departement":"Yvelines","departementCode":"78","adresse":{"street":"9 rue Paul-Doumer","postalCode":"78540","city":"Vernouillet","country":"France"},"contacts":{"email":"guichet.unique@mairie-vernouillet.fr","telephone":"0139715600"},"horaires":"Le Lundi : de 08h30 à 12h30 de 14h00 à 17h30\nLe Mardi : de 14h00 à 17h30\nLe Mercredi : de 08h30 à 12h30 de 14h00 à 17h30\nLe Jeudi : de 14h00 à 17h30\nLe Vendredi : de 08h30 à 12h30 de 14h00 à 17h00\nLe Samedi : de 09h00 à 12h00","latitude":48.972378,"longitude":1.982939,"website":"http://www.mairie-vernouillet.fr/","hasWebsite":true,"hasHoraires":true,"url":"https://lannuaire.service-public.gouv.fr/ile-de-france/yvelines/f8f2b8af-57d6-44b1-9825-fcdd9853ac97"}
{"nom":"Versailles","nomNormalise":"versailles","typeCollectivite":"Commune","region":"Île-de-France","departement":"Yvelines","departementCode":"78","adresse":{"street":"4 avenue de Paris","postalCode":"78000","city":"Versailles","country":"France"},"contacts":{"email":"","telephone":"0130978000"},"horaires":"Le Lundi : de 08h30 à 17h00\nLe Mardi : de 08h30 à 18h00\n\nSauf juillet et août.\nDu Mercredi au Vendredi : de 08h30 à 17h00\nLe Samedi : de 08h30 à 12h00\n\nSauf juillet et août.","latitude":48.800518,"longitude":2.130385,"website":"https://www.versailles.fr/","hasWebsite":true,"hasHoraires":true,"url":"https://lannuaire.service-public.gouv.fr/ile-de-france/yvelines/6378d042-d8bb-4c6b-be5e-27c4970e68a7"}
{"nom":"Vert","nomNormalise":"vert","typeCollectivite":"Commune","region":"Île-de-France","departement":"Yvelines","departementCode":"78","adresse":{"street":"64 Grande rue","postalCode":"78930","city":"Vert","country":"France"},"contacts":{"email":"mairiedevert@orange.fr","telephone":"0134763071"},"horaires":"Le Lundi : de 16h00 à 19h00\nLe Mardi : de 16h00 à 18h00\nLe Jeudi : de 16h00 à 19h00\nLe Vendredi : de 16h00 à 18h00","latitude":48.939056,"longitude":1.6909156,"website":"http://www.vert-vaucouleurs.fr/","hasWebsite":true,"hasHoraires":true,"url":"https://lannuaire.service-public.gouv.fr/ile-de-france/yvelines/02b3ca7d-4ec2-475f-ba9d-fcbdb5af4c2f"}
{"nom":"Vicq","nomNormalise":"vicq","typeCollectivite":"Commune","region":"Île-de-France","departement":"Yvelines","departementCode":"78","adresse":{"street":"Place de l'Église","postalCode":"78490","city":"Vicq","country":"France"},"contacts":{"email":"mairie-de-vicq@orange.fr","telephone":"0134869914"},"horaires":"Le Mardi : de 13h30 à 15h00\nLe Jeudi : de 18h00 à 19h00\nLe Samedi : de 10h00 à 12h00","latitude":48.815365,"longitude":1.8332583,"website":"","hasWebsite":false,"hasHoraires":true,"url":"https://lannuaire.service-public.gouv.fr/ile-de-france/yvelines/a6a8408b-aefc-4f9e-96c1-8d61a6c6ed50"}
{"nom":"Vieille-Église-en-Yvelines","nomNormalise":"vieilleegliseenyvelines","typeCollectivite":"Commune","region":"Île-de-France","departement":"Yvelines","departementCode":"78","adresse":{"street":"21 bis route de l'Étang-de-la-Tour","postalCode":"78125","city":"Vieille-Église-en-Yvelines","country":"France"},"contacts":{"email":"vieilleglise.yvelines@wanadoo.fr","telephone":"0130411613"},"horaires":"Le Lundi : de 10h00 à 12h00\nLe Mardi : de 09h30 à 12h30\nLe Jeudi : de 14h30 à 17h00\nLe Samedi : de 10h00 à 12h00","latitude":48.6681,"longitude":1.87597,"website":"http://www.vieilleglise-yvelines.fr/","hasWebsite":true,"hasHoraires":true,"url":"https://lannuaire.service-public.gouv.fr/ile-de-france/yvelines/4e60216d-4d5c-4a29-84e9-46abf1460ecc"}
{"nom":"Villennes-sur-Seine","nomNormalise":"villennessurseine","typeCollectivite":"Commune","region":"Île-de-France","departement":"Yvelines","departementCode":"78","adresse":{"street":"36 avenue Foch","postalCode":"78670","city":"Villennes-sur-Seine","country":"France"},"contacts":{"email":"info@ville-villennes-sur-seine.fr","telephone":"0139082540"},"horaires":"Le Lundi : de 09h00 à 12h00 de 14h30 à 17h00\nLe Mardi : de 08h30 à 12h00 de 14h30 à 17h00\nLe Mercredi : de 09h00 à 12h30\nDu Jeudi au Vendredi : de 09h00 à 12h00 de 14h30 à 17h00\nLe Samedi : de 09h00 à 12h30","latitude":48.9409,"longitude":1.99822,"website":"https://www.ville-villennes-sur-seine.fr/","hasWebsite":true,"hasHoraires":true,"url":"https://lannuaire.service-public.gouv.fr/ile-de-france/yvelines/4639c566-276a-459b-b642-feb1e12a2dd9"}
{"nom":"Villepreux","nomNormalise":"villepreux","typeCollectivite":"Commune","region":"Île-de-France","departement":"Yvelines","departementCode":"78","adresse":{"street":"Place Mendès-France","postalCode":"78450","city":"Villepreux","country":"France"},"contacts":{"email":"accueil@villepreux.fr","telephone":"0130808000"},"horaires":"Le Lundi : de 08h30 à 12h00\nLe Mardi : de 14h00 à 17h30\nLe Mercredi : de 08h00 à 12h00 de 14h00 à 17h30\nLe Jeudi : de 14h00 à 17h30\nLe Vendredi : de 08h00 à 12h00 de 14h00 à 17h30\nLe Samedi : de 09h00 à 12h00\n\nAccueil ouvert uniquement pour l'état civil et fermé durant les vacances scolaire.","latitude":48.830246,"longitude":2.005241,"website":"http://www.villepreux.fr/","hasWebsite":true,"hasHoraires":true,"url":"https://lannuaire.service-public.gouv.fr/ile-de-france/yvelines/f42ec92e-2278-4e6a-8747-61d17b5d03e1"}
{"nom":"Villette","nomNormalise":"villette","typeCollectivite":"Commune","region":"Île-de-France","departement":"Yvelines","departementCode":"78","adresse":{"street":"Place Lacoudre","postalCode":"78930","city":"Villette","country":"France"},"contacts":{"email":"mairie-villette@wanadoo.fr","telephone":"0134763101"},"horaires":"Le Mardi : de 09h00 à 12h00\nLe Jeudi : de 09h00 à 12h00\nLe Vendredi : de 14h30 à 19h30","latitude":48.9276,"longitude":1.692005,"website":"http://www.villette-en-yvelines.fr/","hasWebsite":true,"hasHoraires":true,"url":"https://lannuaire.service-public.gouv.fr/ile-de-france/yvelines/249c4e1e-01da-4230-bdf3-0c299e450166"}
{"nom":"Villiers-le-Mahieu","nomNormalise":"villierslemahieu","typeCollectivite":"Commune","region":"Île-de-France","departement":"Yvelines","departementCode":"78","adresse":{"street":"18 rue du Centre","postalCode":"78770","city":"Villiers-le-Mahieu","country":"France"},"contacts":{"email":"mairie@villiers-le-mahieu.fr","telephone":"0134874083"},"horaires":"Du Lundi au Vendredi : de 10h00 à 12h00\nLe Mardi : de 17h00 à 19h30","latitude":48.86055,"longitude":1.77245,"website":"http://www.villiers-le-mahieu.fr/","hasWebsite":true,"hasHoraires":true,"url":"https://lannuaire.service-public.gouv.fr/ile-de-france/yvelines/0cb7a12e-72ea-4da1-b49e-5d74d528515c"}
{"nom":"Villiers-Saint-Frédéric","nomNormalise":"villierssaintfrederic","typeCollectivite":"Commune","region":"Île-de-France","departement":"Yvelines","departementCode":"78","adresse":{"street":"2 rue Charles-de-Gaulle","postalCode":"78640","city":"Villiers-Saint-Frédéric","country":"France"},"contacts":{"email":"contact@mairie-vsf.fr","telephone":"0134890198"},"horaires":"Du Lundi au Mardi : de 13h30 à 17h00\nLe Mercredi : de 08h45 à 12h00 de 13h30 à 17h00\nDu Jeudi au Vendredi : de 13h30 à 17h00\nLe Samedi : de 09h30 à 12h00\n\nAccueil ouvert le 1er samedi du mois.","latitude":48.81976,"longitude":1.891343,"website":"http://www.mairie-villiers-saint-frederic.fr/","hasWebsite":true,"hasHoraires":true,"url":"https://lannuaire.service-public.gouv.fr/ile-de-france/yvelines/b9b1c248-a60e-475b-a051-6e77afc188f9"}
{"nom":"Viroflay","nomNormalise":"viroflay","typeCollectivite":"Commune","region":"Île-de-France","departement":"Yvelines","departementCode":"78","adresse":{"street":"2 place du Général-de-Gaulle","postalCode":"78220","city":"Viroflay","country":"France"},"contacts":{"email":"affairesgenerales@ville-viroflay.fr","telephone":"0139242828"},"horaires":"Le Lundi : de 08h30 à 12h00 de 13h30 à 17h00\nLe Mardi : de 08h30 à 12h00 de 13h30 à 19h30\n\n(ouverture jusqu'à 19h30 uniquement pour les rendez-vous liés à l'état civil)\nDu Mercredi au Vendredi : de 08h30 à 12h00 de 13h30 à 17h00\nLe Samedi : de 08h30 à 12h00\n\n(uniquement pour les rendez-vous liés à l'état civil)\nVacances scolaires : 8h30 - 12h et 13h30 - 17h du lundi au vendredi.","latitude":48.7995,"longitude":2.17297,"website":"https://www.ville-viroflay.fr/","hasWebsite":true,"hasHoraires":true,"url":"https://lannuaire.service-public.gouv.fr/ile-de-france/yvelines/3d574ff8-f9a1-4c31-84dd-145b4dce3fcb"}
{"nom":"Voisins-le-Bretonneux","nomNormalise":"voisinslebretonneux","typeCollectivite":"Commune","region":"Île-de-France","departement":"Yvelines","departementCode":"78","adresse":{"street":"1 place Charles-de-Gaulle","postalCode":"78960","city":"Voisins-le-Bretonneux","country":"France"},"contacts":{"email":"votre.courriel@voisins78.fr","telephone":"0130485868"},"horaires":"Du Lundi au Mardi : de 08h30 à 12h00 de 13h30 à 17h15\nLe Mercredi : de 13h30 à 20h00\nDu Jeudi au Vendredi : de 08h30 à 12h00 de 13h30 à 17h15\nLe service social \"Espace Marianne\" est fermé les lundi après-midi et vendredi matin.","latitude":48.758354,"longitude":2.050526,"website":"https://www.voisins78.fr/","hasWebsite":true,"hasHoraires":true,"url":"https://lannuaire.service-public.gouv.fr/ile-de-france/yvelines/6f60ffa3-d8c9-42e9-b649-4fdc15f4b73d"}
