{"nom":"Adilly","nomNormalise":"adilly","typeCollectivite":"Commune","region":"Nouvelle-Aquitaine","departement":"Deux-Sèvres","departementCode":"79","adresse":{"street":"4 rue des Violettes","postalCode":"79200","city":"Adilly","country":"France"},"contacts":{"email":"mairie-adilly@cc-parthenay-gatine.fr","telephone":"0549700745"},"horaires":"Le Lundi : de 09h00 à 13h00\nLe Jeudi : de 09h00 à 13h00 de 14h00 à 18h00","latitude":46.69078,"longitude":-0.310462,"website":"","hasWebsite":false,"hasHoraires":true,"url":"https://lannuaire.service-public.gouv.fr/nouvelle-aquitaine/deux-sevres/f4bfd895-6f5e-4c86-9dab-cf33ef716760"}
{"nom":"Aiffres","nomNormalise":"aiffres","typeCollectivite":"Commune","region":"Nouvelle-Aquitaine","departement":"Deux-Sèvres","departementCode":"79","adresse":{"street":"41 rue de la Mairie","postalCode":"79230","city":"Aiffres","country":"France"},"contacts":{"email":"mairie@ville-aiffres.fr","telephone":"0549320247"},"horaires":"Le Lundi : de 08h00 à 12h30 de 13h30 à 17h00\nLe Mardi : de 08h00 à 12h30\nLe Mercredi : de 08h00 à 12h30 de 13h30 à 17h00\nLe Jeudi : de 13h30 à 17h00\nLe Vendredi : de 08h00 à 12h30 de 13h30 à 17h00\nLe Samedi : de 09h00 à 12h00","latitude":46.2854,"longitude":-0.416583,"website":"https://www.ville-aiffres.fr/","hasWebsite":true,"hasHoraires":true,"url":"https://lannuaire.service-public.gouv.fr/nouvelle-aquitaine/deux-sevres/beba7736-7007-4c07-8d46-8233ce29774d"}
{"nom":"Mairie déléguée - Aigonnay","nomNormalise":"mairiedelegueeaigonnay","typeCollectivite":"Commune","region":"Nouvelle-Aquitaine","departement":"Deux-Sèvres","departementCode":"79","adresse":{"street":"Aigonnay","postalCode":"79370","city":"Aigondigné","country":"France"},"contacts":{"email":"aigonnay@aigondigne.fr","telephone":"0549059142"},"horaires":"Le Lundi : de 14h00 à 18h00\nLe Vendredi : de 09h00 à 12h30","latitude":46.2892,"longitude":-0.2535,"website":"https://www.aigondigne.fr/","hasWebsite":true,"hasHoraires":true,"url":"https://lannuaire.service-public.gouv.fr/nouvelle-aquitaine/deux-sevres/7e2c8ff2-51cc-4c8f-bef4-b512ec92873d"}
{"nom":"Airvault","nomNormalise":"airvault","typeCollectivite":"Commune","region":"Nouvelle-Aquitaine","departement":"Deux-Sèvres","departementCode":"79","adresse":{"street":"1 rue Constant-Balquet","postalCode":"79600","city":"Airvault","country":"France"},"contacts":{"email":"mairie@airvault.fr","telephone":"0549647013"},"horaires":"Du Lundi au Vendredi : de 08h30 à 12h30 de 13h45 à 17h30","latitude":46.824383,"longitude":-0.138597,"website":"http://www.airvault.fr/","hasWebsite":true,"hasHoraires":true,"url":"https://lannuaire.service-public.gouv.fr/nouvelle-aquitaine/deux-sevres/f8728982-8229-4646-8e75-4c56d7526cb4"}
{"nom":"Mairie déléguée - Alleuds","nomNormalise":"mairiedelegueealleuds","typeCollectivite":"Commune","region":"Nouvelle-Aquitaine","departement":"Deux-Sèvres","departementCode":"79","adresse":{"street":"Alleuds","postalCode":"79190","city":"Alloinay","country":"France"},"contacts":{"email":"mairie-lesalleuds@paysmellois.org","telephone":"0549293462"},"horaires":"Le Jeudi : de 13h30 à 18h00","latitude":46.16334,"longitude":-0.004027,"website":"http://www.alloinay.fr/","hasWebsite":true,"hasHoraires":true,"url":"https://lannuaire.service-public.gouv.fr/nouvelle-aquitaine/deux-sevres/b2ba6ab2-8a34-4f73-949a-cec3a3e03adb"}
{"nom":"Alloinay","nomNormalise":"alloinay","typeCollectivite":"Commune","region":"Nouvelle-Aquitaine","departement":"Deux-Sèvres","departementCode":"79","adresse":{"street":"Gournay-Loizé","postalCode":"79110","city":"Alloinay","country":"France"},"contacts":{"email":"mairie-gournay@paysmellois.org","telephone":"0549293104"},"horaires":"Le Lundi : de 14h00 à 18h00\nLe Mercredi : de 08h00 à 12h30\nLe Vendredi : de 08h00 à 12h30","latitude":46.15549,"longitude":-0.057441,"website":"https://www.alloinay.fr/","hasWebsite":true,"hasHoraires":true,"url":"https://lannuaire.service-public.gouv.fr/nouvelle-aquitaine/deux-sevres/090aeb13-62ae-4f78-9f93-823182662db9"}
{"nom":"Allonne","nomNormalise":"allonne","typeCollectivite":"Commune","region":"Nouvelle-Aquitaine","departement":"Deux-Sèvres","departementCode":"79","adresse":{"street":"4 rue du Prieuré","postalCode":"79130","city":"Allonne","country":"France"},"contacts":{"email":"mairie-allonne@orange.fr","telephone":"0549637223"},"horaires":"Du Lundi au Vendredi : de 08h30 à 12h30","latitude":46.5822,"longitude":-0.382737,"website":"https://www.cc-parthenay-gatine.fr/","hasWebsite":true,"hasHoraires":true,"url":"https://lannuaire.service-public.gouv.fr/nouvelle-aquitaine/deux-sevres/ae7eac61-ae45-4ce0-a5b4-060ca2f1d234"}
{"nom":"Amailloux","nomNormalise":"amailloux","typeCollectivite":"Commune","region":"Nouvelle-Aquitaine","departement":"Deux-Sèvres","departementCode":"79","adresse":{"street":"8 place de la Mairie","postalCode":"79350","city":"Amailloux","country":"France"},"contacts":{"email":"mairie-amailloux@cc-parthenay.fr","telephone":"0549955824"},"horaires":"Le Mardi : de 09h00 à 12h30\nLe Jeudi : de 09h00 à 12h30\nLe Vendredi : de 14h00 à 17h30\nLe Samedi : de 09h00 à 12h00","latitude":46.747097,"longitude":-0.31891,"website":"https://www.amailloux.fr/","hasWebsite":true,"hasHoraires":true,"url":"https://lannuaire.service-public.gouv.fr/nouvelle-aquitaine/deux-sevres/7107af3c-128a-4a58-9d08-9ac24b8fff56"}
{"nom":"Amuré","nomNormalise":"amure","typeCollectivite":"Commune","region":"Nouvelle-Aquitaine","departement":"Deux-Sèvres","departementCode":"79","adresse":{"street":"80 route de Niort-Marans","postalCode":"79210","city":"Amuré","country":"France"},"contacts":{"email":"mairie.amure@orange.fr","telephone":"0549350495"},"horaires":"Du Lundi au Mardi : de 14h00 à 17h00\nLe Mercredi : de 09h00 à 12h00 de 14h00 à 17h00\nLe Jeudi : de 14h00 à 17h00","latitude":46.263584,"longitude":-0.6316614,"website":"http://www.amure79.fr/","hasWebsite":true,"hasHoraires":true,"url":"https://lannuaire.service-public.gouv.fr/nouvelle-aquitaine/deux-sevres/734503a8-5878-4530-b319-bf584643b553"}
{"nom":"Arçais","nomNormalise":"arcais","typeCollectivite":"Commune","region":"Nouvelle-Aquitaine","departement":"Deux-Sèvres","departementCode":"79","adresse":{"street":"29 rue de la Mairie","postalCode":"79210","city":"Arçais","country":"France"},"contacts":{"email":"mairie.arcais@orange.fr","telephone":"0549353712"},"horaires":"Du Lundi au Mardi : de 09h00 à 12h00\nDu Jeudi au Samedi : de 09h00 à 12h00","latitude":46.297035,"longitude":-0.6880071,"website":"https://lapagelocale.fr/79210-arcais","hasWebsite":true,"hasHoraires":true,"url":"https://lannuaire.service-public.gouv.fr/nouvelle-aquitaine/deux-sevres/be1a7828-1186-4e71-b3fc-9d57189fed4d"}
{"nom":"Ardin","nomNormalise":"ardin","typeCollectivite":"Commune","region":"Nouvelle-Aquitaine","departement":"Deux-Sèvres","departementCode":"79","adresse":{"street":"9 rue Jean-de-Saint-Goard","postalCode":"79160","city":"Ardin","country":"France"},"contacts":{"email":"secretariat@mairie-ardin.fr","telephone":"0549043009"},"horaires":"Du Lundi au Mardi : de 08h30 à 12h00\nLe Mercredi : de 08h30 à 12h00 de 13h30 à 17h00\nLe Jeudi : de 08h30 à 12h00\nLe Vendredi : de 08h30 à 12h00 de 13h30 à 17h00","latitude":46.4749,"longitude":-0.556733,"website":"https://www.mairie-ardin.fr/","hasWebsite":true,"hasHoraires":true,"url":"https://lannuaire.service-public.gouv.fr/nouvelle-aquitaine/deux-sevres/03da526d-9d18-45d2-904d-1a5df430c35e"}
{"nom":"Argenton-l Église","nomNormalise":"argentonleglise","typeCollectivite":"Commune","region":"Nouvelle-Aquitaine","departement":"Deux-Sèvres","departementCode":"79","adresse":{"street":"57 place Charles-de-Gaulle","postalCode":"79290","city":"Loretz-d'Argenton","country":"France"},"contacts":{"email":"mairie@loretz-argenton.fr","telephone":"0549670214"},"horaires":"Du Lundi au Jeudi : de 09h00 à 12h15\nLe Vendredi : de 09h00 à 12h15 de 14h00 à 16h15","latitude":47.0446,"longitude":-0.260743,"website":"https://www.loretzdargenton.fr/","hasWebsite":true,"hasHoraires":true,"url":"https://lannuaire.service-public.gouv.fr/nouvelle-aquitaine/deux-sevres/389c8a3c-79c2-4a0c-9abe-52988ee018f3"}
{"nom":"Argentonnay","nomNormalise":"argentonnay","typeCollectivite":"Commune","region":"Nouvelle-Aquitaine","departement":"Deux-Sèvres","departementCode":"79","adresse":{"street":"11 place Léopold-Bergeon","postalCode":"79150","city":"Argentonnay","country":"France"},"contacts":{"email":"accueil@argentonnay.fr","telephone":"0549657022"},"horaires":"Du Lundi au Vendredi : de 09h00 à 12h30 de 13h30 à 17h00","latitude":46.9848,"longitude":-0.445097,"website":"https://www.argentonnay.fr/","hasWebsite":true,"hasHoraires":true,"url":"https://lannuaire.service-public.gouv.fr/nouvelle-aquitaine/deux-sevres/b1ba2e11-7569-4c1c-a97f-5a109349b301"}
{"nom":"Asnières-en-Poitou","nomNormalise":"asnieresenpoitou","typeCollectivite":"Commune","region":"Nouvelle-Aquitaine","departement":"Deux-Sèvres","departementCode":"79","adresse":{"street":"14 rue des Érables","postalCode":"79170","city":"Asnières-en-Poitou","country":"France"},"contacts":{"email":"mairie-asnieresenpoitou@paysmellois.org","telephone":"0549075284"},"horaires":"Le Lundi : de 08h30 à 12h30 de 14h00 à 17h00\nLe Mercredi : de 08h30 à 12h30 de 14h00 à 17h00","latitude":46.103607,"longitude":-0.2000816,"website":"","hasWebsite":false,"hasHoraires":true,"url":"https://lannuaire.service-public.gouv.fr/nouvelle-aquitaine/deux-sevres/a7fdcc23-47d3-4204-a71b-c9a7f0267379"}
{"nom":"Assais-les-Jumeaux","nomNormalise":"assaislesjumeaux","typeCollectivite":"Commune","region":"Nouvelle-Aquitaine","departement":"Deux-Sèvres","departementCode":"79","adresse":{"street":"5 place des Tilleuls","postalCode":"79600","city":"Assais-les-Jumeaux","country":"France"},"contacts":{"email":"mairie@assaislesjumeaux.fr","telephone":"0549646346"},"horaires":"Du Lundi au Vendredi : de 09h00 à 12h30","latitude":46.7885,"longitude":-0.0597009,"website":"https://www.assais-les-jumeaux.fr/accueil.html","hasWebsite":true,"hasHoraires":true,"url":"https://lannuaire.service-public.gouv.fr/nouvelle-aquitaine/deux-sevres/dab603f4-bca8-4ef6-ad4a-7a0bb2769b0a"}
{"nom":"Aubigné","nomNormalise":"aubigne","typeCollectivite":"Commune","region":"Nouvelle-Aquitaine","departement":"Deux-Sèvres","departementCode":"79","adresse":{"street":"14 rue des Écoles","postalCode":"79110","city":"Aubigné","country":"France"},"contacts":{"email":"mairie-aubigne@paysmellois.org","telephone":"0549074152"},"horaires":"Le Mardi : de 13h15 à 17h00\nLe Mercredi : de 08h00 à 12h30\nLe Jeudi : de 13h15 à 17h00","latitude":46.05621,"longitude":-0.1421662,"website":"","hasWebsite":false,"hasHoraires":true,"url":"https://lannuaire.service-public.gouv.fr/nouvelle-aquitaine/deux-sevres/60629d18-9df4-4ebb-bbed-288007ef0f03"}
{"nom":"Aubigny","nomNormalise":"aubigny","typeCollectivite":"Commune","region":"Nouvelle-Aquitaine","departement":"Deux-Sèvres","departementCode":"79","adresse":{"street":"3 rue André-Ganne","postalCode":"79390","city":"Aubigny","country":"France"},"contacts":{"email":"mairie.aubigny79@orange.fr","telephone":"0549698113"},"horaires":"Le Lundi : de 14h00 à 17h30\nLe Jeudi : de 09h00 à 12h00 de 14h00 à 17h30\nLe Vendredi : de 14h00 à 17h30","latitude":46.73999,"longitude":-0.1184198,"website":"https://aubigny79.fr/","hasWebsite":true,"hasHoraires":true,"url":"https://lannuaire.service-public.gouv.fr/nouvelle-aquitaine/deux-sevres/fbf06d50-4bfc-421e-995a-373187fb470f"}
{"nom":"Augé","nomNormalise":"auge","typeCollectivite":"Commune","region":"Nouvelle-Aquitaine","departement":"Deux-Sèvres","departementCode":"79","adresse":{"street":"3 place de la Mairie","postalCode":"79400","city":"Augé","country":"France"},"contacts":{"email":"accueil@mairie-auge.fr","telephone":"0549052287"},"horaires":"Le Lundi : de 09h00 à 12h00\nLe Mardi : de 09h00 à 12h00 de 13h00 à 17h00\nLe Jeudi : de 13h00 à 17h00\nLe Vendredi : de 13h00 à 16h00","latitude":46.438362,"longitude":-0.287713,"website":"","hasWebsite":false,"hasHoraires":true,"url":"https://lannuaire.service-public.gouv.fr/nouvelle-aquitaine/deux-sevres/7597e479-a059-4c6b-8de1-7c45db945050"}
{"nom":"Availles-Thouarsais","nomNormalise":"availlesthouarsais","typeCollectivite":"Commune","region":"Nouvelle-Aquitaine","departement":"Deux-Sèvres","departementCode":"79","adresse":{"street":"1 route du Deffend","postalCode":"79600","city":"Availles-Thouarsais","country":"France"},"contacts":{"email":"mairie-availles@cc-avt.fr","telephone":"0549647708"},"horaires":"Le Lundi : de 13h30 à 17h30\nLe Mardi : de 08h00 à 12h30\nLe Vendredi : de 08h00 à 12h30","latitude":46.858524,"longitude":-0.143582,"website":"","hasWebsite":false,"hasHoraires":true,"url":"https://lannuaire.service-public.gouv.fr/nouvelle-aquitaine/deux-sevres/4c7e80c6-ca8b-421b-87f4-d974c9b00fad"}
{"nom":"Avon","nomNormalise":"avon","typeCollectivite":"Commune","region":"Nouvelle-Aquitaine","departement":"Deux-Sèvres","departementCode":"79","adresse":{"street":"Thorigné","postalCode":"79800","city":"Avon","country":"France"},"contacts":{"email":"contact@mairieavon79.fr","telephone":"0549763538"},"horaires":"Le Mardi : de 13h30 à 17h30\nLe Vendredi : de 08h30 à 12h30","latitude":46.37294,"longitude":0.007562,"website":"","hasWebsite":false,"hasHoraires":true,"url":"https://lannuaire.service-public.gouv.fr/nouvelle-aquitaine/deux-sevres/60ee7321-2261-4a56-a0b2-058d1d7f3c44"}
{"nom":"Azay-le-Brûlé","nomNormalise":"azaylebrule","typeCollectivite":"Commune","region":"Nouvelle-Aquitaine","departement":"Deux-Sèvres","departementCode":"79","adresse":{"street":"Le Bourg","postalCode":"79400","city":"Azay-le-Brûlé","country":"France"},"contacts":{"email":"mairie@azaylebrule.fr","telephone":"0549065875"},"horaires":"Le Lundi : de 13h00 à 17h00\nLe Mardi : de 09h00 à 12h00 de 13h00 à 17h00\nLe Mercredi : de 13h00 à 17h00\nDu Jeudi au Vendredi : de 09h00 à 12h00 de 13h00 à 17h00","latitude":46.403378,"longitude":-0.25058478,"website":"https://www.azaylebrule.fr/","hasWebsite":true,"hasHoraires":true,"url":"https://lannuaire.service-public.gouv.fr/nouvelle-aquitaine/deux-sevres/408fe5a3-8e93-437a-b813-c4024f723284"}
{"nom":"Azay-sur-Thouet","nomNormalise":"azaysurthouet","typeCollectivite":"Commune","region":"Nouvelle-Aquitaine","departement":"Deux-Sèvres","departementCode":"79","adresse":{"street":"2 rue de la Filature","postalCode":"79130","city":"Azay-sur-Thouet","country":"France"},"contacts":{"email":"mairie-azaysurthouet@cc-parthenay-gatine.fr","telephone":"0549953713"},"horaires":"Du Lundi au Vendredi : de 14h00 à 18h00","latitude":46.6193,"longitude":-0.349236,"website":"","hasWebsite":false,"hasHoraires":true,"url":"https://lannuaire.service-public.gouv.fr/nouvelle-aquitaine/deux-sevres/3595e957-a8f5-4f59-99ba-5164c1dc2a9d"}
{"nom":"Beaulieu-sous-Parthenay","nomNormalise":"beaulieusousparthenay","typeCollectivite":"Commune","region":"Nouvelle-Aquitaine","departement":"Deux-Sèvres","departementCode":"79","adresse":{"street":"34 rue de la Meilleraye","postalCode":"79420","city":"Beaulieu-sous-Parthenay","country":"France"},"contacts":{"email":"beaulieu@ccsudgatine.fr","telephone":"0549706412"},"horaires":"Le Lundi : de 08h00 à 12h30 de 13h45 à 17h00\nLe Mardi : de 08h00 à 12h30\nLe Jeudi : de 08h00 à 12h30 de 13h45 à 17h00\nLe Vendredi : de 08h00 à 12h30","latitude":46.576153,"longitude":-0.230771,"website":"","hasWebsite":false,"hasHoraires":true,"url":"https://lannuaire.service-public.gouv.fr/nouvelle-aquitaine/deux-sevres/a5473b63-09b3-470c-920f-5b3177d01c4f"}
{"nom":"Beaussais-Vitré","nomNormalise":"beaussaisvitre","typeCollectivite":"Commune","region":"Nouvelle-Aquitaine","departement":"Deux-Sèvres","departementCode":"79","adresse":{"street":"6 place de la Mairie","postalCode":"79370","city":"Beaussais-Vitré","country":"France"},"contacts":{"email":"mairie-beaussais-vitre@paysmellois.org","telephone":"0549328091"},"horaires":"Le Lundi : de 09h00 à 12h30 de 14h00 à 17h00\nLe Mardi : de 14h00 à 17h30\nLe Mercredi : de 09h00 à 12h00\nLe Jeudi : de 14h00 à 17h30\nLe Vendredi : de 09h00 à 12h30\n\nSur rendez-vous l'après-midi.","latitude":46.290157,"longitude":-0.153689,"website":"https://beaussais-vitre.fr/","hasWebsite":true,"hasHoraires":true,"url":"https://lannuaire.service-public.gouv.fr/nouvelle-aquitaine/deux-sevres/45179944-1ecc-4e87-876d-8b9e0111eb94"}
{"nom":"Beauvoir-sur-Niort","nomNormalise":"beauvoirsurniort","typeCollectivite":"Commune","region":"Nouvelle-Aquitaine","departement":"Deux-Sèvres","departementCode":"79","adresse":{"street":"29 place de l'Hôtel-de-Ville","postalCode":"79360","city":"Beauvoir-sur-Niort","country":"France"},"contacts":{"email":"secretariatdumaire@beauvoir-sur-niort.fr","telephone":"0549097078"},"horaires":"Du Lundi au Mardi : de 09h00 à 12h30\nLe Mercredi : de 09h00 à 12h30 de 14h00 à 17h00\nDu Jeudi au Vendredi : de 09h00 à 12h30","latitude":46.18001,"longitude":-0.474587,"website":"https://www.beauvoir-sur-niort.fr/","hasWebsite":true,"hasHoraires":true,"url":"https://lannuaire.service-public.gouv.fr/nouvelle-aquitaine/deux-sevres/9138dc71-2be8-4e8c-b69e-7661633ed3e6"}
{"nom":"Béceleuf","nomNormalise":"beceleuf","typeCollectivite":"Commune","region":"Nouvelle-Aquitaine","departement":"Deux-Sèvres","departementCode":"79","adresse":{"street":"Place René-Cassin","postalCode":"79160","city":"Béceleuf","country":"France"},"contacts":{"email":"secretariat@mairiebeceleuf.fr","telephone":"0549043113"},"horaires":"Du Lundi au Vendredi : de 08h00 à 12h00","latitude":46.471287,"longitude":-0.506764,"website":"https://mairiebeceleuf.fr/","hasWebsite":true,"hasHoraires":true,"url":"https://lannuaire.service-public.gouv.fr/nouvelle-aquitaine/deux-sevres/9ebc8ce5-9baa-4a0b-8165-d0eb44202eb2"}
{"nom":"Bessines","nomNormalise":"bessines","typeCollectivite":"Commune","region":"Nouvelle-Aquitaine","departement":"Deux-Sèvres","departementCode":"79","adresse":{"street":"Place de la Mairie","postalCode":"79000","city":"Bessines","country":"France"},"contacts":{"email":"mairie@mairie-bessines.fr","telephone":"0549091064"},"horaires":"Le Lundi : de 08h45 à 12h00 de 15h45 à 17h30\nLe Mardi : de 08h45 à 12h00\nLe Mercredi : de 08h45 à 12h00 de 15h45 à 17h30\nLe Vendredi : de 08h45 à 12h00 de 15h45 à 17h30","latitude":46.302216,"longitude":-0.514722,"website":"https://www.mairie-bessines.fr/","hasWebsite":true,"hasHoraires":true,"url":"https://lannuaire.service-public.gouv.fr/nouvelle-aquitaine/deux-sevres/81859d1e-a361-4f8a-8a9d-07b806a7869d"}
{"nom":"Beugnon-Thireuil","nomNormalise":"beugnonthireuil","typeCollectivite":"Commune","region":"Nouvelle-Aquitaine","departement":"Deux-Sèvres","departementCode":"79","adresse":{"street":"La Chapelle-Thireuil","postalCode":"79160","city":"Beugnon-Thireuil","country":"France"},"contacts":{"email":"secretariat@beugnonthireuil.fr","telephone":"0549042127"},"horaires":"Du Lundi au Mardi : de 14h00 à 17h30\nLe Jeudi : de 14h00 à 17h30","latitude":46.55745,"longitude":-0.5553015,"website":"https://www.beugnonthireuil.fr/","hasWebsite":true,"hasHoraires":true,"url":"https://lannuaire.service-public.gouv.fr/nouvelle-aquitaine/deux-sevres/a832f26f-f373-41da-a4b0-67be20980ba7"}
{"nom":"Boismé","nomNormalise":"boisme","typeCollectivite":"Commune","region":"Nouvelle-Aquitaine","departement":"Deux-Sèvres","departementCode":"79","adresse":{"street":"1 rue Jeanne-d'Arc","postalCode":"79300","city":"Boismé","country":"France"},"contacts":{"email":"secretariat@boisme.fr","telephone":"0549720161"},"horaires":"Le Mardi : de 09h00 à 12h30 de 13h30 à 17h00\nLe Mercredi : de 09h00 à 12h00\nLe Jeudi : de 13h30 à 17h00\nLe Vendredi : de 09h00 à 12h00 de 13h30 à 18h00","latitude":46.77407,"longitude":-0.434717,"website":"https://boisme.fr/","hasWebsite":true,"hasHoraires":true,"url":"https://lannuaire.service-public.gouv.fr/nouvelle-aquitaine/deux-sevres/a4dbf12e-7524-4aaf-ac8c-4e67f683777b"}
{"nom":"Bougon","nomNormalise":"bougon","typeCollectivite":"Commune","region":"Nouvelle-Aquitaine","departement":"Deux-Sèvres","departementCode":"79","adresse":{"street":"40 route de Javarzay","postalCode":"79800","city":"Bougon","country":"France"},"contacts":{"email":"mairie.bougon@wanadoo.fr","telephone":"0549050017"},"horaires":"Le Lundi : de 13h30 à 17h30\nLe Mercredi : de 08h00 à 12h00\nLe Jeudi : de 13h30 à 17h30","latitude":46.364975,"longitude":-0.060541,"website":"","hasWebsite":false,"hasHoraires":true,"url":"https://lannuaire.service-public.gouv.fr/nouvelle-aquitaine/deux-sevres/398e31d3-0e49-42be-b1c3-1778162ac024"}
{"nom":"Mairie déléguée - Bouillé-Loretz","nomNormalise":"mairiedelegueebouilleloretz","typeCollectivite":"Commune","region":"Nouvelle-Aquitaine","departement":"Deux-Sèvres","departementCode":"79","adresse":{"street":"Bouillé-Loretz","postalCode":"79290","city":"Loretz-d'Argenton","country":"France"},"contacts":{"email":"mairie@loretz-argenton.fr","telephone":"0549670457"},"horaires":"Du Lundi au Vendredi : de 09h15 à 12h15","latitude":47.0782,"longitude":-0.270575,"website":"https://www.loretzdargenton.fr/","hasWebsite":true,"hasHoraires":true,"url":"https://lannuaire.service-public.gouv.fr/nouvelle-aquitaine/deux-sevres/95f2e9a2-80c8-4a20-b8ec-c033093677bb"}
{"nom":"Mairie déléguée - Bouillé-Saint-Paul","nomNormalise":"mairiedelegueebouillesaintpaul","typeCollectivite":"Commune","region":"Nouvelle-Aquitaine","departement":"Deux-Sèvres","departementCode":"79","adresse":{"street":"1 rue du chateau","postalCode":"79290","city":"Val en Vignes","country":"France"},"contacts":{"email":"mairie@valenvignes.fr","telephone":"0549968010"},"horaires":"Du Lundi au Vendredi : de 09h00 à 12h30\nLe Samedi : de 09h00 à 12h00","latitude":47.025345,"longitude":-0.346729,"website":"https://valenvignes.com/","hasWebsite":true,"hasHoraires":true,"url":"https://lannuaire.service-public.gouv.fr/nouvelle-aquitaine/deux-sevres/c8640143-f5c1-4766-8199-0d4bc01f57e5"}
{"nom":"Boussais","nomNormalise":"boussais","typeCollectivite":"Commune","region":"Nouvelle-Aquitaine","departement":"Deux-Sèvres","departementCode":"79","adresse":{"street":"9 place de l'Église","postalCode":"79600","city":"Boussais","country":"France"},"contacts":{"email":"mairie-boussais@cc-avt.fr","telephone":"0549697077"},"horaires":"Le Lundi : de 09h00 à 12h00\nDu Mercredi au Jeudi : de 09h00 à 12h00","latitude":46.829285,"longitude":-0.2475567,"website":"","hasWebsite":false,"hasHoraires":true,"url":"https://lannuaire.service-public.gouv.fr/nouvelle-aquitaine/deux-sevres/b53045e4-e28d-43a0-84c4-c4722b982716"}
{"nom":"Bressuire","nomNormalise":"bressuire","typeCollectivite":"Commune","region":"Nouvelle-Aquitaine","departement":"Deux-Sèvres","departementCode":"79","adresse":{"street":"4 place de l'Hôtel-de-Ville","postalCode":"79300","city":"Bressuire","country":"France"},"contacts":{"email":"mairie@ville-bressuire.fr","telephone":"0549804980"},"horaires":"Du Lundi au Vendredi : de 09h00 à 12h30 de 13h30 à 17h30","latitude":46.8418,"longitude":-0.4929659,"website":"https://www.ville-bressuire.fr/","hasWebsite":true,"hasHoraires":true,"url":"https://lannuaire.service-public.gouv.fr/nouvelle-aquitaine/deux-sevres/ca162aa9-3543-489d-a418-b95fc18b76d0"}
{"nom":"Brétignolles","nomNormalise":"bretignolles","typeCollectivite":"Commune","region":"Nouvelle-Aquitaine","departement":"Deux-Sèvres","departementCode":"79","adresse":{"street":"21 rue Saint-Pierre","postalCode":"79140","city":"Brétignolles","country":"France"},"contacts":{"email":"mairie-bretignolles@wanadoo.fr","telephone":"0549810231"},"horaires":"Le Lundi : de 09h00 à 12h00\nLe Mercredi : de 09h00 à 12h00 de 14h00 à 18h00\nLe Vendredi : de 09h00 à 12h00","latitude":46.862663,"longitude":-0.6071191,"website":"http://www.bretignolles.fr/","hasWebsite":true,"hasHoraires":true,"url":"https://lannuaire.service-public.gouv.fr/nouvelle-aquitaine/deux-sevres/284f23a6-2102-4e11-82aa-75af300f2ba9"}
{"nom":"Mairie déléguée - Brie","nomNormalise":"mairiedelegueebrie","typeCollectivite":"Commune","region":"Nouvelle-Aquitaine","departement":"Deux-Sèvres","departementCode":"79","adresse":{"street":"Brie","postalCode":"79100","city":"Plaine-et-Vallées","country":"France"},"contacts":{"email":"accueil.mairie@plaineetvallees.fr","telephone":"0549674558"},"horaires":"Le Vendredi : de 09h00 à 12h00","latitude":46.919273,"longitude":-0.040953,"website":"https://www.intramuros.org/plaineetvallees","hasWebsite":true,"hasHoraires":true,"url":"https://lannuaire.service-public.gouv.fr/nouvelle-aquitaine/deux-sevres/7cacad88-3d77-47e7-86f2-819a17cf6a11"}
{"nom":"Brieuil-sur-Chizé","nomNormalise":"brieuilsurchize","typeCollectivite":"Commune","region":"Nouvelle-Aquitaine","departement":"Deux-Sèvres","departementCode":"79","adresse":{"street":"2 chemin du Village","postalCode":"79170","city":"Brieuil-sur-Chizé","country":"France"},"contacts":{"email":"mairie-brieuilsurchize@paysmellois.org","telephone":"0549767429"},"horaires":"Le Lundi : de 14h00 à 17h00\nLe Jeudi : de 08h30 à 12h00","latitude":46.124023,"longitude":-0.3195259,"website":"","hasWebsite":false,"hasHoraires":true,"url":"https://lannuaire.service-public.gouv.fr/nouvelle-aquitaine/deux-sevres/9b1105da-10ea-4745-96ae-31df2a2611ee"}
{"nom":"Brion-près-Thouet","nomNormalise":"brionpresthouet","typeCollectivite":"Commune","region":"Nouvelle-Aquitaine","departement":"Deux-Sèvres","departementCode":"79","adresse":{"street":"4 place de la Mairie","postalCode":"79290","city":"Brion-près-Thouet","country":"France"},"contacts":{"email":"mairie-de-brion@orange.fr","telephone":"0549677000"},"horaires":"Le Lundi : de 13h00 à 17h00\nLe Mardi : de 09h00 à 12h00\nLe Jeudi : de 13h00 à 17h00\nLe Vendredi : de 09h00 à 13h00","latitude":47.05187,"longitude":-0.1859999,"website":"http://www.brion-pres-thouet.fr/","hasWebsite":true,"hasHoraires":true,"url":"https://lannuaire.service-public.gouv.fr/nouvelle-aquitaine/deux-sevres/0e48ab6c-df32-4fc5-b040-1fe9e844931f"}
{"nom":"Brioux-sur-Boutonne","nomNormalise":"briouxsurboutonne","typeCollectivite":"Commune","region":"Nouvelle-Aquitaine","departement":"Deux-Sèvres","departementCode":"79","adresse":{"street":"Place du Champ-de-Foire","postalCode":"79170","city":"Brioux-sur-Boutonne","country":"France"},"contacts":{"email":"mairie@brioux-sur-boutonne.fr","telephone":"0549075046"},"horaires":"Le Lundi : de 08h30 à 12h30 de 14h00 à 17h00\nDu Mercredi au Vendredi : de 08h30 à 12h30 de 14h00 à 17h00","latitude":46.1415,"longitude":-0.221896,"website":"https://brioux-sur-boutonne.fr/","hasWebsite":true,"hasHoraires":true,"url":"https://lannuaire.service-public.gouv.fr/nouvelle-aquitaine/deux-sevres/ae2802d1-63e1-4f87-b543-9a343c860dc3"}
{"nom":"Brûlain","nomNormalise":"brulain","typeCollectivite":"Commune","region":"Nouvelle-Aquitaine","departement":"Deux-Sèvres","departementCode":"79","adresse":{"street":"1 rue Baptiste-Paul-Grimaud","postalCode":"79230","city":"Brûlain","country":"France"},"contacts":{"email":"mairiedebrulain@gmail.com","telephone":"0549264804"},"horaires":"Le Lundi : de 13h30 à 17h00\nLe Mardi : de 13h30 à 17h30\nLe Jeudi : de 13h30 à 17h00\nLe Vendredi : de 13h30 à 17h30","latitude":46.201008,"longitude":-0.320173,"website":"","hasWebsite":false,"hasHoraires":true,"url":"https://lannuaire.service-public.gouv.fr/nouvelle-aquitaine/deux-sevres/bedbc9e7-95fe-4b39-9e55-e704c60b44f0"}
{"nom":"Mairie déléguée - Caunay","nomNormalise":"mairiedelegueecaunay","typeCollectivite":"Commune","region":"Nouvelle-Aquitaine","departement":"Deux-Sèvres","departementCode":"79","adresse":{"street":"Caunay","postalCode":"79190","city":"Sauzé-entre-Bois","country":"France"},"contacts":{"email":"mairie-caunay@paysmellois.org","telephone":"0549299932"},"horaires":"Le Lundi : de 10h00 à 12h00\nLe Mercredi : de 10h00 à 12h00","latitude":46.200115,"longitude":0.088883,"website":"","hasWebsite":false,"hasHoraires":true,"url":"https://lannuaire.service-public.gouv.fr/nouvelle-aquitaine/deux-sevres/f9156f3c-e353-4c26-b973-888fd3d1823c"}
{"nom":"Celles-sur-Belle","nomNormalise":"cellessurbelle","typeCollectivite":"Commune","region":"Nouvelle-Aquitaine","departement":"Deux-Sèvres","departementCode":"79","adresse":{"street":"1 avenue de Limoges","postalCode":"79370","city":"Celles-sur-Belle","country":"France"},"contacts":{"email":"accueil@villecellessurbelle.fr","telephone":"0549798017"},"horaires":"Le Lundi : de 08h30 à 12h00 de 13h30 à 16h00\nLe Mardi : de 13h30 à 17h00\nLe Mercredi : de 08h30 à 12h00 de 13h30 à 16h30\nLe Jeudi : de 08h30 à 12h00 de 13h30 à 16h00\nLe Vendredi : de 08h30 à 12h00 de 13h30 à 16h30","latitude":46.2604,"longitude":-0.212526,"website":"https://www.ville-celles-sur-belle.com/","hasWebsite":true,"hasHoraires":true,"url":"https://lannuaire.service-public.gouv.fr/nouvelle-aquitaine/deux-sevres/a7873a93-6284-414f-85f6-da5910672be0"}
{"nom":"Cerizay","nomNormalise":"cerizay","typeCollectivite":"Commune","region":"Nouvelle-Aquitaine","departement":"Deux-Sèvres","departementCode":"79","adresse":{"street":"Place Jean-Monnet","postalCode":"79140","city":"Cerizay","country":"France"},"contacts":{"email":"ville@cerizay.fr","telephone":"0549805711"},"horaires":"Du Lundi au Vendredi : de 09h00 à 12h00 de 13h30 à 17h30","latitude":46.821636,"longitude":-0.6688629,"website":"https://www.cerizay.fr/","hasWebsite":true,"hasHoraires":true,"url":"https://lannuaire.service-public.gouv.fr/nouvelle-aquitaine/deux-sevres/ddc44d70-ca4c-4f33-a562-7d13211ead4e"}
{"nom":"Champdeniers","nomNormalise":"champdeniers","typeCollectivite":"Commune","region":"Nouvelle-Aquitaine","departement":"Deux-Sèvres","departementCode":"79","adresse":{"street":"30 Grande-rue","postalCode":"79220","city":"Champdeniers","country":"France"},"contacts":{"email":"contact@champdeniers.fr","telephone":"0549258047"},"horaires":"Du Mardi au Jeudi : de 08h30 à 12h00\nLe Vendredi : de 08h30 à 12h00 de 15h30 à 17h30","latitude":46.483936,"longitude":-0.405467,"website":"https://www.champdeniers.fr/","hasWebsite":true,"hasHoraires":true,"url":"https://lannuaire.service-public.gouv.fr/nouvelle-aquitaine/deux-sevres/6ce81d9e-7026-4869-a336-0772f1ab6046"}
{"nom":"Chanteloup","nomNormalise":"chanteloup","typeCollectivite":"Commune","region":"Nouvelle-Aquitaine","departement":"Deux-Sèvres","departementCode":"79","adresse":{"street":"1 rue de la Mairie","postalCode":"79320","city":"Chanteloup","country":"France"},"contacts":{"email":"mairie@chanteloup.fr","telephone":"0549722065"},"horaires":"Du Lundi au Mardi : de 09h00 à 12h30\nLe Mercredi : de 09h00 à 12h30 de 14h00 à 17h00\nLe Vendredi : de 09h00 à 12h30 de 14h00 à 17h00","latitude":46.766964,"longitude":-0.524299,"website":"https://chanteloup.fr/","hasWebsite":true,"hasHoraires":true,"url":"https://lannuaire.service-public.gouv.fr/nouvelle-aquitaine/deux-sevres/791ab36b-7b98-4f39-af42-7c19148795b9"}
{"nom":"Châtillon-sur-Thouet","nomNormalise":"chatillonsurthouet","typeCollectivite":"Commune","region":"Nouvelle-Aquitaine","departement":"Deux-Sèvres","departementCode":"79","adresse":{"street":"1 boulevard du Thouet","postalCode":"79200","city":"Châtillon-sur-Thouet","country":"France"},"contacts":{"email":"mairie@chatillonsurthouet.fr","telephone":"0549950784"},"horaires":"Du Lundi au Vendredi : de 09h00 à 12h00 de 14h00 à 17h00","latitude":46.66004,"longitude":-0.23919,"website":"https://chatillonsurthouet.fr/","hasWebsite":true,"hasHoraires":true,"url":"https://lannuaire.service-public.gouv.fr/nouvelle-aquitaine/deux-sevres/ecacc262-7f32-473f-9edb-ffafa8d9c414"}
{"nom":"Chauray","nomNormalise":"chauray","typeCollectivite":"Commune","region":"Nouvelle-Aquitaine","departement":"Deux-Sèvres","departementCode":"79","adresse":{"street":"12 impasse de l'Église","postalCode":"79180","city":"Chauray","country":"France"},"contacts":{"email":"contacts@chauray.fr","telephone":"0549080293"},"horaires":"Du Lundi au Mercredi : de 09h00 à 12h00 de 13h00 à 17h30\nLe Jeudi : de 13h00 à 17h30\nLe Vendredi : de 09h00 à 12h00 de 13h00 à 17h30\nLe Samedi : de 09h00 à 11h30\n\nAccueil fermé en juillet-août.","latitude":46.360714,"longitude":-0.374944,"website":"https://ville-de-chauray.fr/","hasWebsite":true,"hasHoraires":true,"url":"https://lannuaire.service-public.gouv.fr/nouvelle-aquitaine/deux-sevres/1d7bf331-875f-4804-a63d-4f984296247c"}
{"nom":"Chef-Boutonne","nomNormalise":"chefboutonne","typeCollectivite":"Commune","region":"Nouvelle-Aquitaine","departement":"Deux-Sèvres","departementCode":"79","adresse":{"street":"7 avenue de l'Hôtel-de-Ville","postalCode":"79110","city":"Chef-Boutonne","country":"France"},"contacts":{"email":"mairie@chef-boutonne.fr","telephone":"0549298004"},"horaires":"Le Lundi : de 09h00 à 12h30 de 14h00 à 17h00\nDu Mardi au Jeudi : de 14h00 à 17h00\nLe Vendredi : de 09h00 à 12h30 de 14h00 à 17h00","latitude":46.1094,"longitude":-0.075977,"website":"https://www.chef-boutonne.fr/","hasWebsite":true,"hasHoraires":true,"url":"https://lannuaire.service-public.gouv.fr/nouvelle-aquitaine/deux-sevres/3715d252-b860-4fd6-82a1-89c4970dab5f"}
{"nom":"Chenay","nomNormalise":"chenay","typeCollectivite":"Commune","region":"Nouvelle-Aquitaine","departement":"Deux-Sèvres","departementCode":"79","adresse":{"street":"12 rue de la Mairie","postalCode":"79120","city":"Chenay","country":"France"},"contacts":{"email":"mairie-chenay@paysmellois.org","telephone":"0549073853"},"horaires":"Du Lundi au Mardi : de 13h30 à 17h00\nDu Jeudi au Vendredi : de 13h30 à 17h00","latitude":46.3243,"longitude":-0.033672,"website":"","hasWebsite":false,"hasHoraires":true,"url":"https://lannuaire.service-public.gouv.fr/nouvelle-aquitaine/deux-sevres/aaa2107c-98b0-4ad7-b6f3-fe2f23e70615"}
{"nom":"Chérigné","nomNormalise":"cherigne","typeCollectivite":"Commune","region":"Nouvelle-Aquitaine","departement":"Deux-Sèvres","departementCode":"79","adresse":{"street":"17 Grand'rue","postalCode":"79170","city":"Chérigné","country":"France"},"contacts":{"email":"mairie-cherigne@wanadoo.fr","telephone":"0549075437"},"horaires":"Le Lundi : de 14h00 à 17h00\nLe Vendredi : de 14h00 à 17h00","latitude":46.122856,"longitude":-0.171295,"website":"","hasWebsite":false,"hasHoraires":true,"url":"https://lannuaire.service-public.gouv.fr/nouvelle-aquitaine/deux-sevres/ae0b72ff-eec3-4835-904c-ae6df2a467af"}
{"nom":"Cherveux","nomNormalise":"cherveux","typeCollectivite":"Commune","region":"Nouvelle-Aquitaine","departement":"Deux-Sèvres","departementCode":"79","adresse":{"street":"1 rue de la Belle-Etoile","postalCode":"79410","city":"Cherveux","country":"France"},"contacts":{"email":"accueil.mairie@cherveux.fr","telephone":"0549750177"},"horaires":"Le Lundi : de 08h00 à 12h00 de 14h00 à 17h00\nLe Mardi : de 08h00 à 12h00\nLe Vendredi : de 08h00 à 12h00 de 14h00 à 17h00","latitude":46.415,"longitude":-0.358,"website":"https://www.cherveux.fr/","hasWebsite":true,"hasHoraires":true,"url":"https://lannuaire.service-public.gouv.fr/nouvelle-aquitaine/deux-sevres/c409da42-2015-433c-b0d7-54c45ca415be"}
{"nom":"Chey","nomNormalise":"chey","typeCollectivite":"Commune","region":"Nouvelle-Aquitaine","departement":"Deux-Sèvres","departementCode":"79","adresse":{"street":"20 route de Poitiers","postalCode":"79120","city":"Chey","country":"France"},"contacts":{"email":"mairie-chey@paysmellois.org","telephone":"0549072456"},"horaires":"Du Lundi au Mardi : de 13h30 à 17h00\nDu Jeudi au Vendredi : de 13h30 à 17h00","latitude":46.30293,"longitude":-0.051262,"website":"https://www.chey79.fr/","hasWebsite":true,"hasHoraires":true,"url":"https://lannuaire.service-public.gouv.fr/nouvelle-aquitaine/deux-sevres/dba94ddb-88bc-41d4-84b7-9fec75172221"}
{"nom":"Chiché","nomNormalise":"chiche","typeCollectivite":"Commune","region":"Nouvelle-Aquitaine","departement":"Deux-Sèvres","departementCode":"79","adresse":{"street":"Place Saint-Martin","postalCode":"79350","city":"Chiché","country":"France"},"contacts":{"email":"accueil@chiche79.fr","telephone":"0549724035"},"horaires":"Du Mardi au Vendredi : de 09h00 à 12h30 de 13h30 à 17h30\nLe Samedi : de 09h00 à 12h00","latitude":46.7967,"longitude":-0.358932,"website":"https://commune-de-chiche.com/","hasWebsite":true,"hasHoraires":true,"url":"https://lannuaire.service-public.gouv.fr/nouvelle-aquitaine/deux-sevres/713f7a8d-74e1-456f-9ae9-65d29390dccd"}
{"nom":"Chizé","nomNormalise":"chize","typeCollectivite":"Commune","region":"Nouvelle-Aquitaine","departement":"Deux-Sèvres","departementCode":"79","adresse":{"street":"30 rue de l'Hôtel-de-Ville","postalCode":"79170","city":"Chizé","country":"France"},"contacts":{"email":"mairie.chize@wanadoo.fr","telephone":"0549046330"},"horaires":"Du Lundi au Mardi : de 14h00 à 17h30\nLe Mercredi : de 09h00 à 12h30 de 14h00 à 17h30\nLe Jeudi : de 14h00 à 19h00\nLe Vendredi : de 14h00 à 17h30","latitude":46.1165,"longitude":-0.350427,"website":"http://chize.fr/","hasWebsite":true,"hasHoraires":true,"url":"https://lannuaire.service-public.gouv.fr/nouvelle-aquitaine/deux-sevres/3ad6cac8-852d-4a6b-9b92-cf7ea28f4997"}
{"nom":"Cirières","nomNormalise":"cirieres","typeCollectivite":"Commune","region":"Nouvelle-Aquitaine","departement":"Deux-Sèvres","departementCode":"79","adresse":{"street":"11 rue Sainte-Radégonde","postalCode":"79140","city":"Cirières","country":"France"},"contacts":{"email":"mairie@cirieres.fr","telephone":"0549805824"},"horaires":"Le Lundi : de 09h00 à 11h30\nLe Mardi : de 15h15 à 17h30\nLe Mercredi : de 10h00 à 12h30 de 14h30 à 17h30\nLe Vendredi : de 09h00 à 11h30","latitude":46.8404,"longitude":-0.620135,"website":"https://cirieres.wixsite.com/cirieres","hasWebsite":true,"hasHoraires":true,"url":"https://lannuaire.service-public.gouv.fr/nouvelle-aquitaine/deux-sevres/142fc448-961d-42ee-a06e-759a3f08a193"}
{"nom":"Clavé","nomNormalise":"clave","typeCollectivite":"Commune","region":"Nouvelle-Aquitaine","departement":"Deux-Sèvres","departementCode":"79","adresse":{"street":"4 route du Lavoir","postalCode":"79420","city":"Clavé","country":"France"},"contacts":{"email":"clave@ccsudgatine.fr","telephone":"0549954973"},"horaires":"Du Lundi au Mardi : de 09h00 à 12h00\nLe Jeudi : de 09h00 à 12h00\nLe Vendredi : de 09h00 à 10h00 de 14h00 à 17h00","latitude":46.493862,"longitude":-0.216286,"website":"","hasWebsite":false,"hasHoraires":true,"url":"https://lannuaire.service-public.gouv.fr/nouvelle-aquitaine/deux-sevres/58b51f83-82d2-450f-8dc4-080713f8c40a"}
{"nom":"Clessé","nomNormalise":"clesse","typeCollectivite":"Commune","region":"Nouvelle-Aquitaine","departement":"Deux-Sèvres","departementCode":"79","adresse":{"street":"15 rue de la Mairie","postalCode":"79350","city":"Clessé","country":"France"},"contacts":{"email":"mairie@clesse79.fr","telephone":"0549720102"},"horaires":"Le Lundi : de 13h30 à 18h00\nLe Mardi : de 13h30 à 17h30\nLe Mercredi : de 09h00 à 12h00\nDu Jeudi au Vendredi : de 13h30 à 17h30","latitude":46.716457,"longitude":-0.405248,"website":"http://www.clesse79.fr/","hasWebsite":true,"hasHoraires":true,"url":"https://lannuaire.service-public.gouv.fr/nouvelle-aquitaine/deux-sevres/a8772a6d-31db-47a7-a625-11775cd8a4c1"}
{"nom":"Clussais-la-Pommeraie","nomNormalise":"clussaislapommeraie","typeCollectivite":"Commune","region":"Nouvelle-Aquitaine","departement":"Deux-Sèvres","departementCode":"79","adresse":{"street":"La Pommeraie","postalCode":"79190","city":"Clussais-la-Pommeraie","country":"France"},"contacts":{"email":"mairie-clussaislapommeraie@paysmellois.org","telephone":"0549076171"},"horaires":"Le Mardi : de 14h00 à 17h30\nLe Mercredi : de 09h30 à 12h30 de 14h00 à 17h30\nLe Jeudi : de 09h30 à 12h30\nLe Vendredi : de 09h30 à 12h30 de 14h00 à 16h30","latitude":46.18539,"longitude":0.029208,"website":"https://www.clussaislapommeraie79.org/","hasWebsite":true,"hasHoraires":true,"url":"https://lannuaire.service-public.gouv.fr/nouvelle-aquitaine/deux-sevres/409f258a-1f9f-4d07-9ebc-73eddf1cfedf"}
{"nom":"Combrand","nomNormalise":"combrand","typeCollectivite":"Commune","region":"Nouvelle-Aquitaine","departement":"Deux-Sèvres","departementCode":"79","adresse":{"street":"2 rue du Calvaire","postalCode":"79140","city":"Combrand","country":"France"},"contacts":{"email":"contact@mairiecombrand.com","telephone":"0549810400"},"horaires":"Le Mardi : de 15h00 à 18h00\nLe Mercredi : de 10h30 à 12h30\nLe Jeudi : de 15h00 à 18h00\nLe Vendredi : de 15h00 à 18h30","latitude":46.8626,"longitude":-0.688073,"website":"https://combrand79.wordpress.com/","hasWebsite":true,"hasHoraires":true,"url":"https://lannuaire.service-public.gouv.fr/nouvelle-aquitaine/deux-sevres/b19ba12d-f22f-456e-be9c-fcb5623513c2"}
{"nom":"Coulon","nomNormalise":"coulon","typeCollectivite":"Commune","region":"Nouvelle-Aquitaine","departement":"Deux-Sèvres","departementCode":"79","adresse":{"street":"14 place de l'Église","postalCode":"79510","city":"Coulon","country":"France"},"contacts":{"email":"accueil@ville-coulon.fr","telephone":"0549359026"},"horaires":"Le Lundi : de 09h15 à 12h30 de 13h30 à 17h00\nLe Mardi : de 09h15 à 12h30\nLe Mercredi : de 09h15 à 12h30 de 13h30 à 17h00\nLe Jeudi : de 09h15 à 12h30\nLe Vendredi : de 09h15 à 12h30 de 13h30 à 17h00\nLe Samedi : de 09h15 à 12h00\n\nle 1er samedi de chaque mois","latitude":46.3215,"longitude":-0.586573,"website":"http://www.ville-coulon.fr/","hasWebsite":true,"hasHoraires":true,"url":"https://lannuaire.service-public.gouv.fr/nouvelle-aquitaine/deux-sevres/d739bc99-29fe-49b4-8243-2005a5d4724f"}
{"nom":"Coulonges-sur-l Autize","nomNormalise":"coulongessurlautize","typeCollectivite":"Commune","region":"Nouvelle-Aquitaine","departement":"Deux-Sèvres","departementCode":"79","adresse":{"street":"4 place du Château","postalCode":"79160","city":"Coulonges-sur-l'Autize","country":"France"},"contacts":{"email":"secretariat@coulongessurlautize.com","telephone":"0549061072"},"horaires":"Du Lundi au Vendredi : de 08h00 à 12h00 de 13h30 à 17h30","latitude":46.4824,"longitude":-0.600077,"website":"http://www.coulonges-sur-lautize.fr/","hasWebsite":true,"hasHoraires":true,"url":"https://lannuaire.service-public.gouv.fr/nouvelle-aquitaine/deux-sevres/26c11a91-2d9e-4e44-a65d-2dde989d7ee8"}
{"nom":"Coulonges-Thouarsais","nomNormalise":"coulongesthouarsais","typeCollectivite":"Commune","region":"Nouvelle-Aquitaine","departement":"Deux-Sèvres","departementCode":"79","adresse":{"street":"23 rue Principale","postalCode":"79330","city":"Coulonges-Thouarsais","country":"France"},"contacts":{"email":"mairie.coulongesthouarsais@wanadoo.fr","telephone":"0549964904"},"horaires":"Le Mardi : de 13h30 à 17h30\nLe Mercredi : de 08h00 à 12h30\nLe Vendredi : de 13h30 à 16h00","latitude":46.925026,"longitude":-0.322254,"website":"","hasWebsite":false,"hasHoraires":true,"url":"https://lannuaire.service-public.gouv.fr/nouvelle-aquitaine/deux-sevres/3528be3e-d173-404d-8a14-5919962f364e"}
{"nom":"Courlay","nomNormalise":"courlay","typeCollectivite":"Commune","region":"Nouvelle-Aquitaine","departement":"Deux-Sèvres","departementCode":"79","adresse":{"street":"42 rue Salliard-du-Rivault","postalCode":"79440","city":"Courlay","country":"France"},"contacts":{"email":"mairie@courlay.fr","telephone":"0549722042"},"horaires":"Du Lundi au Mardi : de 08h30 à 12h00 de 14h00 à 18h15\nLe Mercredi : de 14h00 à 18h15\nDu Jeudi au Vendredi : de 08h30 à 12h00 de 14h00 à 18h15","latitude":46.77976,"longitude":-0.566975,"website":"https://courlay.fr/","hasWebsite":true,"hasHoraires":true,"url":"https://lannuaire.service-public.gouv.fr/nouvelle-aquitaine/deux-sevres/516382d3-fc19-492a-8e2b-3ebaeb93d4ca"}
{"nom":"Cours","nomNormalise":"cours","typeCollectivite":"Commune","region":"Nouvelle-Aquitaine","departement":"Deux-Sèvres","departementCode":"79","adresse":{"street":"3 Rue des Sources","postalCode":"79220","city":"Cours","country":"France"},"contacts":{"email":"mairiedecours79@wanadoo.fr","telephone":"0549258270"},"horaires":"Le Lundi : de 10h00 à 12h00 de 17h00 à 18h00\nLe Mardi : de 08h30 à 10h30 de 17h00 à 18h00\nLe Jeudi : de 10h00 à 12h00 de 17h00 à 18h00\nLe Vendredi : de 08h30 à 11h30","latitude":46.495934,"longitude":-0.4143144,"website":"http://mairiedecours79.blogspot.com/","hasWebsite":true,"hasHoraires":true,"url":"https://lannuaire.service-public.gouv.fr/nouvelle-aquitaine/deux-sevres/4cf8569e-4b1c-4292-92bf-239cacdbaf70"}
{"nom":"Couture-d Argenson","nomNormalise":"couturedargenson","typeCollectivite":"Commune","region":"Nouvelle-Aquitaine","departement":"Deux-Sèvres","departementCode":"79","adresse":{"street":"9 rue de l'Église","postalCode":"79110","city":"Couture-d'Argenson","country":"France"},"contacts":{"email":"mairie-couture-argenson@paysmellois.org","telephone":"0549078722"},"horaires":"Le Mardi : de 09h00 à 12h00\nLe Mercredi : de 09h00 à 12h00 de 13h30 à 16h00\nLe Jeudi : de 09h00 à 12h00","latitude":45.992752,"longitude":-0.084037,"website":"https://www.couture-dargenson.fr/","hasWebsite":true,"hasHoraires":true,"url":"https://lannuaire.service-public.gouv.fr/nouvelle-aquitaine/deux-sevres/e868a054-953b-473b-b0bb-7e5b725bc639"}
{"nom":"Mairie déléguée - Crézières","nomNormalise":"mairiedelegueecrezieres","typeCollectivite":"Commune","region":"Nouvelle-Aquitaine","departement":"Deux-Sèvres","departementCode":"79","adresse":{"street":"Crézières","postalCode":"79110","city":"Chef-Boutonne","country":"France"},"contacts":{"email":"mairie.crezieres@chef-boutonne.fr","telephone":"0549296188"},"horaires":"Le Jeudi : de 10h00 à 12h30","latitude":46.082,"longitude":-0.1316613,"website":"http://www.chef-boutonne.fr/","hasWebsite":true,"hasHoraires":true,"url":"https://lannuaire.service-public.gouv.fr/nouvelle-aquitaine/deux-sevres/df57abbb-3078-49ee-a606-af15c64b6c72"}
{"nom":"Doux","nomNormalise":"doux","typeCollectivite":"Commune","region":"Nouvelle-Aquitaine","departement":"Deux-Sèvres","departementCode":"79","adresse":{"street":"19 rue de la Mairie","postalCode":"79390","city":"Doux","country":"Grèce"},"contacts":{"email":"mairie.doux@wanadoo.fr","telephone":"0549630083"},"horaires":"Le Mardi : de 14h00 à 17h00\nLe Mercredi : de 09h00 à 12h00\nLe Vendredi : de 09h00 à 12h00","latitude":46.738663,"longitude":0.015263,"website":"https://www.cc-parthenay-gatine.fr/doux","hasWebsite":true,"hasHoraires":true,"url":"https://lannuaire.service-public.gouv.fr/nouvelle-aquitaine/deux-sevres/8fd85fc6-8845-455a-8778-01bb1507d74e"}
{"nom":"Échiré","nomNormalise":"echire","typeCollectivite":"Commune","region":"Nouvelle-Aquitaine","departement":"Deux-Sèvres","departementCode":"79","adresse":{"street":"1 place de l'Église","postalCode":"79410","city":"Échiré","country":"France"},"contacts":{"email":"mairie@echire.fr","telephone":"0549257008"},"horaires":"Du Lundi au Mardi : de 08h30 à 12h00\n\nEt sur rendez-vous de 13h30 à 17h30\nLe Mercredi : de 08h00 à 12h00 de 13h30 à 17h30\n\nSur rendez-vous en période de vacances scolaires\nLe Jeudi : de 08h30 à 12h00\n\nEt sur rendez-vous de 13h30 à 17h30\nLe Vendredi : de 08h30 à 12h00 de 13h30 à 17h30\n\nSur rendez-vous en période de vacances scolaires.\nLe Samedi : de 10h00 à 12h00\nEt sur rendez-vous de 13h30 à 17h30","latitude":46.3916,"longitude":-0.415514,"website":"https://www.echire.fr/","hasWebsite":true,"hasHoraires":true,"url":"https://lannuaire.service-public.gouv.fr/nouvelle-aquitaine/deux-sevres/43ea9fd0-1e5e-4738-9bf9-c2cad2a9434e"}
{"nom":"Ensigné","nomNormalise":"ensigne","typeCollectivite":"Commune","region":"Nouvelle-Aquitaine","departement":"Deux-Sèvres","departementCode":"79","adresse":{"street":"1 rue du Parquet","postalCode":"79170","city":"Ensigné","country":"France"},"contacts":{"email":"mairie-ensigne@paysmellois.org","telephone":"0549071239"},"horaires":"Le Mardi : de 09h00 à 12h30 de 15h00 à 18h30\nLe Jeudi : de 08h30 à 12h30","latitude":46.086624,"longitude":-0.243129,"website":"","hasWebsite":false,"hasHoraires":true,"url":"https://lannuaire.service-public.gouv.fr/nouvelle-aquitaine/deux-sevres/f2cdf410-f0ee-4203-acc6-792d6e550d60"}
{"nom":"Épannes","nomNormalise":"epannes","typeCollectivite":"Commune","region":"Nouvelle-Aquitaine","departement":"Deux-Sèvres","departementCode":"79","adresse":{"street":"410 rue des Écoles","postalCode":"79270","city":"Épannes","country":"France"},"contacts":{"email":"contact@mairie-epannes.fr","telephone":"0549048027"},"horaires":"Le Lundi : de 14h00 à 17h00\nLe Mardi : de 09h00 à 12h30 de 14h00 à 17h00\nLe Mercredi : de 09h00 à 12h30\nLe Jeudi : de 09h00 à 12h30 de 14h00 à 17h00\nLe Vendredi : de 14h00 à 16h00","latitude":46.229427,"longitude":-0.578691,"website":"https://www.epannes.fr/","hasWebsite":true,"hasHoraires":true,"url":"https://lannuaire.service-public.gouv.fr/nouvelle-aquitaine/deux-sevres/dd35e01f-b8af-409e-b824-6b5fdbd0da00"}
{"nom":"Exireuil","nomNormalise":"exireuil","typeCollectivite":"Commune","region":"Nouvelle-Aquitaine","departement":"Deux-Sèvres","departementCode":"79","adresse":{"street":"9 place de la Mairie","postalCode":"79400","city":"Exireuil","country":"France"},"contacts":{"email":"mairie@exireuil.fr","telephone":"0549761603"},"horaires":"Du Lundi au Vendredi : de 13h00 à 17h00","latitude":46.432873,"longitude":-0.192128,"website":"https://www.exireuil.fr/","hasWebsite":true,"hasHoraires":true,"url":"https://lannuaire.service-public.gouv.fr/nouvelle-aquitaine/deux-sevres/fb47924a-277e-47a3-95bc-08953f1be975"}
{"nom":"Exoudun","nomNormalise":"exoudun","typeCollectivite":"Commune","region":"Nouvelle-Aquitaine","departement":"Deux-Sèvres","departementCode":"79","adresse":{"street":"1 place de la Mairie","postalCode":"79800","city":"Exoudun","country":"France"},"contacts":{"email":"mairie.exoudun@wanadoo.fr","telephone":"0549050185"},"horaires":"Du Lundi au Mercredi : de 14h00 à 18h00\nLe Vendredi : de 14h00 à 17h30","latitude":46.344425,"longitude":-0.079872,"website":"","hasWebsite":false,"hasHoraires":true,"url":"https://lannuaire.service-public.gouv.fr/nouvelle-aquitaine/deux-sevres/7c7d14c9-313f-4811-a51c-de823f15c243"}
{"nom":"Faye-l'Abbesse","nomNormalise":"fayelabbesse","typeCollectivite":"Commune","region":"Nouvelle-Aquitaine","departement":"Deux-Sèvres","departementCode":"79","adresse":{"street":"17 avenue Jules-Trinchot","postalCode":"79350","city":"Faye-l'Abbesse","country":"France"},"contacts":{"email":"accueil@fayelabbesse.fr","telephone":"0549724201"},"horaires":"Du Lundi au Vendredi : de 15h00 à 17h30\nAccueil de l'état civil ouvert du lundi au vendredi de 9h à 12h00 et de 14h à 17h30.","latitude":46.8306,"longitude":-0.3540329,"website":"http://www.fayelabbesse.fr/","hasWebsite":true,"hasHoraires":true,"url":"https://lannuaire.service-public.gouv.fr/nouvelle-aquitaine/deux-sevres/6b977250-dbf4-4717-968b-5319bab79c47"}
{"nom":"Faye-sur-Ardin","nomNormalise":"fayesurardin","typeCollectivite":"Commune","region":"Nouvelle-Aquitaine","departement":"Deux-Sèvres","departementCode":"79","adresse":{"street":"40 route du Dragor","postalCode":"79160","city":"Faye-sur-Ardin","country":"France"},"contacts":{"email":"mairie.fayesurardin@wanadoo.fr","telephone":"0549043908"},"horaires":"Du Lundi au Mercredi : de 09h00 à 12h00\nLe Jeudi : de 15h30 à 18h30\nLe Vendredi : de 09h00 à 12h00","latitude":46.44759,"longitude":-0.51259,"website":"https://fayesurardin.com/","hasWebsite":true,"hasHoraires":true,"url":"https://lannuaire.service-public.gouv.fr/nouvelle-aquitaine/deux-sevres/4bc9a644-8f23-4bc5-8d15-95d1bc366ef6"}
{"nom":"Fénery","nomNormalise":"fenery","typeCollectivite":"Commune","region":"Nouvelle-Aquitaine","departement":"Deux-Sèvres","departementCode":"79","adresse":{"street":"2 rue du Calvaire","postalCode":"79450","city":"Fénery","country":"France"},"contacts":{"email":"commune.fenery@wanadoo.fr","telephone":"0549700044"},"horaires":"Le Lundi : de 09h00 à 12h00\nLe Mardi : de 13h15 à 17h15\nLe Mercredi : de 08h00 à 12h00\nDu Jeudi au Vendredi : de 13h15 à 17h15","latitude":46.68753,"longitude":-0.361906,"website":"","hasWebsite":false,"hasHoraires":true,"url":"https://lannuaire.service-public.gouv.fr/nouvelle-aquitaine/deux-sevres/e1822f12-be6e-4a9d-8c87-c7863cfaa84e"}
{"nom":"Fenioux","nomNormalise":"fenioux","typeCollectivite":"Commune","region":"Nouvelle-Aquitaine","departement":"Deux-Sèvres","departementCode":"79","adresse":{"street":"3 place de la Mairie","postalCode":"79160","city":"Fenioux","country":"France"},"contacts":{"email":"mairie-fenioux@wanadoo.fr","telephone":"0549752172"},"horaires":"Du Lundi au Mardi : de 08h30 à 12h00\nDu Jeudi au Vendredi : de 08h30 à 12h00","latitude":46.542072,"longitude":0.494163,"website":"","hasWebsite":false,"hasHoraires":true,"url":"https://lannuaire.service-public.gouv.fr/nouvelle-aquitaine/deux-sevres/f5770413-dbdc-4255-afe8-1c649d31d6cc"}
{"nom":"Fomperron","nomNormalise":"fomperron","typeCollectivite":"Commune","region":"Nouvelle-Aquitaine","departement":"Deux-Sèvres","departementCode":"79","adresse":{"street":"5 rue de l'An-2000","postalCode":"79340","city":"Fomperron","country":"France"},"contacts":{"email":"mairie-fomperron@cc-parthenay-gatine.fr","telephone":"0549690214"},"horaires":"Le Lundi : de 14h00 à 18h00\nLe Mercredi : de 14h00 à 17h00\nLe Jeudi : de 08h30 à 12h30","latitude":46.475513,"longitude":-0.1090328,"website":"","hasWebsite":false,"hasHoraires":true,"url":"https://lannuaire.service-public.gouv.fr/nouvelle-aquitaine/deux-sevres/7b687f40-867c-45e8-bb7a-f7662e819268"}
{"nom":"Fontenille-Saint-Martin-d'Entraigues","nomNormalise":"fontenillesaintmartindentraigues","typeCollectivite":"Commune","region":"Nouvelle-Aquitaine","departement":"Deux-Sèvres","departementCode":"79","adresse":{"street":"37 route de Niort","postalCode":"79110","city":"Fontenille-St-Martin-Entraigues","country":"France"},"contacts":{"email":"mairie-fontenille@paysmellois.org","telephone":"0549297585"},"horaires":"Du Lundi au Mardi : de 09h30 à 12h30 de 14h00 à 17h00\nDu Jeudi au Vendredi : de 09h30 à 12h30 de 14h00 à 17h00","latitude":46.120655,"longitude":-0.132109,"website":"","hasWebsite":false,"hasHoraires":true,"url":"https://lannuaire.service-public.gouv.fr/nouvelle-aquitaine/deux-sevres/8fc637eb-d10c-4923-a7b4-2ead3802921a"}
{"nom":"Fontivillié","nomNormalise":"fontivillie","typeCollectivite":"Commune","region":"Nouvelle-Aquitaine","departement":"Deux-Sèvres","departementCode":"79","adresse":{"street":"1 rue du Maréchal-Ferrant","postalCode":"79500","city":"Fontivillié","country":"France"},"contacts":{"email":"mairie-fontivillie@paysmellois.org","telephone":"0549293511"},"horaires":"Le Lundi : de 09h00 à 12h00 de 14h00 à 17h00\nLe Mardi : de 14h00 à 18h00\nLe Mercredi : de 09h00 à 12h00\nLe Jeudi : de 09h00 à 12h00 de 14h00 à 17h00\nLe Vendredi : de 09h00 à 12h00","latitude":46.20702,"longitude":-0.075012,"website":"https://www.fontivillie.fr/","hasWebsite":true,"hasHoraires":true,"url":"https://lannuaire.service-public.gouv.fr/nouvelle-aquitaine/deux-sevres/42163836-fb94-4b65-b9c8-f4e1741e3765"}
{"nom":"Fors","nomNormalise":"fors","typeCollectivite":"Commune","region":"Nouvelle-Aquitaine","departement":"Deux-Sèvres","departementCode":"79","adresse":{"street":"17 rue de la Mairie","postalCode":"79230","city":"Fors","country":"France"},"contacts":{"email":"mairie@fors79.fr","telephone":"0549326520"},"horaires":"Le Lundi : de 09h00 à 12h00 de 14h00 à 18h00\nLe Mardi : de 10h00 à 18h00\nLe Jeudi : de 09h00 à 12h00\nLe Vendredi : de 10h00 à 17h00","latitude":46.23475,"longitude":-0.4095562,"website":"https://www.fors79.fr/","hasWebsite":true,"hasHoraires":true,"url":"https://lannuaire.service-public.gouv.fr/nouvelle-aquitaine/deux-sevres/d6455e27-132e-4720-80d1-f8c706dab738"}
{"nom":"François","nomNormalise":"francois","typeCollectivite":"Commune","region":"Nouvelle-Aquitaine","departement":"Deux-Sèvres","departementCode":"79","adresse":{"street":"Le Breuil","postalCode":"79260","city":"François","country":"France"},"contacts":{"email":"mairie.francois@wanadoo.fr","telephone":"0549080517"},"horaires":"Le Lundi : de 09h00 à 12h00\nLe Mardi : de 14h00 à 17h00\nLe Mercredi : de 14h00 à 18h30\nLe Jeudi : de 14h00 à 17h00\nLe Vendredi : de 14h00 à 18h30","latitude":46.383297,"longitude":-0.3382359,"website":"https://www.mairie-francois.fr/","hasWebsite":true,"hasHoraires":true,"url":"https://lannuaire.service-public.gouv.fr/nouvelle-aquitaine/deux-sevres/2feefb43-2830-46d2-b4ae-abbd6cc35c32"}
{"nom":"Fressines","nomNormalise":"fressines","typeCollectivite":"Commune","region":"Nouvelle-Aquitaine","departement":"Deux-Sèvres","departementCode":"79","adresse":{"street":"29 route de Mougon","postalCode":"79370","city":"Fressines","country":"France"},"contacts":{"email":"mairie-fressines@wanadoo.fr","telephone":"0549739873"},"horaires":"Le Lundi : de 13h30 à 18h15\nDu Mardi au Jeudi : de 13h30 à 17h30\nLe Vendredi : de 09h00 à 12h00 de 13h30 à 17h30","latitude":46.320972,"longitude":-0.2920506,"website":"http://fressines.net/","hasWebsite":true,"hasHoraires":true,"url":"https://lannuaire.service-public.gouv.fr/nouvelle-aquitaine/deux-sevres/86567f1c-789c-481a-ba52-e3936b90e590"}
{"nom":"Frontenay-Rohan-Rohan","nomNormalise":"frontenayrohanrohan","typeCollectivite":"Commune","region":"Nouvelle-Aquitaine","departement":"Deux-Sèvres","departementCode":"79","adresse":{"street":"1 square Simone Veil","postalCode":"79270","city":"Frontenay-Rohan-Rohan","country":"France"},"contacts":{"email":"affairesgenerales@frontenay-rohan-rohan.fr","telephone":"0549045025"},"horaires":"Le Lundi : de 13h30 à 17h00\nDu Mardi au Mercredi : de 09h00 à 12h30 de 13h30 à 17h00\nLe Jeudi : de 09h00 à 12h30\nLe Vendredi : de 09h00 à 12h30 de 13h30 à 16h00\nLe Samedi : de 09h00 à 12h00\n\nsauf Juillet et Août","latitude":46.253822,"longitude":-0.540089,"website":"https://www.frontenay-rohan-rohan.fr/","hasWebsite":true,"hasHoraires":true,"url":"https://lannuaire.service-public.gouv.fr/nouvelle-aquitaine/deux-sevres/664f831b-f621-45f6-84d1-144648f1d127"}
{"nom":"Geay","nomNormalise":"geay","typeCollectivite":"Commune","region":"Nouvelle-Aquitaine","departement":"Deux-Sèvres","departementCode":"79","adresse":{"street":"1 place de la Mairie","postalCode":"79330","city":"Geay","country":"France"},"contacts":{"email":"mairie@communedegeay.fr","telephone":"0549675307"},"horaires":"Le Mardi : de 09h00 à 12h30 de 14h00 à 17h30\nLe Vendredi : de 09h00 à 12h30 de 14h00 à 17h30","latitude":46.4115,"longitude":-0.173087,"website":"","hasWebsite":false,"hasHoraires":true,"url":"https://lannuaire.service-public.gouv.fr/nouvelle-aquitaine/deux-sevres/d88cc819-fd34-4920-a434-4e235289510d"}
{"nom":"Genneton","nomNormalise":"genneton","typeCollectivite":"Commune","region":"Nouvelle-Aquitaine","departement":"Deux-Sèvres","departementCode":"79","adresse":{"street":"3 rue des Lilas","postalCode":"79150","city":"Genneton","country":"France"},"contacts":{"email":"mairiedegenneton@orange.fr","telephone":"0549968147"},"horaires":"Le Lundi : de 09h00 à 12h00\nDu Jeudi au Vendredi : de 09h00 à 12h00","latitude":47.05475,"longitude":-0.427364,"website":"","hasWebsite":false,"hasHoraires":true,"url":"https://lannuaire.service-public.gouv.fr/nouvelle-aquitaine/deux-sevres/fbf1041d-e01b-42dc-85d8-205ff5bcdda2"}
{"nom":"Germond-Rouvre","nomNormalise":"germondrouvre","typeCollectivite":"Commune","region":"Nouvelle-Aquitaine","departement":"Deux-Sèvres","departementCode":"79","adresse":{"street":"1 rue du Relais","postalCode":"79220","city":"Germond-Rouvre","country":"France"},"contacts":{"email":"mairie@germondrouvre.fr","telephone":"0549040363"},"horaires":"Du Lundi au Mardi : de 15h00 à 17h00\nDu Jeudi au Vendredi : de 15h00 à 17h00","latitude":46.45505,"longitude":-0.4203804,"website":"http://www.germond-rouvre.fr/","hasWebsite":true,"hasHoraires":true,"url":"https://lannuaire.service-public.gouv.fr/nouvelle-aquitaine/deux-sevres/77fac7fd-ede0-421a-ab7f-86a5e496fe3e"}
{"nom":"Glénay","nomNormalise":"glenay","typeCollectivite":"Commune","region":"Nouvelle-Aquitaine","departement":"Deux-Sèvres","departementCode":"79","adresse":{"street":"2 rue du Moulin","postalCode":"79330","city":"Glénay","country":"France"},"contacts":{"email":"mairie.glenay@orange.fr","telephone":"0549675173"},"horaires":"Le Lundi : de 15h00 à 18h30\nLe Mercredi : de 09h00 à 12h00\nLe Jeudi : de 14h00 à 18h00","latitude":46.861,"longitude":-0.250404,"website":"","hasWebsite":false,"hasHoraires":true,"url":"https://lannuaire.service-public.gouv.fr/nouvelle-aquitaine/deux-sevres/54711050-c685-4111-8e06-45e91a39458f"}
{"nom":"Gourgé","nomNormalise":"gourge","typeCollectivite":"Commune","region":"Nouvelle-Aquitaine","departement":"Deux-Sèvres","departementCode":"79","adresse":{"street":"2 chemin de Saint-Maturin","postalCode":"79200","city":"Gourgé","country":"France"},"contacts":{"email":"mairie.gourge79@orange.fr","telephone":"0549698154"},"horaires":"Le Lundi : de 09h00 à 12h30\nLe Mercredi : de 14h00 à 19h00\nLe Vendredi : de 09h00 à 12h30 de 14h00 à 18h00","latitude":46.728226,"longitude":-0.1674181,"website":"http://www.gourge.fr/","hasWebsite":true,"hasHoraires":true,"url":"https://lannuaire.service-public.gouv.fr/nouvelle-aquitaine/deux-sevres/5378dc83-aa1a-43c3-b36c-563b3c595877"}
{"nom":"Granzay-Gript","nomNormalise":"granzaygript","typeCollectivite":"Commune","region":"Nouvelle-Aquitaine","departement":"Deux-Sèvres","departementCode":"79","adresse":{"street":"8 rue de la Fougeraye","postalCode":"79360","city":"Granzay-Gript","country":"France"},"contacts":{"email":"mairie@granzay-gript.fr","telephone":"0549097060"},"horaires":"Le Lundi : de 13h00 à 17h00\nLe Mardi : de 13h00 à 17h30\nLe Mercredi : de 09h00 à 12h00 de 13h00 à 18h00\nLe Vendredi : de 13h00 à 17h00","latitude":46.2218,"longitude":-0.496038,"website":"https://www.granzay-gript.fr/","hasWebsite":true,"hasHoraires":true,"url":"https://lannuaire.service-public.gouv.fr/nouvelle-aquitaine/deux-sevres/39fe4bf9-4511-4ae5-873f-6ceb40c72899"}
{"nom":"Irais","nomNormalise":"irais","typeCollectivite":"Commune","region":"Nouvelle-Aquitaine","departement":"Deux-Sèvres","departementCode":"79","adresse":{"street":"5 rue de la Mairie","postalCode":"79600","city":"Irais","country":"France"},"contacts":{"email":"mairie-irais@cc-avt.fr","telephone":"0549674611"},"horaires":"Le Lundi : de 14h00 à 17h00\nLe Jeudi : de 14h00 à 17h00","latitude":46.8782,"longitude":-0.093219,"website":"","hasWebsite":false,"hasHoraires":true,"url":"https://lannuaire.service-public.gouv.fr/nouvelle-aquitaine/deux-sevres/7486ea94-07a4-41c1-b2fb-0c24e793591d"}
{"nom":"Juillé (79)","nomNormalise":"juille","typeCollectivite":"Commune","region":"Nouvelle-Aquitaine","departement":"Deux-Sèvres","departementCode":"79","adresse":{"street":"1 rue de la Mairie","postalCode":"79170","city":"Juillé","country":"France"},"contacts":{"email":"mairie-juille@paysmellois.org","telephone":"0549072520"},"horaires":"Le Mardi : de 14h00 à 16h00\nLe Vendredi : de 14h00 à 16h00","latitude":46.115326,"longitude":-0.21567,"website":"","hasWebsite":false,"hasHoraires":true,"url":"https://lannuaire.service-public.gouv.fr/nouvelle-aquitaine/deux-sevres/959e7907-80a4-4773-b98e-0d3fbceea330"}
{"nom":"Juscorps","nomNormalise":"juscorps","typeCollectivite":"Commune","region":"Nouvelle-Aquitaine","departement":"Deux-Sèvres","departementCode":"79","adresse":{"street":"95 route de Brulain","postalCode":"79230","city":"Juscorps","country":"France"},"contacts":{"email":"juscorps.79.mairie@wanadoo.fr","telephone":"0549326644"},"horaires":"Le Mardi : de 14h00 à 17h30\nLe Vendredi : de 14h00 à 17h30","latitude":46.2099,"longitude":-0.378916,"website":"https://www.juscorps.fr/","hasWebsite":true,"hasHoraires":true,"url":"https://lannuaire.service-public.gouv.fr/nouvelle-aquitaine/deux-sevres/42296eea-e1f4-4ae2-a904-9b364506b78d"}
{"nom":"Mairie déléguée - La Bataille","nomNormalise":"mairiedelegueelabataille","typeCollectivite":"Commune","region":"Nouvelle-Aquitaine","departement":"Deux-Sèvres","departementCode":"79","adresse":{"street":"La Bataille","postalCode":"79110","city":"Chef-Boutonne","country":"France"},"contacts":{"email":"mairie.labataille@chef-boutonne.fr","telephone":"0549298004"},"horaires":"Le Mardi : de 10h00 à 12h30","latitude":46.087986,"longitude":-0.10621,"website":"https://chef-boutonne.fr/","hasWebsite":true,"hasHoraires":true,"url":"https://lannuaire.service-public.gouv.fr/nouvelle-aquitaine/deux-sevres/aa4b75ab-6e8e-456b-ba91-049c3947e27c"}
{"nom":"La Boissière-en-Gâtine","nomNormalise":"laboissiereengatine","typeCollectivite":"Commune","region":"Nouvelle-Aquitaine","departement":"Deux-Sèvres","departementCode":"79","adresse":{"street":"1 rue des Buis","postalCode":"79310","city":"La Boissière-en-Gâtine","country":"France"},"contacts":{"email":"mairie.boissiere@wanadoo.fr","telephone":"0549632288"},"horaires":"Le Mardi : de 08h00 à 12h00 de 13h00 à 18h00\nLe Jeudi : de 08h00 à 12h00 de 13h00 à 18h00\nLe Vendredi : de 13h30 à 17h30","latitude":46.557476,"longitude":-0.376515,"website":"","hasWebsite":false,"hasHoraires":true,"url":"https://lannuaire.service-public.gouv.fr/nouvelle-aquitaine/deux-sevres/d060cc9a-86f1-4f5c-9b67-ab3058e4aeb7"}
{"nom":"L Absie","nomNormalise":"labsie","typeCollectivite":"Commune","region":"Nouvelle-Aquitaine","departement":"Deux-Sèvres","departementCode":"79","adresse":{"street":"11 rue Raymond-Migaud","postalCode":"79240","city":"L'Absie","country":"France"},"contacts":{"email":"secretariat@absie.fr","telephone":"0549958050"},"horaires":"Du Lundi au Mardi : de 10h00 à 12h00\nLe Mercredi : de 13h30 à 18h00\nDu Jeudi au Vendredi : de 10h00 à 12h00","latitude":46.6335,"longitude":-0.577042,"website":"https://www.absie.fr/","hasWebsite":true,"hasHoraires":true,"url":"https://lannuaire.service-public.gouv.fr/nouvelle-aquitaine/deux-sevres/b904d4fc-08b8-47c5-b2c2-38bbaf0209f1"}
{"nom":"La Chapelle-Bâton","nomNormalise":"lachapellebaton","typeCollectivite":"Commune","region":"Nouvelle-Aquitaine","departement":"Deux-Sèvres","departementCode":"79","adresse":{"street":"10 place de l'Accueil","postalCode":"79220","city":"La Chapelle-Bâton","country":"France"},"contacts":{"email":"mairie.79chapbat@orange.fr","telephone":"0549052867"},"horaires":"Le Lundi : de 09h00 à 12h00\nDu Mercredi au Vendredi : de 09h00 à 12h00","latitude":46.4785,"longitude":-0.31849,"website":"","hasWebsite":false,"hasHoraires":true,"url":"https://lannuaire.service-public.gouv.fr/nouvelle-aquitaine/deux-sevres/e5593f69-20b0-4bb0-983f-7c0ee73fe2c2"}
{"nom":"La Chapelle-Bertrand","nomNormalise":"lachapellebertrand","typeCollectivite":"Commune","region":"Nouvelle-Aquitaine","departement":"Deux-Sèvres","departementCode":"79","adresse":{"street":"Place de la Mairie","postalCode":"79200","city":"La Chapelle-Bertrand","country":"France"},"contacts":{"email":"mairie-chap-ber@cc-parthenay-gatine.fr","telephone":"0549641691"},"horaires":"Du Lundi au Mardi : de 13h30 à 17h00\nDu Jeudi au Vendredi : de 13h30 à 17h00","latitude":46.608807,"longitude":-0.235561,"website":"https://www.cc-parthenay-gatine.fr/lachapellebertrand","hasWebsite":true,"hasHoraires":true,"url":"https://lannuaire.service-public.gouv.fr/nouvelle-aquitaine/deux-sevres/8c6edd91-bd74-4b65-b0b7-22d33866dbd7"}
{"nom":"La Chapelle-Pouilloux","nomNormalise":"lachapellepouilloux","typeCollectivite":"Commune","region":"Nouvelle-Aquitaine","departement":"Deux-Sèvres","departementCode":"79","adresse":{"street":"1 rue de la Mairie","postalCode":"79190","city":"La Chapelle-Pouilloux","country":"France"},"contacts":{"email":"mairie-lachapellepouilloux@paysmellois.org","telephone":"0549077651"},"horaires":"Le Lundi : de 09h00 à 11h00\n\nPermanence du maire uniquement.\nLe Mardi : de 13h30 à 17h00\nLe Vendredi : de 09h00 à 11h00 de 13h30 à 17h00\nPermanence du maire uniquement.","latitude":46.137802,"longitude":0.056628,"website":"","hasWebsite":false,"hasHoraires":true,"url":"https://lannuaire.service-public.gouv.fr/nouvelle-aquitaine/deux-sevres/83219347-1e33-4d50-832f-a5497f167991"}
{"nom":"La Chapelle-Saint-Laurent","nomNormalise":"lachapellesaintlaurent","typeCollectivite":"Commune","region":"Nouvelle-Aquitaine","departement":"Deux-Sèvres","departementCode":"79","adresse":{"street":"1 place de l'Église","postalCode":"79430","city":"La Chapelle-Saint-Laurent","country":"France"},"contacts":{"email":"mairie@chapellestlaurent.fr","telephone":"0549720028"},"horaires":"Du Lundi au Mardi : de 08h30 à 12h15\nLe Mercredi : de 08h30 à 12h15 de 13h30 à 18h00\nLe Jeudi : de 08h30 à 12h15\nLe Vendredi : de 08h30 à 12h15 de 13h30 à 17h00","latitude":46.746593,"longitude":-0.4762771,"website":"https://www.lachapellesaintlaurent.fr/fr/","hasWebsite":true,"hasHoraires":true,"url":"https://lannuaire.service-public.gouv.fr/nouvelle-aquitaine/deux-sevres/1d831d5f-035e-40d6-8774-ce3c864075ca"}
{"nom":"La Crèche","nomNormalise":"lacreche","typeCollectivite":"Commune","region":"Nouvelle-Aquitaine","departement":"Deux-Sèvres","departementCode":"79","adresse":{"street":"97 avenue de Paris","postalCode":"79260","city":"La Crèche","country":"France"},"contacts":{"email":"contact@ville-lacreche.fr","telephone":"0549255054"},"horaires":"Le Lundi : de 14h00 à 17h00\nDu Mardi au Mercredi : de 08h00 à 12h00 de 14h00 à 17h00\nLe Jeudi : de 14h00 à 17h00\nLe Vendredi : de 08h00 à 12h00 de 14h00 à 17h00\nLe Samedi : de 10h00 à 12h00\n\nPermanence des élus le samedi de 10h à 12h.","latitude":46.361797,"longitude":-0.29939,"website":"https://www.intramuros.org/la-creche","hasWebsite":true,"hasHoraires":true,"url":"https://lannuaire.service-public.gouv.fr/nouvelle-aquitaine/deux-sevres/77305fbf-0539-4140-a105-dece8c826d43"}
{"nom":"La Ferrière-en-Parthenay","nomNormalise":"laferriereenparthenay","typeCollectivite":"Commune","region":"Nouvelle-Aquitaine","departement":"Deux-Sèvres","departementCode":"79","adresse":{"street":"22 rue de la Mairie","postalCode":"79390","city":"La Ferrière-en-Parthenay","country":"France"},"contacts":{"email":"mairie@laferriere79.fr","telephone":"0549630509"},"horaires":"Le Lundi : de 08h30 à 12h30\nLe Mercredi : de 08h30 à 12h00\nLe Jeudi : de 08h30 à 12h30\nLe Vendredi : de 08h30 à 12h30 de 13h30 à 16h30","latitude":46.6568,"longitude":-0.075557,"website":"https://www.laferriere79.fr/accueil.html","hasWebsite":true,"hasHoraires":true,"url":"https://lannuaire.service-public.gouv.fr/nouvelle-aquitaine/deux-sevres/e5b4df6b-c7ce-4d8f-82e3-2753ecd3fe02"}
{"nom":"La Forêt-sur-Sèvre","nomNormalise":"laforetsursevre","typeCollectivite":"Commune","region":"Nouvelle-Aquitaine","departement":"Deux-Sèvres","departementCode":"79","adresse":{"street":"3 place Georges-Clemenceau","postalCode":"79380","city":"La Forêt-sur-Sèvre","country":"France"},"contacts":{"email":"mairie@laforetsursevre.com","telephone":"0549808642"},"horaires":"Le Lundi : de 10h00 à 12h30 de 14h00 à 18h00\nLe Mardi : de 08h30 à 12h30\nLe Mercredi : de 08h30 à 12h30 de 14h00 à 18h00\nLe Jeudi : de 08h30 à 12h30 de 14h00 à 18h00\nLe Vendredi : de 08h30 à 12h30 de 14h00 à 17h00","latitude":46.77092,"longitude":-0.648724,"website":"http://www.laforetsursevre.com/","hasWebsite":true,"hasHoraires":true,"url":"https://lannuaire.service-public.gouv.fr/nouvelle-aquitaine/deux-sevres/a1c47a95-c64b-411e-933f-75c59f8a6735"}
{"nom":"La Foye-Monjault","nomNormalise":"lafoyemonjault","typeCollectivite":"Commune","region":"Nouvelle-Aquitaine","departement":"Deux-Sèvres","departementCode":"79","adresse":{"street":"23 rue de la Mairie","postalCode":"79360","city":"La Foye-Monjault","country":"France"},"contacts":{"email":"mairie@la-foye-monjault.fr","telephone":"0549049330"},"horaires":"Le Lundi : de 10h00 à 12h00\nLe Mardi : de 09h00 à 12h00\nLe Jeudi : de 09h00 à 12h00\nLe Vendredi : de 10h00 à 12h00","latitude":46.1869,"longitude":-0.539826,"website":"https://la-foye-monjault.fr/fr/","hasWebsite":true,"hasHoraires":true,"url":"https://lannuaire.service-public.gouv.fr/nouvelle-aquitaine/deux-sevres/07dbfe3d-815e-4c64-b270-d5b10e1f9754"}
{"nom":"Lageon","nomNormalise":"lageon","typeCollectivite":"Commune","region":"Nouvelle-Aquitaine","departement":"Deux-Sèvres","departementCode":"79","adresse":{"street":"27 route de la Liberté","postalCode":"79200","city":"Lageon","country":"France"},"contacts":{"email":"contact@lageon79.fr","telephone":"0549698345"},"horaires":"Le Mardi : de 14h00 à 16h00\nLe Mercredi : de 10h00 à 12h00\nLe Jeudi : de 15h00 à 18h00\nLe Vendredi : de 14h00 à 16h00","latitude":46.7328,"longitude":-0.236447,"website":"https://www.cc-parthenay-gatine.fr/lageon","hasWebsite":true,"hasHoraires":true,"url":"https://lannuaire.service-public.gouv.fr/nouvelle-aquitaine/deux-sevres/7c18e5b8-80d7-4086-b180-c5db9afcb22a"}
{"nom":"La Mothe-Saint-Héray","nomNormalise":"lamothesaintheray","typeCollectivite":"Commune","region":"Nouvelle-Aquitaine","departement":"Deux-Sèvres","departementCode":"79","adresse":{"street":"2 place Clemenceau","postalCode":"79800","city":"La Mothe-Saint-Héray","country":"France"},"contacts":{"email":"secretariat@lamothe79800.fr","telephone":"0549050141"},"horaires":"Le Lundi : de 09h00 à 12h00 de 14h00 à 17h00\nLe Mardi : de 14h00 à 17h00\nDu Mercredi au Vendredi : de 09h00 à 12h00 de 14h00 à 17h00","latitude":46.3605,"longitude":-0.111764,"website":"https://www.la-mothe-saint-heray.fr/","hasWebsite":true,"hasHoraires":true,"url":"https://lannuaire.service-public.gouv.fr/nouvelle-aquitaine/deux-sevres/3e864409-7808-40a1-aa5a-e79a0b951df8"}
{"nom":"La Petite-Boissière","nomNormalise":"lapetiteboissiere","typeCollectivite":"Commune","region":"Nouvelle-Aquitaine","departement":"Deux-Sèvres","departementCode":"79","adresse":{"street":"1 place de l'Église","postalCode":"79700","city":"La Petite-Boissière","country":"France"},"contacts":{"email":"mairie@la-petite-boissiere.fr","telephone":"0549814276"},"horaires":"Le Lundi : de 14h30 à 18h00\nLe Jeudi : de 14h30 à 18h00\nLe Vendredi : de 10h00 à 12h00","latitude":46.8829,"longitude":-0.740889,"website":"https://la-petite-boissiere.fr/","hasWebsite":true,"hasHoraires":true,"url":"https://lannuaire.service-public.gouv.fr/nouvelle-aquitaine/deux-sevres/87e13a57-117a-452c-9b6e-58061540c063"}
{"nom":"La Peyratte","nomNormalise":"lapeyratte","typeCollectivite":"Commune","region":"Nouvelle-Aquitaine","departement":"Deux-Sèvres","departementCode":"79","adresse":{"street":"12 place des Marronniers","postalCode":"79200","city":"La Peyratte","country":"France"},"contacts":{"email":"mairie@lapeyratte.fr","telephone":"0549641610"},"horaires":"Du Lundi au Vendredi : de 13h45 à 17h00","latitude":46.6753,"longitude":-0.149127,"website":"https://www.lapeyratte.fr/accueil.html","hasWebsite":true,"hasHoraires":true,"url":"https://lannuaire.service-public.gouv.fr/nouvelle-aquitaine/deux-sevres/00381a3a-aa41-44f8-94b4-975ffbc3f2fd"}
{"nom":"Largeasse","nomNormalise":"largeasse","typeCollectivite":"Commune","region":"Nouvelle-Aquitaine","departement":"Deux-Sèvres","departementCode":"79","adresse":{"street":"1 rue de la République","postalCode":"79240","city":"Largeasse","country":"France"},"contacts":{"email":"mairie@largeasse.fr","telephone":"0549720210"},"horaires":"Le Lundi : de 09h00 à 12h30 de 13h30 à 18h00\nLe Mercredi : de 09h00 à 12h30 de 13h30 à 18h00\nLe Jeudi : de 13h30 à 17h30\nLe Vendredi : de 13h30 à 18h00","latitude":46.6905,"longitude":-0.503088,"website":"http://www.largeasse.fr/","hasWebsite":true,"hasHoraires":true,"url":"https://lannuaire.service-public.gouv.fr/nouvelle-aquitaine/deux-sevres/0fe7ba50-ab7d-418f-afd5-e0da7faa3b3e"}
{"nom":"La Rochénard","nomNormalise":"larochenard","typeCollectivite":"Commune","region":"Nouvelle-Aquitaine","departement":"Deux-Sèvres","departementCode":"79","adresse":{"street":"14 Grande-Rue","postalCode":"79270","city":"La Rochénard","country":"France"},"contacts":{"email":"Mairie.La.Rochenard@orange.fr","telephone":"0549048063"},"horaires":"Le Lundi : de 14h00 à 17h00\nLe Mardi : de 09h00 à 12h00 de 14h00 à 17h00\nLe Jeudi : de 14h00 à 19h00\nLe Vendredi : de 14h00 à 17h00","latitude":46.20846,"longitude":-0.5864029,"website":"http://www.larochenard.fr/","hasWebsite":true,"hasHoraires":true,"url":"https://lannuaire.service-public.gouv.fr/nouvelle-aquitaine/deux-sevres/7d98613d-7a82-4561-9322-814bdd4ae0fe"}
{"nom":"Mairie déléguée - Le Beugnon","nomNormalise":"mairiedelegueelebeugnon","typeCollectivite":"Commune","region":"Nouvelle-Aquitaine","departement":"Deux-Sèvres","departementCode":"79","adresse":{"street":"Le Beugnon","postalCode":"79160","city":"Beugnon-Thireuil","country":"France"},"contacts":{"email":"chapellethireuil@wanadoo.fr","telephone":"0549637431"},"horaires":"Le Mercredi : de 09h00 à 12h00\nLe Vendredi : de 14h00 à 17h30","latitude":46.58599,"longitude":-0.50215,"website":"https://www.beugnonthireuil.fr/","hasWebsite":true,"hasHoraires":true,"url":"https://lannuaire.service-public.gouv.fr/nouvelle-aquitaine/deux-sevres/a99b47d5-478d-4cb5-96b4-fc1185987cda"}
{"nom":"Le Bourdet","nomNormalise":"lebourdet","typeCollectivite":"Commune","region":"Nouvelle-Aquitaine","departement":"Deux-Sèvres","departementCode":"79","adresse":{"street":"2 rue de la Courance","postalCode":"79210","city":"Le Bourdet","country":"France"},"contacts":{"email":"communedubourdet@orange.fr","telephone":"0549048043"},"horaires":"Du Mardi au Vendredi : de 09h00 à 12h00","latitude":46.234398,"longitude":-0.626603,"website":"http://www.lebourdet.fr/","hasWebsite":true,"hasHoraires":true,"url":"https://lannuaire.service-public.gouv.fr/nouvelle-aquitaine/deux-sevres/7c7b6e31-f7c1-460f-83ae-97dffd29b366"}
{"nom":"Le Busseau","nomNormalise":"lebusseau","typeCollectivite":"Commune","region":"Nouvelle-Aquitaine","departement":"Deux-Sèvres","departementCode":"79","adresse":{"street":"6 rue de la Mairie","postalCode":"79240","city":"Le Busseau","country":"France"},"contacts":{"email":"mairielebusseau@gmail.com","telephone":"0549042354"},"horaires":"Le Lundi : de 09h00 à 13h00\nLe Mercredi : de 09h00 à 12h00\nLe Vendredi : de 14h00 à 18h00","latitude":46.580086,"longitude":-0.594565,"website":"https://www.lebusseau.com/","hasWebsite":true,"hasHoraires":true,"url":"https://lannuaire.service-public.gouv.fr/nouvelle-aquitaine/deux-sevres/a6ee3ccb-240b-4142-9a65-78c087d5e4ad"}
{"nom":"Le Chillou","nomNormalise":"lechillou","typeCollectivite":"Commune","region":"Nouvelle-Aquitaine","departement":"Deux-Sèvres","departementCode":"79","adresse":{"street":"26 rue Traversière","postalCode":"79600","city":"Le Chillou","country":"France"},"contacts":{"email":"mairie-lechillou@cc-avt.fr","telephone":"0549646157"},"horaires":"Le Mardi : de 09h00 à 12h00 de 14h00 à 17h00\nLe Vendredi : de 09h00 à 12h00","latitude":46.762413,"longitude":-0.137928,"website":"","hasWebsite":false,"hasHoraires":true,"url":"https://lannuaire.service-public.gouv.fr/nouvelle-aquitaine/deux-sevres/85007927-77ff-49ee-853d-f22e3b793538"}
{"nom":"Le Pin","nomNormalise":"lepin","typeCollectivite":"Commune","region":"Nouvelle-Aquitaine","departement":"Deux-Sèvres","departementCode":"79","adresse":{"street":"1 place Jeanne-d'Arc","postalCode":"79140","city":"Le Pin","country":"France"},"contacts":{"email":"accueil@mairiedupin.fr","telephone":"0549811020"},"horaires":"Du Lundi au Jeudi : de 09h00 à 12h30\nLe Vendredi : de 14h30 à 18h00","latitude":46.86101,"longitude":-0.654803,"website":"https://mairiedupin.fr/","hasWebsite":true,"hasHoraires":true,"url":"https://lannuaire.service-public.gouv.fr/nouvelle-aquitaine/deux-sevres/9bcba14d-0d8a-45fb-b175-439f924fb079"}
{"nom":"Le Retail","nomNormalise":"leretail","typeCollectivite":"Commune","region":"Nouvelle-Aquitaine","departement":"Deux-Sèvres","departementCode":"79","adresse":{"street":"13 route des Eaux","postalCode":"79130","city":"Le Retail","country":"France"},"contacts":{"email":"mairieleretail@gmail.com","telephone":"0549637262"},"horaires":"Le Lundi : de 14h00 à 17h00\nDu Mercredi au Vendredi : de 14h00 à 17h00","latitude":46.562008,"longitude":-0.4455511,"website":"https://leretail.fr/fr","hasWebsite":true,"hasHoraires":true,"url":"https://lannuaire.service-public.gouv.fr/nouvelle-aquitaine/deux-sevres/fa96bfcc-fcd7-4a1e-bb76-2bf0fee0801b"}
{"nom":"Les Châteliers","nomNormalise":"leschateliers","typeCollectivite":"Commune","region":"Nouvelle-Aquitaine","departement":"Deux-Sèvres","departementCode":"79","adresse":{"street":"Coutières","postalCode":"79340","city":"Les Châteliers","country":"France"},"contacts":{"email":"secretariat@leschateliers.fr","telephone":"0549691369"},"horaires":"Le Mardi : de 08h00 à 12h30 de 13h30 à 17h00\nLe Mercredi : de 08h00 à 12h30 de 13h30 à 17h00\nLe Jeudi : de 08h00 à 12h30 de 13h30 à 17h00\nLe Vendredi : de 08h00 à 12h00","latitude":46.511,"longitude":-0.101138,"website":"","hasWebsite":false,"hasHoraires":true,"url":"https://lannuaire.service-public.gouv.fr/nouvelle-aquitaine/deux-sevres/c040ef95-1870-4782-b854-d34aa69922e0"}
{"nom":"Les Forges","nomNormalise":"lesforges","typeCollectivite":"Commune","region":"Nouvelle-Aquitaine","departement":"Deux-Sèvres","departementCode":"79","adresse":{"street":"14 rue du Château","postalCode":"79340","city":"Les Forges","country":"France"},"contacts":{"email":"mairie-lesforges@orange.fr","telephone":"0549699182"},"horaires":"Le Mardi : de 09h00 à 12h30 de 13h30 à 17h00\nLe Vendredi : de 09h00 à 12h30 de 13h30 à 17h00","latitude":46.540455,"longitude":-0.031949,"website":"","hasWebsite":false,"hasHoraires":true,"url":"https://lannuaire.service-public.gouv.fr/nouvelle-aquitaine/deux-sevres/a37a435b-66c8-42a0-8423-14401ecdabe1"}
{"nom":"Les Fosses","nomNormalise":"lesfosses","typeCollectivite":"Commune","region":"Nouvelle-Aquitaine","departement":"Deux-Sèvres","departementCode":"79","adresse":{"street":"Vaubalier","postalCode":"79360","city":"Les Fosses","country":"France"},"contacts":{"email":"mairie-lesfosses@paysmellois.org","telephone":"0549071300"},"horaires":"Le Lundi : de 14h30 à 18h00\nLe Jeudi : de 10h00 à 12h00 de 14h30 à 18h00","latitude":46.16899,"longitude":-0.35589,"website":"","hasWebsite":false,"hasHoraires":true,"url":"https://lannuaire.service-public.gouv.fr/nouvelle-aquitaine/deux-sevres/596fb26e-6f07-41c0-8924-defbd6d608f9"}
{"nom":"Les Groseillers","nomNormalise":"lesgroseillers","typeCollectivite":"Commune","region":"Nouvelle-Aquitaine","departement":"Deux-Sèvres","departementCode":"79","adresse":{"street":"2 rue de Saint-Marc","postalCode":"79220","city":"Les Groseillers","country":"France"},"contacts":{"email":"groseillers@ccsudgatine.fr","telephone":"0549256557"},"horaires":"Le Lundi : de 13h30 à 17h00\nLe Vendredi : de 09h00 à 13h00","latitude":46.525497,"longitude":-0.403028,"website":"","hasWebsite":false,"hasHoraires":true,"url":"https://lannuaire.service-public.gouv.fr/nouvelle-aquitaine/deux-sevres/957ebfbe-e74a-4f43-a665-2eb46ab4247a"}
{"nom":"Le Tallud","nomNormalise":"letallud","typeCollectivite":"Commune","region":"Nouvelle-Aquitaine","departement":"Deux-Sèvres","departementCode":"79","adresse":{"street":"43 rue de l'Atlantique","postalCode":"79200","city":"Le Tallud","country":"France"},"contacts":{"email":"mairieletallud@cc-parthenay-gatine.fr","telephone":"0549641701"},"horaires":"Du Lundi au Vendredi : de 08h30 à 12h00 de 15h30 à 18h00","latitude":46.631626,"longitude":-0.2947915,"website":"https://letallud.fr/","hasWebsite":true,"hasHoraires":true,"url":"https://lannuaire.service-public.gouv.fr/nouvelle-aquitaine/deux-sevres/e8540883-fe8e-4ccf-9dc8-2b083794b043"}
{"nom":"Le Vanneau-Irleau","nomNormalise":"levanneauirleau","typeCollectivite":"Commune","region":"Nouvelle-Aquitaine","departement":"Deux-Sèvres","departementCode":"79","adresse":{"street":"6 rue de la Mairie","postalCode":"79270","city":"Le Vanneau-Irleau","country":"France"},"contacts":{"email":"mairie.vanneau-irleau@orange.fr","telephone":"0549350013"},"horaires":"Le Lundi : de 11h00 à 12h00 de 16h00 à 18h00\nLe Mardi : de 11h00 à 12h00 de 15h00 à 17h00\nLe Mercredi : de 11h00 à 12h00\nDu Jeudi au Vendredi : de 11h00 à 12h00 de 15h00 à 17h00","latitude":46.2954,"longitude":-0.6368,"website":"https://www.le-vanneau-irleau.fr/","hasWebsite":true,"hasHoraires":true,"url":"https://lannuaire.service-public.gouv.fr/nouvelle-aquitaine/deux-sevres/b04615df-d4c1-43c6-bdf8-b1a30dac1aec"}
{"nom":"Le Vert","nomNormalise":"levert","typeCollectivite":"Commune","region":"Nouvelle-Aquitaine","departement":"Deux-Sèvres","departementCode":"79","adresse":{"street":"1 rue de la Mairie","postalCode":"79170","city":"Le Vert","country":"France"},"contacts":{"email":"mairie-levert@paysmellois.org","telephone":"0549767445"},"horaires":"Le Mardi : de 13h30 à 17h30\nLe Vendredi : de 13h30 à 17h00","latitude":46.0928,"longitude":-0.39547,"website":"","hasWebsite":false,"hasHoraires":true,"url":"https://lannuaire.service-public.gouv.fr/nouvelle-aquitaine/deux-sevres/12b23383-2b02-4ecc-adb9-ad481821d656"}
{"nom":"Lezay","nomNormalise":"lezay","typeCollectivite":"Commune","region":"Nouvelle-Aquitaine","departement":"Deux-Sèvres","departementCode":"79","adresse":{"street":"5 rue du Parc","postalCode":"79120","city":"Lezay","country":"France"},"contacts":{"email":"secretariat@mairie-lezay.fr","telephone":"0549278000"},"horaires":"Du Lundi au Mardi : de 09h00 à 12h00 de 14h00 à 17h00\nLe Mercredi : de 14h00 à 17h00\nDu Jeudi au Vendredi : de 09h00 à 12h00 de 14h00 à 17h00\nLe Samedi : de 09h00 à 12h00","latitude":46.26583,"longitude":-0.012047,"website":"https://www.mairie-lezay.fr/","hasWebsite":true,"hasHoraires":true,"url":"https://lannuaire.service-public.gouv.fr/nouvelle-aquitaine/deux-sevres/21104209-666a-4231-aacc-9bc4e9da6ff4"}
{"nom":"Lhoumois","nomNormalise":"lhoumois","typeCollectivite":"Commune","region":"Nouvelle-Aquitaine","departement":"Deux-Sèvres","departementCode":"79","adresse":{"street":"8 rue des Platanes","postalCode":"79390","city":"Lhoumois","country":"France"},"contacts":{"email":"mairie-lhoumois@cc-parthenay-gatine.fr","telephone":"0549631000"},"horaires":"Le Mardi : de 09h00 à 12h00\nLe Vendredi : de 14h00 à 17h00","latitude":46.70642,"longitude":-0.12212,"website":"","hasWebsite":false,"hasHoraires":true,"url":"https://lannuaire.service-public.gouv.fr/nouvelle-aquitaine/deux-sevres/b6e8e7ba-b258-4adf-be47-16827b1d274c"}
{"nom":"Limalonges","nomNormalise":"limalonges","typeCollectivite":"Commune","region":"Nouvelle-Aquitaine","departement":"Deux-Sèvres","departementCode":"79","adresse":{"street":"Place de l'Église","postalCode":"79190","city":"Limalonges","country":"France"},"contacts":{"email":"mairie-limalonges@paysmellois.org","telephone":"0549076320"},"horaires":"Du Lundi au Mardi : de 13h30 à 17h00\nLe Jeudi : de 13h30 à 17h00\nLe Vendredi : de 09h00 à 12h00","latitude":46.130013,"longitude":0.168966,"website":"https://www.limalonges.fr/","hasWebsite":true,"hasHoraires":true,"url":"https://lannuaire.service-public.gouv.fr/nouvelle-aquitaine/deux-sevres/afc812f5-d05c-4d82-864b-66f818108161"}
{"nom":"Lorigné","nomNormalise":"lorigne","typeCollectivite":"Commune","region":"Nouvelle-Aquitaine","departement":"Deux-Sèvres","departementCode":"79","adresse":{"street":"17 rue Victorin-Patrier","postalCode":"79190","city":"Lorigné","country":"France"},"contacts":{"email":"mairie-lorigne@paysmellois.org","telephone":"0549076213"},"horaires":"Le Lundi : de 14h00 à 17h00\nLe Mercredi : de 14h00 à 17h30\nLe Vendredi : de 08h30 à 12h30 de 14h00 à 17h30","latitude":46.2813,"longitude":-0.197572,"website":"https://mairielorigne.jimdo.com/","hasWebsite":true,"hasHoraires":true,"url":"https://lannuaire.service-public.gouv.fr/nouvelle-aquitaine/deux-sevres/ebffd60d-16a3-40f4-8a13-bb8dbfbd69c8"}
{"nom":"Loubigné","nomNormalise":"loubigne","typeCollectivite":"Commune","region":"Nouvelle-Aquitaine","departement":"Deux-Sèvres","departementCode":"79","adresse":{"street":"10 Grande-rue","postalCode":"79110","city":"Loubigné","country":"France"},"contacts":{"email":"mairie-loubigne@paysmellois.org","telephone":"0549298167"},"horaires":"Le Mardi : de 13h00 à 17h00\nLe Vendredi : de 09h00 à 16h30","latitude":46.07785,"longitude":-0.08645,"website":"","hasWebsite":false,"hasHoraires":true,"url":"https://lannuaire.service-public.gouv.fr/nouvelle-aquitaine/deux-sevres/a191caae-4e25-479d-9a79-4fb244f495d5"}
{"nom":"Loubillé","nomNormalise":"loubille","typeCollectivite":"Commune","region":"Nouvelle-Aquitaine","departement":"Deux-Sèvres","departementCode":"79","adresse":{"street":"26 Grand'rue","postalCode":"79110","city":"Loubillé","country":"France"},"contacts":{"email":"mairie-loubille@paysmellois.org","telephone":"0549078015"},"horaires":"Le Lundi : de 08h00 à 12h00\nLe Mercredi : de 14h00 à 18h00\nLe Vendredi : de 14h00 à 18h00","latitude":46.0498,"longitude":-0.0626619,"website":"https://loubille.fr/","hasWebsite":true,"hasHoraires":true,"url":"https://lannuaire.service-public.gouv.fr/nouvelle-aquitaine/deux-sevres/d60841ca-e373-4909-8bed-3c1c4fecc40f"}
{"nom":"Louin","nomNormalise":"louin","typeCollectivite":"Commune","region":"Nouvelle-Aquitaine","departement":"Deux-Sèvres","departementCode":"79","adresse":{"street":"3 rue André-Boutin","postalCode":"79600","city":"Louin","country":"France"},"contacts":{"email":"mairie-louin@cc-avt.fr","telephone":"0549646104"},"horaires":"Le Mardi : de 08h30 à 12h00 de 13h30 à 17h30\nLe Jeudi : de 08h30 à 12h00 de 13h30 à 17h00","latitude":46.8021,"longitude":-0.161948,"website":"https://www.louin.fr/","hasWebsite":true,"hasHoraires":true,"url":"https://lannuaire.service-public.gouv.fr/nouvelle-aquitaine/deux-sevres/60243ab2-8ffe-4eba-beea-0fa2bad10ab4"}
{"nom":"Louzy","nomNormalise":"louzy","typeCollectivite":"Commune","region":"Nouvelle-Aquitaine","departement":"Deux-Sèvres","departementCode":"79","adresse":{"street":"6 rue de la Mairie","postalCode":"79100","city":"Louzy","country":"France"},"contacts":{"email":"louzy.mairie@wanadoo.fr","telephone":"0549662016"},"horaires":"Du Mardi au Jeudi : de 13h00 à 17h00\nLe Vendredi : de 09h00 à 12h00 de 13h00 à 17h00","latitude":47.011574,"longitude":-0.1863,"website":"http://mairiedelouzy.free.fr/","hasWebsite":true,"hasHoraires":true,"url":"https://lannuaire.service-public.gouv.fr/nouvelle-aquitaine/deux-sevres/9783eefd-7def-4dec-a893-501d5c5d89be"}
{"nom":"Luché-sur-Brioux","nomNormalise":"luchesurbrioux","typeCollectivite":"Commune","region":"Nouvelle-Aquitaine","departement":"Deux-Sèvres","departementCode":"79","adresse":{"street":"19 route de Brioux","postalCode":"79170","city":"Luché-sur-Brioux","country":"France"},"contacts":{"email":"mairie.luche.brioux@wanadoo.fr","telephone":"0549075322"},"horaires":"Le Mardi : de 09h00 à 14h30\nLe Jeudi : de 09h00 à 14h30","latitude":46.130875,"longitude":-0.148922,"website":"","hasWebsite":false,"hasHoraires":true,"url":"https://lannuaire.service-public.gouv.fr/nouvelle-aquitaine/deux-sevres/045db380-d5cc-44e2-abac-f6a6a6df2bc2"}
{"nom":"Luché-Thouarsais","nomNormalise":"luchethouarsais","typeCollectivite":"Commune","region":"Nouvelle-Aquitaine","departement":"Deux-Sèvres","departementCode":"79","adresse":{"street":"La Bourrelière","postalCode":"79330","city":"Luché-Thouarsais","country":"France"},"contacts":{"email":"mairie.luchethouarsais@wanadoo.fr","telephone":"0549964992"},"horaires":"Le Mardi : de 08h00 à 12h00\nDu Jeudi au Vendredi : de 08h00 à 12h00","latitude":46.907,"longitude":-0.300788,"website":"","hasWebsite":false,"hasHoraires":true,"url":"https://lannuaire.service-public.gouv.fr/nouvelle-aquitaine/deux-sevres/4db15cb8-9e68-430e-b191-f582a9c21888"}
{"nom":"Lusseray","nomNormalise":"lusseray","typeCollectivite":"Commune","region":"Nouvelle-Aquitaine","departement":"Deux-Sèvres","departementCode":"79","adresse":{"street":"3 rue de la Mairie","postalCode":"79170","city":"Lusseray","country":"France"},"contacts":{"email":"mairie-lusseray@paysmellois.org","telephone":"0966008698"},"horaires":"Le Lundi : de 08h30 à 12h00\nLe Mardi : de 08h30 à 12h00 de 13h30 à 17h00\nLe Jeudi : de 13h30 à 17h00","latitude":46.1459,"longitude":-0.166769,"website":"","hasWebsite":false,"hasHoraires":true,"url":"https://lannuaire.service-public.gouv.fr/nouvelle-aquitaine/deux-sevres/edfb6829-c163-4073-b24b-ec05af9a3a8e"}
{"nom":"Luzay","nomNormalise":"luzay","typeCollectivite":"Commune","region":"Nouvelle-Aquitaine","departement":"Deux-Sèvres","departementCode":"79","adresse":{"street":"2 place de la Mairie","postalCode":"79100","city":"Luzay","country":"France"},"contacts":{"email":"contact@mairieluzay.fr","telephone":"0549661817"},"horaires":"Du Lundi au Mardi : de 14h00 à 18h00\nLe Jeudi : de 15h00 à 18h00\nLe Vendredi : de 14h00 à 18h00","latitude":46.9237,"longitude":-0.195631,"website":"","hasWebsite":false,"hasHoraires":true,"url":"https://lannuaire.service-public.gouv.fr/nouvelle-aquitaine/deux-sevres/07e46ae5-9ab1-4cac-9c06-4a92532b3502"}
{"nom":"Magné","nomNormalise":"magne","typeCollectivite":"Commune","region":"Nouvelle-Aquitaine","departement":"Deux-Sèvres","departementCode":"79","adresse":{"street":"Square Saint-Germain","postalCode":"79460","city":"Magné","country":"France"},"contacts":{"email":"mairie@ville-magne.fr","telephone":"0549357180"},"horaires":"Le Lundi : de 09h00 à 12h00 de 13h30 à 17h30\nLe Mercredi : de 09h00 à 12h00 de 13h30 à 17h30\nLe Jeudi : de 09h00 à 12h00\nLe Vendredi : de 09h00 à 12h00 de 13h30 à 17h30","latitude":46.31438,"longitude":-0.542862,"website":"https://www.ville-magne.fr/","hasWebsite":true,"hasHoraires":true,"url":"https://lannuaire.service-public.gouv.fr/nouvelle-aquitaine/deux-sevres/72b4727c-14ac-47ea-9f6e-adb28f7505c8"}
{"nom":"Mairé-Levescault","nomNormalise":"mairelevescault","typeCollectivite":"Commune","region":"Nouvelle-Aquitaine","departement":"Deux-Sèvres","departementCode":"79","adresse":{"street":"1 rue des Grands-Bois","postalCode":"79190","city":"Mairé-Levescault","country":"France"},"contacts":{"email":"mairie.mairelevescau@free.fr","telephone":"0549076268"},"horaires":"Le Lundi : de 14h00 à 17h00\nLe Mercredi : de 14h00 à 17h00\nLe Vendredi : de 14h00 à 17h00","latitude":46.154232,"longitude":0.082426,"website":"http://www.maire-levescault.fr/","hasWebsite":true,"hasHoraires":true,"url":"https://lannuaire.service-public.gouv.fr/nouvelle-aquitaine/deux-sevres/26085bfc-dcad-4028-87f3-f5f4e3b612ff"}
{"nom":"Maisonnay","nomNormalise":"maisonnay","typeCollectivite":"Commune","region":"Nouvelle-Aquitaine","departement":"Deux-Sèvres","departementCode":"79","adresse":{"street":"2 rue des Écoles","postalCode":"79500","city":"Maisonnay","country":"France"},"contacts":{"email":"mairie-maisonnay@paysmellois.org","telephone":"0549293030"},"horaires":"Le Mardi : de 14h00 à 17h00\nLe Vendredi : de 14h00 à 17h00","latitude":46.191883,"longitude":-0.057401,"website":"","hasWebsite":false,"hasHoraires":true,"url":"https://lannuaire.service-public.gouv.fr/nouvelle-aquitaine/deux-sevres/896ddd7c-46c4-48d4-a060-d20c83cc1085"}
{"nom":"Maisontiers","nomNormalise":"maisontiers","typeCollectivite":"Commune","region":"Nouvelle-Aquitaine","departement":"Deux-Sèvres","departementCode":"79","adresse":{"street":"2 rue des Trois-Chênes","postalCode":"79600","city":"Maisontiers","country":"France"},"contacts":{"email":"mairie-maisontiers@cc-avt.fr","telephone":"0549955292"},"horaires":"Le Mardi : de 13h30 à 17h30\nLe Jeudi : de 09h00 à 12h00\nLe Vendredi : de 15h30 à 17h30","latitude":46.77997,"longitude":-0.250197,"website":"","hasWebsite":false,"hasHoraires":true,"url":"https://lannuaire.service-public.gouv.fr/nouvelle-aquitaine/deux-sevres/062b91af-8fb4-48ca-8bfd-e472601cdc81"}
{"nom":"Marcillé","nomNormalise":"marcille","typeCollectivite":"Commune","region":"Nouvelle-Aquitaine","departement":"Deux-Sèvres","departementCode":"79","adresse":{"street":"2 rue de la Mairie","postalCode":"79500","city":"Marcillé","country":"France"},"contacts":{"email":"mairie.marcille@orange.fr","telephone":"0549270550"},"horaires":"Le Lundi : de 09h00 à 12h30\nLe Mardi : de 09h00 à 12h30 de 13h30 à 18h00\nLe Vendredi : de 13h30 à 17h30","latitude":46.181736,"longitude":-0.1355807,"website":"http://marcille.e-monsite.com/","hasWebsite":true,"hasHoraires":true,"url":"https://lannuaire.service-public.gouv.fr/nouvelle-aquitaine/deux-sevres/c0602e57-9991-4a07-9025-e28047b48a73"}
{"nom":"Marigny","nomNormalise":"marigny","typeCollectivite":"Commune","region":"Nouvelle-Aquitaine","departement":"Deux-Sèvres","departementCode":"79","adresse":{"street":"8 place du Centre","postalCode":"79360","city":"Marigny","country":"France"},"contacts":{"email":"marignymairie@wanadoo.fr","telephone":"0549097512"},"horaires":"Du Lundi au Mardi : de 13h30 à 17h30\nLe Jeudi : de 13h30 à 17h30\nLe Vendredi : de 08h30 à 12h30","latitude":46.1977,"longitude":-0.417129,"website":"https://www.marigny79.fr/","hasWebsite":true,"hasHoraires":true,"url":"https://lannuaire.service-public.gouv.fr/nouvelle-aquitaine/deux-sevres/5605ac8d-4237-4901-8f57-922ed95b3acc"}
{"nom":"Marnes","nomNormalise":"marnes","typeCollectivite":"Commune","region":"Nouvelle-Aquitaine","departement":"Deux-Sèvres","departementCode":"79","adresse":{"street":"13 Grand'Rue","postalCode":"79600","city":"Marnes","country":"France"},"contacts":{"email":"mairie.marnes@thouars-communaute.fr","telephone":"0549674105"},"horaires":"Du Mardi au Mercredi : de 09h00 à 12h30\nLe Vendredi : de 09h00 à 12h30","latitude":46.857,"longitude":-0.017901,"website":"https://www.intramuros.org/marnes","hasWebsite":true,"hasHoraires":true,"url":"https://lannuaire.service-public.gouv.fr/nouvelle-aquitaine/deux-sevres/465ef629-5f01-4b06-98d0-d333093607bd"}
{"nom":"Mairie déléguée - Massais","nomNormalise":"mairiedelegueemassais","typeCollectivite":"Commune","region":"Nouvelle-Aquitaine","departement":"Deux-Sèvres","departementCode":"79","adresse":{"street":"Massais","postalCode":"79150","city":"Val en Vignes","country":"France"},"contacts":{"email":"mairie@valenvignes.fr","telephone":"0549968010"},"horaires":"Le Mardi : de 14h00 à 17h00","latitude":47.007,"longitude":-0.3444,"website":"http://valenvignes.com/","hasWebsite":true,"hasHoraires":true,"url":"https://lannuaire.service-public.gouv.fr/nouvelle-aquitaine/deux-sevres/db6c2b3d-a723-48d7-bd66-53aaf34cf3e1"}
{"nom":"Mauléon","nomNormalise":"mauleon","typeCollectivite":"Commune","region":"Nouvelle-Aquitaine","departement":"Deux-Sèvres","departementCode":"79","adresse":{"street":"Place de l'Hôtel-de-Ville","postalCode":"79700","city":"Mauléon","country":"France"},"contacts":{"email":"mairie@mauleon.fr","telephone":"0549811700"},"horaires":"Du Lundi au Mercredi : de 08h30 à 12h30 de 13h30 à 17h30\nLe Jeudi : de 08h30 à 12h30 de 13h30 à 18h30\nLe Vendredi : de 08h30 à 12h30 de 13h30 à 16h30","latitude":46.920654,"longitude":-0.741904,"website":"https://www.mauleon.fr/","hasWebsite":true,"hasHoraires":true,"url":"https://lannuaire.service-public.gouv.fr/nouvelle-aquitaine/deux-sevres/2f19fde0-acb3-4308-b609-91a1c7457bd6"}
{"nom":"Mauzé-sur-le-Mignon","nomNormalise":"mauzesurlemignon","typeCollectivite":"Commune","region":"Nouvelle-Aquitaine","departement":"Deux-Sèvres","departementCode":"79","adresse":{"street":"Place de la Mairie","postalCode":"79210","city":"Mauzé-sur-le-Mignon","country":"France"},"contacts":{"email":"mairie@ville-mauze-mignon.fr","telephone":"0549263035"},"horaires":"Le Lundi : de 15h00 à 17h30\nLe Mardi : de 08h30 à 12h30 de 15h00 à 17h30\nLe Mercredi : de 08h30 à 12h30\nDu Jeudi au Vendredi : de 08h30 à 12h30 de 15h00 à 17h30\nLe Samedi : de 09h00 à 12h00\n\nAccueil fermé en juillet-août.","latitude":46.196873,"longitude":-0.671093,"website":"http://www.ville-mauze-mignon.fr/","hasWebsite":true,"hasHoraires":true,"url":"https://lannuaire.service-public.gouv.fr/nouvelle-aquitaine/deux-sevres/2dd1144c-b478-4fa2-bd6a-c14bbdeef9bb"}
{"nom":"Mairie déléguée - Mauzé-Thouarsais","nomNormalise":"mairiedelegueemauzethouarsais","typeCollectivite":"Commune","region":"Nouvelle-Aquitaine","departement":"Deux-Sèvres","departementCode":"79","adresse":{"street":"Mauzé-Thouarsais","postalCode":"79100","city":"Thouars","country":"France"},"contacts":{"email":"mairie.mauze-thouarsais@thouars.fr","telephone":"0549966413"},"horaires":"Du Lundi au Mardi : de 08h30 à 12h00 de 13h30 à 17h00\nLe Mercredi : de 08h30 à 12h00\nLe Jeudi : de 13h30 à 17h00\nLe Vendredi : de 08h30 à 12h00","latitude":46.9767,"longitude":-0.278724,"website":"https://thouars.fr/accueil/mauze-thouarsais/","hasWebsite":true,"hasHoraires":true,"url":"https://lannuaire.service-public.gouv.fr/nouvelle-aquitaine/deux-sevres/2881f7a2-ed8d-4c50-a7b6-35b6146715f5"}
{"nom":"Mazières-en-Gâtine","nomNormalise":"mazieresengatine","typeCollectivite":"Commune","region":"Nouvelle-Aquitaine","departement":"Deux-Sèvres","departementCode":"79","adresse":{"street":"Place des Marronniers","postalCode":"79310","city":"Mazières-en-Gâtine","country":"France"},"contacts":{"email":"mazieres@ccsudgatine.fr","telephone":"0549632020"},"horaires":"Du Lundi au Vendredi : de 08h30 à 12h30","latitude":46.5327,"longitude":-0.322625,"website":"http://www.mazieres-en-gatine.fr/","hasWebsite":true,"hasHoraires":true,"url":"https://lannuaire.service-public.gouv.fr/nouvelle-aquitaine/deux-sevres/d0c0bfc2-5a1e-4f3a-a062-4deac27f911f"}
{"nom":"Mairie déléguée - Mazières-sur-Béronne","nomNormalise":"mairiedelegueemazieressurberonne","typeCollectivite":"Commune","region":"Nouvelle-Aquitaine","departement":"Deux-Sèvres","departementCode":"79","adresse":{"street":"Charzay","postalCode":"79500","city":"Melle","country":"France"},"contacts":{"email":"contact@ville-melle.fr","telephone":"0549270756"},"horaires":"Le Lundi : de 14h00 à 17h00","latitude":46.2003,"longitude":-0.183784,"website":"https://mairie-melle.fr/","hasWebsite":true,"hasHoraires":true,"url":"https://lannuaire.service-public.gouv.fr/nouvelle-aquitaine/deux-sevres/f27c43bb-4d49-4162-bf7b-b5b668fd4a5e"}
{"nom":"Melle","nomNormalise":"melle","typeCollectivite":"Commune","region":"Nouvelle-Aquitaine","departement":"Deux-Sèvres","departementCode":"79","adresse":{"street":"Quartier Mairie","postalCode":"79500","city":"Melle","country":"France"},"contacts":{"email":"contact@melle.fr","telephone":"0549270023"},"horaires":"Le Lundi : de 14h00 à 17h00\nLe Mardi : de 09h00 à 12h00\nLe Mercredi : de 09h00 à 12h00 de 13h30 à 17h00\nLe Jeudi : de 14h00 à 17h00\nLe Vendredi : de 09h00 à 12h00 de 14h00 à 17h00\nLe Samedi : de 09h30 à 12h00","latitude":46.220333,"longitude":-0.1464524,"website":"https://www.mairie-melle.fr/","hasWebsite":true,"hasHoraires":true,"url":"https://lannuaire.service-public.gouv.fr/nouvelle-aquitaine/deux-sevres/0e69723a-fecd-4f9e-9e7c-2287ef1b098d"}
{"nom":"Melleran","nomNormalise":"melleran","typeCollectivite":"Commune","region":"Nouvelle-Aquitaine","departement":"Deux-Sèvres","departementCode":"79","adresse":{"street":"10 route de Chef-Boutonne","postalCode":"79190","city":"Melleran","country":"France"},"contacts":{"email":"mairie-melleran@paysmellois.org","telephone":"0549298307"},"horaires":"Le Lundi : de 14h00 à 17h30\nDu Mardi au Jeudi : de 13h30 à 17h30\nLe Vendredi : de 13h30 à 17h00","latitude":46.12227,"longitude":-0.0146059,"website":"https://www.melleran.fr/","hasWebsite":true,"hasHoraires":true,"url":"https://lannuaire.service-public.gouv.fr/nouvelle-aquitaine/deux-sevres/391c1c7d-3931-49d5-b78a-47ce03f04150"}
{"nom":"Ménigoute","nomNormalise":"menigoute","typeCollectivite":"Commune","region":"Nouvelle-Aquitaine","departement":"Deux-Sèvres","departementCode":"79","adresse":{"street":"3 place de la Mairie","postalCode":"79340","city":"Ménigoute","country":"France"},"contacts":{"email":"mairiemenigoute@orange.fr","telephone":"0549690017"},"horaires":"Le Mardi : de 09h00 à 12h00 de 14h00 à 17h00\nLe Mercredi : de 09h00 à 12h00\nLe Jeudi : de 09h00 à 12h00 de 14h00 à 17h00\nDu Vendredi au Samedi : de 09h00 à 12h00","latitude":46.4963,"longitude":-0.059224,"website":"http://www.ville-menigoute.fr/","hasWebsite":true,"hasHoraires":true,"url":"https://lannuaire.service-public.gouv.fr/nouvelle-aquitaine/deux-sevres/b9376823-a700-4661-87ae-bc983d0b8f5f"}
{"nom":"Messé","nomNormalise":"messe","typeCollectivite":"Commune","region":"Nouvelle-Aquitaine","departement":"Deux-Sèvres","departementCode":"79","adresse":{"street":"15 route de Messidor","postalCode":"79120","city":"Messé","country":"France"},"contacts":{"email":"mairie-messe@paysmellois.org","telephone":"0549275068"},"horaires":"Le Lundi : de 09h15 à 12h15\nDu Mercredi au Jeudi : de 09h15 à 12h15\nLe Vendredi : de 13h15 à 17h15","latitude":46.263836,"longitude":0.113857,"website":"","hasWebsite":false,"hasHoraires":true,"url":"https://lannuaire.service-public.gouv.fr/nouvelle-aquitaine/deux-sevres/83fe5e3d-613c-4f66-bea7-ad70062aea6f"}
{"nom":"Mairie déléguée - Missé","nomNormalise":"mairiedelegueemisse","typeCollectivite":"Commune","region":"Nouvelle-Aquitaine","departement":"Deux-Sèvres","departementCode":"79","adresse":{"street":"Missé","postalCode":"79100","city":"Thouars","country":"France"},"contacts":{"email":"mairie.misse@thouars.fr","telephone":"0549666297"},"horaires":"Le Lundi : de 08h30 à 12h00\nLe Mercredi : de 13h30 à 17h00\nDu Jeudi au Vendredi : de 08h30 à 12h00","latitude":46.952522,"longitude":-0.184407,"website":"https://thouars.fr/","hasWebsite":true,"hasHoraires":true,"url":"https://lannuaire.service-public.gouv.fr/nouvelle-aquitaine/deux-sevres/bdfa983d-8947-4901-93c1-6542f76e39fd"}
{"nom":"Moncoutant-sur-Sèvre","nomNormalise":"moncoutantsursevre","typeCollectivite":"Commune","region":"Nouvelle-Aquitaine","departement":"Deux-Sèvres","departementCode":"79","adresse":{"street":"18 avenue du Maréchal-Juin","postalCode":"79320","city":"Moncoutant-sur-Sèvre","country":"France"},"contacts":{"email":"mairie@moncoutantsursevre.fr","telephone":"0549726044"},"horaires":"Le Lundi : de 09h00 à 12h00 de 14h00 à 18h00\nLe Mardi : de 09h00 à 12h00 de 15h00 à 18h00\nDu Mercredi au Jeudi : de 09h00 à 12h00 de 14h00 à 18h00\nLe Vendredi : de 09h00 à 12h00 de 14h00 à 17h00\nLe Samedi : de 09h00 à 12h00\n\nAccueil ouvert uniquement le 1er samedi du mois.","latitude":46.7211,"longitude":-0.589469,"website":"https://www.moncoutantsursevre.fr/","hasWebsite":true,"hasHoraires":true,"url":"https://lannuaire.service-public.gouv.fr/nouvelle-aquitaine/deux-sevres/3e637140-17bd-40b4-8bf7-b205a77686eb"}
{"nom":"Mairie déléguée - Montalembert","nomNormalise":"mairiedelegueemontalembert","typeCollectivite":"Commune","region":"Nouvelle-Aquitaine","departement":"Deux-Sèvres","departementCode":"79","adresse":{"street":"Montalembert","postalCode":"79190","city":"Sauzé-entre-Bois","country":"France"},"contacts":{"email":"commune-montalembert@wanadoo.fr","telephone":"0549077043"},"horaires":"Du Lundi au Mardi : de 15h00 à 17h30\nLe Jeudi : de 15h00 à 17h30\nLe Vendredi : de 09h30 à 12h30","latitude":46.110172,"longitude":0.15922,"website":"","hasWebsite":false,"hasHoraires":true,"url":"https://lannuaire.service-public.gouv.fr/nouvelle-aquitaine/deux-sevres/f9ec0248-ee97-4f9a-8987-ab2b96a4502d"}
{"nom":"Montravers","nomNormalise":"montravers","typeCollectivite":"Commune","region":"Nouvelle-Aquitaine","departement":"Deux-Sèvres","departementCode":"79","adresse":{"street":"4 rue du Stade","postalCode":"79140","city":"Montravers","country":"France"},"contacts":{"email":"mairie.montravers@wanadoo.fr","telephone":"0549801735"},"horaires":"Le Mardi : de 10h00 à 12h15\nDu Jeudi au Vendredi : de 10h00 à 12h15\nLe Samedi : de 10h00 à 12h00","latitude":46.7918,"longitude":-0.740977,"website":"","hasWebsite":false,"hasHoraires":true,"url":"https://lannuaire.service-public.gouv.fr/nouvelle-aquitaine/deux-sevres/de87ec32-a95b-48f3-a585-4b19f8d2ae29"}
{"nom":"Mairie déléguée - Mougon","nomNormalise":"mairiedelegueemougon","typeCollectivite":"Commune","region":"Nouvelle-Aquitaine","departement":"Deux-Sèvres","departementCode":"79","adresse":{"street":"Mougon","postalCode":"79370","city":"Aigondigné","country":"France"},"contacts":{"email":"mairie@aigondigne.fr","telephone":"0549059019"},"horaires":"Le Lundi : de 09h00 à 12h30 de 14h00 à 18h00\nDu Mardi au Mercredi : de 09h00 à 12h30 de 14h00 à 17h00\nLe Jeudi : de 09h30 à 12h30 de 14h00 à 18h00\nLe Vendredi : de 09h00 à 12h30 de 14h00 à 17h00","latitude":46.294563,"longitude":-0.287948,"website":"https://www.aigondigne.fr/","hasWebsite":true,"hasHoraires":true,"url":"https://lannuaire.service-public.gouv.fr/nouvelle-aquitaine/deux-sevres/eb7b0747-b32b-4b76-bdeb-68d1163003ca"}
{"nom":"Nanteuil","nomNormalise":"nanteuil","typeCollectivite":"Commune","region":"Nouvelle-Aquitaine","departement":"Deux-Sèvres","departementCode":"79","adresse":{"street":"11 chemin des Grandes-Vignes","postalCode":"79400","city":"Nanteuil","country":"France"},"contacts":{"email":"commune.nanteuil@orange.fr","telephone":"0549761311"},"horaires":"Du Lundi au Vendredi : de 08h30 à 12h00\n\nAccueil possible les après-midi sur rendez-vous uniquement sauf le mercredi.\nAccueil possible les après-midi sur rendez-vous uniquement sauf le mercredi.","latitude":46.411533,"longitude":-0.1770827,"website":"https://79400nanteuil.fr/","hasWebsite":true,"hasHoraires":true,"url":"https://lannuaire.service-public.gouv.fr/nouvelle-aquitaine/deux-sevres/deeb1bb8-a88b-4f39-9fa3-4cc17324b8fb"}
{"nom":"Neuvy-Bouin","nomNormalise":"neuvybouin","typeCollectivite":"Commune","region":"Nouvelle-Aquitaine","departement":"Deux-Sèvres","departementCode":"79","adresse":{"street":"4 rue du Commerce","postalCode":"79130","city":"Neuvy-Bouin","country":"France"},"contacts":{"email":"mairie@neuvy-bouin.fr","telephone":"0549637304"},"horaires":"Du Lundi au Mardi : de 09h00 à 12h30\nLe Jeudi : de 09h00 à 12h30\nLe Vendredi : de 09h00 à 12h00","latitude":46.676006,"longitude":-0.460546,"website":"https://neuvy-bouin.fr/fr/","hasWebsite":true,"hasHoraires":true,"url":"https://lannuaire.service-public.gouv.fr/nouvelle-aquitaine/deux-sevres/17a6a068-4876-4244-95f6-3fb0e2533978"}
{"nom":"Niort","nomNormalise":"niort","typeCollectivite":"Commune","region":"Nouvelle-Aquitaine","departement":"Deux-Sèvres","departementCode":"79","adresse":{"street":"1 place Martin-Bastard","postalCode":"79000","city":"Niort","country":"France"},"contacts":{"email":"mairie@mairie-niort.fr","telephone":"0549787980"},"horaires":"Le Lundi : de 08h30 à 17h30\nLe Mardi : de 10h00 à 17h30\nDu Mercredi au Vendredi : de 08h30 à 17h30\nAccueil fermé du lundi au vendredi de 12h30 à 13h30 pendant les vacances scolaires.","latitude":46.324123,"longitude":-0.4644541,"website":"https://www.vivre-a-niort.com/","hasWebsite":true,"hasHoraires":true,"url":"https://lannuaire.service-public.gouv.fr/nouvelle-aquitaine/deux-sevres/9c022d6a-d4ab-4f49-860c-2f63813f3a34"}
{"nom":"Nueil-les-Aubiers","nomNormalise":"nueillesaubiers","typeCollectivite":"Commune","region":"Nouvelle-Aquitaine","departement":"Deux-Sèvres","departementCode":"79","adresse":{"street":"75 avenue Saint-Hubert","postalCode":"79250","city":"Nueil-les-Aubiers","country":"France"},"contacts":{"email":"secretariat@ville-nueil-les-aubiers.fr","telephone":"0549806565"},"horaires":"Du Lundi au Vendredi : de 09h00 à 12h00 de 14h00 à 18h00","latitude":46.94547,"longitude":-0.593647,"website":"https://www.ville-nueil-les-aubiers.fr/","hasWebsite":true,"hasHoraires":true,"url":"https://lannuaire.service-public.gouv.fr/nouvelle-aquitaine/deux-sevres/d96c68ba-eb11-4d48-a6c0-82e769c128aa"}
{"nom":"Oroux","nomNormalise":"oroux","typeCollectivite":"Commune","region":"Nouvelle-Aquitaine","departement":"Deux-Sèvres","departementCode":"79","adresse":{"street":"8 route de la Ferrière","postalCode":"79390","city":"Oroux","country":"France"},"contacts":{"email":"mairie-oroux@cc-parthenay-gatine.fr","telephone":"0549630834"},"horaires":"Le Mardi : de 14h00 à 17h00\nLe Vendredi : de 14h00 à 17h00","latitude":46.692127,"longitude":-0.089095,"website":"","hasWebsite":false,"hasHoraires":true,"url":"https://lannuaire.service-public.gouv.fr/nouvelle-aquitaine/deux-sevres/dafe12ee-0a59-4d03-b33d-3b55b9ba3c29"}
{"nom":"Paizay-le-Chapt","nomNormalise":"paizaylechapt","typeCollectivite":"Commune","region":"Nouvelle-Aquitaine","departement":"Deux-Sèvres","departementCode":"79","adresse":{"street":"18 rue de la Mairie","postalCode":"79170","city":"Paizay-le-Chapt","country":"France"},"contacts":{"email":"mairie-paizaylechapt@paysmellois.org","telephone":"0549071350"},"horaires":"Le Lundi : de 14h00 à 17h00\nLe Jeudi : de 09h00 à 12h00\nLe Vendredi : de 14h00 à 16h00","latitude":46.0821,"longitude":-0.18054,"website":"","hasWebsite":false,"hasHoraires":true,"url":"https://lannuaire.service-public.gouv.fr/nouvelle-aquitaine/deux-sevres/3f9a9031-01df-4c5f-88de-8c238c94700d"}
{"nom":"Mairie déléguée - Paizay-le-Tort","nomNormalise":"mairiedelegueepaizayletort","typeCollectivite":"Commune","region":"Nouvelle-Aquitaine","departement":"Deux-Sèvres","departementCode":"79","adresse":{"street":"Paizay-le-Tort","postalCode":"79500","city":"Melle","country":"France"},"contacts":{"email":"contact@ville-melle.fr","telephone":"0549270485"},"horaires":"Le Mercredi : de 14h00 à 17h00","latitude":46.179626,"longitude":-0.162655,"website":"https://mairie-melle.fr/","hasWebsite":true,"hasHoraires":true,"url":"https://lannuaire.service-public.gouv.fr/nouvelle-aquitaine/deux-sevres/06ce5e06-552d-4e33-b744-2fd7d6b8f507"}
{"nom":"Pamplie","nomNormalise":"pamplie","typeCollectivite":"Commune","region":"Nouvelle-Aquitaine","departement":"Deux-Sèvres","departementCode":"79","adresse":{"street":"66 rue de la Miochette","postalCode":"79220","city":"Pamplie","country":"France"},"contacts":{"email":"secretariat@pamplie.fr","telephone":"0549258186"},"horaires":"Le Mardi : de 09h15 à 12h15\nLe Mercredi : de 13h45 à 16h15\nLe Vendredi : de 09h15 à 12h15","latitude":46.535442,"longitude":-0.440552,"website":"https://www.mairie-pamplie.fr/","hasWebsite":true,"hasHoraires":true,"url":"https://lannuaire.service-public.gouv.fr/nouvelle-aquitaine/deux-sevres/e40cf0eb-cac8-4429-937f-9a8a9ba7f575"}
{"nom":"Pamproux","nomNormalise":"pamproux","typeCollectivite":"Commune","region":"Nouvelle-Aquitaine","departement":"Deux-Sèvres","departementCode":"79","adresse":{"street":"1 place Mendès-France","postalCode":"79800","city":"Pamproux","country":"France"},"contacts":{"email":"mairie.pamproux@wanadoo.fr","telephone":"0549763004"},"horaires":"Le Lundi : de 08h30 à 12h00 de 13h30 à 17h30\nLe Mardi : de 13h30 à 17h30\nLe Mercredi : de 08h30 à 12h00 de 13h30 à 17h30\nLe Jeudi : de 13h30 à 17h30\nLe Vendredi : de 08h30 à 12h00 de 13h30 à 16h30","latitude":46.395702,"longitude":-0.055761,"website":"http://www.pamproux.fr/","hasWebsite":true,"hasHoraires":true,"url":"https://lannuaire.service-public.gouv.fr/nouvelle-aquitaine/deux-sevres/2b27eea8-5ab7-4e5c-b155-ec583ce11bf7"}
{"nom":"Parthenay","nomNormalise":"parthenay","typeCollectivite":"Commune","region":"Nouvelle-Aquitaine","departement":"Deux-Sèvres","departementCode":"79","adresse":{"street":"Hôtel de Ville","postalCode":"79200","city":"Parthenay","country":"France"},"contacts":{"email":"mairie-parthenay@cc-parthenay-gatine.fr","telephone":"0549940377"},"horaires":"Du Lundi au Vendredi : de 09h00 à 12h00 de 13h30 à 17h30\nLe Samedi : de 09h30 à 12h00\n\nDeux premiers samedi de chaque mois.","latitude":46.648724,"longitude":-0.25192,"website":"https://www.parthenay.fr/","hasWebsite":true,"hasHoraires":true,"url":"https://lannuaire.service-public.gouv.fr/nouvelle-aquitaine/deux-sevres/e93a0a81-bb42-41e5-a2ba-901769db2f12"}
{"nom":"Pas-de-Jeu","nomNormalise":"pasdejeu","typeCollectivite":"Commune","region":"Nouvelle-Aquitaine","departement":"Deux-Sèvres","departementCode":"79","adresse":{"street":"49 rue du 8-Mai","postalCode":"79100","city":"Pas-de-Jeu","country":"France"},"contacts":{"email":"mairie.pasdejeu@orange.fr","telephone":"0549967169"},"horaires":"Le Mardi : de 09h00 à 12h30 de 14h00 à 17h00\nLe Jeudi : de 09h00 à 12h30","latitude":46.9757,"longitude":-0.044577,"website":"","hasWebsite":false,"hasHoraires":true,"url":"https://lannuaire.service-public.gouv.fr/nouvelle-aquitaine/deux-sevres/4da9206c-e654-4a99-a515-b91d9dfdeb73"}
{"nom":"Périgné","nomNormalise":"perigne","typeCollectivite":"Commune","region":"Nouvelle-Aquitaine","departement":"Deux-Sèvres","departementCode":"79","adresse":{"street":"7 route de Brioux","postalCode":"79170","city":"Périgné","country":"France"},"contacts":{"email":"contact@mairiedeperigne.fr","telephone":"0549071014"},"horaires":"Le Lundi : de 09h00 à 12h00 de 14h00 à 17h00\nLe Mercredi : de 09h00 à 12h00 de 14h00 à 17h00\nLe Jeudi : de 14h00 à 17h00\nLe Vendredi : de 09h00 à 12h00 de 14h00 à 17h00","latitude":46.18683,"longitude":-0.253968,"website":"https://lapagelocale.fr/79170-perigne","hasWebsite":true,"hasHoraires":true,"url":"https://lannuaire.service-public.gouv.fr/nouvelle-aquitaine/deux-sevres/6f395b3f-9f50-4df0-9d4b-c93e76053efb"}
{"nom":"Mairie déléguée - Pers","nomNormalise":"mairiedelegueepers","typeCollectivite":"Commune","region":"Nouvelle-Aquitaine","departement":"Deux-Sèvres","departementCode":"79","adresse":{"street":"Pers","postalCode":"79190","city":"Sauzé-entre-Bois","country":"France"},"contacts":{"email":"contact@sauze-entre-bois.fr","telephone":"0549076053"},"horaires":"Le Lundi : de 10h00 à 12h00","latitude":46.219307,"longitude":0.068331,"website":"","hasWebsite":false,"hasHoraires":true,"url":"https://lannuaire.service-public.gouv.fr/nouvelle-aquitaine/deux-sevres/2cd74bdf-7362-48cd-895a-e56a50d5cace"}
{"nom":"Pierrefitte","nomNormalise":"pierrefitte","typeCollectivite":"Commune","region":"Nouvelle-Aquitaine","departement":"Deux-Sèvres","departementCode":"79","adresse":{"street":"1 rue de l'Église","postalCode":"79330","city":"Pierrefitte","country":"France"},"contacts":{"email":"mairiedepierrefitte79@orange.fr","telephone":"0549675203"},"horaires":"Le Lundi : de 09h00 à 12h00 de 14h00 à 16h00\nLe Vendredi : de 09h00 à 12h00","latitude":46.867947,"longitude":-0.3010371,"website":"http://www.communedepierrefittedeux-sevres.com/","hasWebsite":true,"hasHoraires":true,"url":"https://lannuaire.service-public.gouv.fr/nouvelle-aquitaine/deux-sevres/61293917-626c-4b9b-a5bf-27dcfd45f3c0"}
{"nom":"Plaine-d Argenson","nomNormalise":"plainedargenson","typeCollectivite":"Commune","region":"Nouvelle-Aquitaine","departement":"Deux-Sèvres","departementCode":"79","adresse":{"street":"Prissé-la-Charrière","postalCode":"79360","city":"Plaine-d'Argenson","country":"France"},"contacts":{"email":"mairie@plainedargenson.fr","telephone":"0549097237"},"horaires":"Du Lundi au Vendredi : de 08h30 à 12h30 de 13h30 à 17h30","latitude":46.1538,"longitude":-0.484473,"website":"https://www.plainedargenson.fr/","hasWebsite":true,"hasHoraires":true,"url":"https://lannuaire.service-public.gouv.fr/nouvelle-aquitaine/deux-sevres/fafb011a-ca8b-49ef-a82b-a4314eaa8688"}
{"nom":"Plaine-et-Vallées","nomNormalise":"plaineetvallees","typeCollectivite":"Commune","region":"Nouvelle-Aquitaine","departement":"Deux-Sèvres","departementCode":"79","adresse":{"street":"Oiron","postalCode":"79100","city":"Plaine-et-Vallées","country":"France"},"contacts":{"email":"accueil.mairie@plaineetvallees.fr","telephone":"0549965126"},"horaires":"Du Mardi au Mercredi : de 13h30 à 17h30\nLe Vendredi : de 13h30 à 17h30\nLe Samedi : de 09h00 à 12h00","latitude":46.950985,"longitude":-0.080042,"website":"","hasWebsite":false,"hasHoraires":true,"url":"https://lannuaire.service-public.gouv.fr/nouvelle-aquitaine/deux-sevres/936c3fc2-9a2e-421e-96cf-4dab1dfbf1a7"}
{"nom":"Mairie déléguée - Pliboux","nomNormalise":"mairiedelegueepliboux","typeCollectivite":"Commune","region":"Nouvelle-Aquitaine","departement":"Deux-Sèvres","departementCode":"79","adresse":{"street":"Pliboux","postalCode":"79190","city":"Sauzé-entre-Bois","country":"France"},"contacts":{"email":"mairie-plibou@paysmellois.org","telephone":"0549079093"},"horaires":"Le Lundi : de 14h00 à 17h00\n\nPermanence téléphonique uniquement, le lundi de 8h45 à 12h et de 14h à 17h15 et le mercredi de 8h45 à 11h45.\nLe Jeudi : de 14h00 à 16h00\n\nPermanence téléphonique uniquement, le jeudi de 8h45 à 12h et de 14h à 16h15.\nPermanence téléphonique uniquement, le lundi de 8h45 à 12h et de 14h à 17h15 et le mercredi de 8h45 à 11h45.","latitude":46.13486,"longitude":0.1053857,"website":"","hasWebsite":false,"hasHoraires":true,"url":"https://lannuaire.service-public.gouv.fr/nouvelle-aquitaine/deux-sevres/fd59d938-7a49-40e4-a9b6-2c6bdec76f45"}
{"nom":"Pompaire","nomNormalise":"pompaire","typeCollectivite":"Commune","region":"Nouvelle-Aquitaine","departement":"Deux-Sèvres","departementCode":"79","adresse":{"street":"2 place de la Mairie","postalCode":"79200","city":"Pompaire","country":"France"},"contacts":{"email":"accueil_pompaire@cc-parthenay-gatine.fr","telephone":"0549712171"},"horaires":"Du Lundi au Jeudi : de 09h00 à 12h30 de 13h30 à 17h30\nLe Vendredi : de 08h30 à 12h00 de 13h30 à 16h30","latitude":46.60964,"longitude":-0.235316,"website":"https://pompaire.fr/","hasWebsite":true,"hasHoraires":true,"url":"https://lannuaire.service-public.gouv.fr/nouvelle-aquitaine/deux-sevres/192fc618-eff3-4be8-ba0e-e8a86ea73719"}
{"nom":"Pougne-Hérisson","nomNormalise":"pougneherisson","typeCollectivite":"Commune","region":"Nouvelle-Aquitaine","departement":"Deux-Sèvres","departementCode":"79","adresse":{"street":"2 place aux Citoyens","postalCode":"79130","city":"Pougne-Hérisson","country":"France"},"contacts":{"email":"mairie-pougneherisson@wanadoo.fr","telephone":"0549637355"},"horaires":"Le Lundi : de 14h00 à 17h30\nLe Mercredi : de 14h00 à 17h00\nLe Vendredi : de 14h30 à 17h30","latitude":46.683617,"longitude":-0.413053,"website":"https://www.pougneherisson.fr/","hasWebsite":true,"hasHoraires":true,"url":"https://lannuaire.service-public.gouv.fr/nouvelle-aquitaine/deux-sevres/2d61bc29-ec20-46d4-a49d-441c92c616fe"}
{"nom":"Prahecq","nomNormalise":"prahecq","typeCollectivite":"Commune","region":"Nouvelle-Aquitaine","departement":"Deux-Sèvres","departementCode":"79","adresse":{"street":"Place de l'Église","postalCode":"79230","city":"Prahecq","country":"France"},"contacts":{"email":"accueil@mairie-prahecq.fr","telephone":"0549264755"},"horaires":"Du Lundi au Vendredi : de 09h00 à 12h00 de 14h00 à 17h00\nLe Samedi : de 10h00 à 12h00","latitude":46.2818,"longitude":-0.414745,"website":"https://www.mairie-prahecq.fr/","hasWebsite":true,"hasHoraires":true,"url":"https://lannuaire.service-public.gouv.fr/nouvelle-aquitaine/deux-sevres/3c12b045-e3ae-4d12-8b4d-05a79fd137c4"}
{"nom":"Prailles-La Couarde","nomNormalise":"prailleslacouarde","typeCollectivite":"Commune","region":"Nouvelle-Aquitaine","departement":"Deux-Sèvres","departementCode":"79","adresse":{"street":"Prailles","postalCode":"79370","city":"Prailles-La Couarde","country":"France"},"contacts":{"email":"mairie-prailleslacouarde@paysmellois.org","telephone":"0549328113"},"horaires":"Le Lundi : de 08h00 à 12h00\nLe Mardi : de 08h00 à 12h00 de 13h30 à 15h30\nLe Jeudi : de 08h00 à 12h00 de 13h30 à 15h30\nLe Vendredi : de 08h00 à 12h00 de 15h00 à 17h00","latitude":46.32178,"longitude":-0.219769,"website":"https://prailles-lacouarde.fr/fr/","hasWebsite":true,"hasHoraires":true,"url":"https://lannuaire.service-public.gouv.fr/nouvelle-aquitaine/deux-sevres/25f317dc-178e-4706-9756-8fc918953595"}
{"nom":"Pressigny","nomNormalise":"pressigny","typeCollectivite":"Commune","region":"Nouvelle-Aquitaine","departement":"Deux-Sèvres","departementCode":"79","adresse":{"street":"1 place de l'Église","postalCode":"79390","city":"Pressigny","country":"France"},"contacts":{"email":"pressigny.mairie@orange.fr","telephone":"0549698146"},"horaires":"Du Mardi au Mercredi : de 09h00 à 12h30 de 13h30 à 18h15","latitude":46.747295,"longitude":-0.09236,"website":"","hasWebsite":false,"hasHoraires":true,"url":"https://lannuaire.service-public.gouv.fr/nouvelle-aquitaine/deux-sevres/b94df5c2-4c40-43d0-920d-156d884cbaef"}
{"nom":"Prin-Deyrançon","nomNormalise":"prindeyrancon","typeCollectivite":"Commune","region":"Nouvelle-Aquitaine","departement":"Deux-Sèvres","departementCode":"79","adresse":{"street":"18 rue de la Mairie","postalCode":"79210","city":"Prin-Deyrançon","country":"France"},"contacts":{"email":"prindey-mairie@orange.fr","telephone":"0549263165"},"horaires":"Du Lundi au Mardi : de 13h30 à 17h30\nLe Mercredi : de 08h00 à 11h30\nDu Jeudi au Vendredi : de 13h30 à 17h30","latitude":46.2197,"longitude":-0.636621,"website":"https://prin-deyrancon.eu/","hasWebsite":true,"hasHoraires":true,"url":"https://lannuaire.service-public.gouv.fr/nouvelle-aquitaine/deux-sevres/5d40ea04-2ef4-4b44-8bb3-fd38c112b029"}
{"nom":"Pugny","nomNormalise":"pugny","typeCollectivite":"Commune","region":"Nouvelle-Aquitaine","departement":"Deux-Sèvres","departementCode":"79","adresse":{"street":"1 rue de l'Ouine","postalCode":"79320","city":"Pugny","country":"France"},"contacts":{"email":"mairie.pugny@moncoutantsursevre.fr","telephone":"0549727235"},"horaires":"","latitude":46.725945,"longitude":-0.5239382,"website":"https://www.moncoutantsursevre.fr/","hasWebsite":true,"hasHoraires":false,"url":"https://lannuaire.service-public.gouv.fr/nouvelle-aquitaine/deux-sevres/b6a37b05-3778-4980-beca-856e8b27d5a3"}
{"nom":"Puihardy","nomNormalise":"puihardy","typeCollectivite":"Commune","region":"Nouvelle-Aquitaine","departement":"Deux-Sèvres","departementCode":"79","adresse":{"street":"9 route de Secondigny","postalCode":"79160","city":"Puihardy","country":"France"},"contacts":{"email":"mairie.puyhardy@orange.fr","telephone":"0549752846"},"horaires":"Le Jeudi : de 09h00 à 12h30 de 13h15 à 16h30","latitude":46.52385,"longitude":-0.54074,"website":"","hasWebsite":false,"hasHoraires":true,"url":"https://lannuaire.service-public.gouv.fr/nouvelle-aquitaine/deux-sevres/c929444d-1bd1-4d0d-a21a-8c9d6ed630e4"}
{"nom":"Reffannes","nomNormalise":"reffannes","typeCollectivite":"Commune","region":"Nouvelle-Aquitaine","departement":"Deux-Sèvres","departementCode":"79","adresse":{"street":"20 avenue de la Grande-Auberge","postalCode":"79420","city":"Reffannes","country":"France"},"contacts":{"email":"secretariat@mairie-reffannes.fr","telephone":"0549702085"},"horaires":"Le Lundi : de 08h45 à 09h45 de 16h00 à 18h00\nLe Mercredi : de 08h45 à 12h00\nLe Vendredi : de 16h00 à 18h00","latitude":46.54927,"longitude":-0.1883216,"website":"http://www.mairie-reffannes.fr/","hasWebsite":true,"hasHoraires":true,"url":"https://lannuaire.service-public.gouv.fr/nouvelle-aquitaine/deux-sevres/c8f07472-a0e7-4298-9be7-ef40ee374dfd"}
{"nom":"Rom","nomNormalise":"rom","typeCollectivite":"Commune","region":"Nouvelle-Aquitaine","departement":"Deux-Sèvres","departementCode":"79","adresse":{"street":"7 Grand'rue","postalCode":"79120","city":"Rom","country":"France"},"contacts":{"email":"mairie-rom@paysmellois.org","telephone":"0549275213"},"horaires":"Du Lundi au Vendredi : de 09h00 à 12h00","latitude":46.2922,"longitude":0.1163145,"website":"","hasWebsite":false,"hasHoraires":true,"url":"https://lannuaire.service-public.gouv.fr/nouvelle-aquitaine/deux-sevres/0979d991-1d49-43ab-8ea5-85b4ea1fae7f"}
{"nom":"Romans","nomNormalise":"romans","typeCollectivite":"Commune","region":"Nouvelle-Aquitaine","departement":"Deux-Sèvres","departementCode":"79","adresse":{"street":"1 route du Prieuré","postalCode":"79260","city":"Romans","country":"France"},"contacts":{"email":"mairie.romans884@orange.fr","telephone":"0549255767"},"horaires":"Le Lundi : de 13h00 à 18h00\nLe Mardi : de 16h00 à 18h00\nLe Jeudi : de 08h15 à 12h00\nLe Vendredi : de 14h00 à 16h00","latitude":46.3584,"longitude":-0.226962,"website":"","hasWebsite":false,"hasHoraires":true,"url":"https://lannuaire.service-public.gouv.fr/nouvelle-aquitaine/deux-sevres/71faa7d4-e433-4fd5-a3dd-bb7250c1196f"}
{"nom":"Saint-Amand-sur-Sèvre","nomNormalise":"saintamandsursevre","typeCollectivite":"Commune","region":"Nouvelle-Aquitaine","departement":"Deux-Sèvres","departementCode":"79","adresse":{"street":"2 place de la Mairie","postalCode":"79700","city":"Saint-Amand-sur-Sèvre","country":"France"},"contacts":{"email":"mairie@saintamandsursevre.fr","telephone":"0549816709"},"horaires":"Le Lundi : de 14h00 à 18h00\nLe Mercredi : de 09h00 à 12h00\nLe Jeudi : de 09h00 à 12h30\nLe Vendredi : de 09h00 à 13h00","latitude":46.8832,"longitude":-0.742723,"website":"https://saint-amand-sur-sevre.fr/","hasWebsite":true,"hasHoraires":true,"url":"https://lannuaire.service-public.gouv.fr/nouvelle-aquitaine/deux-sevres/3428fac5-4ce8-498c-8a88-29ac051a945d"}
{"nom":"Saint-André-sur-Sèvre","nomNormalise":"saintandresursevre","typeCollectivite":"Commune","region":"Nouvelle-Aquitaine","departement":"Deux-Sèvres","departementCode":"79","adresse":{"street":"4 rue Marie-Millasseau","postalCode":"79380","city":"Saint-André-sur-Sèvre","country":"France"},"contacts":{"email":"mairie-saint-andre-sur-sevre@wanadoo.fr","telephone":"0549808768"},"horaires":"Le Lundi : de 09h30 à 12h30 de 17h00 à 18h00\nLe Mardi : de 09h30 à 12h30\nLe Jeudi : de 09h30 à 12h30\nLe Vendredi : de 09h30 à 12h30 de 14h00 à 16h00\n\n(jusquà 18h les semaines impaires)\nLe Samedi : de 10h00 à 12h00\n\nfermée les semaines impaires","latitude":46.7828,"longitude":-0.6788629,"website":"https://saintandresursevre.fr/","hasWebsite":true,"hasHoraires":true,"url":"https://lannuaire.service-public.gouv.fr/nouvelle-aquitaine/deux-sevres/2434d196-9676-4348-9a6d-713df24f5596"}
{"nom":"Saint-Aubin-du-Plain","nomNormalise":"saintaubinduplain","typeCollectivite":"Commune","region":"Nouvelle-Aquitaine","departement":"Deux-Sèvres","departementCode":"79","adresse":{"street":"Rue Croix-Bernier","postalCode":"79300","city":"Saint-Aubin-du-Plain","country":"France"},"contacts":{"email":"mairie-st-aubin@wanadoo.fr","telephone":"0549802040"},"horaires":"Le Lundi : de 13h30 à 17h30\nLe Mardi : de 08h30 à 12h30 de 13h30 à 17h30\nLe Mercredi : de 13h30 à 17h30\nLe Jeudi : de 08h30 à 12h30\nLe Vendredi : de 08h30 à 12h30 de 13h30 à 16h30\nLe Samedi : de 09h00 à 11h00\n\nPermanence des élus.","latitude":46.9222,"longitude":-0.4748,"website":"https://saintaubinduplain.fr/","hasWebsite":true,"hasHoraires":true,"url":"https://lannuaire.service-public.gouv.fr/nouvelle-aquitaine/deux-sevres/7140cb63-cd2f-4df5-9deb-d78f3327b619"}
{"nom":"Saint-Aubin-le-Cloud","nomNormalise":"saintaubinlecloud","typeCollectivite":"Commune","region":"Nouvelle-Aquitaine","departement":"Deux-Sèvres","departementCode":"79","adresse":{"street":"32 rue de l'Hôtel-de-Ville","postalCode":"79450","city":"Saint-Aubin-le-Cloud","country":"France"},"contacts":{"email":"mairie@staubinlecloud.fr","telephone":"0549953508"},"horaires":"Du Lundi au Mardi : de 08h30 à 12h30 de 13h30 à 17h30\nLe Mercredi : de 08h30 à 12h00\nLe Jeudi : de 08h30 à 12h30 de 13h30 à 17h30\nLe Vendredi : de 08h30 à 12h30 de 13h30 à 17h00","latitude":46.6495,"longitude":-0.353477,"website":"https://www.saint-aubin-le-cloud.fr/accueil.html","hasWebsite":true,"hasHoraires":true,"url":"https://lannuaire.service-public.gouv.fr/nouvelle-aquitaine/deux-sevres/cb67e9c5-6404-499b-98c0-10730de1c102"}
{"nom":"Saint-Christophe-sur-Roc","nomNormalise":"saintchristophesurroc","typeCollectivite":"Commune","region":"Nouvelle-Aquitaine","departement":"Deux-Sèvres","departementCode":"79","adresse":{"street":"12 rue des Écoles","postalCode":"79220","city":"Saint-Christophe-sur-Roc","country":"France"},"contacts":{"email":"mairie@stchristophesurroc.fr","telephone":"0549052119"},"horaires":"Du Lundi au Mardi : de 08h00 à 12h00\nDu Jeudi au Vendredi : de 08h00 à 12h00","latitude":46.4164,"longitude":-0.349272,"website":"https://www.stchristophesurroc.fr/","hasWebsite":true,"hasHoraires":true,"url":"https://lannuaire.service-public.gouv.fr/nouvelle-aquitaine/deux-sevres/31e82773-afe1-4c0c-a2c3-1feaa5e56d94"}
{"nom":"Saint-Coutant","nomNormalise":"saintcoutant","typeCollectivite":"Commune","region":"Nouvelle-Aquitaine","departement":"Deux-Sèvres","departementCode":"79","adresse":{"street":"Huric","postalCode":"79120","city":"Saint-Coutant","country":"France"},"contacts":{"email":"mairie-stcoutant@paysmellois.org","telephone":"0549293288"},"horaires":"Le Lundi : de 13h30 à 16h00\nLe Mercredi : de 09h00 à 12h00","latitude":46.215073,"longitude":0.001875,"website":"","hasWebsite":false,"hasHoraires":true,"url":"https://lannuaire.service-public.gouv.fr/nouvelle-aquitaine/deux-sevres/e4c6aa28-b1c7-4d33-8122-03884c96fc45"}
{"nom":"Saint-Cyr-la-Lande","nomNormalise":"saintcyrlalande","typeCollectivite":"Commune","region":"Nouvelle-Aquitaine","departement":"Deux-Sèvres","departementCode":"79","adresse":{"street":"1 rue de la Garetterie","postalCode":"79100","city":"Saint-Cyr-la-Lande","country":"France"},"contacts":{"email":"mairie.stcyrlalande@gmail.com","telephone":"0549677162"},"horaires":"Le Lundi : de 09h00 à 12h00\nLe Jeudi : de 13h30 à 16h00\nLe Vendredi : de 09h00 à 12h00","latitude":47.0518,"longitude":-0.143716,"website":"","hasWebsite":false,"hasHoraires":true,"url":"https://lannuaire.service-public.gouv.fr/nouvelle-aquitaine/deux-sevres/6acf387f-6a5a-4452-b95d-aee39ee90c4f"}
{"nom":"Mairie déléguée - Sainte-Blandine","nomNormalise":"mairiedelegueesainteblandine","typeCollectivite":"Commune","region":"Nouvelle-Aquitaine","departement":"Deux-Sèvres","departementCode":"79","adresse":{"street":"Sainte-Blandine","postalCode":"79370","city":"Aigondigné","country":"France"},"contacts":{"email":"sainte-blandine@aigondigne.fr","telephone":"0549797036"},"horaires":"Le Mercredi : de 09h00 à 12h30\nLe Vendredi : de 14h30 à 17h30","latitude":46.290916,"longitude":-0.2858845,"website":"https://www.aigondigne.fr/","hasWebsite":true,"hasHoraires":true,"url":"https://lannuaire.service-public.gouv.fr/nouvelle-aquitaine/deux-sevres/3e0e0b61-a862-43ce-b05b-32879c5986f8"}
{"nom":"Sainte-Éanne","nomNormalise":"sainteeanne","typeCollectivite":"Commune","region":"Nouvelle-Aquitaine","departement":"Deux-Sèvres","departementCode":"79","adresse":{"street":"9 rue du Colonel-Bordage","postalCode":"79800","city":"Sainte-Éanne","country":"France"},"contacts":{"email":"mairie@sainteeanne.fr","telephone":"0549050195"},"horaires":"Le Lundi : de 09h00 à 12h30 de 15h00 à 17h30\nLe Mardi : de 13h30 à 17h30\nLe Mercredi : de 09h00 à 12h00\nLe Jeudi : de 09h00 à 12h30 de 15h00 à 17h30\nLe Vendredi : de 13h30 à 16h30","latitude":46.398346,"longitude":-0.136717,"website":"https://www.sainte-eanne.fr/","hasWebsite":true,"hasHoraires":true,"url":"https://lannuaire.service-public.gouv.fr/nouvelle-aquitaine/deux-sevres/c2a17993-a626-4085-85f8-5c90991cb31f"}
{"nom":"Sainte-Gemme","nomNormalise":"saintegemme","typeCollectivite":"Commune","region":"Nouvelle-Aquitaine","departement":"Deux-Sèvres","departementCode":"79","adresse":{"street":"2 rue de la Mairie","postalCode":"79330","city":"Sainte-Gemme","country":"France"},"contacts":{"email":"mairie.sainte.gemme@orange.fr","telephone":"0549964351"},"horaires":"Le Mercredi : de 09h00 à 12h30\nLe Jeudi : de 16h00 à 19h30\nLe Vendredi : de 13h30 à 17h30","latitude":46.902153,"longitude":-0.287583,"website":"","hasWebsite":false,"hasHoraires":true,"url":"https://lannuaire.service-public.gouv.fr/nouvelle-aquitaine/deux-sevres/8a6c5d9d-734d-47e5-8f91-55768bd5929f"}
{"nom":"Sainte-Néomaye","nomNormalise":"sainteneomaye","typeCollectivite":"Commune","region":"Nouvelle-Aquitaine","departement":"Deux-Sèvres","departementCode":"79","adresse":{"street":"1 rue de la Mairie","postalCode":"79260","city":"Sainte-Néomaye","country":"France"},"contacts":{"email":"accueil.mairie@sainte-neomaye.fr","telephone":"0549255713"},"horaires":"Le Lundi : de 09h00 à 12h00 de 14h00 à 17h00\nLe Mercredi : de 09h00 à 12h00 de 14h00 à 17h00\nLe Vendredi : de 09h00 à 12h00","latitude":46.3698,"longitude":-0.263225,"website":"http://www.sainte-neomaye.fr/","hasWebsite":true,"hasHoraires":true,"url":"https://lannuaire.service-public.gouv.fr/nouvelle-aquitaine/deux-sevres/c6f3237e-6c96-4246-bcd0-ff63eca2da61"}
{"nom":"Sainte-Ouenne","nomNormalise":"sainteouenne","typeCollectivite":"Commune","region":"Nouvelle-Aquitaine","departement":"Deux-Sèvres","departementCode":"79","adresse":{"street":"4 rue de la Poste","postalCode":"79220","city":"Sainte-Ouenne","country":"France"},"contacts":{"email":"ste-ouenne.mairie@orange.fr","telephone":"0549040375"},"horaires":"Du Lundi au Mercredi : de 09h00 à 12h30 de 15h00 à 17h00\nDu Jeudi au Vendredi : de 09h00 à 12h30","latitude":46.4452,"longitude":-0.447603,"website":"http://www.sainteouenne.fr/","hasWebsite":true,"hasHoraires":true,"url":"https://lannuaire.service-public.gouv.fr/nouvelle-aquitaine/deux-sevres/5eeefe59-b0d6-4626-8154-0c2c78516249"}
{"nom":"Mairie déléguée - Sainte-Radegonde","nomNormalise":"mairiedelegueesainteradegonde","typeCollectivite":"Commune","region":"Nouvelle-Aquitaine","departement":"Deux-Sèvres","departementCode":"79","adresse":{"street":"Sainte-Radegonde","postalCode":"79100","city":"Thouars","country":"France"},"contacts":{"email":"mairie.ste-radegonde@thouars.fr","telephone":"0549660859"},"horaires":"Le Lundi : de 08h30 à 12h00 de 13h30 à 17h00\nDu Mardi au Mercredi : de 08h30 à 12h00\nDu Jeudi au Vendredi : de 13h30 à 17h00","latitude":46.995304,"longitude":-0.247824,"website":"https://thouars.fr/","hasWebsite":true,"hasHoraires":true,"url":"https://lannuaire.service-public.gouv.fr/nouvelle-aquitaine/deux-sevres/c1d5ccfc-d651-4aab-b422-bfa230090304"}
{"nom":"Sainte-Soline","nomNormalise":"saintesoline","typeCollectivite":"Commune","region":"Nouvelle-Aquitaine","departement":"Deux-Sèvres","departementCode":"79","adresse":{"street":"7 chemin de Couhé","postalCode":"79120","city":"Sainte-Soline","country":"France"},"contacts":{"email":"mairie-stesoline@paysmellois.org","telephone":"0549294646"},"horaires":"Le Mardi : de 09h15 à 12h15\nLe Mercredi : de 13h30 à 17h30\nLe Vendredi : de 09h15 à 12h15","latitude":46.204376,"longitude":0.0085153,"website":"","hasWebsite":false,"hasHoraires":true,"url":"https://lannuaire.service-public.gouv.fr/nouvelle-aquitaine/deux-sevres/c311ce17-fdd0-4cfa-85da-dac78262daac"}
{"nom":"Sainte-Verge","nomNormalise":"sainteverge","typeCollectivite":"Commune","region":"Nouvelle-Aquitaine","departement":"Deux-Sèvres","departementCode":"79","adresse":{"street":"2 rue de la Mairie","postalCode":"79100","city":"Sainte-Verge","country":"France"},"contacts":{"email":"communesteverge@gmail.com","telephone":"0549660517"},"horaires":"Le Lundi : de 09h00 à 12h30 de 14h00 à 17h30\nLe Mardi : de 09h00 à 12h30 de 16h45 à 17h30\nLe Mercredi : de 09h00 à 12h30 de 15h00 à 17h30\nLe Jeudi : de 09h00 à 12h30 de 16h00 à 17h30\nLe Vendredi : de 09h00 à 12h30 de 16h45 à 17h30","latitude":47.0076,"longitude":-0.211785,"website":"http://www.sainte-verge.fr/","hasWebsite":true,"hasHoraires":true,"url":"https://lannuaire.service-public.gouv.fr/nouvelle-aquitaine/deux-sevres/7eea94d4-25f6-4ce5-bf96-9ebe53831bc8"}
{"nom":"Saint-Gelais","nomNormalise":"saintgelais","typeCollectivite":"Commune","region":"Nouvelle-Aquitaine","departement":"Deux-Sèvres","departementCode":"79","adresse":{"street":"320 rue des Herpens","postalCode":"79410","city":"Saint-Gelais","country":"France"},"contacts":{"email":"mairie-st-gelais@wanadoo.fr","telephone":"0549750078"},"horaires":"Du Lundi au Mercredi : de 13h30 à 17h30\nLe Jeudi : de 08h30 à 12h15 de 13h30 à 17h30\nLe Vendredi : de 13h30 à 17h30","latitude":46.3808,"longitude":-0.387957,"website":"https://www.saintgelais.fr/","hasWebsite":true,"hasHoraires":true,"url":"https://lannuaire.service-public.gouv.fr/nouvelle-aquitaine/deux-sevres/f984eae9-136c-4e2b-b478-f3c3f8b8c113"}
{"nom":"Saint-Généroux","nomNormalise":"saintgeneroux","typeCollectivite":"Commune","region":"Nouvelle-Aquitaine","departement":"Deux-Sèvres","departementCode":"79","adresse":{"street":"2 rue de Thiors","postalCode":"79600","city":"Saint-Généroux","country":"France"},"contacts":{"email":"mairie-st-generoux@orange.fr","telephone":"0549676486"},"horaires":"Le Mardi : de 14h00 à 17h00\nLe Vendredi : de 14h00 à 17h00","latitude":46.8869,"longitude":-0.142809,"website":"","hasWebsite":false,"hasHoraires":true,"url":"https://lannuaire.service-public.gouv.fr/nouvelle-aquitaine/deux-sevres/54f03446-e8bb-478f-a139-a9ad5aa4f1f8"}
{"nom":"Saint-Georges-de-Noisné","nomNormalise":"saintgeorgesdenoisne","typeCollectivite":"Commune","region":"Nouvelle-Aquitaine","departement":"Deux-Sèvres","departementCode":"79","adresse":{"street":"7 route des Taillées","postalCode":"79400","city":"Saint-Georges-de-Noisné","country":"France"},"contacts":{"email":"stgeorges@ccsudgatine.fr","telephone":"0549954219"},"horaires":"Du Lundi au Vendredi : de 09h00 à 12h00","latitude":46.4927,"longitude":-0.257846,"website":"https://www.stgeorges79.fr/accueil.html","hasWebsite":true,"hasHoraires":true,"url":"https://lannuaire.service-public.gouv.fr/nouvelle-aquitaine/deux-sevres/01b9e192-2561-4c6c-b300-5d76f088af56"}
{"nom":"Saint-Georges-de-Rex","nomNormalise":"saintgeorgesderex","typeCollectivite":"Commune","region":"Nouvelle-Aquitaine","departement":"Deux-Sèvres","departementCode":"79","adresse":{"street":"11 rue Croix-Picot","postalCode":"79210","city":"Saint-Georges-de-Rex","country":"France"},"contacts":{"email":"mairie.stgeorgesderex@orange.fr","telephone":"0549350400"},"horaires":"Du Lundi au Mardi : de 15h00 à 18h00\nLe Jeudi : de 15h00 à 18h00\nLe Vendredi : de 09h00 à 12h00","latitude":46.278137,"longitude":-0.654312,"website":"https://saintgeorgesderex.fr/","hasWebsite":true,"hasHoraires":true,"url":"https://lannuaire.service-public.gouv.fr/nouvelle-aquitaine/deux-sevres/59ebd3b2-28c9-4b15-a54f-ffeaf4e5cd9d"}
{"nom":"Saint-Germain-de-Longue-Chaume","nomNormalise":"saintgermaindelonguechaume","typeCollectivite":"Commune","region":"Nouvelle-Aquitaine","departement":"Deux-Sèvres","departementCode":"79","adresse":{"street":"1 rue de Moncoutant","postalCode":"79200","city":"Saint-Germain-de-Longue-Chaume","country":"France"},"contacts":{"email":"mairie-stgermain@cc-parthenay-gatine.fr","telephone":"0549700034"},"horaires":"Du Lundi au Mardi : de 09h00 à 12h30\nLe Mercredi : de 09h30 à 12h30\nLe Jeudi : de 09h00 à 12h30\nLe Vendredi : de 09h00 à 12h30 de 14h00 à 17h30","latitude":46.717472,"longitude":-0.348765,"website":"","hasWebsite":false,"hasHoraires":true,"url":"https://lannuaire.service-public.gouv.fr/nouvelle-aquitaine/deux-sevres/4d6b57ed-aaa7-41d9-b9e1-c00679a586a8"}
{"nom":"Saint-Germier","nomNormalise":"saintgermier","typeCollectivite":"Commune","region":"Nouvelle-Aquitaine","departement":"Deux-Sèvres","departementCode":"79","adresse":{"street":"3 rue de la Mairie","postalCode":"79340","city":"Saint-Germier","country":"France"},"contacts":{"email":"saintgermier.mairie@orange.fr","telephone":"0549690182"},"horaires":"Le Lundi : de 08h00 à 12h00\nLe Jeudi : de 13h30 à 17h30","latitude":46.461815,"longitude":-0.036169,"website":"http://www.saintgermier79.com/","hasWebsite":true,"hasHoraires":true,"url":"https://lannuaire.service-public.gouv.fr/nouvelle-aquitaine/deux-sevres/767609af-76c8-4cdf-b739-7663676deeb6"}
{"nom":"Saint-Hilaire-la-Palud","nomNormalise":"sainthilairelapalud","typeCollectivite":"Commune","region":"Nouvelle-Aquitaine","departement":"Deux-Sèvres","departementCode":"79","adresse":{"street":"18 place de la Mairie","postalCode":"79210","city":"Saint-Hilaire-la-Palud","country":"France"},"contacts":{"email":"mairie@sthilairelapalud.fr","telephone":"0549353215"},"horaires":"Le Lundi : de 14h00 à 18h00\nDu Mardi au Vendredi : de 14h00 à 17h00","latitude":46.2643,"longitude":-0.7139289,"website":"https://www.st-hilaire-la-palud.fr/","hasWebsite":true,"hasHoraires":true,"url":"https://lannuaire.service-public.gouv.fr/nouvelle-aquitaine/deux-sevres/2380d44d-718d-44ae-ae09-d1f29bc2c032"}
{"nom":"Saint-Jacques-de-Thouars","nomNormalise":"saintjacquesdethouars","typeCollectivite":"Commune","region":"Nouvelle-Aquitaine","departement":"Deux-Sèvres","departementCode":"79","adresse":{"street":"18 rue Baillergeau","postalCode":"79100","city":"Saint-Jacques-de-Thouars","country":"France"},"contacts":{"email":"communestjacquesthouars79@orange.fr","telephone":"0549663187"},"horaires":"Du Lundi au Mardi : de 08h30 à 12h30 de 13h30 à 17h30\nLe Mercredi : de 09h00 à 12h00\nLe Jeudi : de 08h30 à 12h30 de 13h30 à 18h00\nLe Vendredi : de 08h30 à 13h00","latitude":46.965,"longitude":-0.2222,"website":"","hasWebsite":false,"hasHoraires":true,"url":"https://lannuaire.service-public.gouv.fr/nouvelle-aquitaine/deux-sevres/24b610b8-9666-495b-8296-81b31a8e99d0"}
{"nom":"Saint-Jean-de-Thouars","nomNormalise":"saintjeandethouars","typeCollectivite":"Commune","region":"Nouvelle-Aquitaine","departement":"Deux-Sèvres","departementCode":"79","adresse":{"street":"1 Rue Charles-Ragot","postalCode":"79100","city":"Saint-Jean-de-Thouars","country":"France"},"contacts":{"email":"mairie.st-jean@thouars-communaute.fr","telephone":"0549660426"},"horaires":"Le Lundi : de 09h00 à 12h00\nLe Mardi : de 09h00 à 12h00 de 14h00 à 18h00\nLe Mercredi : de 14h00 à 18h00\nDu Jeudi au Vendredi : de 09h00 à 12h00 de 14h00 à 18h00","latitude":46.9625,"longitude":-0.217809,"website":"https://www.st-jean-de-thouars.fr/","hasWebsite":true,"hasHoraires":true,"url":"https://lannuaire.service-public.gouv.fr/nouvelle-aquitaine/deux-sevres/1d9afc0a-2a23-4cb8-8881-a0d7048ea173"}
{"nom":"Mairie déléguée - Saint-Jouin-de-Marnes","nomNormalise":"mairiedelegueesaintjouindemarnes","typeCollectivite":"Commune","region":"Nouvelle-Aquitaine","departement":"Deux-Sèvres","departementCode":"79","adresse":{"street":"Saint-Jouin-de-Marnes","postalCode":"79600","city":"Plaine-et-Vallées","country":"France"},"contacts":{"email":"accueil.mairie@plaineetvallees.fr","telephone":"054965126"},"horaires":"Le Lundi : de 09h00 à 12h00 de 13h30 à 17h00\nLe Mardi : de 13h30 à 17h00\nLe Jeudi : de 13h30 à 17h00","latitude":46.8802,"longitude":-0.059179,"website":"","hasWebsite":false,"hasHoraires":true,"url":"https://lannuaire.service-public.gouv.fr/nouvelle-aquitaine/deux-sevres/2598e95d-a76c-467e-a3c1-9e6f3ba3fbeb"}
{"nom":"Saint-Jouin-de-Milly","nomNormalise":"saintjouindemilly","typeCollectivite":"Commune","region":"Nouvelle-Aquitaine","departement":"Deux-Sèvres","departementCode":"79","adresse":{"street":"Saint-Jouin-de-Milly","postalCode":"79380","city":"Moncoutant-sur-Sèvre","country":"France"},"contacts":{"email":"mairie.saintjouindemilly@moncoutantsursevre.fr","telephone":"0963030663"},"horaires":"Le Jeudi : de 14h00 à 18h00","latitude":46.75467,"longitude":-0.621333,"website":"","hasWebsite":false,"hasHoraires":true,"url":"https://lannuaire.service-public.gouv.fr/nouvelle-aquitaine/deux-sevres/0f9acf2c-a4f0-4384-9a0c-f6a3b6f4d5e6"}
{"nom":"Saint-Laurs","nomNormalise":"saintlaurs","typeCollectivite":"Commune","region":"Nouvelle-Aquitaine","departement":"Deux-Sèvres","departementCode":"79","adresse":{"street":"6 route de la Bruyère","postalCode":"79160","city":"Saint-Laurs","country":"France"},"contacts":{"email":"secretariat@saintlaurs.fr","telephone":"0549752010"},"horaires":"Du Lundi au Mardi : de 08h30 à 12h30 de 15h30 à 18h00\nLe Mercredi : de 08h30 à 12h30\nLe Jeudi : de 08h30 à 12h30 de 15h30 à 18h00","latitude":46.5296,"longitude":-0.589039,"website":"http://www.saintlaurs.fr/","hasWebsite":true,"hasHoraires":true,"url":"https://lannuaire.service-public.gouv.fr/nouvelle-aquitaine/deux-sevres/f14f834d-88b1-4f84-a1b3-13a4c7133f70"}
{"nom":"Mairie déléguée - Saint-Léger-de-la-Martinière","nomNormalise":"mairiedelegueesaintlegerdelamartiniere","typeCollectivite":"Commune","region":"Nouvelle-Aquitaine","departement":"Deux-Sèvres","departementCode":"79","adresse":{"street":"Saint-Léger-de-la-Martinière","postalCode":"79500","city":"Melle","country":"France"},"contacts":{"email":"contact@ville-melle.fr","telephone":"0549270023"},"horaires":"Le Lundi : de 09h00 à 12h00\nLe Jeudi : de 09h00 à 12h00\nActuellement fermée pour travaux","latitude":46.227615,"longitude":-0.125129,"website":"https://mairie-melle.fr/","hasWebsite":true,"hasHoraires":true,"url":"https://lannuaire.service-public.gouv.fr/nouvelle-aquitaine/deux-sevres/2a8c7996-f0ae-4a10-ae60-dd79330a991c"}
{"nom":"Saint-Léger-de-Montbrun","nomNormalise":"saintlegerdemontbrun","typeCollectivite":"Commune","region":"Nouvelle-Aquitaine","departement":"Deux-Sèvres","departementCode":"79","adresse":{"street":"Vrère","postalCode":"79100","city":"Saint-Léger-de-Montbrun","country":"France"},"contacts":{"email":"mairiesaintlegerdemontbrun79@orange.fr","telephone":"0549967001"},"horaires":"Le Lundi : de 16h30 à 18h30\nLe Mardi : de 10h30 à 12h00\nLe Mercredi : de 16h00 à 18h00\nLe Jeudi : de 13h30 à 15h30\nLe Vendredi : de 16h30 à 18h00","latitude":46.992374,"longitude":-0.119679,"website":"","hasWebsite":false,"hasHoraires":true,"url":"https://lannuaire.service-public.gouv.fr/nouvelle-aquitaine/deux-sevres/8222db44-331e-46db-b4da-16f978e00b43"}
{"nom":"Saint-Lin","nomNormalise":"saintlin","typeCollectivite":"Commune","region":"Nouvelle-Aquitaine","departement":"Deux-Sèvres","departementCode":"79","adresse":{"street":"1 rue de la Mairie","postalCode":"79420","city":"Saint-Lin","country":"France"},"contacts":{"email":"stlin@ccsudgatine.fr","telephone":"0549706364"},"horaires":"Le Lundi : de 09h00 à 12h00 de 13h30 à 17h30\nLe Mercredi : de 09h00 à 12h00 de 13h30 à 17h30\nLe Vendredi : de 08h00 à 12h00","latitude":46.5274,"longitude":-0.24022,"website":"","hasWebsite":false,"hasHoraires":true,"url":"https://lannuaire.service-public.gouv.fr/nouvelle-aquitaine/deux-sevres/d9310a50-3d25-4b5f-b3fb-edc1a30d9087"}
{"nom":"Saint-Loup-Lamairé","nomNormalise":"saintlouplamaire","typeCollectivite":"Commune","region":"Nouvelle-Aquitaine","departement":"Deux-Sèvres","departementCode":"79","adresse":{"street":"1 place du Docteur-Bouchet","postalCode":"79600","city":"Saint-Loup-Lamairé","country":"France"},"contacts":{"email":"mairie@saint-loup-lamaire.fr","telephone":"0549646021"},"horaires":"Le Lundi : de 08h30 à 12h00 de 13h30 à 18h00\nLe Mardi : de 08h30 à 12h00\nLe Jeudi : de 08h30 à 12h00\nLe Vendredi : de 08h30 à 12h00 de 13h30 à 18h00","latitude":46.7873,"longitude":-0.166748,"website":"https://www.saint-loup-lamaire.fr/","hasWebsite":true,"hasHoraires":true,"url":"https://lannuaire.service-public.gouv.fr/nouvelle-aquitaine/deux-sevres/9e763fab-f258-4095-9844-725dcb4a275d"}
{"nom":"Saint-Maixent-de-Beugné","nomNormalise":"saintmaixentdebeugne","typeCollectivite":"Commune","region":"Nouvelle-Aquitaine","departement":"Deux-Sèvres","departementCode":"79","adresse":{"street":"22 Grande-Rue","postalCode":"79160","city":"Saint-Maixent-de-Beugné","country":"France"},"contacts":{"email":"secretariat@saintmaixentdebeugne.fr","telephone":"0549061215"},"horaires":"Le Lundi : de 09h00 à 12h30\nLe Mardi : de 09h00 à 12h30 de 15h00 à 18h00\nDu Jeudi au Vendredi : de 09h00 à 12h30","latitude":46.505093,"longitude":-0.611532,"website":"https://saintmaixentdebeugne.fr/","hasWebsite":true,"hasHoraires":true,"url":"https://lannuaire.service-public.gouv.fr/nouvelle-aquitaine/deux-sevres/46f6fd59-4458-43cc-8a2f-b4472c9c34ff"}
{"nom":"Saint-Maixent-l École","nomNormalise":"saintmaixentlecole","typeCollectivite":"Commune","region":"Nouvelle-Aquitaine","departement":"Deux-Sèvres","departementCode":"79","adresse":{"street":"Place Léon-Guyonnet","postalCode":"79400","city":"Saint-Maixent-L'École","country":"France"},"contacts":{"email":"contact@saint-maixent-lecole.fr","telephone":"0549761377"},"horaires":"Du Lundi au Jeudi : de 08h00 à 12h30 de 13h30 à 17h00\nLe Vendredi : de 08h00 à 12h30 de 13h30 à 16h00","latitude":46.413403,"longitude":0.203612,"website":"https://www.saint-maixent-lecole.fr/","hasWebsite":true,"hasHoraires":true,"url":"https://lannuaire.service-public.gouv.fr/nouvelle-aquitaine/deux-sevres/b1a04027-a7e2-4350-ac9a-d68af592daf5"}
{"nom":"Saint-Marc-la-Lande","nomNormalise":"saintmarclalande","typeCollectivite":"Commune","region":"Nouvelle-Aquitaine","departement":"Deux-Sèvres","departementCode":"79","adresse":{"street":"1 rue de la Collégiale","postalCode":"79310","city":"Saint-Marc-la-Lande","country":"France"},"contacts":{"email":"stmarc@ccsudgatine.fr","telephone":"0549632612"},"horaires":"Le Lundi : de 09h00 à 12h00\nLe Mardi : de 09h00 à 12h00 de 13h30 à 16h15\nLe Mercredi : de 08h30 à 11h45\nLe Jeudi : de 09h00 à 12h00 de 13h30 à 16h15\nLe Vendredi : de 14h00 à 18h00","latitude":46.5342,"longitude":-0.325341,"website":"https://www.saint-marc-la-lande.fr/","hasWebsite":true,"hasHoraires":true,"url":"https://lannuaire.service-public.gouv.fr/nouvelle-aquitaine/deux-sevres/21b002b1-89b8-425d-af69-7def83107aa4"}
{"nom":"Saint-Martin-de-Bernegoue","nomNormalise":"saintmartindebernegoue","typeCollectivite":"Commune","region":"Nouvelle-Aquitaine","departement":"Deux-Sèvres","departementCode":"79","adresse":{"street":"440 route de Brûlain","postalCode":"79230","city":"Saint-Martin-de-Bernegoue","country":"France"},"contacts":{"email":"mairie@saintmartindebernegoue.fr","telephone":"0549264860"},"horaires":"Le Mardi : de 14h00 à 18h00\nLe Jeudi : de 14h00 à 18h00","latitude":46.2099,"longitude":-0.378916,"website":"https://www.saintmartindebernegoue.fr/","hasWebsite":true,"hasHoraires":true,"url":"https://lannuaire.service-public.gouv.fr/nouvelle-aquitaine/deux-sevres/05f32c6e-fc31-46c4-8ef2-b55c585a95a4"}
{"nom":"Saint-Martin-de-Mâcon","nomNormalise":"saintmartindemacon","typeCollectivite":"Commune","region":"Nouvelle-Aquitaine","departement":"Deux-Sèvres","departementCode":"79","adresse":{"street":"20 rue Charles-Léopold-Aubert","postalCode":"79100","city":"Saint-Martin-de-Mâcon","country":"France"},"contacts":{"email":"mairie.stmartindemacon@wanadoo.fr","telephone":"0549967034"},"horaires":"Le Lundi : de 13h30 à 18h00\nDu Mercredi au Jeudi : de 09h00 à 12h00\nLe Vendredi : de 13h30 à 17h30","latitude":47.0127,"longitude":-0.1158899,"website":"","hasWebsite":false,"hasHoraires":true,"url":"https://lannuaire.service-public.gouv.fr/nouvelle-aquitaine/deux-sevres/4fae5c5a-d4ab-4d97-b3bc-5a07f139999d"}
{"nom":"Saint-Martin-de-Saint-Maixent","nomNormalise":"saintmartindesaintmaixent","typeCollectivite":"Commune","region":"Nouvelle-Aquitaine","departement":"Deux-Sèvres","departementCode":"79","adresse":{"street":"2 rue des Écoles","postalCode":"79400","city":"Saint-Martin-de-Saint-Maixent","country":"France"},"contacts":{"email":"mairiestmartindestmaixent@wanadoo.fr","telephone":"0549055252"},"horaires":"Le Lundi : de 13h00 à 17h00\nLe Mardi : de 13h00 à 18h00\nLe Mercredi : de 09h00 à 12h00 de 13h00 à 16h30\nLe Jeudi : de 09h00 à 12h00 de 13h00 à 17h00\nLe Vendredi : de 13h00 à 16h30","latitude":46.395824,"longitude":-0.2014689,"website":"https://www.saintmartindesaintmaixent.fr/fr/","hasWebsite":true,"hasHoraires":true,"url":"https://lannuaire.service-public.gouv.fr/nouvelle-aquitaine/deux-sevres/ef7e31f3-f8a7-4032-af5f-8f96f7faa7ef"}
{"nom":"Saint-Martin-de-Sanzay","nomNormalise":"saintmartindesanzay","typeCollectivite":"Commune","region":"Nouvelle-Aquitaine","departement":"Deux-Sèvres","departementCode":"79","adresse":{"street":"24 place Jean-Louis-Noël","postalCode":"79290","city":"Saint-Martin-de-Sanzay","country":"France"},"contacts":{"email":"mairie.saintmartindesanzay@orange.fr","telephone":"0549677292"},"horaires":"Le Lundi : de 09h00 à 12h15\nLe Mardi : de 14h00 à 17h00\nLe Mercredi : de 09h00 à 12h15\nLe Jeudi : de 14h00 à 17h00\nDu Vendredi au Samedi : de 09h00 à 12h00","latitude":47.080425,"longitude":-0.2009262,"website":"https://www.saint-martin-de-sanzay.fr/","hasWebsite":true,"hasHoraires":true,"url":"https://lannuaire.service-public.gouv.fr/nouvelle-aquitaine/deux-sevres/d250f987-5eda-4f9e-89f6-758e1e1ec006"}
{"nom":"Saint-Martin-du-Fouilloux","nomNormalise":"saintmartindufouilloux","typeCollectivite":"Commune","region":"Nouvelle-Aquitaine","departement":"Deux-Sèvres","departementCode":"79","adresse":{"street":"2 place de la Mairie","postalCode":"79420","city":"Saint-Martin-du-Fouilloux","country":"France"},"contacts":{"email":"st-martin-fouilloux@cc-parthenay-gatine.fr","telephone":"0549702553"},"horaires":"Le Lundi : de 08h45 à 12h15\nLe Jeudi : de 08h45 à 12h15\nLe Vendredi : de 08h45 à 12h15 de 14h00 à 15h30","latitude":46.59043,"longitude":-0.121828,"website":"","hasWebsite":false,"hasHoraires":true,"url":"https://lannuaire.service-public.gouv.fr/nouvelle-aquitaine/deux-sevres/f200e7f2-7469-4a46-9335-5066a1f412f6"}
{"nom":"Mairie déléguée - Saint-Martin-lès-Melle","nomNormalise":"mairiedelegueesaintmartinlesmelle","typeCollectivite":"Commune","region":"Nouvelle-Aquitaine","departement":"Deux-Sèvres","departementCode":"79","adresse":{"street":"Saint-Martin-lès-Melle","postalCode":"79500","city":"Melle","country":"France"},"contacts":{"email":"contact@ville-melle.fr","telephone":"0549270106"},"horaires":"Le Mardi : de 10h00 à 12h00\nLe Vendredi : de 15h00 à 17h00","latitude":46.224,"longitude":-0.156007,"website":"https://mairie-melle.fr/","hasWebsite":true,"hasHoraires":true,"url":"https://lannuaire.service-public.gouv.fr/nouvelle-aquitaine/deux-sevres/745a12f1-cc14-4e87-a561-2d2faf137be6"}
{"nom":"Saint-Maurice-Étusson","nomNormalise":"saintmauriceetusson","typeCollectivite":"Commune","region":"Nouvelle-Aquitaine","departement":"Deux-Sèvres","departementCode":"79","adresse":{"street":"1 place Plessis-Coffred","postalCode":"79150","city":"Saint-Maurice-Étusson","country":"France"},"contacts":{"email":"accueil@mairie-sme.fr","telephone":"0549657147"},"horaires":"Du Lundi au Vendredi : de 08h30 à 12h30","latitude":47.0339,"longitude":-0.509172,"website":"https://www.intramuros.org/saint-maurice-etusson","hasWebsite":true,"hasHoraires":true,"url":"https://lannuaire.service-public.gouv.fr/nouvelle-aquitaine/deux-sevres/9e33a15d-2015-4f1e-8e3e-b0b218f8a449"}
{"nom":"Saint-Maxire","nomNormalise":"saintmaxire","typeCollectivite":"Commune","region":"Nouvelle-Aquitaine","departement":"Deux-Sèvres","departementCode":"79","adresse":{"street":"5 rue de Niort","postalCode":"79410","city":"Saint-Maxire","country":"France"},"contacts":{"email":"mairie-saint-maxire@orange.fr","telephone":"0549355029"},"horaires":"Du Lundi au Mardi : de 14h00 à 18h00\nLe Mercredi : de 09h00 à 12h00\nDu Jeudi au Vendredi : de 14h00 à 18h00","latitude":46.397,"longitude":-0.478233,"website":"https://www.mairiesaintmaxire.fr/","hasWebsite":true,"hasHoraires":true,"url":"https://lannuaire.service-public.gouv.fr/nouvelle-aquitaine/deux-sevres/bc095fdc-e133-4b5b-92d2-b75a3c7faac6"}
{"nom":"Saint-Pardoux-Soutiers","nomNormalise":"saintpardouxsoutiers","typeCollectivite":"Commune","region":"Nouvelle-Aquitaine","departement":"Deux-Sèvres","departementCode":"79","adresse":{"street":"Saint-Pardoux-Soutiers","postalCode":"79310","city":"Saint-Pardoux-Soutiers","country":"France"},"contacts":{"email":"accueil@stpardouxsoutiers.fr","telephone":"0549634003"},"horaires":"Le Lundi : de 08h30 à 12h00\nDu Mardi au Mercredi : de 08h30 à 12h00 de 14h00 à 17h00\nLe Jeudi : de 08h30 à 12h00\nLe Vendredi : de 08h30 à 12h00 de 14h00 à 17h00\nLe Samedi : de 09h00 à 12h00","latitude":46.57127,"longitude":-0.305702,"website":"https://stpardouxsoutiers.fr/","hasWebsite":true,"hasHoraires":true,"url":"https://lannuaire.service-public.gouv.fr/nouvelle-aquitaine/deux-sevres/ce49cb99-33b9-466c-9c55-a4b5d190e7ea"}
{"nom":"Saint-Paul-en-Gâtine","nomNormalise":"saintpaulengatine","typeCollectivite":"Commune","region":"Nouvelle-Aquitaine","departement":"Deux-Sèvres","departementCode":"79","adresse":{"street":"Rue du Bourg","postalCode":"79240","city":"Saint-Paul-en-Gâtine","country":"France"},"contacts":{"email":"mairie@saintpaulengatine.fr","telephone":"0549958228"},"horaires":"Du Lundi au Mardi : de 09h00 à 12h00 de 14h00 à 18h00\nLe Mercredi : de 09h00 à 12h00\nDu Jeudi au Vendredi : de 09h00 à 12h00 de 14h00 à 18h00","latitude":46.632862,"longitude":-0.6160879,"website":"https://www.intramuros.org/saintpaulengatine","hasWebsite":true,"hasHoraires":true,"url":"https://lannuaire.service-public.gouv.fr/nouvelle-aquitaine/deux-sevres/2100eaa6-42ca-4c9a-8f97-1983f2693f98"}
{"nom":"Saint-Pierre-des-Échaubrognes","nomNormalise":"saintpierredesechaubrognes","typeCollectivite":"Commune","region":"Nouvelle-Aquitaine","departement":"Deux-Sèvres","departementCode":"79","adresse":{"street":"Place de la Mairie","postalCode":"79700","city":"Saint-Pierre-des-Échaubrognes","country":"France"},"contacts":{"email":"mairie@saintpierredesechaubrognes.fr","telephone":"0549815858"},"horaires":"Le Lundi : de 13h30 à 17h00\nDu Mardi au Jeudi : de 08h00 à 12h00\nLe Vendredi : de 08h00 à 12h00 de 13h30 à 17h00\nLe Samedi : de 08h00 à 12h00\n\nFermée samedi des semaines pairs","latitude":46.96889,"longitude":-0.8259299,"website":"http://www.saintpierredesechaubrognes.fr/","hasWebsite":true,"hasHoraires":true,"url":"https://lannuaire.service-public.gouv.fr/nouvelle-aquitaine/deux-sevres/b4779070-8941-4445-9708-4be2d46c87e0"}
{"nom":"Saint-Pompain","nomNormalise":"saintpompain","typeCollectivite":"Commune","region":"Nouvelle-Aquitaine","departement":"Deux-Sèvres","departementCode":"79","adresse":{"street":"1 rue de la Croix-Guérin","postalCode":"79160","city":"Saint-Pompain","country":"France"},"contacts":{"email":"secretariat@saint-pompain.fr","telephone":"0549060173"},"horaires":"Du Lundi au Mardi : de 08h30 à 12h30\nLe Mercredi : de 13h30 à 16h30\nDu Jeudi au Vendredi : de 08h30 à 12h30","latitude":46.441498,"longitude":-0.600026,"website":"https://www.saint-pompain.fr/","hasWebsite":true,"hasHoraires":true,"url":"https://lannuaire.service-public.gouv.fr/nouvelle-aquitaine/deux-sevres/b040b85c-3eaf-4f30-a385-6c7585c3a446"}
{"nom":"Saint-Rémy","nomNormalise":"saintremy","typeCollectivite":"Commune","region":"Nouvelle-Aquitaine","departement":"Deux-Sèvres","departementCode":"79","adresse":{"street":"4 rue de l'Église","postalCode":"79410","city":"Saint-Rémy","country":"France"},"contacts":{"email":"mairie@saintremy79.fr","telephone":"0549356678"},"horaires":"Du Lundi au Mercredi : de 14h00 à 18h00\nLe Jeudi : de 14h00 à 18h30\nLe Vendredi : de 14h00 à 17h00","latitude":46.3712,"longitude":-0.526565,"website":"https://www.saintremy79.fr/","hasWebsite":true,"hasHoraires":true,"url":"https://lannuaire.service-public.gouv.fr/nouvelle-aquitaine/deux-sevres/cf23b835-1e68-4e4e-8aae-8f0383c8d75b"}
{"nom":"Saint-Romans-des-Champs","nomNormalise":"saintromansdeschamps","typeCollectivite":"Commune","region":"Nouvelle-Aquitaine","departement":"Deux-Sèvres","departementCode":"79","adresse":{"street":"15 Grand'rue","postalCode":"79230","city":"Saint-Romans-des-Champs","country":"France"},"contacts":{"email":"mairie.stromansdeschamps@wanadoo.fr","telephone":"0549264809"},"horaires":"Le Mardi : de 13h30 à 18h00\nLe Vendredi : de 13h30 à 18h00","latitude":46.2039,"longitude":-0.345966,"website":"","hasWebsite":false,"hasHoraires":true,"url":"https://lannuaire.service-public.gouv.fr/nouvelle-aquitaine/deux-sevres/a77fc182-6f8e-4295-b709-22a6892ef36c"}
{"nom":"Saint-Romans-lès-Melle","nomNormalise":"saintromanslesmelle","typeCollectivite":"Commune","region":"Nouvelle-Aquitaine","departement":"Deux-Sèvres","departementCode":"79","adresse":{"street":"4 place du Temple","postalCode":"79500","city":"Saint-Romans-lès-Melle","country":"France"},"contacts":{"email":"mairiestromans@orange.fr","telephone":"0549270414"},"horaires":"Le Lundi : de 08h30 à 12h00 de 13h30 à 17h30\nLe Mardi : de 13h30 à 17h30\nLe Jeudi : de 08h30 à 12h00 de 13h30 à 17h30\nLe Vendredi : de 08h30 à 13h00","latitude":46.205734,"longitude":-0.19329071,"website":"https://www.saint-romans-les-melle.fr/","hasWebsite":true,"hasHoraires":true,"url":"https://lannuaire.service-public.gouv.fr/nouvelle-aquitaine/deux-sevres/49ce13f4-7020-4b26-a1d0-2dca0fab60c0"}
{"nom":"Saint-Symphorien","nomNormalise":"saintsymphorien","typeCollectivite":"Commune","region":"Nouvelle-Aquitaine","departement":"Deux-Sèvres","departementCode":"79","adresse":{"street":"5 place René-Cassin","postalCode":"79270","city":"Saint-Symphorien","country":"France"},"contacts":{"email":"mairie@saint-symphorien79.fr","telephone":"0549095353"},"horaires":"Le Lundi : de 09h00 à 12h30 de 14h30 à 18h00\nLe Mardi : de 14h30 à 18h00\nLe Mercredi : de 09h00 à 12h30 de 14h30 à 18h00\nLe Jeudi : de 09h00 à 12h30\nLe Vendredi : de 09h00 à 12h30 de 14h30 à 17h00\nLe Samedi : de 11h00 à 12h00\n\nPermanence des élus uniquement.","latitude":46.2644,"longitude":-0.492849,"website":"http://www.saint-symphorien79.fr/","hasWebsite":true,"hasHoraires":true,"url":"https://lannuaire.service-public.gouv.fr/nouvelle-aquitaine/deux-sevres/b3ff1c82-31ce-4ba6-a4db-991e4dbb528c"}
{"nom":"Saint-Varent","nomNormalise":"saintvarent","typeCollectivite":"Commune","region":"Nouvelle-Aquitaine","departement":"Deux-Sèvres","departementCode":"79","adresse":{"street":"3 place de l'Hôtel-de-Ville","postalCode":"79330","city":"Saint-Varent","country":"France"},"contacts":{"email":"villesaintvarent@wanadoo.fr","telephone":"0549676211"},"horaires":"Le Lundi : de 09h00 à 12h00 de 14h00 à 16h00\nLe Mardi : de 09h00 à 12h00\nLe Mercredi : de 09h00 à 12h00 de 14h00 à 16h00\nLe Jeudi : de 09h00 à 12h00\nLe Vendredi : de 09h00 à 12h00 de 14h00 à 16h00","latitude":46.89103,"longitude":-0.233808,"website":"http://www.saintvarent.fr/","hasWebsite":true,"hasHoraires":true,"url":"https://lannuaire.service-public.gouv.fr/nouvelle-aquitaine/deux-sevres/5dfc8d0d-cd64-4756-a92b-ab0e89d21a9b"}
{"nom":"Saint-Vincent-la-Châtre","nomNormalise":"saintvincentlachatre","typeCollectivite":"Commune","region":"Nouvelle-Aquitaine","departement":"Deux-Sèvres","departementCode":"79","adresse":{"street":"19 route de Melle","postalCode":"79500","city":"Saint-Vincent-la-Châtre","country":"France"},"contacts":{"email":"mairie-stvincent@paysmellois.org","telephone":"0549293213"},"horaires":"Du Lundi au Mardi : de 09h00 à 13h00\nDu Jeudi au Vendredi : de 09h00 à 13h00","latitude":46.2208,"longitude":-0.036822,"website":"","hasWebsite":false,"hasHoraires":true,"url":"https://lannuaire.service-public.gouv.fr/nouvelle-aquitaine/deux-sevres/9de161df-ff5d-4c39-ad3f-3475ca6e1ef5"}
{"nom":"Saivres","nomNormalise":"saivres","typeCollectivite":"Commune","region":"Nouvelle-Aquitaine","departement":"Deux-Sèvres","departementCode":"79","adresse":{"street":"Place du Bicentenaire","postalCode":"79400","city":"Saivres","country":"France"},"contacts":{"email":"contact@saivres.fr","telephone":"0549760748"},"horaires":"Du Lundi au Mardi : de 13h00 à 17h00\nLe Mercredi : de 09h00 à 12h00\nLe Jeudi : de 13h00 à 17h00\nLe Vendredi : de 13h00 à 16h30","latitude":46.432568,"longitude":-0.236791,"website":"http://www.saivres.fr/","hasWebsite":true,"hasHoraires":true,"url":"https://lannuaire.service-public.gouv.fr/nouvelle-aquitaine/deux-sevres/f69b973f-585c-470d-a0a0-8428235f3e08"}
{"nom":"Salles","nomNormalise":"salles","typeCollectivite":"Commune","region":"Nouvelle-Aquitaine","departement":"Deux-Sèvres","departementCode":"79","adresse":{"street":"15 rue Montausier","postalCode":"79800","city":"Salles","country":"France"},"contacts":{"email":"mairie.salles057@orange.fr","telephone":"0549050446"},"horaires":"Le Lundi : de 09h00 à 12h00\nLe Jeudi : de 09h00 à 12h00\nLe Vendredi : de 14h00 à 17h00","latitude":46.3862,"longitude":-0.099,"website":"","hasWebsite":false,"hasHoraires":true,"url":"https://lannuaire.service-public.gouv.fr/nouvelle-aquitaine/deux-sevres/567fe7ec-bf20-4a5f-96cc-3cf4fd76d12d"}
{"nom":"Sansais","nomNormalise":"sansais","typeCollectivite":"Commune","region":"Nouvelle-Aquitaine","departement":"Deux-Sèvres","departementCode":"79","adresse":{"street":"8 Grand'rue","postalCode":"79270","city":"Sansais","country":"France"},"contacts":{"email":"contact@mairiedesansais.fr","telephone":"0549045173"},"horaires":"Du Lundi au Mardi : de 10h00 à 12h00 de 15h00 à 18h00\nLe Jeudi : de 10h00 à 12h00 de 15h00 à 18h00\nLe Vendredi : de 10h00 à 12h00","latitude":46.275177,"longitude":-0.587114,"website":"https://www.sansais-lagarette.com/","hasWebsite":true,"hasHoraires":true,"url":"https://lannuaire.service-public.gouv.fr/nouvelle-aquitaine/deux-sevres/db8bf300-9ad0-4674-81cc-66b628ffde57"}
{"nom":"Saurais","nomNormalise":"saurais","typeCollectivite":"Commune","region":"Nouvelle-Aquitaine","departement":"Deux-Sèvres","departementCode":"79","adresse":{"street":"3 rue des Marronniers","postalCode":"79200","city":"Saurais","country":"France"},"contacts":{"email":"commune.de.saurais@orange.fr","telephone":"0549641683"},"horaires":"Le Lundi : de 09h00 à 12h00\nLe Jeudi : de 14h30 à 17h30","latitude":46.62116,"longitude":-0.144048,"website":"https://www.cc-parthenay-gatine.fr/saurais","hasWebsite":true,"hasHoraires":true,"url":"https://lannuaire.service-public.gouv.fr/nouvelle-aquitaine/deux-sevres/c0240c20-d00d-435b-ad3a-87b8f004b3b6"}
{"nom":"Sauzé-entre-Bois","nomNormalise":"sauzeentrebois","typeCollectivite":"Commune","region":"Nouvelle-Aquitaine","departement":"Deux-Sèvres","departementCode":"79","adresse":{"street":"3 place de la Mairie","postalCode":"79190","city":"Sauzé-entre-Bois","country":"France"},"contacts":{"email":"contact@sauze-entre-bois.fr","telephone":"0549076053"},"horaires":"Du Lundi au Mardi : de 09h00 à 12h00 de 14h00 à 17h00\nLe Mercredi : de 09h00 à 12h00\nDu Jeudi au Vendredi : de 09h00 à 12h00 de 14h00 à 17h00\nLe Samedi : de 09h00 à 12h00","latitude":46.1349,"longitude":0.105515,"website":"https://www.mairie-sauze-vaussais.fr/","hasWebsite":true,"hasHoraires":true,"url":"https://lannuaire.service-public.gouv.fr/nouvelle-aquitaine/deux-sevres/5cc7fc93-cf6f-4cc1-acf4-b36be28857dd"}
{"nom":"Sciecq","nomNormalise":"sciecq","typeCollectivite":"Commune","region":"Nouvelle-Aquitaine","departement":"Deux-Sèvres","departementCode":"79","adresse":{"street":"11 rue de Salboeuf","postalCode":"79000","city":"Sciecq","country":"France"},"contacts":{"email":"mairie-de-sciecq@orange.fr","telephone":"0549356837"},"horaires":"Du Lundi au Jeudi : de 13h30 à 17h00\nLe Vendredi : de 09h00 à 12h30","latitude":46.372173,"longitude":-0.469994,"website":"https://www.sciecq.fr/","hasWebsite":true,"hasHoraires":true,"url":"https://lannuaire.service-public.gouv.fr/nouvelle-aquitaine/deux-sevres/972cf35c-79f7-4142-a4a9-841c85258811"}
{"nom":"Scillé","nomNormalise":"scille","typeCollectivite":"Commune","region":"Nouvelle-Aquitaine","departement":"Deux-Sèvres","departementCode":"79","adresse":{"street":"5 rue de la Mairie","postalCode":"79240","city":"Scillé","country":"France"},"contacts":{"email":"communedescille@wanadoo.fr","telephone":"0549958241"},"horaires":"Le Lundi : de 09h00 à 13h00\nLe Mercredi : de 14h00 à 18h00\nLe Jeudi : de 09h00 à 13h00","latitude":46.598366,"longitude":-0.559902,"website":"","hasWebsite":false,"hasHoraires":true,"url":"https://lannuaire.service-public.gouv.fr/nouvelle-aquitaine/deux-sevres/a9fb4498-f0a8-4c2b-89c7-b0fc19d2783f"}
{"nom":"Secondigné-sur-Belle","nomNormalise":"secondignesurbelle","typeCollectivite":"Commune","region":"Nouvelle-Aquitaine","departement":"Deux-Sèvres","departementCode":"79","adresse":{"street":"1 rue de la Croix-Rouge","postalCode":"79170","city":"Secondigné-sur-Belle","country":"France"},"contacts":{"email":"mairie.secondigne@wanadoo.fr","telephone":"0549071125"},"horaires":"Le Lundi : de 08h30 à 12h00 de 14h00 à 17h00\nLe Mardi : de 08h30 à 12h00\nLe Jeudi : de 08h30 à 12h00\nLe Vendredi : de 08h30 à 12h00 de 14h00 à 17h00","latitude":46.163235,"longitude":-0.299281,"website":"https://www.secondignesurbelle.com/","hasWebsite":true,"hasHoraires":true,"url":"https://lannuaire.service-public.gouv.fr/nouvelle-aquitaine/deux-sevres/f24cf8ca-52d4-4c14-89eb-9c907812d3dd"}
{"nom":"Secondigny","nomNormalise":"secondigny","typeCollectivite":"Commune","region":"Nouvelle-Aquitaine","departement":"Deux-Sèvres","departementCode":"79","adresse":{"street":"1 place de l'Hôtel-de-Ville","postalCode":"79130","city":"Secondigny","country":"France"},"contacts":{"email":"mairie@secondigny.fr","telephone":"0549637015"},"horaires":"Du Lundi au Samedi : de 09h00 à 12h30","latitude":46.61055,"longitude":-0.419319,"website":"https://secondigny.fr/","hasWebsite":true,"hasHoraires":true,"url":"https://lannuaire.service-public.gouv.fr/nouvelle-aquitaine/deux-sevres/09aaf38a-21eb-49d5-9c47-343336207999"}
{"nom":"Séligné","nomNormalise":"seligne","typeCollectivite":"Commune","region":"Nouvelle-Aquitaine","departement":"Deux-Sèvres","departementCode":"79","adresse":{"street":"4 route de la Mairie","postalCode":"79170","city":"Séligné","country":"France"},"contacts":{"email":"mairie-seligne@paysmellois.org","telephone":"0549075153"},"horaires":"Le Lundi : de 08h30 à 12h30\nLe Jeudi : de 14h00 à 18h00","latitude":46.1157,"longitude":-0.2165042,"website":"","hasWebsite":false,"hasHoraires":true,"url":"https://lannuaire.service-public.gouv.fr/nouvelle-aquitaine/deux-sevres/9e92ff0e-8781-47a1-9945-2843c82f99d7"}
{"nom":"Sepvret","nomNormalise":"sepvret","typeCollectivite":"Commune","region":"Nouvelle-Aquitaine","departement":"Deux-Sèvres","departementCode":"79","adresse":{"street":"24 route du Champ-de-Foire","postalCode":"79120","city":"Sepvret","country":"France"},"contacts":{"email":"mairie-sepvret@paysmellois.org","telephone":"0549073012"},"horaires":"Le Lundi : de 09h00 à 12h00\nLe Mercredi : de 09h00 à 12h00\nLe Vendredi : de 09h00 à 12h00","latitude":46.28643,"longitude":-0.0898856,"website":"https://mairie-sepvret.fr/","hasWebsite":true,"hasHoraires":true,"url":"https://lannuaire.service-public.gouv.fr/nouvelle-aquitaine/deux-sevres/ee4b2db1-96b9-4c17-931f-18fdd7fb44d9"}
{"nom":"Mairie déléguée - Sompt","nomNormalise":"mairiedelegueesompt","typeCollectivite":"Commune","region":"Nouvelle-Aquitaine","departement":"Deux-Sèvres","departementCode":"79","adresse":{"street":"Sompt","postalCode":"79500","city":"Fontivillié","country":"France"},"contacts":{"email":"mairie-sompt@paysmellois.org","telephone":"0549293403"},"horaires":"Le Lundi : de 13h30 à 17h30\nLe Jeudi : de 09h00 à 16h00","latitude":46.15861,"longitude":-0.104459,"website":"","hasWebsite":false,"hasHoraires":true,"url":"https://lannuaire.service-public.gouv.fr/nouvelle-aquitaine/deux-sevres/c0590952-e858-4bb2-8606-56c280b303a9"}
{"nom":"Soudan","nomNormalise":"soudan","typeCollectivite":"Commune","region":"Nouvelle-Aquitaine","departement":"Deux-Sèvres","departementCode":"79","adresse":{"street":"12 route de l'Atlantique","postalCode":"79800","city":"Soudan","country":"France"},"contacts":{"email":"soudan2@orange.fr","telephone":"0549065538"},"horaires":"Le Lundi : de 14h00 à 17h00\nLe Mardi : de 08h30 à 11h30\nLe Mercredi : de 14h00 à 17h00\nLe Vendredi : de 08h30 à 11h30","latitude":46.422363,"longitude":-0.110676,"website":"http://www.soudan79.fr/","hasWebsite":true,"hasHoraires":true,"url":"https://lannuaire.service-public.gouv.fr/nouvelle-aquitaine/deux-sevres/2b791c56-6302-4b72-a761-431aa802839c"}
{"nom":"Mairie déléguée - Soutiers","nomNormalise":"mairiedelegueesoutiers","typeCollectivite":"Commune","region":"Nouvelle-Aquitaine","departement":"Deux-Sèvres","departementCode":"79","adresse":{"street":"2 impasse des Écoliers","postalCode":"79310","city":"Saint-Pardoux-Soutiers","country":"France"},"contacts":{"email":"accueil@stpardouxsoutiers.fr","telephone":"0549634003"},"horaires":"Du Lundi au Mardi : de 08h30 à 12h00\nLe Mercredi : de 08h30 à 12h00 de 14h00 à 17h00\nLe Jeudi : de 08h30 à 12h00\nLe Vendredi : de 08h30 à 12h00 de 14h00 à 17h00\nLe Samedi : de 09h00 à 12h00","latitude":46.57001,"longitude":-0.280802,"website":"https://stpardouxsoutiers.fr/","hasWebsite":true,"hasHoraires":true,"url":"https://lannuaire.service-public.gouv.fr/nouvelle-aquitaine/deux-sevres/67d9f867-0056-46ba-bee6-f34558b2662e"}
{"nom":"Souvigné","nomNormalise":"souvigne","typeCollectivite":"Commune","region":"Nouvelle-Aquitaine","departement":"Deux-Sèvres","departementCode":"79","adresse":{"street":"1 place de la Mairie","postalCode":"79800","city":"Souvigné","country":"France"},"contacts":{"email":"contact@souvigne79.fr","telephone":"0549055432"},"horaires":"Du Mardi au Mercredi : de 09h00 à 11h00 de 13h00 à 17h00\nDu Jeudi au Vendredi : de 13h00 à 17h00\nLe Samedi : de 09h00 à 12h00","latitude":46.373333,"longitude":-0.187651,"website":"http://www.souvigne.fr/","hasWebsite":true,"hasHoraires":true,"url":"https://lannuaire.service-public.gouv.fr/nouvelle-aquitaine/deux-sevres/16db2146-aed9-4962-ac39-f67211be6b34"}
{"nom":"Surin","nomNormalise":"surin","typeCollectivite":"Commune","region":"Nouvelle-Aquitaine","departement":"Deux-Sèvres","departementCode":"79","adresse":{"street":"94 rue Patrice-Coirault","postalCode":"79220","city":"Surin","country":"France"},"contacts":{"email":"mairie@surin79.fr","telephone":"0549040387"},"horaires":"Le Lundi : de 08h30 à 12h00\nDu Mercredi au Jeudi : de 08h30 à 12h00\nLe Vendredi : de 13h30 à 17h00","latitude":46.460335,"longitude":-0.4633598,"website":"https://surin79.fr/","hasWebsite":true,"hasHoraires":true,"url":"https://lannuaire.service-public.gouv.fr/nouvelle-aquitaine/deux-sevres/0538ac32-a9e3-4e53-9665-f2be2bd1e22a"}
{"nom":"Mairie déléguée - Taize-Maulais","nomNormalise":"mairiedelegueetaizemaulais","typeCollectivite":"Commune","region":"Nouvelle-Aquitaine","departement":"Deux-Sèvres","departementCode":"79","adresse":{"street":"Taize-Maulais","postalCode":"79100","city":"Plaine-et-Vallées","country":"France"},"contacts":{"email":"accueil.mairie@plaineetvallees.fr","telephone":"0549965602"},"horaires":"Le Mardi : de 09h00 à 12h00 de 13h30 à 17h00\nLe Vendredi : de 13h30 à 17h00","latitude":46.9246,"longitude":-0.116874,"website":"https://www.intramuros.org/plaineetvallees","hasWebsite":true,"hasHoraires":true,"url":"https://lannuaire.service-public.gouv.fr/nouvelle-aquitaine/deux-sevres/ea45d273-fefe-4eaf-9a7b-06ed3868fd96"}
{"nom":"Mairie déléguée - Tessonnière","nomNormalise":"mairiedelegueetessonniere","typeCollectivite":"Commune","region":"Nouvelle-Aquitaine","departement":"Deux-Sèvres","departementCode":"79","adresse":{"street":"Tessonnière","postalCode":"79600","city":"Airvault","country":"France"},"contacts":{"email":"mairie-tessonniere@airvault.fr","telephone":"0549697606"},"horaires":"Le Mardi : de 10h30 à 12h00\n\nAccueil ouvert le mardi uniquement du 14 juillet au 15 août.\nLe Vendredi : de 10h30 à 12h00\nAccueil ouvert le mardi uniquement du 14 juillet au 15 août.","latitude":46.8319,"longitude":-0.181872,"website":"http://www.airvault.fr/","hasWebsite":true,"hasHoraires":true,"url":"https://lannuaire.service-public.gouv.fr/nouvelle-aquitaine/deux-sevres/d00dd974-8ddd-44dc-ba6a-4f7cf12a837e"}
{"nom":"Thénezay","nomNormalise":"thenezay","typeCollectivite":"Commune","region":"Nouvelle-Aquitaine","departement":"Deux-Sèvres","departementCode":"79","adresse":{"street":"28 place de l'Hôtel-de-Ville","postalCode":"79390","city":"Thénezay","country":"France"},"contacts":{"email":"mairie-thenezay@cc-parthenay-gatine.fr","telephone":"0549630020"},"horaires":"Le Lundi : de 08h30 à 13h00 de 14h00 à 17h30\nLe Mardi : de 08h30 à 13h00\nLe Mercredi : de 08h30 à 12h00\nLe Jeudi : de 08h30 à 13h00\nLe Vendredi : de 08h30 à 13h00 de 14h00 à 16h30","latitude":46.7194,"longitude":-0.026144,"website":"http://www.thenezay.fr/","hasWebsite":true,"hasHoraires":true,"url":"https://lannuaire.service-public.gouv.fr/nouvelle-aquitaine/deux-sevres/d8810c86-6036-4c4d-9764-3755c2760e6d"}
{"nom":"Mairie déléguée - Thorigné","nomNormalise":"mairiedelegueethorigne","typeCollectivite":"Commune","region":"Nouvelle-Aquitaine","departement":"Deux-Sèvres","departementCode":"79","adresse":{"street":"Thorigné","postalCode":"79370","city":"Aigondigné","country":"France"},"contacts":{"email":"thorigne@aigondigne.fr","telephone":"0549059177"},"horaires":"Le Mardi : de 14h00 à 18h00\nLe Mercredi : de 09h00 à 12h30","latitude":46.29207,"longitude":-0.247069,"website":"https://www.aigondigne.fr/","hasWebsite":true,"hasHoraires":true,"url":"https://lannuaire.service-public.gouv.fr/nouvelle-aquitaine/deux-sevres/df7bf79e-58dc-46ad-80f7-edb5d2c85c20"}
{"nom":"Thouars","nomNormalise":"thouars","typeCollectivite":"Commune","region":"Nouvelle-Aquitaine","departement":"Deux-Sèvres","departementCode":"79","adresse":{"street":"14 place Saint-Laon","postalCode":"79103","city":"Thouars","country":"France"},"contacts":{"email":"info@thouars.fr","telephone":"0549681111"},"horaires":"Du Lundi au Vendredi : de 08h30 à 12h00 de 13h30 à 17h00","latitude":46.981567,"longitude":-0.215275,"website":"http://www.thouars.fr/","hasWebsite":true,"hasHoraires":true,"url":"https://lannuaire.service-public.gouv.fr/nouvelle-aquitaine/deux-sevres/b45a6e6b-5171-4842-827a-353048752ec3"}
{"nom":"Mairie déléguée - Tillou","nomNormalise":"mairiedelegueetillou","typeCollectivite":"Commune","region":"Nouvelle-Aquitaine","departement":"Deux-Sèvres","departementCode":"79","adresse":{"street":"Tillou","postalCode":"79110","city":"Chef-Boutonne","country":"France"},"contacts":{"email":"mairie.tillou@chef-boutonne.fr","telephone":"0549293323"},"horaires":"Le Lundi : de 13h30 à 17h00\nLe Jeudi : de 13h30 à 17h00","latitude":46.1084,"longitude":-0.080285,"website":"https://www.chef-boutonne.fr/","hasWebsite":true,"hasHoraires":true,"url":"https://lannuaire.service-public.gouv.fr/nouvelle-aquitaine/deux-sevres/4e0215fe-eddd-4842-9086-3fc97f3d8571"}
{"nom":"Tourtenay","nomNormalise":"tourtenay","typeCollectivite":"Commune","region":"Nouvelle-Aquitaine","departement":"Deux-Sèvres","departementCode":"79","adresse":{"street":"1 rue de la Judrie","postalCode":"79100","city":"Tourtenay","country":"France"},"contacts":{"email":"mairie-tourtenay@orange.fr","telephone":"0549677221"},"horaires":"Le Lundi : de 09h00 à 12h30\nLe Mercredi : de 09h00 à 12h30\nLe Vendredi : de 15h00 à 18h00","latitude":47.03867,"longitude":-0.117696,"website":"","hasWebsite":false,"hasHoraires":true,"url":"https://lannuaire.service-public.gouv.fr/nouvelle-aquitaine/deux-sevres/bb453cd8-a100-40cd-ada7-033c48f096cf"}
{"nom":"Trayes","nomNormalise":"trayes","typeCollectivite":"Commune","region":"Nouvelle-Aquitaine","departement":"Deux-Sèvres","departementCode":"79","adresse":{"street":"1 route de Saint-Fort","postalCode":"79240","city":"Trayes","country":"France"},"contacts":{"email":"mairietrayes@orange.fr","telephone":"0549630677"},"horaires":"Le Lundi : de 09h15 à 12h15\nLe Mardi : de 10h00 à 12h45 de 13h30 à 17h00\nLe Vendredi : de 09h15 à 12h15","latitude":46.686325,"longitude":-0.476992,"website":"","hasWebsite":false,"hasHoraires":true,"url":"https://lannuaire.service-public.gouv.fr/nouvelle-aquitaine/deux-sevres/b6f8238d-9536-4536-b0dc-ea34cbaa082d"}
{"nom":"Valdelaume","nomNormalise":"valdelaume","typeCollectivite":"Commune","region":"Nouvelle-Aquitaine","departement":"Deux-Sèvres","departementCode":"79","adresse":{"street":"Hanc","postalCode":"79110","city":"Valdelaume","country":"France"},"contacts":{"email":"mairie-valdelaume@paysmellois.org","telephone":"0549298363"},"horaires":"Le Lundi : de 08h30 à 12h00\nDu Mardi au Jeudi : de 13h30 à 17h30\nLe Vendredi : de 08h30 à 12h00","latitude":46.075462,"longitude":-0.016291,"website":"https://valdelaume.fr/","hasWebsite":true,"hasHoraires":true,"url":"https://lannuaire.service-public.gouv.fr/nouvelle-aquitaine/deux-sevres/6458b071-d960-42df-a2da-99400daa4751"}
{"nom":"Val-du-Mignon","nomNormalise":"valdumignon","typeCollectivite":"Commune","region":"Nouvelle-Aquitaine","departement":"Deux-Sèvres","departementCode":"79","adresse":{"street":"Place Pierre-Rousseau","postalCode":"79210","city":"Val-du-Mignon","country":"France"},"contacts":{"email":"secretariat@mairie-valdumignon.fr","telephone":"0549048516"},"horaires":"Le Lundi : de 10h00 à 12h00\nDu Mardi au Mercredi : de 15h00 à 18h00\nLe Vendredi : de 09h00 à 12h00","latitude":46.173286,"longitude":-0.57924,"website":"https://www.mairie-valdumignon.fr/vie-municipale-valdumignon-deuxsevres-79","hasWebsite":true,"hasHoraires":true,"url":"https://lannuaire.service-public.gouv.fr/nouvelle-aquitaine/deux-sevres/156a65cf-0a44-4c72-a364-2a0111572269"}
{"nom":"Val en Vignes","nomNormalise":"valenvignes","typeCollectivite":"Commune","region":"Nouvelle-Aquitaine","departement":"Deux-Sèvres","departementCode":"79","adresse":{"street":"Cersay","postalCode":"79290","city":"Val en Vignes","country":"France"},"contacts":{"email":"mairie@valenvignes.fr","telephone":"0549968010"},"horaires":"Du Lundi au Vendredi : de 09h00 à 12h30\nLe Samedi : de 09h00 à 12h00","latitude":47.0449,"longitude":-0.356858,"website":"http://www.valenvignes.com/","hasWebsite":true,"hasHoraires":true,"url":"https://lannuaire.service-public.gouv.fr/nouvelle-aquitaine/deux-sevres/fda7d19a-3ce8-4cfc-9683-6924eb1e264f"}
{"nom":"Vallans","nomNormalise":"vallans","typeCollectivite":"Commune","region":"Nouvelle-Aquitaine","departement":"Deux-Sèvres","departementCode":"79","adresse":{"street":"89 rue Saint-Louis","postalCode":"79270","city":"Vallans","country":"France"},"contacts":{"email":"commune.vallans@orange.fr","telephone":"0549048084"},"horaires":"Le Lundi : de 14h00 à 17h30\nLe Mardi : de 14h00 à 18h30\nLe Mercredi : de 09h00 à 12h00\nDu Jeudi au Vendredi : de 14h00 à 18h30","latitude":46.2149,"longitude":-0.552311,"website":"https://www.vallans.fr/","hasWebsite":true,"hasHoraires":true,"url":"https://lannuaire.service-public.gouv.fr/nouvelle-aquitaine/deux-sevres/252757e6-644c-4c7e-bddc-414799ec672f"}
{"nom":"Vançais","nomNormalise":"vancais","typeCollectivite":"Commune","region":"Nouvelle-Aquitaine","departement":"Deux-Sèvres","departementCode":"79","adresse":{"street":"24 rue des Saulniers","postalCode":"79120","city":"Vançais","country":"France"},"contacts":{"email":"vancais-mairie@orange.fr","telephone":"0549294373"},"horaires":"Le Mardi : de 13h30 à 16h30\nLe Jeudi : de 09h00 à 12h00","latitude":46.299587,"longitude":0.054064,"website":"","hasWebsite":false,"hasHoraires":true,"url":"https://lannuaire.service-public.gouv.fr/nouvelle-aquitaine/deux-sevres/691729a4-e37f-45cb-a8c5-466d99f554cd"}
{"nom":"Vanzay","nomNormalise":"vanzay","typeCollectivite":"Commune","region":"Nouvelle-Aquitaine","departement":"Deux-Sèvres","departementCode":"79","adresse":{"street":"1 rue de l'Église","postalCode":"79120","city":"Vanzay","country":"France"},"contacts":{"email":"mairie-vanzay@paysmellois.org","telephone":"0549294032"},"horaires":"Le Mardi : de 13h30 à 17h00\nLe Jeudi : de 13h30 à 17h00\nLe Samedi : de 09h00 à 12h00\n\nAccueil ouvert uniquement le 3e samedi du mois.","latitude":46.231743,"longitude":0.106151,"website":"","hasWebsite":false,"hasHoraires":true,"url":"https://lannuaire.service-public.gouv.fr/nouvelle-aquitaine/deux-sevres/d90e1d1e-7deb-47de-9853-31b7f3727301"}
{"nom":"Vasles","nomNormalise":"vasles","typeCollectivite":"Commune","region":"Nouvelle-Aquitaine","departement":"Deux-Sèvres","departementCode":"79","adresse":{"street":"1 place du 25-Août","postalCode":"79340","city":"Vasles","country":"France"},"contacts":{"email":"mairie-vasles@cc-parthenay-gatine.fr","telephone":"0549699134"},"horaires":"Le Lundi : de 08h30 à 12h30\nLe Mardi : de 08h30 à 12h30 de 14h00 à 18h00\nLe Mercredi : de 08h30 à 12h30\nLe Jeudi : de 08h30 à 12h30\nLe Vendredi : de 08h30 à 12h30 de 14h00 à 17h00","latitude":46.5757,"longitude":-0.025244,"website":"https://www.vasles.fr/","hasWebsite":true,"hasHoraires":true,"url":"https://lannuaire.service-public.gouv.fr/nouvelle-aquitaine/deux-sevres/bed67b0b-e2b7-4f5c-930f-b86bc07584b9"}
{"nom":"Vausseroux","nomNormalise":"vausseroux","typeCollectivite":"Commune","region":"Nouvelle-Aquitaine","departement":"Deux-Sèvres","departementCode":"79","adresse":{"street":"1 place de la Mairie","postalCode":"79420","city":"Vausseroux","country":"France"},"contacts":{"email":"mairie-vausseroux@wanadoo.fr","telephone":"0549702119"},"horaires":"Du Lundi au Mardi : de 14h00 à 17h00\nDu Jeudi au Vendredi : de 14h00 à 17h00","latitude":46.5941,"longitude":-0.129425,"website":"http://www.vausseroux.fr/","hasWebsite":true,"hasHoraires":true,"url":"https://lannuaire.service-public.gouv.fr/nouvelle-aquitaine/deux-sevres/bd96d0f0-e323-4e6c-ae4d-af564b08ba83"}
{"nom":"Vautebis","nomNormalise":"vautebis","typeCollectivite":"Commune","region":"Nouvelle-Aquitaine","departement":"Deux-Sèvres","departementCode":"79","adresse":{"street":"1 chemin de la Fontaine","postalCode":"79420","city":"Vautebis","country":"France"},"contacts":{"email":"mairie-vautebis@cc-parthenay-gatine.fr","telephone":"0549702081"},"horaires":"Le Lundi : de 08h30 à 12h00 de 13h30 à 17h00\nLe Mardi : de 08h30 à 12h00\nLe Jeudi : de 08h30 à 12h00 de 13h30 à 17h00\nLe Vendredi : de 08h30 à 12h00","latitude":46.532993,"longitude":-0.154191,"website":"","hasWebsite":false,"hasHoraires":true,"url":"https://lannuaire.service-public.gouv.fr/nouvelle-aquitaine/deux-sevres/f97a1e00-99ff-4495-847f-98a39345949e"}
{"nom":"Vernoux-en-Gâtine","nomNormalise":"vernouxengatine","typeCollectivite":"Commune","region":"Nouvelle-Aquitaine","departement":"Deux-Sèvres","departementCode":"79","adresse":{"street":"1 rue de l'Océan","postalCode":"79240","city":"Vernoux-en-Gâtine","country":"France"},"contacts":{"email":"mairie-vernoux@cc-parthenay-gatine.fr","telephone":"0549958303"},"horaires":"Le Mardi : de 09h00 à 12h00\nLe Mercredi : de 09h00 à 12h00\nLe Vendredi : de 09h00 à 12h00","latitude":46.63446,"longitude":-0.51129,"website":"","hasWebsite":false,"hasHoraires":true,"url":"https://lannuaire.service-public.gouv.fr/nouvelle-aquitaine/deux-sevres/1cd84ac6-a595-4b40-aecb-47b84537edae"}
{"nom":"Vernoux-sur-Boutonne","nomNormalise":"vernouxsurboutonne","typeCollectivite":"Commune","region":"Nouvelle-Aquitaine","departement":"Deux-Sèvres","departementCode":"79","adresse":{"street":"Route de Coulonges","postalCode":"79170","city":"Vernoux-sur-Boutonne","country":"France"},"contacts":{"email":"mairie-vernouxsurboutonne@paysmellois.org","telephone":"0549075521"},"horaires":"Le Mardi : de 08h30 à 12h00\nLe Vendredi : de 14h00 à 17h30","latitude":46.14869,"longitude":-0.219639,"website":"","hasWebsite":false,"hasHoraires":true,"url":"https://lannuaire.service-public.gouv.fr/nouvelle-aquitaine/deux-sevres/0151401a-c7fd-4c9b-b3db-d002f4e74d48"}
{"nom":"Verruyes","nomNormalise":"verruyes","typeCollectivite":"Commune","region":"Nouvelle-Aquitaine","departement":"Deux-Sèvres","departementCode":"79","adresse":{"street":"2 rue Nouvelle","postalCode":"79310","city":"Verruyes","country":"France"},"contacts":{"email":"secretariat@verruyes.fr","telephone":"0549632122"},"horaires":"Le Lundi : de 09h00 à 12h15 de 13h30 à 17h30\nDu Mardi au Vendredi : de 09h00 à 12h15","latitude":46.5165,"longitude":-0.289366,"website":"http://verruyes.fr/","hasWebsite":true,"hasHoraires":true,"url":"https://lannuaire.service-public.gouv.fr/nouvelle-aquitaine/deux-sevres/b18eb42e-6d1a-4f8f-824f-009ca28e3bcc"}
{"nom":"Viennay","nomNormalise":"viennay","typeCollectivite":"Commune","region":"Nouvelle-Aquitaine","departement":"Deux-Sèvres","departementCode":"79","adresse":{"street":"Rue du Bourg","postalCode":"79200","city":"Viennay","country":"France"},"contacts":{"email":"mairie@viennay.fr","telephone":"0549950262"},"horaires":"Du Lundi au Mardi : de 09h00 à 12h30\nLe Mercredi : de 14h00 à 18h00\nDu Jeudi au Vendredi : de 09h00 à 12h30","latitude":46.6896,"longitude":-0.243269,"website":"https://viennay.fr/","hasWebsite":true,"hasHoraires":true,"url":"https://lannuaire.service-public.gouv.fr/nouvelle-aquitaine/deux-sevres/9c91de84-5ddf-44d1-a681-7b446f62aa02"}
{"nom":"Villefollet","nomNormalise":"villefollet","typeCollectivite":"Commune","region":"Nouvelle-Aquitaine","departement":"Deux-Sèvres","departementCode":"79","adresse":{"street":"24 Grand'rue","postalCode":"79170","city":"Villefollet","country":"France"},"contacts":{"email":"mairie-villefollet@paysmellois.org","telephone":"0549077816"},"horaires":"Le Lundi : de 08h30 à 12h30\nLe Jeudi : de 08h30 à 12h30 de 14h00 à 17h00","latitude":46.08646,"longitude":-0.24284,"website":"","hasWebsite":false,"hasHoraires":true,"url":"https://lannuaire.service-public.gouv.fr/nouvelle-aquitaine/deux-sevres/b4371722-04e6-409a-accb-6fb00476348b"}
{"nom":"Villemain","nomNormalise":"villemain","typeCollectivite":"Commune","region":"Nouvelle-Aquitaine","departement":"Deux-Sèvres","departementCode":"79","adresse":{"street":"18 rue de la Mairie","postalCode":"79110","city":"Villemain","country":"France"},"contacts":{"email":"","telephone":"0549078801"},"horaires":"Le Mercredi : de 09h00 à 12h30 de 13h30 à 17h30","latitude":46.02393,"longitude":-0.087389,"website":"https://www.villemain79.fr/","hasWebsite":true,"hasHoraires":true,"url":"https://lannuaire.service-public.gouv.fr/nouvelle-aquitaine/deux-sevres/2ab7d55e-ed92-47f7-adc7-889cd3abffde"}
{"nom":"Villiers-en-Bois","nomNormalise":"villiersenbois","typeCollectivite":"Commune","region":"Nouvelle-Aquitaine","departement":"Deux-Sèvres","departementCode":"79","adresse":{"street":"73 route de Prissé-la-Charrière","postalCode":"79360","city":"Villiers-en-Bois","country":"France"},"contacts":{"email":"mairie.villiersenbois@orange.fr","telephone":"0549767985"},"horaires":"Le Lundi : de 13h30 à 18h00\nLe Jeudi : de 13h30 à 18h00","latitude":46.148468,"longitude":-0.404473,"website":"","hasWebsite":false,"hasHoraires":true,"url":"https://lannuaire.service-public.gouv.fr/nouvelle-aquitaine/deux-sevres/0bc25791-bca4-4df8-bc26-84a9cadfe4ef"}
{"nom":"Villiers-en-Plaine","nomNormalise":"villiersenplaine","typeCollectivite":"Commune","region":"Nouvelle-Aquitaine","departement":"Deux-Sèvres","departementCode":"79","adresse":{"street":"14 route de Benet","postalCode":"79160","city":"Villiers-en-Plaine","country":"France"},"contacts":{"email":"mairie@villiersenplaine.fr","telephone":"0549356051"},"horaires":"Du Lundi au Vendredi : de 14h00 à 18h00","latitude":46.406425,"longitude":-0.537493,"website":"https://www.villiersenplaine.fr/","hasWebsite":true,"hasHoraires":true,"url":"https://lannuaire.service-public.gouv.fr/nouvelle-aquitaine/deux-sevres/40191820-a8fb-48e1-b34b-1b0c5584c7b5"}
{"nom":"Villiers-sur-Chizé","nomNormalise":"villierssurchize","typeCollectivite":"Commune","region":"Nouvelle-Aquitaine","departement":"Deux-Sèvres","departementCode":"79","adresse":{"street":"Place de la Fontaine","postalCode":"79170","city":"Villiers-sur-Chizé","country":"France"},"contacts":{"email":"mairie@villierssurchize.fr","telephone":"0549767439"},"horaires":"Le Mardi : de 14h00 à 17h00\nLe Vendredi : de 14h00 à 17h00","latitude":46.0991,"longitude":-0.301651,"website":"","hasWebsite":false,"hasHoraires":true,"url":"https://lannuaire.service-public.gouv.fr/nouvelle-aquitaine/deux-sevres/4d255497-1335-43b4-9ff5-c57cb0042867"}
{"nom":"Vouhé","nomNormalise":"vouhe","typeCollectivite":"Commune","region":"Nouvelle-Aquitaine","departement":"Deux-Sèvres","departementCode":"79","adresse":{"street":"Place du Général-de-Gaulle","postalCode":"79310","city":"Vouhé","country":"France"},"contacts":{"email":"vouhe@ccsudgatine.fr","telephone":"0549706133"},"horaires":"Du Lundi au Vendredi : de 09h00 à 12h00","latitude":46.55784,"longitude":-0.25113,"website":"","hasWebsite":false,"hasHoraires":true,"url":"https://lannuaire.service-public.gouv.fr/nouvelle-aquitaine/deux-sevres/1996587e-8af1-46dd-8f49-b58a949f64e6"}
{"nom":"Vouillé","nomNormalise":"vouille","typeCollectivite":"Commune","region":"Nouvelle-Aquitaine","departement":"Deux-Sèvres","departementCode":"79","adresse":{"street":"19 rue de Boussantin","postalCode":"79230","city":"Vouillé","country":"France"},"contacts":{"email":"mairie@vouille79.fr","telephone":"0549756008"},"horaires":"Le Lundi : de 13h30 à 17h30\nDu Mardi au Mercredi : de 09h30 à 12h00 de 13h30 à 17h30\nLe Jeudi : de 13h30 à 17h30\nLe Vendredi : de 09h30 à 12h00 de 13h30 à 17h30\nLe Samedi : de 09h30 à 12h00","latitude":46.3151,"longitude":-0.367549,"website":"https://www.vouille.fr/","hasWebsite":true,"hasHoraires":true,"url":"https://lannuaire.service-public.gouv.fr/nouvelle-aquitaine/deux-sevres/f53b5801-dfad-48c3-8462-4a5a887b7bc3"}
{"nom":"Voulmentin","nomNormalise":"voulmentin","typeCollectivite":"Commune","region":"Nouvelle-Aquitaine","departement":"Deux-Sèvres","departementCode":"79","adresse":{"street":"Place de la Mairie","postalCode":"79150","city":"Voulmentin","country":"France"},"contacts":{"email":"mairie@voulmentin.fr","telephone":"0549802228"},"horaires":"Du Lundi au Jeudi : de 09h00 à 12h00\nLe Vendredi : de 09h00 à 12h00 de 13h30 à 17h00\nLe Samedi : de 09h00 à 12h00\n\nAccueil fermé le samedi en juillet-août.","latitude":46.9444,"longitude":-0.514493,"website":"https://www.voulmentin.fr/la-mairie/","hasWebsite":true,"hasHoraires":true,"url":"https://lannuaire.service-public.gouv.fr/nouvelle-aquitaine/deux-sevres/f2ce51c3-4e92-471c-9502-c772d24d6d61"}
{"nom":"Xaintray","nomNormalise":"xaintray","typeCollectivite":"Commune","region":"Nouvelle-Aquitaine","departement":"Deux-Sèvres","departementCode":"79","adresse":{"street":"2 rue de la Cure","postalCode":"79220","city":"Xaintray","country":"France"},"contacts":{"email":"commune-de-xaintray0@orange.fr","telephone":"0549256883"},"horaires":"Le Lundi : de 13h00 à 16h30\nLe Jeudi : de 09h00 à 12h00","latitude":46.492947,"longitude":-0.479003,"website":"https://mairiedexaintray79.blogspot.com/","hasWebsite":true,"hasHoraires":true,"url":"https://lannuaire.service-public.gouv.fr/nouvelle-aquitaine/deux-sevres/1acde094-a693-4b29-9a10-05e3b562fa9f"}
