{"nom":"Albefeuille-Lagarde","nomNormalise":"albefeuillelagarde","typeCollectivite":"Commune","region":"Occitanie","departement":"Tarn-et-Garonne","departementCode":"82","adresse":{"street":"244 rue Paul-Roussel","postalCode":"82290","city":"Albefeuille-Lagarde","country":"France"},"contacts":{"email":"mairie-albefeuille.lagarde@info82.com","telephone":"0563674511"},"horaires":"Le Lundi : de 08h30 à 12h00 de 13h30 à 17h30\nLe Mardi : de 08h30 à 12h00 de 13h30 à 18h00\nDu Mercredi au Jeudi : de 08h30 à 12h00\nLe Vendredi : de 08h30 à 12h00 de 13h30 à 17h00","latitude":44.06554,"longitude":1.278292,"website":"https://www.albefeuille-lagarde.fr/","hasWebsite":true,"hasHoraires":true,"url":"https://lannuaire.service-public.gouv.fr/occitanie/tarn-et-garonne/fba62283-0014-42b1-bf8a-60ace1675dca"}
{"nom":"Albias","nomNormalise":"albias","typeCollectivite":"Commune","region":"Occitanie","departement":"Tarn-et-Garonne","departementCode":"82","adresse":{"street":"Place de l'Hôtel-de-Ville","postalCode":"82350","city":"Albias","country":"France"},"contacts":{"email":"mairie-albias@info82.com","telephone":"0563310012"},"horaires":"Du Mardi au Vendredi : de 09h00 à 12h30 de 13h30 à 17h00\nLe Samedi : de 09h00 à 12h00","latitude":44.091152,"longitude":1.449339,"website":"http://www.albias.fr/","hasWebsite":true,"hasHoraires":true,"url":"https://lannuaire.service-public.gouv.fr/occitanie/tarn-et-garonne/2d645b54-8af1-41dd-a85f-7271efc41ea3"}
{"nom":"Angeville","nomNormalise":"angeville","typeCollectivite":"Commune","region":"Occitanie","departement":"Tarn-et-Garonne","departementCode":"82","adresse":{"street":"1 route de Castelsarrasin","postalCode":"82210","city":"Angeville","country":"France"},"contacts":{"email":"mairie@angeville82.fr","telephone":"0563948233"},"horaires":"Le Lundi : de 09h00 à 12h00 de 14h00 à 17h15\nLe Mardi : de 09h00 à 12h00\nLe Vendredi : de 09h00 à 12h00","latitude":44.000923,"longitude":1.027581,"website":"","hasWebsite":false,"hasHoraires":true,"url":"https://lannuaire.service-public.gouv.fr/occitanie/tarn-et-garonne/07c84fea-e6db-4bfa-aabb-4692b9ea5649"}
{"nom":"Asques","nomNormalise":"asques","typeCollectivite":"Commune","region":"Occitanie","departement":"Tarn-et-Garonne","departementCode":"82","adresse":{"street":"4 route de Lavit","postalCode":"82120","city":"Asques","country":"France"},"contacts":{"email":"mairie-asques@info82.com","telephone":"0563940082"},"horaires":"Le Mardi : de 14h00 à 18h00\nLe Jeudi : de 14h00 à 18h00","latitude":43.9886,"longitude":0.948674,"website":"","hasWebsite":false,"hasHoraires":true,"url":"https://lannuaire.service-public.gouv.fr/occitanie/tarn-et-garonne/8be2b14e-9b02-4693-9fa8-b0cf80f0bea0"}
{"nom":"Aucamville","nomNormalise":"aucamville","typeCollectivite":"Commune","region":"Occitanie","departement":"Tarn-et-Garonne","departementCode":"82","adresse":{"street":"5 place de la Liberté","postalCode":"82600","city":"Aucamville","country":"France"},"contacts":{"email":"mairie-aucamville@info82.com","telephone":"0563025198"},"horaires":"Le Lundi : de 09h00 à 12h00 de 14h00 à 17h00\nLe Mardi : de 15h00 à 17h00\nLe Mercredi : de 10h30 à 12h00\nDu Jeudi au Vendredi : de 15h00 à 17h00","latitude":43.80317,"longitude":1.2153202,"website":"https://www.aucamville.fr/","hasWebsite":true,"hasHoraires":true,"url":"https://lannuaire.service-public.gouv.fr/occitanie/tarn-et-garonne/c627c85b-76f0-4959-a041-281e1f816071"}
{"nom":"Auterive","nomNormalise":"auterive","typeCollectivite":"Commune","region":"Occitanie","departement":"Tarn-et-Garonne","departementCode":"82","adresse":{"street":"201 route du Bourg","postalCode":"82500","city":"Auterive","country":"France"},"contacts":{"email":"mairie-auterive@info82.com","telephone":"0563653506"},"horaires":"Le Mercredi : de 13h00 à 18h00","latitude":43.860867,"longitude":0.968283,"website":"","hasWebsite":false,"hasHoraires":true,"url":"https://lannuaire.service-public.gouv.fr/occitanie/tarn-et-garonne/06d95bce-0b26-44f2-a212-65a2607ac6c7"}
{"nom":"Auty","nomNormalise":"auty","typeCollectivite":"Commune","region":"Occitanie","departement":"Tarn-et-Garonne","departementCode":"82","adresse":{"street":"Place de la Mairie","postalCode":"82220","city":"Auty","country":"France"},"contacts":{"email":"mairie-auty@info82.com","telephone":"0563930334"},"horaires":"Le Mardi : de 09h00 à 12h00 de 13h00 à 17h00\nLe Vendredi : de 09h00 à 12h00 de 13h00 à 17h00","latitude":44.190067,"longitude":1.467446,"website":"http://www.auty.fr/","hasWebsite":true,"hasHoraires":true,"url":"https://lannuaire.service-public.gouv.fr/occitanie/tarn-et-garonne/4208c896-1cdd-4da1-87a6-0ba7c31677c8"}
{"nom":"Auvillar","nomNormalise":"auvillar","typeCollectivite":"Commune","region":"Occitanie","departement":"Tarn-et-Garonne","departementCode":"82","adresse":{"street":"12 place de la Halle","postalCode":"82340","city":"Auvillar","country":"France"},"contacts":{"email":"mairie-auvillar@info82.com","telephone":"0563395733"},"horaires":"Le Lundi : de 08h00 à 12h00 de 13h30 à 17h00\nDu Mardi au Vendredi : de 08h00 à 12h00","latitude":44.07056,"longitude":0.8997855,"website":"https://www.auvillar.fr/","hasWebsite":true,"hasHoraires":true,"url":"https://lannuaire.service-public.gouv.fr/occitanie/tarn-et-garonne/3684d702-b8d5-467a-b071-76f91180bf73"}
{"nom":"Balignac","nomNormalise":"balignac","typeCollectivite":"Commune","region":"Occitanie","departement":"Tarn-et-Garonne","departementCode":"82","adresse":{"street":"Le Bourg","postalCode":"82120","city":"Balignac","country":"France"},"contacts":{"email":"mairie-balignac@info82.com","telephone":"0563940224"},"horaires":"Le Jeudi : de 14h00 à 16h00","latitude":43.955963,"longitude":0.87448,"website":"","hasWebsite":false,"hasHoraires":true,"url":"https://lannuaire.service-public.gouv.fr/occitanie/tarn-et-garonne/2f26893d-47ed-46b1-ae86-fb38607df851"}
{"nom":"Bardigues","nomNormalise":"bardigues","typeCollectivite":"Commune","region":"Occitanie","departement":"Tarn-et-Garonne","departementCode":"82","adresse":{"street":"8 rue de la Mairie","postalCode":"82340","city":"Bardigues","country":"France"},"contacts":{"email":"mairie-bardigues@info82.com","telephone":"0563290501"},"horaires":"Le Lundi : de 08h00 à 12h00 de 13h00 à 16h30\nLe Mercredi : de 08h00 à 12h00\nLe Vendredi : de 08h30 à 12h00 de 13h00 à 17h00","latitude":44.040035,"longitude":0.889347,"website":"https://www.bardigues.fr/","hasWebsite":true,"hasHoraires":true,"url":"https://lannuaire.service-public.gouv.fr/occitanie/tarn-et-garonne/228494ab-bf31-486a-95ef-afa185d1df55"}
{"nom":"Barry-d'Islemade","nomNormalise":"barrydislemade","typeCollectivite":"Commune","region":"Occitanie","departement":"Tarn-et-Garonne","departementCode":"82","adresse":{"street":"1 place du 8-Mai-1945","postalCode":"82290","city":"Barry-d'Islemade","country":"France"},"contacts":{"email":"mairie-barrydislemade@info82.com","telephone":"0563316522"},"horaires":"Du Lundi au Mardi : de 08h00 à 12h00 de 14h00 à 18h00\nLe Jeudi : de 08h00 à 12h00 de 14h00 à 18h00\nLe Vendredi : de 08h00 à 12h00 de 14h00 à 17h00","latitude":44.088726,"longitude":1.2408504,"website":"http://www.barrydislemade.fr/","hasWebsite":true,"hasHoraires":true,"url":"https://lannuaire.service-public.gouv.fr/occitanie/tarn-et-garonne/fefaaa41-9654-4fa5-b9ef-4166449beba1"}
{"nom":"Beaumont-de-Lomagne","nomNormalise":"beaumontdelomagne","typeCollectivite":"Commune","region":"Occitanie","departement":"Tarn-et-Garonne","departementCode":"82","adresse":{"street":"13 place Gambetta","postalCode":"82500","city":"Beaumont-de-Lomagne","country":"France"},"contacts":{"email":"mairie-accueil@beaumontdelomagne.fr","telephone":"0563023252"},"horaires":"Le Lundi : de 14h00 à 17h00\nDu Mardi au Vendredi : de 09h00 à 12h30 de 14h00 à 17h00","latitude":43.882454,"longitude":0.9886713,"website":"https://www.beaumontdelomagne.fr/","hasWebsite":true,"hasHoraires":true,"url":"https://lannuaire.service-public.gouv.fr/occitanie/tarn-et-garonne/9791f1de-1e90-47aa-88c0-35fa22e4f491"}
{"nom":"Beaupuy","nomNormalise":"beaupuy","typeCollectivite":"Commune","region":"Occitanie","departement":"Tarn-et-Garonne","departementCode":"82","adresse":{"street":"1 Place de la Mairie","postalCode":"82600","city":"Beaupuy","country":"France"},"contacts":{"email":"mairie@beaupuy82.fr","telephone":"0563025287"},"horaires":"Du Mardi au Mercredi : de 09h00 à 12h00\nLe Jeudi : de 15h30 à 17h30","latitude":43.821526,"longitude":1.117195,"website":"","hasWebsite":false,"hasHoraires":true,"url":"https://lannuaire.service-public.gouv.fr/occitanie/tarn-et-garonne/a42f018b-1856-4508-90fc-9a20923b3aa4"}
{"nom":"Belbèze-en-Lomagne","nomNormalise":"belbezeenlomagne","typeCollectivite":"Commune","region":"Occitanie","departement":"Tarn-et-Garonne","departementCode":"82","adresse":{"street":"1 place du 19-Mars-1962","postalCode":"82500","city":"Belbèze-en-Lomagne","country":"France"},"contacts":{"email":"mairie-belbeze@info82.com","telephone":"0563207527"},"horaires":"Le Mercredi : de 08h30 à 12h00\nLe Samedi : de 08h30 à 10h00","latitude":43.90192,"longitude":1.070687,"website":"http://www.belbeze-en-lomagne.fr/","hasWebsite":true,"hasHoraires":true,"url":"https://lannuaire.service-public.gouv.fr/occitanie/tarn-et-garonne/7d7870de-8b94-417e-8008-78712597d395"}
{"nom":"Belvèze","nomNormalise":"belveze","typeCollectivite":"Commune","region":"Occitanie","departement":"Tarn-et-Garonne","departementCode":"82","adresse":{"street":"30 route de Pechbertier","postalCode":"82150","city":"Belvèze","country":"France"},"contacts":{"email":"mairie@belveze.fr","telephone":"0962057261"},"horaires":"Du Lundi au Mardi : de 14h30 à 18h30\nLe Jeudi : de 09h00 à 13h00","latitude":44.33082,"longitude":1.087929,"website":"https://www.belveze.fr/","hasWebsite":true,"hasHoraires":true,"url":"https://lannuaire.service-public.gouv.fr/occitanie/tarn-et-garonne/7d4bdf33-ff9f-441e-bbe2-b9e0e21776cc"}
{"nom":"Bessens","nomNormalise":"bessens","typeCollectivite":"Commune","region":"Occitanie","departement":"Tarn-et-Garonne","departementCode":"82","adresse":{"street":"Place de la Fraternité","postalCode":"82170","city":"Bessens","country":"France"},"contacts":{"email":"mairie-bessens@info82.com","telephone":"0563025773"},"horaires":"Le Lundi : de 10h00 à 12h00 de 15h30 à 19h00\nDu Mercredi au Jeudi : de 10h00 à 12h00 de 15h30 à 17h00\nLe Vendredi : de 08h30 à 12h00\nLe Samedi : de 10h00 à 12h00\n\nLe 1er Samedi du mois\nFermé au public les Mardis et Vendredis après-midi.","latitude":43.8789,"longitude":1.2524,"website":"http://www.bessens.fr/","hasWebsite":true,"hasHoraires":true,"url":"https://lannuaire.service-public.gouv.fr/occitanie/tarn-et-garonne/cb34fb73-e771-474f-b743-5118ecab4beb"}
{"nom":"Bioule","nomNormalise":"bioule","typeCollectivite":"Commune","region":"Occitanie","departement":"Tarn-et-Garonne","departementCode":"82","adresse":{"street":"3 rue de la Mairie","postalCode":"82800","city":"Bioule","country":"France"},"contacts":{"email":"mairie@bioule.fr","telephone":"0563309562"},"horaires":"Du Lundi au Vendredi : de 08h30 à 12h00","latitude":44.089787,"longitude":1.5376902,"website":"http://www.bioule.fr/","hasWebsite":true,"hasHoraires":true,"url":"https://lannuaire.service-public.gouv.fr/occitanie/tarn-et-garonne/14445a5b-c9ce-4ada-8cfb-61bc5509409a"}
{"nom":"Boudou","nomNormalise":"boudou","typeCollectivite":"Commune","region":"Occitanie","departement":"Tarn-et-Garonne","departementCode":"82","adresse":{"street":"310 chemin de Ronde","postalCode":"82200","city":"Boudou","country":"France"},"contacts":{"email":"mairie-boudou@info82.com","telephone":"0563040985"},"horaires":"Le Lundi : de 08h30 à 12h00\nLe Mardi : de 08h30 à 12h00 de 13h30 à 18h00\nLe Jeudi : de 08h30 à 12h00 de 13h30 à 18h00\nLe Vendredi : de 08h30 à 12h00","latitude":44.096054,"longitude":1.013222,"website":"http://www.boudou.fr/","hasWebsite":true,"hasHoraires":true,"url":"https://lannuaire.service-public.gouv.fr/occitanie/tarn-et-garonne/8ead5e50-97d2-4841-bbba-3ce1acddf388"}
{"nom":"Bouillac","nomNormalise":"bouillac","typeCollectivite":"Commune","region":"Occitanie","departement":"Tarn-et-Garonne","departementCode":"82","adresse":{"street":"1 rue de la Mairie","postalCode":"82600","city":"Bouillac","country":"France"},"contacts":{"email":"mairie-bouillac@info82.com","telephone":"0978806408"},"horaires":"Du Lundi au Mardi : de 09h00 à 12h00 de 13h00 à 17h00\nDu Jeudi au Vendredi : de 09h00 à 12h00 de 13h00 à 17h00","latitude":43.843212,"longitude":1.1190615,"website":"","hasWebsite":false,"hasHoraires":true,"url":"https://lannuaire.service-public.gouv.fr/occitanie/tarn-et-garonne/7f5d7539-1fa3-49dc-8c12-343676ee1783"}
{"nom":"Bouloc-en-Quercy","nomNormalise":"boulocenquercy","typeCollectivite":"Commune","region":"Occitanie","departement":"Tarn-et-Garonne","departementCode":"82","adresse":{"street":"1 place de la Mairie","postalCode":"82110","city":"Bouloc-en-Quercy","country":"France"},"contacts":{"email":"mairie@bouloc-en-quercy82.fr","telephone":"0563946797"},"horaires":"Du Lundi au Mardi : de 08h45 à 12h45\n\nPermanence du maire mardi matin de 10h à 12h30.\nLe Jeudi : de 14h30 à 18h30","latitude":44.299755,"longitude":1.125381,"website":"https://www.bouloc-en-quercy82.fr/","hasWebsite":true,"hasHoraires":true,"url":"https://lannuaire.service-public.gouv.fr/occitanie/tarn-et-garonne/0671ef11-6666-407f-9576-686db07ccee3"}
{"nom":"Bourg-de-Visa","nomNormalise":"bourgdevisa","typeCollectivite":"Commune","region":"Occitanie","departement":"Tarn-et-Garonne","departementCode":"82","adresse":{"street":"1 route de Moissac","postalCode":"82190","city":"Bourg-de-Visa","country":"France"},"contacts":{"email":"mairie-bourgdevisa@info82.com","telephone":"0563942545"},"horaires":"Le Lundi : de 09h00 à 12h00 de 14h00 à 18h00\nLe Mercredi : de 09h00 à 12h00 de 14h00 à 18h00\nDu Jeudi au Vendredi : de 14h00 à 18h00","latitude":44.26264,"longitude":0.958051,"website":"","hasWebsite":false,"hasHoraires":true,"url":"https://lannuaire.service-public.gouv.fr/occitanie/tarn-et-garonne/18bce18c-51b9-46fa-bf3e-567abb7bf549"}
{"nom":"Bourret","nomNormalise":"bourret","typeCollectivite":"Commune","region":"Occitanie","departement":"Tarn-et-Garonne","departementCode":"82","adresse":{"street":"1 route de Mas-Grenier","postalCode":"82700","city":"Bourret","country":"France"},"contacts":{"email":"mairie-bourret@info82.com","telephone":"0563647544"},"horaires":"Le Lundi : de 14h00 à 17h00\nLe Mardi : de 14h00 à 18h30\nDu Mercredi au Jeudi : de 14h00 à 17h00\nLe Vendredi : de 14h00 à 18h30","latitude":43.94275,"longitude":1.169761,"website":"https://www.bourret.fr/","hasWebsite":true,"hasHoraires":true,"url":"https://lannuaire.service-public.gouv.fr/occitanie/tarn-et-garonne/40af3b3e-8c7b-4eff-8d5e-3b4fea9b012e"}
{"nom":"Brassac","nomNormalise":"brassac","typeCollectivite":"Commune","region":"Occitanie","departement":"Tarn-et-Garonne","departementCode":"82","adresse":{"street":"30 place de la Mairie","postalCode":"82190","city":"Brassac","country":"France"},"contacts":{"email":"mairie-brassac@info82.com","telephone":"0563942494"},"horaires":"Le Lundi : de 09h00 à 12h00 de 14h00 à 18h00\nLe Jeudi : de 14h00 à 18h00","latitude":44.21456,"longitude":0.97308004,"website":"","hasWebsite":false,"hasHoraires":true,"url":"https://lannuaire.service-public.gouv.fr/occitanie/tarn-et-garonne/2d64a881-2047-4a41-8db4-2688c6677175"}
{"nom":"Bressols","nomNormalise":"bressols","typeCollectivite":"Commune","region":"Occitanie","departement":"Tarn-et-Garonne","departementCode":"82","adresse":{"street":"2 route de Lavaur","postalCode":"82710","city":"Bressols","country":"France"},"contacts":{"email":"mairie@ville-bressols.fr","telephone":"0563029516"},"horaires":"Du Lundi au Vendredi : de 09h00 à 12h00 de 14h00 à 17h00\nLe Samedi : de 09h00 à 12h00","latitude":43.9679,"longitude":1.33945,"website":"http://www.ville-bressols.fr/","hasWebsite":true,"hasHoraires":true,"url":"https://lannuaire.service-public.gouv.fr/occitanie/tarn-et-garonne/98aae7f8-df74-44db-8b1e-c52179b56b9c"}
{"nom":"Bruniquel","nomNormalise":"bruniquel","typeCollectivite":"Commune","region":"Occitanie","departement":"Tarn-et-Garonne","departementCode":"82","adresse":{"street":"4 rue de la Fraternité","postalCode":"82800","city":"Bruniquel","country":"France"},"contacts":{"email":"mairie@bruniquel.fr","telephone":"0563672491"},"horaires":"Du Lundi au Jeudi : de 08h30 à 17h30\nLe Vendredi : de 08h30 à 16h30\nLe Samedi : de 09h00 à 12h00\nFermeture le Mercredi.","latitude":44.055264,"longitude":1.664488,"website":"https://www.bruniquel.fr/","hasWebsite":true,"hasHoraires":true,"url":"https://lannuaire.service-public.gouv.fr/occitanie/tarn-et-garonne/5ad6a550-51e4-40cb-a257-362af46efed6"}
{"nom":"Campsas","nomNormalise":"campsas","typeCollectivite":"Commune","region":"Occitanie","departement":"Tarn-et-Garonne","departementCode":"82","adresse":{"street":"28 rue de la Mairie","postalCode":"82370","city":"Campsas","country":"France"},"contacts":{"email":"mairie-campsas@info82.com","telephone":"0563250085"},"horaires":"Du Lundi au Mercredi : de 09h00 à 12h00 de 13h30 à 17h30\nLe Vendredi : de 09h00 à 12h00 de 13h30 à 17h30","latitude":43.896694,"longitude":1.326744,"website":"http://www.campsas.fr/","hasWebsite":true,"hasHoraires":true,"url":"https://lannuaire.service-public.gouv.fr/occitanie/tarn-et-garonne/cc6f8b57-a1fe-4bb9-8b91-b81c54344cd6"}
{"nom":"Canals","nomNormalise":"canals","typeCollectivite":"Commune","region":"Occitanie","departement":"Tarn-et-Garonne","departementCode":"82","adresse":{"street":"110 rue des Écoles","postalCode":"82170","city":"Canals","country":"France"},"contacts":{"email":"mairie-canals@info82.com","telephone":"0563673163"},"horaires":"Le Lundi : de 09h00 à 12h00 de 13h30 à 16h30\nLe Jeudi : de 09h00 à 12h00\nLe Samedi : de 09h00 à 12h00","latitude":43.8517,"longitude":1.29155,"website":"http://www.ville-canals.fr/","hasWebsite":true,"hasHoraires":true,"url":"https://lannuaire.service-public.gouv.fr/occitanie/tarn-et-garonne/a7d9d6ca-fa0e-4d66-a625-e0430a317ff1"}
{"nom":"Castanet","nomNormalise":"castanet","typeCollectivite":"Commune","region":"Occitanie","departement":"Tarn-et-Garonne","departementCode":"82","adresse":{"street":"5 rue de la Mairie","postalCode":"82160","city":"Castanet","country":"France"},"contacts":{"email":"mairie@castanet82.fr","telephone":"0563657245"},"horaires":"Le Mardi : de 08h00 à 12h00 de 13h30 à 17h00\nLe Vendredi : de 08h00 à 12h00 de 13h30 à 17h00","latitude":44.2656,"longitude":1.95528,"website":"https://www.intramuros.org/castanet","hasWebsite":true,"hasHoraires":true,"url":"https://lannuaire.service-public.gouv.fr/occitanie/tarn-et-garonne/95d27335-9c74-4aea-b0cf-cfd89dc1735c"}
{"nom":"Castelferrus","nomNormalise":"castelferrus","typeCollectivite":"Commune","region":"Occitanie","departement":"Tarn-et-Garonne","departementCode":"82","adresse":{"street":"Place de la Mairie","postalCode":"82100","city":"Castelferrus","country":"France"},"contacts":{"email":"castelferrus@info82.com","telephone":"0563954049"},"horaires":"Du Lundi au Mercredi : de 09h00 à 12h00\nLe Jeudi : de 09h00 à 12h00 de 13h30 à 17h00\nLe Vendredi : de 09h00 à 12h00","latitude":44.010345,"longitude":1.087124,"website":"","hasWebsite":false,"hasHoraires":true,"url":"https://lannuaire.service-public.gouv.fr/occitanie/tarn-et-garonne/c0b4c128-8d66-4afd-9022-1cedef0cdef0"}
{"nom":"Castelmayran","nomNormalise":"castelmayran","typeCollectivite":"Commune","region":"Occitanie","departement":"Tarn-et-Garonne","departementCode":"82","adresse":{"street":"2 rue Jean-Jaurès","postalCode":"82210","city":"Castelmayran","country":"France"},"contacts":{"email":"mairie@castelmayran.fr","telephone":"0563954305"},"horaires":"Le Lundi : de 09h00 à 12h00 de 13h30 à 18h00\nLe Mardi : de 09h00 à 12h00\nLe Mercredi : de 09h00 à 12h00 de 13h30 à 18h00\nLe Jeudi : de 09h00 à 12h00\nLe Vendredi : de 09h00 à 12h00 de 13h30 à 17h30","latitude":44.02942,"longitude":1.039331,"website":"https://www.castelmayran.fr/","hasWebsite":true,"hasHoraires":true,"url":"https://lannuaire.service-public.gouv.fr/occitanie/tarn-et-garonne/bc9b2f3a-0af1-45bb-bc78-934e6982068b"}
{"nom":"Castelsagrat","nomNormalise":"castelsagrat","typeCollectivite":"Commune","region":"Occitanie","departement":"Tarn-et-Garonne","departementCode":"82","adresse":{"street":"Place de la Liberté","postalCode":"82400","city":"Castelsagrat","country":"France"},"contacts":{"email":"mairie-castelsagrat@info82.com","telephone":"0563942465"},"horaires":"Le Mardi : de 12h00 à 17h00\nDu Jeudi au Vendredi : de 12h00 à 17h00","latitude":44.18398,"longitude":0.946347,"website":"http://www.castelsagrat.fr/","hasWebsite":true,"hasHoraires":true,"url":"https://lannuaire.service-public.gouv.fr/occitanie/tarn-et-garonne/78fb2e88-fb55-4ca8-b2a8-d4ea2e194c4b"}
{"nom":"Castelsarrasin","nomNormalise":"castelsarrasin","typeCollectivite":"Commune","region":"Occitanie","departement":"Tarn-et-Garonne","departementCode":"82","adresse":{"street":"5 place de la Liberté","postalCode":"82103","city":"Castelsarrasin Cedex","country":"France"},"contacts":{"email":"mairie@ville-castelsarrasin.fr","telephone":"0563327500"},"horaires":"Du Lundi au Vendredi : de 08h30 à 12h00 de 13h30 à 17h30","latitude":44.0397,"longitude":1.10749,"website":"http://www.ville-castelsarrasin.fr/","hasWebsite":true,"hasHoraires":true,"url":"https://lannuaire.service-public.gouv.fr/occitanie/tarn-et-garonne/8024ffa1-8e74-4cc9-bcd6-46ef0d8f0f38"}
{"nom":"Castéra-Bouzet","nomNormalise":"casterabouzet","typeCollectivite":"Commune","region":"Occitanie","departement":"Tarn-et-Garonne","departementCode":"82","adresse":{"street":"Le Bourg","postalCode":"82120","city":"Castéra-Bouzet","country":"France"},"contacts":{"email":"mairie-castera.bouzet@info82.com","telephone":"0563940334"},"horaires":"Le Mardi : de 15h00 à 19h00\nLe Vendredi : de 08h30 à 12h30","latitude":44.00055,"longitude":0.9193789,"website":"","hasWebsite":false,"hasHoraires":true,"url":"https://lannuaire.service-public.gouv.fr/occitanie/tarn-et-garonne/ae501733-f413-4845-a188-0726b3c09b75"}
{"nom":"Caumont","nomNormalise":"caumont","typeCollectivite":"Commune","region":"Occitanie","departement":"Tarn-et-Garonne","departementCode":"82","adresse":{"street":"1 place de la Mairie","postalCode":"82210","city":"Caumont","country":"France"},"contacts":{"email":"mairie@caumont82.fr","telephone":"0563948343"},"horaires":"Le Mardi : de 08h00 à 12h00 de 14h00 à 16h00\nLe Jeudi : de 09h00 à 12h00\nLe Vendredi : de 08h00 à 12h00 de 14h00 à 16h00","latitude":44.018967,"longitude":1.0004272,"website":"http://www.caumont82.fr/","hasWebsite":true,"hasHoraires":true,"url":"https://lannuaire.service-public.gouv.fr/occitanie/tarn-et-garonne/c8b1381a-9de0-4755-83e5-92ec1bccc315"}
{"nom":"Caussade","nomNormalise":"caussade","typeCollectivite":"Commune","region":"Occitanie","departement":"Tarn-et-Garonne","departementCode":"82","adresse":{"street":"Place du Général-de-Gaulle","postalCode":"82300","city":"Caussade","country":"France"},"contacts":{"email":"secretariatgeneral@mairie-caussade.com","telephone":"0563931045"},"horaires":"Du Lundi au Jeudi : de 08h15 à 12h15 de 13h30 à 17h00\nLe Vendredi : de 08h15 à 12h15 de 13h30 à 16h30\nLe Samedi : de 10h00 à 12h00\n\nAccueil ouvert uniquement le 1er et 3e samedi du mois.","latitude":44.157997,"longitude":1.542131,"website":"http://www.mairie-caussade.fr/","hasWebsite":true,"hasHoraires":true,"url":"https://lannuaire.service-public.gouv.fr/occitanie/tarn-et-garonne/3df485fe-d74e-4336-9cd0-6ee9301dec12"}
{"nom":"Caylus","nomNormalise":"caylus","typeCollectivite":"Commune","region":"Occitanie","departement":"Tarn-et-Garonne","departementCode":"82","adresse":{"street":"3 place de la Halle","postalCode":"82160","city":"Caylus","country":"France"},"contacts":{"email":"mairie@caylus.com","telephone":"0563670617"},"horaires":"Le Lundi : de 09h00 à 12h30\nLe Mardi : de 09h00 à 12h30 de 13h30 à 16h30\nLe Mercredi : de 09h00 à 12h30\nLe Jeudi : de 09h00 à 12h30 de 13h30 à 16h30\nLe Vendredi : de 09h00 à 12h30","latitude":44.2359,"longitude":1.76946,"website":"http://www.caylus.com/","hasWebsite":true,"hasHoraires":true,"url":"https://lannuaire.service-public.gouv.fr/occitanie/tarn-et-garonne/3b299106-bae0-4988-92e3-786ad9782212"}
{"nom":"Cayrac","nomNormalise":"cayrac","typeCollectivite":"Commune","region":"Occitanie","departement":"Tarn-et-Garonne","departementCode":"82","adresse":{"street":"22 chemin de Belhaygue","postalCode":"82440","city":"Cayrac","country":"France"},"contacts":{"email":"mairie@cayrac.fr","telephone":"0563671169"},"horaires":"Du Lundi au Mardi : de 09h00 à 12h00\nDu Jeudi au Vendredi : de 09h00 à 12h00","latitude":44.10793,"longitude":1.4748932,"website":"","hasWebsite":false,"hasHoraires":true,"url":"https://lannuaire.service-public.gouv.fr/occitanie/tarn-et-garonne/dd788528-e363-47b5-ae96-407fb9bf4b4c"}
{"nom":"Cayriech","nomNormalise":"cayriech","typeCollectivite":"Commune","region":"Occitanie","departement":"Tarn-et-Garonne","departementCode":"82","adresse":{"street":"1 route de Puylaroque","postalCode":"82240","city":"Cayriech","country":"France"},"contacts":{"email":"mairie@cayriech.fr","telephone":"0563649734"},"horaires":"Le Lundi : de 08h15 à 12h15 de 13h30 à 18h00\nLe Jeudi : de 08h15 à 12h15 de 13h30 à 18h00","latitude":44.21884,"longitude":1.611073,"website":"","hasWebsite":false,"hasHoraires":true,"url":"https://lannuaire.service-public.gouv.fr/occitanie/tarn-et-garonne/5f6d8208-9cfe-4d46-ba55-0770156bd45f"}
{"nom":"Cazals","nomNormalise":"cazals","typeCollectivite":"Commune","region":"Occitanie","departement":"Tarn-et-Garonne","departementCode":"82","adresse":{"street":"2 Place de la Mairie","postalCode":"82140","city":"Cazals","country":"France"},"contacts":{"email":"mairie@cazals82.fr","telephone":"0563306862"},"horaires":"Le Lundi : de 09h00 à 12h00 de 16h00 à 18h30\nDu Mardi au Vendredi : de 09h00 à 12h00","latitude":44.12245,"longitude":1.716489,"website":"","hasWebsite":false,"hasHoraires":true,"url":"https://lannuaire.service-public.gouv.fr/occitanie/tarn-et-garonne/b4111b98-2a5f-48b9-ae6d-a3937e597140"}
{"nom":"Cazes-Mondenard","nomNormalise":"cazesmondenard","typeCollectivite":"Commune","region":"Occitanie","departement":"Tarn-et-Garonne","departementCode":"82","adresse":{"street":"Place de l'Hôtel-de-Ville","postalCode":"82110","city":"Cazes-Mondenard","country":"France"},"contacts":{"email":"mairie@cazes-mondenard.fr","telephone":"0563958344"},"horaires":"Du Mardi au Vendredi : de 08h30 à 12h00 de 14h00 à 18h00","latitude":44.2271,"longitude":1.20254,"website":"http://www.cazes-mondenard.fr/","hasWebsite":true,"hasHoraires":true,"url":"https://lannuaire.service-public.gouv.fr/occitanie/tarn-et-garonne/76d5d898-1888-452c-85fc-8fa2b5cf4314"}
{"nom":"Comberouger","nomNormalise":"comberouger","typeCollectivite":"Commune","region":"Occitanie","departement":"Tarn-et-Garonne","departementCode":"82","adresse":{"street":"Le Bourg","postalCode":"82600","city":"Comberouger","country":"France"},"contacts":{"email":"mairie-comberouger@info82.com","telephone":"0563025281"},"horaires":"Le Lundi : de 16h00 à 18h00\nLe Mardi : de 10h00 à 12h00\nLe Jeudi : de 16h00 à 18h00\nLe Vendredi : de 10h00 à 12h00","latitude":43.861977,"longitude":1.1026512,"website":"https://www.comberouger.fr/","hasWebsite":true,"hasHoraires":true,"url":"https://lannuaire.service-public.gouv.fr/occitanie/tarn-et-garonne/89256b06-375e-44d6-9089-f37ece8a44f8"}
{"nom":"Corbarieu","nomNormalise":"corbarieu","typeCollectivite":"Commune","region":"Occitanie","departement":"Tarn-et-Garonne","departementCode":"82","adresse":{"street":"16 rue Jean-Jaurès","postalCode":"82370","city":"Corbarieu","country":"France"},"contacts":{"email":"accueil@corbarieu.fr","telephone":"0563678761"},"horaires":"Du Lundi au Mardi : de 08h00 à 12h00 de 13h30 à 17h00\nLe Mercredi : de 09h00 à 12h00 de 13h30 à 17h00\nDu Jeudi au Vendredi : de 08h00 à 12h00 de 13h30 à 17h00","latitude":43.9442,"longitude":1.36814,"website":"https://www.corbarieu.fr/","hasWebsite":true,"hasHoraires":true,"url":"https://lannuaire.service-public.gouv.fr/occitanie/tarn-et-garonne/445f4f87-509f-406c-a493-9497dc27940a"}
{"nom":"Cordes-Tolosannes","nomNormalise":"cordestolosannes","typeCollectivite":"Commune","region":"Occitanie","departement":"Tarn-et-Garonne","departementCode":"82","adresse":{"street":"2 rue de la Mairie","postalCode":"82700","city":"Cordes-Tolosannes","country":"France"},"contacts":{"email":"mairie-cordes.tolosannes@info82.com","telephone":"0563956422"},"horaires":"Le Lundi : de 09h00 à 12h00\nLe Mercredi : de 09h00 à 12h00\nLe Vendredi : de 14h00 à 18h00","latitude":44.004883,"longitude":1.1779634,"website":"http://www.cordes-tolosannes.fr/","hasWebsite":true,"hasHoraires":true,"url":"https://lannuaire.service-public.gouv.fr/occitanie/tarn-et-garonne/648bc558-b36f-45f1-a357-7f35e7730033"}
{"nom":"Coutures","nomNormalise":"coutures","typeCollectivite":"Commune","region":"Occitanie","departement":"Tarn-et-Garonne","departementCode":"82","adresse":{"street":"75 rue de la Mairie","postalCode":"82210","city":"Coutures","country":"France"},"contacts":{"email":"mairie-coutures@info82.com","telephone":"0563940749"},"horaires":"Le Lundi : de 14h00 à 18h00\nLe Vendredi : de 14h00 à 18h00","latitude":43.95258,"longitude":0.98637,"website":"","hasWebsite":false,"hasHoraires":true,"url":"https://lannuaire.service-public.gouv.fr/occitanie/tarn-et-garonne/bec60922-7714-4bb4-a23e-4757047669bc"}
{"nom":"Cumont","nomNormalise":"cumont","typeCollectivite":"Commune","region":"Occitanie","departement":"Tarn-et-Garonne","departementCode":"82","adresse":{"street":"1 rue du Puit","postalCode":"82500","city":"Cumont","country":"France"},"contacts":{"email":"mairie-cumont@info82.com","telephone":"0563652922"},"horaires":"Le Lundi : de 10h00 à 12h00\nLe Vendredi : de 10h00 à 12h00","latitude":43.87385,"longitude":0.901679,"website":"","hasWebsite":false,"hasHoraires":true,"url":"https://lannuaire.service-public.gouv.fr/occitanie/tarn-et-garonne/0cfcf872-aaa7-420c-a728-02ea5c8c9d8f"}
{"nom":"Dieupentale","nomNormalise":"dieupentale","typeCollectivite":"Commune","region":"Occitanie","departement":"Tarn-et-Garonne","departementCode":"82","adresse":{"street":"Espace Auguste-Puis","postalCode":"82170","city":"Dieupentale","country":"France"},"contacts":{"email":"accueil-dieupentale@info82.com","telephone":"0563025000"},"horaires":"Le Lundi : de 13h30 à 17h00\nDu Mardi au Vendredi : de 09h00 à 12h30","latitude":43.860935,"longitude":1.2698797,"website":"http://www.dieupentale.fr/","hasWebsite":true,"hasHoraires":true,"url":"https://lannuaire.service-public.gouv.fr/occitanie/tarn-et-garonne/b78850aa-b944-478b-85f9-869fcd508ce1"}
{"nom":"Donzac","nomNormalise":"donzac","typeCollectivite":"Commune","region":"Occitanie","departement":"Tarn-et-Garonne","departementCode":"82","adresse":{"street":"2 rue Saint-Barthélémy","postalCode":"82340","city":"Donzac","country":"France"},"contacts":{"email":"mairie-donzac@info82.com","telephone":"0563399184"},"horaires":"Le Lundi : de 09h00 à 12h00\nLe Mardi : de 08h00 à 12h00 de 14h00 à 18h00\nDu Jeudi au Vendredi : de 08h00 à 12h00\nLe Samedi : de 09h00 à 12h00","latitude":44.11014,"longitude":0.819705,"website":"http://www.donzac.fr/","hasWebsite":true,"hasHoraires":true,"url":"https://lannuaire.service-public.gouv.fr/occitanie/tarn-et-garonne/f1346cd6-3644-4867-93e5-0ff5270f36c8"}
{"nom":"Dunes","nomNormalise":"dunes","typeCollectivite":"Commune","region":"Occitanie","departement":"Tarn-et-Garonne","departementCode":"82","adresse":{"street":"1 place des Martyrs","postalCode":"82340","city":"Dunes","country":"France"},"contacts":{"email":"mairie-dunes@info82.com","telephone":"0563399051"},"horaires":"Du Lundi au Mardi : de 09h00 à 12h30\nLe Mercredi : de 09h00 à 12h30 de 16h00 à 19h00\nDu Jeudi au Vendredi : de 09h00 à 12h30","latitude":44.08771,"longitude":0.7702542,"website":"https://www.dunes82.fr/","hasWebsite":true,"hasHoraires":true,"url":"https://lannuaire.service-public.gouv.fr/occitanie/tarn-et-garonne/7a70b5d3-891e-458f-98c6-3b41e3c21338"}
{"nom":"Durfort-Lacapelette","nomNormalise":"durfortlacapelette","typeCollectivite":"Commune","region":"Occitanie","departement":"Tarn-et-Garonne","departementCode":"82","adresse":{"street":"96 rue de la Mairie","postalCode":"82390","city":"Durfort-Lacapelette","country":"France"},"contacts":{"email":"ville-durfort@info82.com","telephone":"0563045064"},"horaires":"Le Lundi : de 14h00 à 18h00\nLe Mardi : de 09h00 à 12h30 de 14h00 à 18h00\nDu Mercredi au Vendredi : de 09h00 à 12h30\n\nPendant la crise sanitaire accueil sur rendez-vous de préférence.","latitude":44.18471,"longitude":1.154847,"website":"http://www.durfort-lacapelette.fr/","hasWebsite":true,"hasHoraires":true,"url":"https://lannuaire.service-public.gouv.fr/occitanie/tarn-et-garonne/993387c9-4107-41bf-9040-bc229ac54f9c"}
{"nom":"Escatalens","nomNormalise":"escatalens","typeCollectivite":"Commune","region":"Occitanie","departement":"Tarn-et-Garonne","departementCode":"82","adresse":{"street":"3 place de la Mairie","postalCode":"82700","city":"Escatalens","country":"France"},"contacts":{"email":"mairie-escatalens@info82.com","telephone":"0563687046"},"horaires":"Du Lundi au Vendredi : de 09h00 à 12h00 de 14h00 à 18h00\n\nAccueil téléphonique\nDu lundi au vendredi de 14h à 18h à l'agence postale communale.","latitude":43.985096,"longitude":1.188821,"website":"","hasWebsite":false,"hasHoraires":true,"url":"https://lannuaire.service-public.gouv.fr/occitanie/tarn-et-garonne/9f4af03e-1094-41b6-9548-33b45df60aef"}
{"nom":"Escazeaux","nomNormalise":"escazeaux","typeCollectivite":"Commune","region":"Occitanie","departement":"Tarn-et-Garonne","departementCode":"82","adresse":{"street":"1 place de la Mairie","postalCode":"82500","city":"Escazeaux","country":"France"},"contacts":{"email":"mairie-escazeaux@info82.com","telephone":"0563023752"},"horaires":"Le Mardi : de 08h00 à 12h00 de 14h00 à 17h00\nLe Jeudi : de 08h00 à 12h00 de 14h00 à 17h00","latitude":43.835167,"longitude":1.023608,"website":"","hasWebsite":false,"hasHoraires":true,"url":"https://lannuaire.service-public.gouv.fr/occitanie/tarn-et-garonne/3f4a7303-9fe8-4604-bd9f-f141e0f9ee2d"}
{"nom":"Espalais","nomNormalise":"espalais","typeCollectivite":"Commune","region":"Occitanie","departement":"Tarn-et-Garonne","departementCode":"82","adresse":{"street":"19 rue du Barry","postalCode":"82400","city":"Espalais","country":"France"},"contacts":{"email":"mairie-espalais@info82.com","telephone":"0563396485"},"horaires":"Du Mardi au Jeudi : de 08h00 à 12h00\nLe Vendredi : de 08h00 à 12h00 de 13h00 à 16h30\nLe Samedi : de 08h00 à 12h00","latitude":44.077007,"longitude":0.903238,"website":"http://www.espalais.fr/","hasWebsite":true,"hasHoraires":true,"url":"https://lannuaire.service-public.gouv.fr/occitanie/tarn-et-garonne/8a287ece-4646-4d49-abac-29379fc9c9bb"}
{"nom":"Esparsac","nomNormalise":"esparsac","typeCollectivite":"Commune","region":"Occitanie","departement":"Tarn-et-Garonne","departementCode":"82","adresse":{"street":"Village","postalCode":"82500","city":"Esparsac","country":"France"},"contacts":{"email":"mairie-esparsac@info82.com","telephone":"0563024002"},"horaires":"Le Mardi : de 09h00 à 12h00\nLe Jeudi : de 09h00 à 12h00\nLe Vendredi : de 14h00 à 18h00","latitude":43.902473,"longitude":0.941738,"website":"http://www.esparsac.fr/","hasWebsite":true,"hasHoraires":true,"url":"https://lannuaire.service-public.gouv.fr/occitanie/tarn-et-garonne/27d5fba8-2efb-4b65-9048-d9adffd091fc"}
{"nom":"Espinas","nomNormalise":"espinas","typeCollectivite":"Commune","region":"Occitanie","departement":"Tarn-et-Garonne","departementCode":"82","adresse":{"street":"98 avenue de l'Ormeau","postalCode":"82160","city":"Espinas","country":"France"},"contacts":{"email":"mairie@espinas.fr","telephone":"0563306472"},"horaires":"Le Lundi : de 09h00 à 12h00 de 13h30 à 17h00\nLe Jeudi : de 09h00 à 12h00 de 13h30 à 17h00","latitude":44.19649,"longitude":1.829682,"website":"https://www.intramuros.org/espinas","hasWebsite":true,"hasHoraires":true,"url":"https://lannuaire.service-public.gouv.fr/occitanie/tarn-et-garonne/4ba3a268-3061-44fa-a17e-1e0407a0b8e7"}
{"nom":"Fabas","nomNormalise":"fabas","typeCollectivite":"Commune","region":"Occitanie","departement":"Tarn-et-Garonne","departementCode":"82","adresse":{"street":"1 place Pierre-Tajean","postalCode":"82170","city":"Fabas","country":"France"},"contacts":{"email":"mairie-fabas@info82.com","telephone":"0563673057"},"horaires":"Le Mardi : de 09h00 à 12h00\nLe Mercredi : de 09h00 à 12h30 de 13h30 à 18h00\nLe Vendredi : de 09h00 à 12h30 de 13h30 à 17h00","latitude":43.86017,"longitude":1.350551,"website":"http://www.fabas82.fr/","hasWebsite":true,"hasHoraires":true,"url":"https://lannuaire.service-public.gouv.fr/occitanie/tarn-et-garonne/f9b69d19-922a-4cc0-bc3b-4aba87737b7d"}
{"nom":"Fajolles","nomNormalise":"fajolles","typeCollectivite":"Commune","region":"Occitanie","departement":"Tarn-et-Garonne","departementCode":"82","adresse":{"street":"131 rue de la Mairie","postalCode":"82210","city":"Fajolles","country":"France"},"contacts":{"email":"mairie@fajolles82.fr","telephone":"0563956306"},"horaires":"Le Mardi : de 13h30 à 17h30\nLe Vendredi : de 13h30 à 17h30","latitude":43.967033,"longitude":1.01368,"website":"","hasWebsite":false,"hasHoraires":true,"url":"https://lannuaire.service-public.gouv.fr/occitanie/tarn-et-garonne/4c4f6b90-a7e5-4be4-8361-7cb6aeb26a86"}
{"nom":"Faudoas","nomNormalise":"faudoas","typeCollectivite":"Commune","region":"Occitanie","departement":"Tarn-et-Garonne","departementCode":"82","adresse":{"street":"31 route de Saint-Laurent","postalCode":"82500","city":"Faudoas","country":"France"},"contacts":{"email":"mairie-faudoas@info82.com","telephone":"0563023168"},"horaires":"Le Mardi : de 08h30 à 12h00 de 13h00 à 16h30\nLe Vendredi : de 08h30 à 12h00 de 13h00 à 16h30","latitude":43.824116,"longitude":0.956726,"website":"http://www.faudoas.com/frla-municipalite/la-mairie.html","hasWebsite":true,"hasHoraires":true,"url":"https://lannuaire.service-public.gouv.fr/occitanie/tarn-et-garonne/3b642b12-db82-46e7-8984-b1bd16fab87e"}
{"nom":"Fauroux","nomNormalise":"fauroux","typeCollectivite":"Commune","region":"Occitanie","departement":"Tarn-et-Garonne","departementCode":"82","adresse":{"street":"170 D route de l'Église","postalCode":"82190","city":"Fauroux","country":"France"},"contacts":{"email":"mairie@fauroux82.fr","telephone":"0563942647"},"horaires":"Le Lundi : de 08h30 à 12h30 de 13h30 à 16h30\nLe Vendredi : de 08h30 à 12h30","latitude":44.243393,"longitude":1.005003,"website":"","hasWebsite":false,"hasHoraires":true,"url":"https://lannuaire.service-public.gouv.fr/occitanie/tarn-et-garonne/86aba4e1-7084-4ecd-8486-b63e5813517b"}
{"nom":"Féneyrols","nomNormalise":"feneyrols","typeCollectivite":"Commune","region":"Occitanie","departement":"Tarn-et-Garonne","departementCode":"82","adresse":{"street":"Le Goutal","postalCode":"82140","city":"Féneyrols","country":"France"},"contacts":{"email":"mairie.feneyrols@orange.fr","telephone":"0563306175"},"horaires":"Le Mercredi : de 08h30 à 12h00 de 13h00 à 17h00","latitude":44.130947,"longitude":1.818989,"website":"http://www.feneyrols.fr/","hasWebsite":true,"hasHoraires":true,"url":"https://lannuaire.service-public.gouv.fr/occitanie/tarn-et-garonne/51b29540-938b-429f-a68c-968aed69ff21"}
{"nom":"Finhan","nomNormalise":"finhan","typeCollectivite":"Commune","region":"Occitanie","departement":"Tarn-et-Garonne","departementCode":"82","adresse":{"street":"1 rue Tessié-Solier","postalCode":"82700","city":"Finhan","country":"France"},"contacts":{"email":"mairie-finhan@info82.com","telephone":"0563655436"},"horaires":"Du Lundi au Mardi : de 08h00 à 12h00 de 13h00 à 17h00\nLe Mercredi : de 08h00 à 12h00\nLe Jeudi : de 08h00 à 12h00 de 13h00 à 17h00\nLe Vendredi : de 08h00 à 12h00\nLe Samedi : de 09h00 à 12h00","latitude":43.9127,"longitude":1.21885,"website":"http://www.finhan.fr/","hasWebsite":true,"hasHoraires":true,"url":"https://lannuaire.service-public.gouv.fr/occitanie/tarn-et-garonne/ec27906f-19af-47f4-a0d5-ccbc91cd2220"}
{"nom":"Garganvillar","nomNormalise":"garganvillar","typeCollectivite":"Commune","region":"Occitanie","departement":"Tarn-et-Garonne","departementCode":"82","adresse":{"street":"5 rue de la Mairie","postalCode":"82100","city":"Garganvillar","country":"France"},"contacts":{"email":"mairie-garganvillar@info82.com","telephone":"0563956341"},"horaires":"Du Lundi au Mardi : de 09h00 à 12h00\nDu Jeudi au Vendredi : de 09h00 à 12h00","latitude":43.977554,"longitude":1.067049,"website":"https://www.garganvillar.fr/","hasWebsite":true,"hasHoraires":true,"url":"https://lannuaire.service-public.gouv.fr/occitanie/tarn-et-garonne/93963c32-0bff-4cc4-8feb-11d16ddc4d13"}
{"nom":"Gariès","nomNormalise":"garies","typeCollectivite":"Commune","region":"Occitanie","departement":"Tarn-et-Garonne","departementCode":"82","adresse":{"street":"Le Bourg","postalCode":"82500","city":"Gariès","country":"France"},"contacts":{"email":"mairie-garies@info82.com","telephone":"0563652016"},"horaires":"Le Mardi : de 14h00 à 17h00\nLe Jeudi : de 09h00 à 12h00","latitude":43.806072,"longitude":1.030129,"website":"","hasWebsite":false,"hasHoraires":true,"url":"https://lannuaire.service-public.gouv.fr/occitanie/tarn-et-garonne/aed962cf-c0a2-4328-9439-83dc0de7aa32"}
{"nom":"Gasques","nomNormalise":"gasques","typeCollectivite":"Commune","region":"Occitanie","departement":"Tarn-et-Garonne","departementCode":"82","adresse":{"street":"47 place du Vieux-Puits","postalCode":"82400","city":"Gasques","country":"France"},"contacts":{"email":"mairie-gasques@info82.com","telephone":"0563290006"},"horaires":"Du Lundi au Mardi : de 08h30 à 17h00\nLe Mercredi : de 08h30 à 11h30\nLe Jeudi : de 08h30 à 17h00\nLe Vendredi : de 08h30 à 12h30","latitude":44.153954,"longitude":0.91893,"website":"http://www.gasques.fr/","hasWebsite":true,"hasHoraires":true,"url":"https://lannuaire.service-public.gouv.fr/occitanie/tarn-et-garonne/5493c1a0-a41c-4aea-8425-802da4e8d74a"}
{"nom":"Génébrières","nomNormalise":"genebrieres","typeCollectivite":"Commune","region":"Occitanie","departement":"Tarn-et-Garonne","departementCode":"82","adresse":{"street":"223 voie communale 1","postalCode":"82230","city":"Génébrières","country":"France"},"contacts":{"email":"mairie-genebrieres@info82.com","telephone":"0563304214"},"horaires":"Le Lundi : de 09h00 à 12h15 de 13h00 à 17h30\nLe Mardi : de 09h00 à 12h15 de 13h00 à 16h30\nLe Mercredi : de 09h00 à 12h15\nLe Jeudi : de 09h00 à 12h15 de 13h00 à 17h30\nLe Vendredi : de 09h00 à 12h15 de 13h00 à 16h30","latitude":43.994957,"longitude":1.5014844,"website":"http://www.genebrieres.fr/","hasWebsite":true,"hasHoraires":true,"url":"https://lannuaire.service-public.gouv.fr/occitanie/tarn-et-garonne/bc1d7b7b-0b9a-4461-8d7d-46565d6d980d"}
{"nom":"Gensac","nomNormalise":"gensac","typeCollectivite":"Commune","region":"Occitanie","departement":"Tarn-et-Garonne","departementCode":"82","adresse":{"street":"Le Bourg","postalCode":"82120","city":"Gensac","country":"France"},"contacts":{"email":"mairie-gensac@info82.com","telephone":"0563940647"},"horaires":"Le Mardi : de 14h00 à 18h00","latitude":43.953175,"longitude":0.95506,"website":"http://www.gensac.fr/","hasWebsite":true,"hasHoraires":true,"url":"https://lannuaire.service-public.gouv.fr/occitanie/tarn-et-garonne/58d07706-ab65-475e-b4dd-3690be026f79"}
{"nom":"Gimat","nomNormalise":"gimat","typeCollectivite":"Commune","region":"Occitanie","departement":"Tarn-et-Garonne","departementCode":"82","adresse":{"street":"Résidence Loumo","postalCode":"82500","city":"Gimat","country":"France"},"contacts":{"email":"mairie-gimat@info82.com","telephone":"0563022510"},"horaires":"Le Lundi : de 13h00 à 18h00\nLe Vendredi : de 13h00 à 18h00","latitude":43.851933,"longitude":0.9409405,"website":"","hasWebsite":false,"hasHoraires":true,"url":"https://lannuaire.service-public.gouv.fr/occitanie/tarn-et-garonne/2f433965-9cdb-4bd6-aff7-e0dcf945640d"}
{"nom":"Ginals","nomNormalise":"ginals","typeCollectivite":"Commune","region":"Occitanie","departement":"Tarn-et-Garonne","departementCode":"82","adresse":{"street":"1 place de Lardaillé","postalCode":"82330","city":"Ginals","country":"France"},"contacts":{"email":"mairie@ginals82.fr","telephone":"0563654477"},"horaires":"Le Mardi : de 09h00 à 12h00\nLe Jeudi : de 09h00 à 12h00","latitude":44.213215,"longitude":1.86473,"website":"https://www.ginals82.fr/","hasWebsite":true,"hasHoraires":true,"url":"https://lannuaire.service-public.gouv.fr/occitanie/tarn-et-garonne/44089de4-c028-4c53-82e5-fd515203a8dd"}
{"nom":"Glatens","nomNormalise":"glatens","typeCollectivite":"Commune","region":"Occitanie","departement":"Tarn-et-Garonne","departementCode":"82","adresse":{"street":"Village","postalCode":"82500","city":"Glatens","country":"France"},"contacts":{"email":"mairie-glatens@info82.com","telephone":"0563653403"},"horaires":"Le Jeudi : de 13h30 à 18h00","latitude":43.89308,"longitude":0.91626,"website":"","hasWebsite":false,"hasHoraires":true,"url":"https://lannuaire.service-public.gouv.fr/occitanie/tarn-et-garonne/c15e5d37-73d9-4c19-b27e-df3808a161ff"}
{"nom":"Goas","nomNormalise":"goas","typeCollectivite":"Commune","region":"Occitanie","departement":"Tarn-et-Garonne","departementCode":"82","adresse":{"street":"Le Bourg","postalCode":"82500","city":"Goas","country":"France"},"contacts":{"email":"mairie-goas@info82.com","telephone":"0563022497"},"horaires":"Le Lundi : de 08h00 à 12h00","latitude":43.81455,"longitude":0.962602,"website":"","hasWebsite":false,"hasHoraires":true,"url":"https://lannuaire.service-public.gouv.fr/occitanie/tarn-et-garonne/df2d11e4-5aca-4728-b7ec-5466d1209f89"}
{"nom":"Golfech","nomNormalise":"golfech","typeCollectivite":"Commune","region":"Occitanie","departement":"Tarn-et-Garonne","departementCode":"82","adresse":{"street":"6 place du Padouen","postalCode":"82400","city":"Golfech","country":"France"},"contacts":{"email":"secretariat@communedegolfech.fr","telephone":"0563294200"},"horaires":"Du Lundi au Mardi : de 10h00 à 12h00 de 15h30 à 17h30\nLe Jeudi : de 15h30 à 17h30\nLe Vendredi : de 10h00 à 12h00 de 15h30 à 17h30\nLe Samedi : de 10h00 à 12h00\n\nSur rendez-vous uniquement.","latitude":44.1144,"longitude":0.850396,"website":"https://www.ville-golfech.fr/","hasWebsite":true,"hasHoraires":true,"url":"https://lannuaire.service-public.gouv.fr/occitanie/tarn-et-garonne/82a2beea-87bd-4440-8ee5-6f34d0827949"}
{"nom":"Goudourville","nomNormalise":"goudourville","typeCollectivite":"Commune","region":"Occitanie","departement":"Tarn-et-Garonne","departementCode":"82","adresse":{"street":"Le Bourg","postalCode":"82400","city":"Goudourville","country":"France"},"contacts":{"email":"mairie@goudourville82.fr","telephone":"0563395056"},"horaires":"Le Lundi : de 14h00 à 17h00\nLe Mardi : de 08h30 à 11h30 de 14h00 à 17h00\nLe Mercredi : de 14h00 à 17h00\nDu Jeudi au Vendredi : de 08h30 à 11h30 de 14h00 à 17h00\nOuvert le 1er samedi de chaque mois excepté juillet/aout de 9h à11h30.","latitude":44.114193,"longitude":0.928121,"website":"https://goudourville.fr/","hasWebsite":true,"hasHoraires":true,"url":"https://lannuaire.service-public.gouv.fr/occitanie/tarn-et-garonne/a4ed9b55-15ae-4d33-b506-e005fc9adb68"}
{"nom":"Gramont","nomNormalise":"gramont","typeCollectivite":"Commune","region":"Occitanie","departement":"Tarn-et-Garonne","departementCode":"82","adresse":{"street":"Le Bourg","postalCode":"82120","city":"Gramont","country":"France"},"contacts":{"email":"mairie@gramont.fr","telephone":"0563940988"},"horaires":"Le Mardi : de 13h30 à 17h30","latitude":43.936848,"longitude":0.767351,"website":"https://www.gramont.fr/","hasWebsite":true,"hasHoraires":true,"url":"https://lannuaire.service-public.gouv.fr/occitanie/tarn-et-garonne/51facb8d-2fc8-481a-8267-612a9aeec7f8"}
{"nom":"Grisolles","nomNormalise":"grisolles","typeCollectivite":"Commune","region":"Occitanie","departement":"Tarn-et-Garonne","departementCode":"82","adresse":{"street":"4 avenue de la République","postalCode":"82170","city":"Grisolles","country":"France"},"contacts":{"email":"mairie@ville-grisolles82.fr","telephone":"0563673021"},"horaires":"Le Lundi : de 08h30 à 12h00 de 13h00 à 17h00\nLe Mardi : de 08h30 à 12h00 de 15h00 à 17h00\nLe Mercredi : de 13h00 à 17h00\nLe Jeudi : de 08h30 à 12h00\nLe Vendredi : de 08h30 à 12h00 de 13h00 à 17h00\nLe Samedi : de 09h00 à 12h00","latitude":43.8269,"longitude":1.29554,"website":"http://www.ville-grisolles82.fr/","hasWebsite":true,"hasHoraires":true,"url":"https://lannuaire.service-public.gouv.fr/occitanie/tarn-et-garonne/f6df96bc-a2ac-40bd-ae03-e1b1c578d836"}
{"nom":"L'Honor-de-Cos","nomNormalise":"lhonordecos","typeCollectivite":"Commune","region":"Occitanie","departement":"Tarn-et-Garonne","departementCode":"82","adresse":{"street":"35 chemin du Four","postalCode":"82130","city":"L'Honor-de-Cos","country":"France"},"contacts":{"email":"mairie@lhonordecos.fr","telephone":"0563313506"},"horaires":"Du Lundi au Mardi : de 08h00 à 12h00 de 13h30 à 17h30\nLe Mercredi : de 08h00 à 12h00 de 13h30 à 17h00\nDu Jeudi au Vendredi : de 08h00 à 12h00 de 13h30 à 17h30\nLe Samedi : de 08h00 à 12h00","latitude":44.121502,"longitude":1.348628,"website":"http://www.lhonordecos.fr/","hasWebsite":true,"hasHoraires":true,"url":"https://lannuaire.service-public.gouv.fr/occitanie/tarn-et-garonne/e1a228e8-5ecb-4fca-9fed-70ea375e1527"}
{"nom":"Labarthe","nomNormalise":"labarthe","typeCollectivite":"Commune","region":"Occitanie","departement":"Tarn-et-Garonne","departementCode":"82","adresse":{"street":"Laglayette","postalCode":"82220","city":"Labarthe","country":"France"},"contacts":{"email":"mairie-labarthe@info82.com","telephone":"0563677551"},"horaires":"Le Mardi : de 13h30 à 17h30\nLe Jeudi : de 09h00 à 12h00\nLe Vendredi : de 13h30 à 16h30","latitude":44.208553,"longitude":1.3149868,"website":"","hasWebsite":false,"hasHoraires":true,"url":"https://lannuaire.service-public.gouv.fr/occitanie/tarn-et-garonne/12c5c005-9a3f-48d5-89d4-fc33a4774794"}
{"nom":"Labastide-de-Penne","nomNormalise":"labastidedepenne","typeCollectivite":"Commune","region":"Occitanie","departement":"Tarn-et-Garonne","departementCode":"82","adresse":{"street":"8 place Saint-Martin","postalCode":"82240","city":"Labastide-de-Penne","country":"France"},"contacts":{"email":"mairie@labastide-de-penne.fr","telephone":"0563649879"},"horaires":"Le Vendredi : de 09h00 à 16h00","latitude":44.28028,"longitude":1.602873,"website":"","hasWebsite":false,"hasHoraires":true,"url":"https://lannuaire.service-public.gouv.fr/occitanie/tarn-et-garonne/e11d27b2-9f31-4b8a-b26c-5664327948e0"}
{"nom":"Labastide-du-Temple","nomNormalise":"labastidedutemple","typeCollectivite":"Commune","region":"Occitanie","departement":"Tarn-et-Garonne","departementCode":"82","adresse":{"street":"9 Grand'rue","postalCode":"82100","city":"Labastide-du-Temple","country":"France"},"contacts":{"email":"mairie-labastide.du.temple@info82.com","telephone":"0563316250"},"horaires":"Du Lundi au Vendredi : de 14h00 à 18h00","latitude":44.08465,"longitude":1.194975,"website":"http://www.labastide-du-temple.fr/","hasWebsite":true,"hasHoraires":true,"url":"https://lannuaire.service-public.gouv.fr/occitanie/tarn-et-garonne/b49b3322-c4cc-42c1-9d1e-7c3ac8296e99"}
{"nom":"Labastide-Saint-Pierre","nomNormalise":"labastidesaintpierre","typeCollectivite":"Commune","region":"Occitanie","departement":"Tarn-et-Garonne","departementCode":"82","adresse":{"street":"Place de la Mairie","postalCode":"82370","city":"Labastide-Saint-Pierre","country":"France"},"contacts":{"email":"secretariat@labastide-st-pierre.fr","telephone":"0563305027"},"horaires":"Le Lundi : de 13h30 à 17h00\nDu Mardi au Vendredi : de 09h00 à 12h00 de 13h30 à 17h00\nLe Samedi : de 09h00 à 12h00","latitude":43.91881,"longitude":1.367558,"website":"http://www.labastide-st-pierre.fr/","hasWebsite":true,"hasHoraires":true,"url":"https://lannuaire.service-public.gouv.fr/occitanie/tarn-et-garonne/c440a2c9-a8e4-491c-b145-a4200a4b1bfb"}
{"nom":"Labourgade","nomNormalise":"labourgade","typeCollectivite":"Commune","region":"Occitanie","departement":"Tarn-et-Garonne","departementCode":"82","adresse":{"street":"Rue de la Tuilerie","postalCode":"82100","city":"Labourgade","country":"France"},"contacts":{"email":"mairie-labourgade@info82.com","telephone":"0563956129"},"horaires":"Le Lundi : de 09h00 à 12h00\nLe Jeudi : de 14h00 à 17h00","latitude":43.949657,"longitude":1.1012584,"website":"","hasWebsite":false,"hasHoraires":true,"url":"https://lannuaire.service-public.gouv.fr/occitanie/tarn-et-garonne/469e62f3-e61c-4420-9541-b0c85285965c"}
{"nom":"Lacapelle-Livron","nomNormalise":"lacapellelivron","typeCollectivite":"Commune","region":"Occitanie","departement":"Tarn-et-Garonne","departementCode":"82","adresse":{"street":"Le Bourg","postalCode":"82160","city":"Lacapelle-Livron","country":"France"},"contacts":{"email":"mairie-lacapelle.livron@info82.com","telephone":"0563670429"},"horaires":"Le Lundi : de 09h00 à 12h00\nLe Jeudi : de 09h00 à 12h00\nLe Samedi : de 10h00 à 12h00","latitude":44.267105,"longitude":1.7833759,"website":"","hasWebsite":false,"hasHoraires":true,"url":"https://lannuaire.service-public.gouv.fr/occitanie/tarn-et-garonne/64a565f6-02ba-477b-ad1c-7d3bbb6b6c19"}
{"nom":"Lachapelle","nomNormalise":"lachapelle","typeCollectivite":"Commune","region":"Occitanie","departement":"Tarn-et-Garonne","departementCode":"82","adresse":{"street":"63 rue de l'Eglise Saint-Pierre","postalCode":"82120","city":"Lachapelle","country":"France"},"contacts":{"email":"mairie-lachapelle@info82.com","telephone":"0563940670"},"horaires":"Le Lundi : de 09h00 à 12h30\nLe Jeudi : de 09h00 à 12h00","latitude":43.985516,"longitude":0.843257,"website":"","hasWebsite":false,"hasHoraires":true,"url":"https://lannuaire.service-public.gouv.fr/occitanie/tarn-et-garonne/165d847d-6650-4434-b273-e7ea4123cb76"}
{"nom":"Lacour-de-Visa","nomNormalise":"lacourdevisa","typeCollectivite":"Commune","region":"Occitanie","departement":"Tarn-et-Garonne","departementCode":"82","adresse":{"street":"14 rue de la Mairie","postalCode":"82190","city":"Lacour","country":"France"},"contacts":{"email":"mairie-lacour.de.visa@info82.com","telephone":"0563952325"},"horaires":"Le Lundi : de 09h00 à 12h00\nLe Jeudi : de 14h00 à 17h00","latitude":44.29168,"longitude":0.94594,"website":"","hasWebsite":false,"hasHoraires":true,"url":"https://lannuaire.service-public.gouv.fr/occitanie/tarn-et-garonne/0f0ea0fc-1ce9-4dea-a8d5-c3d2b99d8066"}
{"nom":"Lacourt-Saint-Pierre","nomNormalise":"lacourtsaintpierre","typeCollectivite":"Commune","region":"Occitanie","departement":"Tarn-et-Garonne","departementCode":"82","adresse":{"street":"35 rue de la Mairie","postalCode":"82290","city":"Lacourt-Saint-Pierre","country":"France"},"contacts":{"email":"mairie-lacourt.saint.pierre@info82.com","telephone":"0563674931"},"horaires":"Du Lundi au Jeudi : de 14h00 à 18h00\nLe Vendredi : de 14h00 à 17h00","latitude":43.9861,"longitude":1.26451,"website":"http://lacourt-saint-pierre.fr/","hasWebsite":true,"hasHoraires":true,"url":"https://lannuaire.service-public.gouv.fr/occitanie/tarn-et-garonne/babdb8dc-8ecf-419e-aa5a-89b2ed115645"}
{"nom":"Lafitte","nomNormalise":"lafitte","typeCollectivite":"Commune","region":"Occitanie","departement":"Tarn-et-Garonne","departementCode":"82","adresse":{"street":"3 place Gimone","postalCode":"82100","city":"Lafitte","country":"France"},"contacts":{"email":"mairie-lafitte@info82.com","telephone":"0563956144"},"horaires":"Le Lundi : de 09h30 à 17h30\nLe Jeudi : de 10h00 à 18h00","latitude":43.97259,"longitude":1.11956,"website":"","hasWebsite":false,"hasHoraires":true,"url":"https://lannuaire.service-public.gouv.fr/occitanie/tarn-et-garonne/e9a9d73d-8d21-419d-9ad3-f1c87c39526f"}
{"nom":"Lafrançaise","nomNormalise":"lafrancaise","typeCollectivite":"Commune","region":"Occitanie","departement":"Tarn-et-Garonne","departementCode":"82","adresse":{"street":"1 place de la République","postalCode":"82130","city":"Lafrançaise","country":"France"},"contacts":{"email":"mairie@lafrancaise.fr","telephone":"0563264848"},"horaires":"Du Lundi au Vendredi : de 08h30 à 12h00 de 13h30 à 17h00","latitude":44.12569,"longitude":1.24099,"website":"http://www.lafrancaise.fr/","hasWebsite":true,"hasHoraires":true,"url":"https://lannuaire.service-public.gouv.fr/occitanie/tarn-et-garonne/8bf0d59d-27e4-475e-a087-2254b6518709"}
{"nom":"Laguépie","nomNormalise":"laguepie","typeCollectivite":"Commune","region":"Occitanie","departement":"Tarn-et-Garonne","departementCode":"82","adresse":{"street":"2 rue de la Mairie","postalCode":"82250","city":"Laguépie","country":"France"},"contacts":{"email":"mairie-laguepie@info82.com","telephone":"0563302081"},"horaires":"Le Mardi : de 09h00 à 12h00\nLe Mercredi : de 09h00 à 12h00 de 14h00 à 18h00\nLe Jeudi : de 09h00 à 12h00\nLe Vendredi : de 09h00 à 12h00 de 14h00 à 18h00\nLe Samedi : de 09h00 à 12h00","latitude":44.144,"longitude":1.97074,"website":"http://www.laguepie.fr/","hasWebsite":true,"hasHoraires":true,"url":"https://lannuaire.service-public.gouv.fr/occitanie/tarn-et-garonne/8dd35a34-a16d-4b4f-b3b9-919e3a60db2c"}
{"nom":"Lamagistère","nomNormalise":"lamagistere","typeCollectivite":"Commune","region":"Occitanie","departement":"Tarn-et-Garonne","departementCode":"82","adresse":{"street":"1 allée Louis-Bourgeat","postalCode":"82360","city":"Lamagistère","country":"France"},"contacts":{"email":"mairie@lamagistere.fr","telephone":"0563399011"},"horaires":"Du Lundi au Mardi : de 10h00 à 12h00 de 14h00 à 17h00\nLe Mercredi : de 14h00 à 17h30\nLe Jeudi : de 10h00 à 12h00 de 14h00 à 17h30\nLe Vendredi : de 10h00 à 12h00 de 14h00 à 17h00","latitude":44.12382,"longitude":0.824831,"website":"https://lamagistere.fr/","hasWebsite":true,"hasHoraires":true,"url":"https://lannuaire.service-public.gouv.fr/occitanie/tarn-et-garonne/75e5aa96-954d-49ab-a254-3662943f7430"}
{"nom":"Lamothe-Capdeville","nomNormalise":"lamothecapdeville","typeCollectivite":"Commune","region":"Occitanie","departement":"Tarn-et-Garonne","departementCode":"82","adresse":{"street":"7 Grande-Rue d'Ardus","postalCode":"82130","city":"Lamothe-Capdeville","country":"France"},"contacts":{"email":"mairie@lamothe-capdeville.fr","telephone":"0563313229"},"horaires":"Du Lundi au Mardi : de 08h30 à 12h00\nLe Mercredi : de 08h30 à 12h00 de 14h00 à 18h00\nDu Jeudi au Vendredi : de 08h30 à 12h00","latitude":44.0776,"longitude":1.37236,"website":"https://www.lamothe-capdeville.fr/","hasWebsite":true,"hasHoraires":true,"url":"https://lannuaire.service-public.gouv.fr/occitanie/tarn-et-garonne/94696003-3b8f-4062-9275-ab5c7ae4e067"}
{"nom":"Lamothe-Cumont","nomNormalise":"lamothecumont","typeCollectivite":"Commune","region":"Occitanie","departement":"Tarn-et-Garonne","departementCode":"82","adresse":{"street":"Le Bourg","postalCode":"82500","city":"Lamothe-Cumont","country":"France"},"contacts":{"email":"mairie-lamothe.cumont@info82.com","telephone":"0563653381"},"horaires":"Le Mardi : de 08h00 à 11h30\nLe Vendredi : de 08h00 à 11h30","latitude":43.87739,"longitude":0.915987,"website":"","hasWebsite":false,"hasHoraires":true,"url":"https://lannuaire.service-public.gouv.fr/occitanie/tarn-et-garonne/b0a401eb-ca5d-426f-89b2-a5de30bfe63d"}
{"nom":"Lapenche","nomNormalise":"lapenche","typeCollectivite":"Commune","region":"Occitanie","departement":"Tarn-et-Garonne","departementCode":"82","adresse":{"street":"16 place des Marronniers","postalCode":"82240","city":"Lapenche","country":"France"},"contacts":{"email":"mairie-lapenche@info82.com","telephone":"0563319565"},"horaires":"Le Mardi : de 14h00 à 18h00\nLe Vendredi : de 09h00 à 12h00","latitude":44.22426,"longitude":1.575851,"website":"http://www.lapenche.fr/","hasWebsite":true,"hasHoraires":true,"url":"https://lannuaire.service-public.gouv.fr/occitanie/tarn-et-garonne/6a3184ae-25b3-432e-8d65-1ab1d7d938ea"}
{"nom":"Larrazet","nomNormalise":"larrazet","typeCollectivite":"Commune","region":"Occitanie","departement":"Tarn-et-Garonne","departementCode":"82","adresse":{"street":"1 place Jean-Moulin","postalCode":"82500","city":"Larrazet","country":"France"},"contacts":{"email":"mairie-larrazet@info82.com","telephone":"0563207094"},"horaires":"Du Lundi au Mardi : de 08h00 à 12h00\nDu Jeudi au Vendredi : de 08h00 à 12h00","latitude":43.931454,"longitude":1.0812092,"website":"http://www.larrazet.fr/","hasWebsite":true,"hasHoraires":true,"url":"https://lannuaire.service-public.gouv.fr/occitanie/tarn-et-garonne/ae9d590a-814d-4230-8b65-55bee5e0a9f6"}
{"nom":"La Salvetat-Belmontet","nomNormalise":"lasalvetatbelmontet","typeCollectivite":"Commune","region":"Occitanie","departement":"Tarn-et-Garonne","departementCode":"82","adresse":{"street":"51 route d'36 monclar fronton","postalCode":"82230","city":"La Salvetat-Belmontet","country":"France"},"contacts":{"email":"mairie@la-salvetat-belmontet.fr","telephone":"0563304105"},"horaires":"Le Lundi : de 08h00 à 12h00 de 14h00 à 17h00\nDu Mardi au Samedi : de 08h00 à 12h00","latitude":43.963226,"longitude":1.531497,"website":"https://www.la-salvetat-belmontet.fr/","hasWebsite":true,"hasHoraires":true,"url":"https://lannuaire.service-public.gouv.fr/occitanie/tarn-et-garonne/734ea1c3-36fe-4066-865f-60334fda4813"}
{"nom":"Lauzerte","nomNormalise":"lauzerte","typeCollectivite":"Commune","region":"Occitanie","departement":"Tarn-et-Garonne","departementCode":"82","adresse":{"street":"5 rue de la Mairie","postalCode":"82110","city":"Lauzerte","country":"France"},"contacts":{"email":"mairie@lauzerte.fr","telephone":"0563946514"},"horaires":"Du Lundi au Mercredi : de 09h00 à 12h00 de 14h00 à 17h30\nLe Vendredi : de 09h00 à 12h00 de 14h00 à 17h30\nLe Samedi : de 09h00 à 12h00\n\nAccueil ouvert uniquement le 1e samedi du mois.","latitude":44.2568,"longitude":1.13777,"website":"http://www.lauzerte.fr/","hasWebsite":true,"hasHoraires":true,"url":"https://lannuaire.service-public.gouv.fr/occitanie/tarn-et-garonne/7ae0a6da-0a0a-4bad-a3f1-95b4ca0e0e40"}
{"nom":"Lavaurette","nomNormalise":"lavaurette","typeCollectivite":"Commune","region":"Occitanie","departement":"Tarn-et-Garonne","departementCode":"82","adresse":{"street":"Le Bourg","postalCode":"82240","city":"Lavaurette","country":"France"},"contacts":{"email":"mairie-lavaurette@info82.com","telephone":"0563649225"},"horaires":"Le Lundi : de 14h00 à 16h30\nLe Mardi : de 09h00 à 12h00\nLe Jeudi : de 14h00 à 16h30\nLe Vendredi : de 09h00 à 12h00","latitude":44.20519,"longitude":1.670342,"website":"http://www.lavaurette.fr/","hasWebsite":true,"hasHoraires":true,"url":"https://lannuaire.service-public.gouv.fr/occitanie/tarn-et-garonne/a3557664-8e8d-4466-8dc9-15b846592f12"}
{"nom":"La Ville-Dieu-du-Temple","nomNormalise":"lavilledieudutemple","typeCollectivite":"Commune","region":"Occitanie","departement":"Tarn-et-Garonne","departementCode":"82","adresse":{"street":"12-14 Grand'rue","postalCode":"82290","city":"La Ville-Dieu-du-Temple","country":"France"},"contacts":{"email":"mairie@lavilledieudutemple.fr","telephone":"0563316029"},"horaires":"Du Lundi au Mardi : de 09h00 à 12h00 de 14h00 à 18h00\nLe Mercredi : de 09h00 à 12h00\nDu Jeudi au Vendredi : de 09h00 à 12h00 de 14h00 à 18h00","latitude":44.03429,"longitude":1.2172344,"website":"https://www.lavilledieudutemple.fr/","hasWebsite":true,"hasHoraires":true,"url":"https://lannuaire.service-public.gouv.fr/occitanie/tarn-et-garonne/32b0d099-9863-43a5-97b0-0051c32affe1"}
{"nom":"Lavit-de-Lomagne","nomNormalise":"lavitdelomagne","typeCollectivite":"Commune","region":"Occitanie","departement":"Tarn-et-Garonne","departementCode":"82","adresse":{"street":"Place de l'Hôtel-de-Ville","postalCode":"82120","city":"Lavit-de-Lomagne","country":"France"},"contacts":{"email":"mairie-lavit.de.lomagne@info82.com","telephone":"0563940554"},"horaires":"Du Lundi au Vendredi : de 09h00 à 12h00 de 14h00 à 17h00","latitude":43.95703,"longitude":0.920141,"website":"http://www.lavit-de-lomagne.fr/","hasWebsite":true,"hasHoraires":true,"url":"https://lannuaire.service-public.gouv.fr/occitanie/tarn-et-garonne/f525ca4f-4ca2-4629-a3cb-3ca62f205040"}
{"nom":"Le Causé","nomNormalise":"lecause","typeCollectivite":"Commune","region":"Occitanie","departement":"Tarn-et-Garonne","departementCode":"82","adresse":{"street":"1 place Basile-Cassaignau","postalCode":"82500","city":"Le Causé","country":"France"},"contacts":{"email":"mairie@le-cause.fr","telephone":"0563652147"},"horaires":"Le Lundi : de 14h00 à 17h00\nLe Jeudi : de 09h00 à 12h00 de 14h00 à 17h00","latitude":43.801544,"longitude":0.969336,"website":"http://www.le-cause.fr/","hasWebsite":true,"hasHoraires":true,"url":"https://lannuaire.service-public.gouv.fr/occitanie/tarn-et-garonne/b2c23951-c489-4e18-9790-537faac0b54b"}
{"nom":"Léojac-Bellegarde","nomNormalise":"leojacbellegarde","typeCollectivite":"Commune","region":"Occitanie","departement":"Tarn-et-Garonne","departementCode":"82","adresse":{"street":"55 lotissement les Vergnous","postalCode":"82230","city":"Léojac-Bellegarde","country":"France"},"contacts":{"email":"mairie@leojac.fr","telephone":"0563645805"},"horaires":"Du Lundi au Jeudi : de 08h00 à 12h00 de 13h30 à 17h30\nLe Vendredi : de 08h00 à 12h00 de 13h30 à 17h00","latitude":44.0033,"longitude":1.44818,"website":"https://www.leojac.fr/","hasWebsite":true,"hasHoraires":true,"url":"https://lannuaire.service-public.gouv.fr/occitanie/tarn-et-garonne/2b5fd208-e305-483e-a767-2df68a731c19"}
{"nom":"Le Pin","nomNormalise":"lepin","typeCollectivite":"Commune","region":"Occitanie","departement":"Tarn-et-Garonne","departementCode":"82","adresse":{"street":"Le Bourg","postalCode":"82340","city":"Le Pin","country":"France"},"contacts":{"email":"mairie-le.pin@orange.fr","telephone":"0563948363"},"horaires":"Le Lundi : de 08h30 à 12h00\nLe Jeudi : de 14h00 à 17h30","latitude":44.03538,"longitude":0.967992,"website":"http://www.le-pin.fr/","hasWebsite":true,"hasHoraires":true,"url":"https://lannuaire.service-public.gouv.fr/occitanie/tarn-et-garonne/c61bfed1-eb63-437f-8fa5-d0ab79f90da8"}
{"nom":"Les Barthes","nomNormalise":"lesbarthes","typeCollectivite":"Commune","region":"Occitanie","departement":"Tarn-et-Garonne","departementCode":"82","adresse":{"street":"52 chemin des Écoliers","postalCode":"82100","city":"Les Barthes","country":"France"},"contacts":{"email":"mairie-les.barthes@info82.com","telephone":"0563316254"},"horaires":"Du Lundi au Mardi : de 08h00 à 12h00\nLe Jeudi : de 08h00 à 12h00","latitude":44.09634,"longitude":1.170013,"website":"http://www.les-barthes.fr/","hasWebsite":true,"hasHoraires":true,"url":"https://lannuaire.service-public.gouv.fr/occitanie/tarn-et-garonne/94372b6f-8a1b-4d72-bf79-703a199b262b"}
{"nom":"Lizac","nomNormalise":"lizac","typeCollectivite":"Commune","region":"Occitanie","departement":"Tarn-et-Garonne","departementCode":"82","adresse":{"street":"3 rue de la Mairie","postalCode":"82200","city":"Lizac","country":"France"},"contacts":{"email":"mairie-lizac@info82.com","telephone":"0563041939"},"horaires":"Le Mardi : de 14h00 à 19h00\nLe Jeudi : de 14h00 à 19h00\nLe Vendredi : de 08h30 à 12h30 de 14h00 à 19h00","latitude":44.104946,"longitude":1.1864938,"website":"http://www.lizac.fr/","hasWebsite":true,"hasHoraires":true,"url":"https://lannuaire.service-public.gouv.fr/occitanie/tarn-et-garonne/4330d5b6-1bc9-4602-8797-50edc52d9a83"}
{"nom":"Loze","nomNormalise":"loze","typeCollectivite":"Commune","region":"Occitanie","departement":"Tarn-et-Garonne","departementCode":"82","adresse":{"street":"Le Bourg","postalCode":"82160","city":"Loze","country":"France"},"contacts":{"email":"mairie-loze@info82.com","telephone":"0563670051"},"horaires":"Le Mardi : de 13h00 à 17h30\nLe Vendredi : de 13h00 à 17h30","latitude":44.28634,"longitude":1.793478,"website":"http://www.mairiedeloze.fr/","hasWebsite":true,"hasHoraires":true,"url":"https://lannuaire.service-public.gouv.fr/occitanie/tarn-et-garonne/524937a2-8cae-451f-b884-85aa7a497775"}
{"nom":"Malause","nomNormalise":"malause","typeCollectivite":"Commune","region":"Occitanie","departement":"Tarn-et-Garonne","departementCode":"82","adresse":{"street":"1 rue de la Mairie","postalCode":"82200","city":"Malause","country":"France"},"contacts":{"email":"mairie.malause@wanadoo.fr","telephone":"0563395578"},"horaires":"Du Lundi au Mardi : de 14h00 à 18h00\nDu Jeudi au Vendredi : de 09h00 à 12h00 de 14h00 à 18h00","latitude":44.09044,"longitude":0.9726922,"website":"http://www.malause.fr/","hasWebsite":true,"hasHoraires":true,"url":"https://lannuaire.service-public.gouv.fr/occitanie/tarn-et-garonne/82e852bc-f856-4e65-ac6d-74f18d05af1e"}
{"nom":"Mansonville","nomNormalise":"mansonville","typeCollectivite":"Commune","region":"Occitanie","departement":"Tarn-et-Garonne","departementCode":"82","adresse":{"street":"18 rue de la Mairie","postalCode":"82120","city":"Mansonville","country":"France"},"contacts":{"email":"mairie-mansonville@info82.com","telephone":"0563940539"},"horaires":"Le Lundi : de 08h30 à 12h00 de 14h00 à 17h30\nLe Mardi : de 14h00 à 17h30\nLe Vendredi : de 08h30 à 12h00","latitude":44.016315,"longitude":0.840802,"website":"https://www.mansonville-fr.com/","hasWebsite":true,"hasHoraires":true,"url":"https://lannuaire.service-public.gouv.fr/occitanie/tarn-et-garonne/5ea555f1-47f8-4fab-96af-1a079f653354"}
{"nom":"Marignac","nomNormalise":"marignac","typeCollectivite":"Commune","region":"Occitanie","departement":"Tarn-et-Garonne","departementCode":"82","adresse":{"street":"Le Bourg","postalCode":"82500","city":"Marignac","country":"France"},"contacts":{"email":"mairie-marignac@info82.com","telephone":"0563023423"},"horaires":"Le Lundi : de 14h00 à 16h30\nLe Jeudi : de 09h00 à 12h00 de 14h00 à 16h30","latitude":43.843826,"longitude":0.912043,"website":"","hasWebsite":false,"hasHoraires":true,"url":"https://lannuaire.service-public.gouv.fr/occitanie/tarn-et-garonne/743d1156-7d2b-4f94-91e2-38a86d2a4829"}
{"nom":"Marsac","nomNormalise":"marsac","typeCollectivite":"Commune","region":"Occitanie","departement":"Tarn-et-Garonne","departementCode":"82","adresse":{"street":"25 Grand'Rue","postalCode":"82120","city":"Marsac","country":"France"},"contacts":{"email":"mairie@marsac82.fr","telephone":"0563940509"},"horaires":"Le Mardi : de 09h00 à 16h00\nLe Vendredi : de 09h00 à 16h00","latitude":43.95932,"longitude":0.8865834,"website":"","hasWebsite":false,"hasHoraires":true,"url":"https://lannuaire.service-public.gouv.fr/occitanie/tarn-et-garonne/b8529dd4-177a-4fcb-890f-44a107deed08"}
{"nom":"Mas-Grenier","nomNormalise":"masgrenier","typeCollectivite":"Commune","region":"Occitanie","departement":"Tarn-et-Garonne","departementCode":"82","adresse":{"street":"Rue de l'Église","postalCode":"82600","city":"Mas-Grenier","country":"France"},"contacts":{"email":"mairie-mas.grenier@info82.com","telephone":"0563025321"},"horaires":"Du Lundi au Vendredi : de 13h30 à 18h30","latitude":43.891125,"longitude":1.1962358,"website":"http://www.mas-grenier.fr/","hasWebsite":true,"hasHoraires":true,"url":"https://lannuaire.service-public.gouv.fr/occitanie/tarn-et-garonne/92772275-7fbd-4598-a873-32b9033ec319"}
{"nom":"Maubec","nomNormalise":"maubec","typeCollectivite":"Commune","region":"Occitanie","departement":"Tarn-et-Garonne","departementCode":"82","adresse":{"street":"Le Bourg","postalCode":"82500","city":"Maubec","country":"France"},"contacts":{"email":"mairie-maubec@info82.com","telephone":"0563652138"},"horaires":"Le Mardi : de 09h00 à 12h00 de 14h00 à 17h00\nLe Mercredi : de 09h00 à 12h00\nLe Vendredi : de 14h00 à 17h00","latitude":43.80914,"longitude":0.9167445,"website":"http://www.coll82.com/","hasWebsite":true,"hasHoraires":true,"url":"https://lannuaire.service-public.gouv.fr/occitanie/tarn-et-garonne/de0c49fc-43af-428d-bdd8-83697d6f126a"}
{"nom":"Maumusson","nomNormalise":"maumusson","typeCollectivite":"Commune","region":"Occitanie","departement":"Tarn-et-Garonne","departementCode":"82","adresse":{"street":"Le Bourg","postalCode":"82120","city":"Maumusson","country":"France"},"contacts":{"email":"mairie-maumusson@info82.com","telephone":"0563940984"},"horaires":"Le Lundi : de 14h00 à 19h00","latitude":43.917576,"longitude":0.9027986,"website":"","hasWebsite":false,"hasHoraires":true,"url":"https://lannuaire.service-public.gouv.fr/occitanie/tarn-et-garonne/9096006e-a86b-46de-a40d-0583d4adaccc"}
{"nom":"Meauzac","nomNormalise":"meauzac","typeCollectivite":"Commune","region":"Occitanie","departement":"Tarn-et-Garonne","departementCode":"82","adresse":{"street":"7 place du 8 mai 1945","postalCode":"82290","city":"Meauzac","country":"France"},"contacts":{"email":"mairie@meauzac.fr","telephone":"0563316498"},"horaires":"Du Lundi au Mardi : de 08h30 à 12h00 de 14h00 à 17h00\nLe Mercredi : de 08h30 à 12h00\nDu Jeudi au Vendredi : de 08h30 à 12h00 de 14h00 à 17h00","latitude":44.08841,"longitude":1.240907,"website":"https://www.meauzac.fr/","hasWebsite":true,"hasHoraires":true,"url":"https://lannuaire.service-public.gouv.fr/occitanie/tarn-et-garonne/2ded9e05-0f89-447d-aa2b-584f84a506df"}
{"nom":"Merles","nomNormalise":"merles","typeCollectivite":"Commune","region":"Occitanie","departement":"Tarn-et-Garonne","departementCode":"82","adresse":{"street":"Le Bourg","postalCode":"82210","city":"Merles","country":"France"},"contacts":{"email":"mairie-merles@info82.com","telephone":"0563948260"},"horaires":"Du Lundi au Mardi : de 09h00 à 12h00\nLe Mercredi : de 09h00 à 12h00","latitude":44.05833,"longitude":0.9692793,"website":"http://www.merles.fr/","hasWebsite":true,"hasHoraires":true,"url":"https://lannuaire.service-public.gouv.fr/occitanie/tarn-et-garonne/8dffcca8-0be9-4b26-8076-6f837355af4f"}
{"nom":"Mirabel","nomNormalise":"mirabel","typeCollectivite":"Commune","region":"Occitanie","departement":"Tarn-et-Garonne","departementCode":"82","adresse":{"street":"1 place de la Mairie","postalCode":"82440","city":"Mirabel","country":"France"},"contacts":{"email":"mairie@mirabel.fr","telephone":"0563310608"},"horaires":"Du Lundi au Vendredi : de 08h00 à 12h00 de 13h30 à 17h30","latitude":44.1442,"longitude":1.4198,"website":"http://www.mirabel.fr/","hasWebsite":true,"hasHoraires":true,"url":"https://lannuaire.service-public.gouv.fr/occitanie/tarn-et-garonne/ed0eaa61-c609-43eb-a651-595310dacd72"}
{"nom":"Miramont-de-Quercy","nomNormalise":"miramontdequercy","typeCollectivite":"Commune","region":"Occitanie","departement":"Tarn-et-Garonne","departementCode":"82","adresse":{"street":"83 rue de la Mairie","postalCode":"82190","city":"Miramont-de-Quercy","country":"France"},"contacts":{"email":"mairie@miramont-de-quercy.fr","telephone":"0563946448"},"horaires":"Du Mardi au Vendredi : de 09h00 à 12h00","latitude":44.23044,"longitude":1.065774,"website":"https://www.miramont-de-quercy.fr/","hasWebsite":true,"hasHoraires":true,"url":"https://lannuaire.service-public.gouv.fr/occitanie/tarn-et-garonne/a379e73b-b88a-4aeb-adfb-c08dcc688bda"}
{"nom":"Moissac","nomNormalise":"moissac","typeCollectivite":"Commune","region":"Occitanie","departement":"Tarn-et-Garonne","departementCode":"82","adresse":{"street":"3 place Roger-Delthil","postalCode":"82200","city":"Moissac","country":"France"},"contacts":{"email":"mairie@moissac.fr","telephone":"0563046363"},"horaires":"Du Lundi au Vendredi : de 08h30 à 12h00 de 13h30 à 17h30\nLe Samedi : de 08h30 à 12h00","latitude":44.10481,"longitude":1.084874,"website":"https://www.moissac.fr/","hasWebsite":true,"hasHoraires":true,"url":"https://lannuaire.service-public.gouv.fr/occitanie/tarn-et-garonne/a21cce83-828a-4252-907e-5d199afc76b8"}
{"nom":"Molières","nomNormalise":"molieres","typeCollectivite":"Commune","region":"Occitanie","departement":"Tarn-et-Garonne","departementCode":"82","adresse":{"street":"Place de la Mairie","postalCode":"82220","city":"Molières","country":"France"},"contacts":{"email":"mairie-molieres@info82.com","telephone":"0563677637"},"horaires":"Du Lundi au Vendredi : de 09h00 à 12h00 de 14h00 à 17h00","latitude":44.1937,"longitude":1.36369,"website":"http://www.ville-molieres.fr/","hasWebsite":true,"hasHoraires":true,"url":"https://lannuaire.service-public.gouv.fr/occitanie/tarn-et-garonne/4cc4a04e-1fe9-4e0c-9c22-c6c109cfd824"}
{"nom":"Monbéqui","nomNormalise":"monbequi","typeCollectivite":"Commune","region":"Occitanie","departement":"Tarn-et-Garonne","departementCode":"82","adresse":{"street":"2 place Victor-Hugo","postalCode":"82170","city":"Monbéqui","country":"France"},"contacts":{"email":"mairie-monbequi@info82.com","telephone":"0563655358"},"horaires":"Du Lundi au Vendredi : de 13h30 à 17h00\nLe Samedi : de 09h00 à 11h00\n\nPermanence des élus.","latitude":43.892033,"longitude":1.236516,"website":"http://www.monbequi.fr/","hasWebsite":true,"hasHoraires":true,"url":"https://lannuaire.service-public.gouv.fr/occitanie/tarn-et-garonne/5fc88a20-3cdd-4d21-85d9-96cdd789dc63"}
{"nom":"Monclar-de-Quercy","nomNormalise":"monclardequercy","typeCollectivite":"Commune","region":"Occitanie","departement":"Tarn-et-Garonne","departementCode":"82","adresse":{"street":"Place des Capitouls","postalCode":"82230","city":"Monclar-de-Quercy","country":"France"},"contacts":{"email":"mairie-monclar.de.quercy@info82.com","telephone":"0563304029"},"horaires":"Du Lundi au Vendredi : de 08h30 à 12h00 de 14h30 à 16h30\nLe Samedi : de 08h30 à 12h00","latitude":43.966484,"longitude":1.584059,"website":"http://www.monclar-de-quercy.fr/","hasWebsite":true,"hasHoraires":true,"url":"https://lannuaire.service-public.gouv.fr/occitanie/tarn-et-garonne/40f787a6-82a9-4d03-a479-4b8d752f9d07"}
{"nom":"Montagudet","nomNormalise":"montagudet","typeCollectivite":"Commune","region":"Occitanie","departement":"Tarn-et-Garonne","departementCode":"82","adresse":{"street":"1235 Route de Garenne-Magnac","postalCode":"82110","city":"Montagudet","country":"France"},"contacts":{"email":"mairie@montagudet.fr","telephone":"0563322039"},"horaires":"Le Mercredi : de 10h00 à 12h00\nLe Vendredi : de 15h00 à 17h00","latitude":44.243744,"longitude":1.092546,"website":"","hasWebsite":false,"hasHoraires":true,"url":"https://lannuaire.service-public.gouv.fr/occitanie/tarn-et-garonne/f5ebf6a2-8115-4792-bcc9-69282a607e5c"}
{"nom":"Montaigu-de-Quercy","nomNormalise":"montaigudequercy","typeCollectivite":"Commune","region":"Occitanie","departement":"Tarn-et-Garonne","departementCode":"82","adresse":{"street":"2 place de l'Hôtel-de-Ville","postalCode":"82150","city":"Montaigu-de-Quercy","country":"France"},"contacts":{"email":"accueil@montaigu-de-quercy.fr","telephone":"0563944544"},"horaires":"Du Mardi au Jeudi : de 08h00 à 12h15 de 13h30 à 18h00\nLe Vendredi : de 09h00 à 12h15 de 13h30 à 17h30\nLe Samedi : de 09h00 à 12h15","latitude":44.3419,"longitude":1.01747,"website":"http://www.montaigu-de-quercy.fr/","hasWebsite":true,"hasHoraires":true,"url":"https://lannuaire.service-public.gouv.fr/occitanie/tarn-et-garonne/d56103b7-826b-4120-a306-b44ca4f0194a"}
{"nom":"Montaïn","nomNormalise":"montain","typeCollectivite":"Commune","region":"Occitanie","departement":"Tarn-et-Garonne","departementCode":"82","adresse":{"street":"1 place de la Maison-Commune","postalCode":"82100","city":"Montaïn","country":"France"},"contacts":{"email":"mairie-montain@info82.com","telephone":"0563956498"},"horaires":"Le Mardi : de 14h00 à 17h00\nLe Jeudi : de 09h00 à 12h00","latitude":43.9425,"longitude":1.1108333,"website":"","hasWebsite":false,"hasHoraires":true,"url":"https://lannuaire.service-public.gouv.fr/occitanie/tarn-et-garonne/0a2b483e-6063-4bf9-bdec-8bc89e9a8ac0"}
{"nom":"Montalzat","nomNormalise":"montalzat","typeCollectivite":"Commune","region":"Occitanie","departement":"Tarn-et-Garonne","departementCode":"82","adresse":{"street":"1 rue Principale","postalCode":"82270","city":"Montalzat","country":"France"},"contacts":{"email":"mairie-montalzat@info82.com","telephone":"0563931361"},"horaires":"Du Mardi au Vendredi : de 09h00 à 12h00","latitude":44.20788,"longitude":1.49971,"website":"http://www.montalzat.fr/","hasWebsite":true,"hasHoraires":true,"url":"https://lannuaire.service-public.gouv.fr/occitanie/tarn-et-garonne/b09fd631-cbd6-4ed1-be38-04d9ca8ff27d"}
{"nom":"Montastruc","nomNormalise":"montastruc","typeCollectivite":"Commune","region":"Occitanie","departement":"Tarn-et-Garonne","departementCode":"82","adresse":{"street":"2 route de Labade","postalCode":"82130","city":"Montastruc","country":"France"},"contacts":{"email":"mairie@montastruc82.fr","telephone":"0563659013"},"horaires":"Le Lundi : de 08h30 à 12h00\nLe Mercredi : de 14h00 à 17h30\nLe Vendredi : de 08h30 à 12h00","latitude":44.101124,"longitude":1.294422,"website":"http://www.montastruc82.fr/","hasWebsite":true,"hasHoraires":true,"url":"https://lannuaire.service-public.gouv.fr/occitanie/tarn-et-garonne/15ff49ec-bdee-42f5-8326-004df4611676"}
{"nom":"Montauban","nomNormalise":"montauban","typeCollectivite":"Commune","region":"Occitanie","departement":"Tarn-et-Garonne","departementCode":"82","adresse":{"street":"9 rue de l'Hôtel-de-Ville","postalCode":"82000","city":"Montauban","country":"France"},"contacts":{"email":"contact@ville-montauban.fr","telephone":"0563221200"},"horaires":"Du Lundi au Vendredi : de 08h30 à 12h15 de 13h30 à 17h30","latitude":44.016125,"longitude":1.352639,"website":"https://www.montauban.com/","hasWebsite":true,"hasHoraires":true,"url":"https://lannuaire.service-public.gouv.fr/occitanie/tarn-et-garonne/a9a57732-07f4-485b-85d9-d2f841e83d03"}
{"nom":"Montbarla","nomNormalise":"montbarla","typeCollectivite":"Commune","region":"Occitanie","departement":"Tarn-et-Garonne","departementCode":"82","adresse":{"street":"291 route de Saint-Georges","postalCode":"82110","city":"Montbarla","country":"France"},"contacts":{"email":"mairie@montbarla.fr","telephone":"0563957037"},"horaires":"Le Mardi : de 09h00 à 17h00\nLe Vendredi : de 09h00 à 17h00","latitude":44.221,"longitude":1.093513,"website":"","hasWebsite":false,"hasHoraires":true,"url":"https://lannuaire.service-public.gouv.fr/occitanie/tarn-et-garonne/1afc3c16-f53e-4627-abf5-dfdf55bc5407"}
{"nom":"Montbartier","nomNormalise":"montbartier","typeCollectivite":"Commune","region":"Occitanie","departement":"Tarn-et-Garonne","departementCode":"82","adresse":{"street":"1 place de la Mairie","postalCode":"82700","city":"Montbartier","country":"France"},"contacts":{"email":"mairie@montbartier.fr","telephone":"0563655704"},"horaires":"Du Lundi au Mardi : de 14h00 à 17h00\nDu Mercredi au Vendredi : de 09h00 à 12h00","latitude":43.9129,"longitude":1.2721802,"website":"http://www.montbartier.fr/","hasWebsite":true,"hasHoraires":true,"url":"https://lannuaire.service-public.gouv.fr/occitanie/tarn-et-garonne/3bcb4fa4-31ec-4e2f-b6ba-617378c91e86"}
{"nom":"Montbeton","nomNormalise":"montbeton","typeCollectivite":"Commune","region":"Occitanie","departement":"Tarn-et-Garonne","departementCode":"82","adresse":{"street":"50 rue Cyprien-Majorel","postalCode":"82290","city":"Montbeton","country":"France"},"contacts":{"email":"mairie@ville-montbeton.fr","telephone":"0563674010"},"horaires":"Du Lundi au Vendredi : de 08h00 à 12h30 de 14h00 à 18h00\nLe Samedi : de 10h00 à 12h00\n\nPermanence des élus uniquement.","latitude":44.0101,"longitude":1.28923,"website":"http://www.ville-montbeton.fr/","hasWebsite":true,"hasHoraires":true,"url":"https://lannuaire.service-public.gouv.fr/occitanie/tarn-et-garonne/6510cccc-32c8-4da1-8b5b-44206a1acba7"}
{"nom":"Montech","nomNormalise":"montech","typeCollectivite":"Commune","region":"Occitanie","departement":"Tarn-et-Garonne","departementCode":"82","adresse":{"street":"Place de la Mairie","postalCode":"82700","city":"Montech","country":"France"},"contacts":{"email":"mairie-montech@info82.com","telephone":"0563648244"},"horaires":"Du Lundi au Vendredi : de 08h30 à 12h00 de 13h30 à 17h30","latitude":43.957,"longitude":1.22897,"website":"https://www.ville-montech.fr/","hasWebsite":true,"hasHoraires":true,"url":"https://lannuaire.service-public.gouv.fr/occitanie/tarn-et-garonne/a8a574df-f981-4fed-a43a-989b567ed229"}
{"nom":"Monteils","nomNormalise":"monteils","typeCollectivite":"Commune","region":"Occitanie","departement":"Tarn-et-Garonne","departementCode":"82","adresse":{"street":"1 place du Pigeonnier","postalCode":"82300","city":"Monteils","country":"France"},"contacts":{"email":"","telephone":"0563931339"},"horaires":"Du Lundi au Mardi : de 08h30 à 12h30 de 13h30 à 17h00\nLe Jeudi : de 08h30 à 12h30 de 13h30 à 17h00\nLe Vendredi : de 08h30 à 12h30 de 13h30 à 18h00","latitude":44.17306,"longitude":1.564951,"website":"https://www.mairie-monteils.fr/fr/","hasWebsite":true,"hasHoraires":true,"url":"https://lannuaire.service-public.gouv.fr/occitanie/tarn-et-garonne/ad878d0c-abde-4b46-8b4b-3f96bd570f3d"}
{"nom":"Montesquieu","nomNormalise":"montesquieu","typeCollectivite":"Commune","region":"Occitanie","departement":"Tarn-et-Garonne","departementCode":"82","adresse":{"street":"Sainte-Thècle","postalCode":"82200","city":"Montesquieu","country":"France"},"contacts":{"email":"mairie-montesquieu@wanadoo.fr","telephone":"0563045297"},"horaires":"Le Lundi : de 09h00 à 12h30 de 13h30 à 18h00\nLe Mardi : de 09h00 à 12h30\nLe Jeudi : de 09h00 à 12h30 de 13h30 à 18h00\nLe Vendredi : de 09h00 à 12h30","latitude":44.1855,"longitude":1.08055,"website":"http://www.montesquieu.fr/","hasWebsite":true,"hasHoraires":true,"url":"https://lannuaire.service-public.gouv.fr/occitanie/tarn-et-garonne/38303260-fb11-4922-8127-637c0a1257f8"}
{"nom":"Montfermier","nomNormalise":"montfermier","typeCollectivite":"Commune","region":"Occitanie","departement":"Tarn-et-Garonne","departementCode":"82","adresse":{"street":"2 place de la Résistance","postalCode":"82270","city":"Montpezat-de-Quercy","country":"France"},"contacts":{"email":"mairie-montfermier@info82.com","telephone":"0563020704"},"horaires":"Le Lundi : de 15h00 à 18h00\n\nAccueil physique et téléphonique situé à la mairie de Montpezat-de-Quercy.\nDu Mardi au Vendredi : de 08h15 à 12h00 de 15h00 à 18h00\nLe Samedi : de 08h30 à 12h00","latitude":44.237686,"longitude":1.4774143,"website":"","hasWebsite":false,"hasHoraires":true,"url":"https://lannuaire.service-public.gouv.fr/occitanie/tarn-et-garonne/b1cfdb3f-32f9-4b0d-ae60-a0e92f8d2018"}
{"nom":"Montgaillard","nomNormalise":"montgaillard","typeCollectivite":"Commune","region":"Occitanie","departement":"Tarn-et-Garonne","departementCode":"82","adresse":{"street":"Le Bourg","postalCode":"82120","city":"Montgaillard","country":"France"},"contacts":{"email":"mairie-montgaillard@info82.com","telephone":"0563940544"},"horaires":"Le Lundi : de 08h00 à 12h00\nLe Jeudi : de 08h00 à 12h00","latitude":43.932796,"longitude":0.8767638,"website":"","hasWebsite":false,"hasHoraires":true,"url":"https://lannuaire.service-public.gouv.fr/occitanie/tarn-et-garonne/51be437e-f9e0-4f74-a51a-abaeb23d3a57"}
{"nom":"Montjoi","nomNormalise":"montjoi","typeCollectivite":"Commune","region":"Occitanie","departement":"Tarn-et-Garonne","departementCode":"82","adresse":{"street":"1 rue Haute","postalCode":"82400","city":"Montjoi","country":"France"},"contacts":{"email":"mairie-montjoi@info82.com","telephone":"0563942490"},"horaires":"Le Lundi : de 09h00 à 12h00 de 13h00 à 17h00\nLe Jeudi : de 09h00 à 12h00 de 13h00 à 17h00","latitude":44.197025,"longitude":0.921572,"website":"","hasWebsite":false,"hasHoraires":true,"url":"https://lannuaire.service-public.gouv.fr/occitanie/tarn-et-garonne/452ae034-b73f-49ba-9e73-8ad18244ac13"}
{"nom":"Montpezat-de-Quercy","nomNormalise":"montpezatdequercy","typeCollectivite":"Commune","region":"Occitanie","departement":"Tarn-et-Garonne","departementCode":"82","adresse":{"street":"2 place de la Résistance","postalCode":"82270","city":"Montpezat-de-Quercy","country":"France"},"contacts":{"email":"mairie@montpezat-de-quercy.fr","telephone":"0563020704"},"horaires":"Le Lundi : de 15h00 à 18h00\nDu Mardi au Vendredi : de 08h15 à 12h00 de 15h00 à 18h00\nLe Samedi : de 08h30 à 12h00","latitude":44.23744,"longitude":1.476954,"website":"http://www.montpezat-de-quercy.com/","hasWebsite":true,"hasHoraires":true,"url":"https://lannuaire.service-public.gouv.fr/occitanie/tarn-et-garonne/f7ac5faf-0e42-40d3-a4aa-05b736ef4d8b"}
{"nom":"Montricoux","nomNormalise":"montricoux","typeCollectivite":"Commune","region":"Occitanie","departement":"Tarn-et-Garonne","departementCode":"82","adresse":{"street":"Place du Souvenir","postalCode":"82800","city":"Montricoux","country":"France"},"contacts":{"email":"mairie-montricoux@info82.com","telephone":"0563672060"},"horaires":"Le Lundi : de 08h00 à 12h00 de 13h30 à 17h00\nLe Mardi : de 08h00 à 12h00\nDu Mercredi au Vendredi : de 08h00 à 12h00 de 13h30 à 17h00\nLe Samedi : de 08h00 à 12h00","latitude":44.0756,"longitude":1.61923,"website":"http://www.montricoux.fr/","hasWebsite":true,"hasHoraires":true,"url":"https://lannuaire.service-public.gouv.fr/occitanie/tarn-et-garonne/66097ee4-9c27-47ef-b93d-5143305a0ace"}
{"nom":"Mouillac","nomNormalise":"mouillac","typeCollectivite":"Commune","region":"Occitanie","departement":"Tarn-et-Garonne","departementCode":"82","adresse":{"street":"1 place Michel-Lejeaille","postalCode":"82160","city":"Mouillac","country":"France"},"contacts":{"email":"mairie-mouillac@info82.com","telephone":"0563670358"},"horaires":"Le Mardi : de 08h00 à 12h00\nLe Vendredi : de 08h00 à 12h00","latitude":44.26732,"longitude":1.666891,"website":"","hasWebsite":false,"hasHoraires":true,"url":"https://lannuaire.service-public.gouv.fr/occitanie/tarn-et-garonne/bf79802b-db44-429f-93d8-88f883dfd06f"}
{"nom":"Nègrepelisse","nomNormalise":"negrepelisse","typeCollectivite":"Commune","region":"Occitanie","departement":"Tarn-et-Garonne","departementCode":"82","adresse":{"street":"5 place de l'Hôtel-de-Ville","postalCode":"82800","city":"Nègrepelisse","country":"France"},"contacts":{"email":"mairie@ville-negrepelisse.fr","telephone":"0563642266"},"horaires":"Du Lundi au Vendredi : de 08h00 à 12h00 de 13h00 à 17h00","latitude":44.07543,"longitude":1.521964,"website":"http://www.ville-negrepelisse.fr/","hasWebsite":true,"hasHoraires":true,"url":"https://lannuaire.service-public.gouv.fr/occitanie/tarn-et-garonne/516c5fd1-9260-49c7-a3fe-7ba4a225c5ec"}
{"nom":"Nohic","nomNormalise":"nohic","typeCollectivite":"Commune","region":"Occitanie","departement":"Tarn-et-Garonne","departementCode":"82","adresse":{"street":"216 rue de la République","postalCode":"82370","city":"Nohic","country":"France"},"contacts":{"email":"mairie@nohic.fr","telephone":"0563680072"},"horaires":"Le Lundi : de 14h00 à 17h30\nDu Mardi au Mercredi : de 09h00 à 12h00 de 14h00 à 17h30\nLe Jeudi : de 09h00 à 12h00\nLe Vendredi : de 09h00 à 12h00 de 14h00 à 17h30\nLe Samedi : de 09h00 à 11h45","latitude":43.890347,"longitude":1.4376281,"website":"http://www.nohic.fr/","hasWebsite":true,"hasHoraires":true,"url":"https://lannuaire.service-public.gouv.fr/occitanie/tarn-et-garonne/a3e8bb6f-77cc-42f8-9242-8ae59de419e3"}
{"nom":"Orgueil","nomNormalise":"orgueil","typeCollectivite":"Commune","region":"Occitanie","departement":"Tarn-et-Garonne","departementCode":"82","adresse":{"street":"281 Grand'rue","postalCode":"82370","city":"Orgueil","country":"France"},"contacts":{"email":"mairie@orgueil.fr","telephone":"0563305150"},"horaires":"Le Lundi : de 08h30 à 12h00\nDu Mardi au Mercredi : de 08h30 à 12h00 de 13h30 à 17h30\nLe Jeudi : de 08h30 à 12h00\nLe Vendredi : de 08h30 à 12h00 de 13h30 à 17h30","latitude":43.9046,"longitude":1.41122,"website":"http://www.orgueil.fr/","hasWebsite":true,"hasHoraires":true,"url":"https://lannuaire.service-public.gouv.fr/occitanie/tarn-et-garonne/0f8202ed-c64c-4a61-92fa-cc0cca78bb2b"}
{"nom":"Parisot","nomNormalise":"parisot","typeCollectivite":"Commune","region":"Occitanie","departement":"Tarn-et-Garonne","departementCode":"82","adresse":{"street":"6 rue de la Mairie","postalCode":"82160","city":"Parisot","country":"France"},"contacts":{"email":"mairie-parisot@info82.com","telephone":"0563657162"},"horaires":"Du Lundi au Mardi : de 08h30 à 12h30 de 13h30 à 17h00\nLe Mercredi : de 08h30 à 12h30\nDu Jeudi au Vendredi : de 08h30 à 12h30 de 13h30 à 17h00","latitude":44.265,"longitude":1.85758,"website":"http://www.parisot82commune.com/","hasWebsite":true,"hasHoraires":true,"url":"https://lannuaire.service-public.gouv.fr/occitanie/tarn-et-garonne/024f53d3-934e-46fe-9629-903d7bc99344"}
{"nom":"Perville","nomNormalise":"perville","typeCollectivite":"Commune","region":"Occitanie","departement":"Tarn-et-Garonne","departementCode":"82","adresse":{"street":"Le Bourg","postalCode":"82400","city":"Perville","country":"France"},"contacts":{"email":"mairie-perville@info82.com","telephone":"0563942014"},"horaires":"Le Mardi : de 13h00 à 17h00\nLe Jeudi : de 09h00 à 13h00","latitude":44.180016,"longitude":0.8803039,"website":"","hasWebsite":false,"hasHoraires":true,"url":"https://lannuaire.service-public.gouv.fr/occitanie/tarn-et-garonne/42f3be4a-b3a4-4699-894a-77855f313147"}
{"nom":"Piquecos","nomNormalise":"piquecos","typeCollectivite":"Commune","region":"Occitanie","departement":"Tarn-et-Garonne","departementCode":"82","adresse":{"street":"20 place du Village","postalCode":"82130","city":"Piquecos","country":"France"},"contacts":{"email":"mairie-piquecos@info82.com","telephone":"0563313438"},"horaires":"Le Lundi : de 13h30 à 19h00\nLe Mardi : de 13h30 à 17h30\nLe Jeudi : de 13h30 à 17h30\nLe Vendredi : de 13h30 à 16h30","latitude":44.10003,"longitude":1.321102,"website":"http://www.piquecos.fr/","hasWebsite":true,"hasHoraires":true,"url":"https://lannuaire.service-public.gouv.fr/occitanie/tarn-et-garonne/90b180b2-3ce5-492c-8e44-0c23c5711d25"}
{"nom":"Pommevic","nomNormalise":"pommevic","typeCollectivite":"Commune","region":"Occitanie","departement":"Tarn-et-Garonne","departementCode":"82","adresse":{"street":"1 place de la Mairie","postalCode":"82400","city":"Pommevic","country":"France"},"contacts":{"email":"mairie-pommevic@info82.com","telephone":"0563395655"},"horaires":"Du Lundi au Mardi : de 09h00 à 12h00 de 14h00 à 17h00\nLe Mercredi : de 09h00 à 12h00\nLe Jeudi : de 09h00 à 12h00 de 14h00 à 17h00\nLe Vendredi : de 09h00 à 12h00","latitude":44.09968,"longitude":0.9316603,"website":"http://www.pommevic.fr/","hasWebsite":true,"hasHoraires":true,"url":"https://lannuaire.service-public.gouv.fr/occitanie/tarn-et-garonne/c08c19c3-db44-40f6-a047-38d20ba57ceb"}
{"nom":"Pompignan","nomNormalise":"pompignan","typeCollectivite":"Commune","region":"Occitanie","departement":"Tarn-et-Garonne","departementCode":"82","adresse":{"street":"3 rue Bernard-Peyrille","postalCode":"82170","city":"Pompignan","country":"France"},"contacts":{"email":"mairie@ville-pompignan82.fr","telephone":"0563673076"},"horaires":"Du Lundi au Mardi : de 09h00 à 12h00 de 14h00 à 18h00\nDu Mercredi au Jeudi : de 09h00 à 12h00\nLe Vendredi : de 09h00 à 12h00 de 14h00 à 18h00","latitude":43.817844,"longitude":1.31136,"website":"https://www.ville-pompignan82.fr/","hasWebsite":true,"hasHoraires":true,"url":"https://lannuaire.service-public.gouv.fr/occitanie/tarn-et-garonne/f69473d0-c82f-4906-b73d-f8fcba621f2b"}
{"nom":"Poupas","nomNormalise":"poupas","typeCollectivite":"Commune","region":"Occitanie","departement":"Tarn-et-Garonne","departementCode":"82","adresse":{"street":"Le Bourg","postalCode":"82120","city":"Poupas","country":"France"},"contacts":{"email":"mairie-poupas@info82.com","telephone":"0563940823"},"horaires":"Le Mardi : de 09h00 à 12h00\nLe Vendredi : de 14h00 à 17h00","latitude":43.967297,"longitude":0.840415,"website":"","hasWebsite":false,"hasHoraires":true,"url":"https://lannuaire.service-public.gouv.fr/occitanie/tarn-et-garonne/2532ba55-6969-4b09-8fb4-d6a113e1cc4c"}
{"nom":"Puycornet","nomNormalise":"puycornet","typeCollectivite":"Commune","region":"Occitanie","departement":"Tarn-et-Garonne","departementCode":"82","adresse":{"street":"1429 route de la Mairie","postalCode":"82220","city":"Puycornet","country":"France"},"contacts":{"email":"com.puycornet@orange.fr","telephone":"0563658174"},"horaires":"Du Lundi au Vendredi : de 08h00 à 12h00","latitude":44.154957,"longitude":1.3180043,"website":"http://www.puycornet.com/","hasWebsite":true,"hasHoraires":true,"url":"https://lannuaire.service-public.gouv.fr/occitanie/tarn-et-garonne/d659bc17-f46a-43f4-9241-9ad83affa9cc"}
{"nom":"Puygaillard-de-Lomagne","nomNormalise":"puygaillarddelomagne","typeCollectivite":"Commune","region":"Occitanie","departement":"Tarn-et-Garonne","departementCode":"82","adresse":{"street":"143 route du castéra","postalCode":"82120","city":"Puygaillard-de-Lomagne","country":"France"},"contacts":{"email":"mairie-puygaillard.de.lomagne@info82.com","telephone":"0563940076"},"horaires":"Le Vendredi : de 09h00 à 12h30","latitude":43.968506,"longitude":0.897183,"website":"","hasWebsite":false,"hasHoraires":true,"url":"https://lannuaire.service-public.gouv.fr/occitanie/tarn-et-garonne/895ba2ff-8671-4855-84cc-bfe1f8639790"}
{"nom":"Puygaillard-de-Quercy","nomNormalise":"puygaillarddequercy","typeCollectivite":"Commune","region":"Occitanie","departement":"Tarn-et-Garonne","departementCode":"82","adresse":{"street":"870 route du Village","postalCode":"82800","city":"Puygaillard-de-Quercy","country":"France"},"contacts":{"email":"mairie@puygaillard-de-quercy.fr","telephone":"0563672809"},"horaires":"Le Mardi : de 08h30 à 12h30 de 13h00 à 16h30\nLe Mercredi : de 08h30 à 12h00 de 14h00 à 16h30\nLe Vendredi : de 08h30 à 12h30 de 13h00 à 16h30","latitude":44.022774,"longitude":1.641304,"website":"https://www.puygaillard-de-quercy.fr/","hasWebsite":true,"hasHoraires":true,"url":"https://lannuaire.service-public.gouv.fr/occitanie/tarn-et-garonne/50cb53e6-5b04-45dc-aab5-98080b64e66a"}
{"nom":"Puylagarde","nomNormalise":"puylagarde","typeCollectivite":"Commune","region":"Occitanie","departement":"Tarn-et-Garonne","departementCode":"82","adresse":{"street":"Place de la Mairie","postalCode":"82160","city":"Puylagarde","country":"France"},"contacts":{"email":"mairie-puylagarde@info82.com","telephone":"0563657405"},"horaires":"Du Lundi au Mardi : de 13h00 à 16h15\nDu Jeudi au Vendredi : de 13h00 à 16h15","latitude":44.265,"longitude":1.85758,"website":"https://www.puylagarde.fr/","hasWebsite":true,"hasHoraires":true,"url":"https://lannuaire.service-public.gouv.fr/occitanie/tarn-et-garonne/d3e25527-a36e-43dd-bcbe-7121e844b949"}
{"nom":"Puylaroque","nomNormalise":"puylaroque","typeCollectivite":"Commune","region":"Occitanie","departement":"Tarn-et-Garonne","departementCode":"82","adresse":{"street":"1 place de la Libération","postalCode":"82240","city":"Puylaroque","country":"France"},"contacts":{"email":"mairie@puylaroque.fr","telephone":"0563649061"},"horaires":"Le Mardi : de 09h00 à 12h00 de 14h00 à 17h00\nDu Mercredi au Jeudi : de 09h00 à 12h00\nLe Jeudi : de 09h00 à 12h00\nLe Vendredi : de 09h00 à 12h00 de 14h00 à 18h00","latitude":44.2519,"longitude":1.61085,"website":"https://www.puylaroque.fr/","hasWebsite":true,"hasHoraires":true,"url":"https://lannuaire.service-public.gouv.fr/occitanie/tarn-et-garonne/fc1b0286-2035-4a23-bf44-2383f3d31111"}
{"nom":"Réalville","nomNormalise":"realville","typeCollectivite":"Commune","region":"Occitanie","departement":"Tarn-et-Garonne","departementCode":"82","adresse":{"street":"38 place des Arcades","postalCode":"82440","city":"Réalville","country":"France"},"contacts":{"email":"mairie-realville@info82.com","telephone":"0563310141"},"horaires":"Du Lundi au Vendredi : de 08h30 à 12h00 de 13h30 à 17h00\n\nPendant la crise sanitaire accueil du lundi au vendredi de 8h30 à 12h uniquement y compris pour le service de poste communale.","latitude":44.1139,"longitude":1.47909,"website":"http://www.realville.fr/","hasWebsite":true,"hasHoraires":true,"url":"https://lannuaire.service-public.gouv.fr/occitanie/tarn-et-garonne/10d2d9c9-baf2-4852-9ea8-adb204504471"}
{"nom":"Reyniès","nomNormalise":"reynies","typeCollectivite":"Commune","region":"Occitanie","departement":"Tarn-et-Garonne","departementCode":"82","adresse":{"street":"1 place du Souvenir","postalCode":"82370","city":"Reyniès","country":"France"},"contacts":{"email":"mairie-reynies@info82.com","telephone":"0563305343"},"horaires":"Du Lundi au Mardi : de 08h30 à 17h30\nLe Mercredi : de 08h30 à 12h00\nLe Jeudi : de 08h30 à 17h30\nLe Vendredi : de 08h30 à 17h00","latitude":43.9177,"longitude":1.39846,"website":"http://www.reynies.fr/","hasWebsite":true,"hasHoraires":true,"url":"https://lannuaire.service-public.gouv.fr/occitanie/tarn-et-garonne/1d89c87d-9826-47a3-a207-b28906c693e9"}
{"nom":"Roquecor","nomNormalise":"roquecor","typeCollectivite":"Commune","region":"Occitanie","departement":"Tarn-et-Garonne","departementCode":"82","adresse":{"street":"Place de la Mairie","postalCode":"82150","city":"Roquecor","country":"France"},"contacts":{"email":"mairie-roquecor@info82.com","telephone":"0563952139"},"horaires":"Du Lundi au Mardi : de 13h45 à 17h30\nLe Jeudi : de 13h45 à 17h30\nLe Vendredi : de 13h45 à 18h00","latitude":44.321976,"longitude":0.944825,"website":"http://www.roquecor.fr/","hasWebsite":true,"hasHoraires":true,"url":"https://lannuaire.service-public.gouv.fr/occitanie/tarn-et-garonne/73fdde5d-21b3-46d1-acea-8ce18c917184"}
{"nom":"Saint-Aignan","nomNormalise":"saintaignan","typeCollectivite":"Commune","region":"Occitanie","departement":"Tarn-et-Garonne","departementCode":"82","adresse":{"street":"31 route de la Palissade","postalCode":"82100","city":"Saint-Aignan","country":"France"},"contacts":{"email":"mairie.saintaignan82@orange.fr","telephone":"0563954212"},"horaires":"Le Lundi : de 09h00 à 12h00 de 13h30 à 17h30\nLe Mardi : de 09h00 à 12h00 de 13h30 à 18h00\nDu Mercredi au Jeudi : de 09h00 à 12h00\nLe Vendredi : de 09h00 à 12h00 de 13h30 à 18h00","latitude":44.01832,"longitude":1.07513,"website":"https://www.saintaignan-occitanie.fr/","hasWebsite":true,"hasHoraires":true,"url":"https://lannuaire.service-public.gouv.fr/occitanie/tarn-et-garonne/714d2c97-36fc-4e36-a65b-ed50bfce903f"}
{"nom":"Saint-Amans-de-Pellagal","nomNormalise":"saintamansdepellagal","typeCollectivite":"Commune","region":"Occitanie","departement":"Tarn-et-Garonne","departementCode":"82","adresse":{"street":"35 rue de la Mairie","postalCode":"82110","city":"Saint-Amans-de-Pellagal","country":"France"},"contacts":{"email":"mairie.st-amans-de-pellagal@orange.fr","telephone":"0563947565"},"horaires":"Le Mercredi : de 08h30 à 12h00\nLe Vendredi : de 08h30 à 12h00","latitude":44.227566,"longitude":1.1099,"website":"","hasWebsite":false,"hasHoraires":true,"url":"https://lannuaire.service-public.gouv.fr/occitanie/tarn-et-garonne/9c077c56-a1e1-40d3-b112-0d8d253edb38"}
{"nom":"Saint-Amans-du-Pech","nomNormalise":"saintamansdupech","typeCollectivite":"Commune","region":"Occitanie","departement":"Tarn-et-Garonne","departementCode":"82","adresse":{"street":"571A route d'Agen","postalCode":"82150","city":"Saint-Amans-du-Pech","country":"France"},"contacts":{"email":"mairie@st-amans-du-pech.fr","telephone":"0563952191"},"horaires":"Le Mardi : de 09h00 à 12h30 de 13h30 à 17h30\nLe Jeudi : de 09h00 à 12h30 de 13h30 à 17h30","latitude":44.31635,"longitude":0.890151,"website":"","hasWebsite":false,"hasHoraires":true,"url":"https://lannuaire.service-public.gouv.fr/occitanie/tarn-et-garonne/c113bc93-ed58-4427-a5cd-92daa0799fc4"}
{"nom":"Saint-Antonin-Noble-Val","nomNormalise":"saintantoninnobleval","typeCollectivite":"Commune","region":"Occitanie","departement":"Tarn-et-Garonne","departementCode":"82","adresse":{"street":"23 place de la Mairie","postalCode":"82140","city":"Saint-Antonin-Noble-Val","country":"France"},"contacts":{"email":"mairie-saint.antonin.noble.val@info82.com","telephone":"0563306023"},"horaires":"Le Lundi : de 14h00 à 16h00\nLe Mardi : de 09h30 à 12h00\nLe Mercredi : de 09h30 à 12h00 de 14h00 à 16h00\nLe Jeudi : de 09h30 à 12h00\nLe Vendredi : de 14h00 à 16h00","latitude":44.1508,"longitude":1.75598,"website":"http://www.st-antoninnv.com/","hasWebsite":true,"hasHoraires":true,"url":"https://lannuaire.service-public.gouv.fr/occitanie/tarn-et-garonne/f087b2b2-01d5-4f14-bd28-ebea0a22a76c"}
{"nom":"Saint-Arroumex","nomNormalise":"saintarroumex","typeCollectivite":"Commune","region":"Occitanie","departement":"Tarn-et-Garonne","departementCode":"82","adresse":{"street":"17 route de Gayssanes","postalCode":"82210","city":"Saint-Arroumex","country":"France"},"contacts":{"email":"mairie-saint.arroumex@info82.com","telephone":"0563959363"},"horaires":"Le Mardi : de 13h30 à 17h00\nLe Vendredi : de 13h30 à 17h00","latitude":44.000324,"longitude":0.984781,"website":"http://www.saint-arroumex.fr/","hasWebsite":true,"hasHoraires":true,"url":"https://lannuaire.service-public.gouv.fr/occitanie/tarn-et-garonne/37963433-fc8e-4403-9042-18e832463327"}
{"nom":"Saint-Beauzeil","nomNormalise":"saintbeauzeil","typeCollectivite":"Commune","region":"Occitanie","departement":"Tarn-et-Garonne","departementCode":"82","adresse":{"street":"Vergnet","postalCode":"82150","city":"Saint-Beauzeil","country":"France"},"contacts":{"email":"mairie@saint-beauzeil.fr","telephone":"0563952204"},"horaires":"Du Lundi au Mardi : de 13h30 à 17h00\nLe Jeudi : de 13h30 à 17h00","latitude":44.344067,"longitude":0.916193,"website":"","hasWebsite":false,"hasHoraires":true,"url":"https://lannuaire.service-public.gouv.fr/occitanie/tarn-et-garonne/fcecfbc8-b4cf-46a9-8526-bb268a8cdbd1"}
{"nom":"Saint-Cirice","nomNormalise":"saintcirice","typeCollectivite":"Commune","region":"Occitanie","departement":"Tarn-et-Garonne","departementCode":"82","adresse":{"street":"Le Bourg","postalCode":"82340","city":"Saint-Cirice","country":"France"},"contacts":{"email":"mairie.st.cirice@wanadoo.fr","telephone":"0563390266"},"horaires":"Le Lundi : de 14h00 à 18h00\nLe Mercredi : de 09h00 à 12h00\nLe Vendredi : de 14h00 à 17h00","latitude":44.05009,"longitude":0.847224,"website":"","hasWebsite":false,"hasHoraires":true,"url":"https://lannuaire.service-public.gouv.fr/occitanie/tarn-et-garonne/e1dabe0c-6266-497f-94b5-dd6233fddc73"}
{"nom":"Saint-Cirq","nomNormalise":"saintcirq","typeCollectivite":"Commune","region":"Occitanie","departement":"Tarn-et-Garonne","departementCode":"82","adresse":{"street":"40 route de Caussade","postalCode":"82300","city":"Saint-Cirq","country":"France"},"contacts":{"email":"mairie.st.cirq@wanadoo.fr","telephone":"0563931620"},"horaires":"Le Lundi : de 08h30 à 12h00 de 13h30 à 17h00\nLe Mercredi : de 08h30 à 12h00\nDu Jeudi au Vendredi : de 08h30 à 12h00 de 13h30 à 17h00","latitude":44.14569,"longitude":1.60527,"website":"","hasWebsite":false,"hasHoraires":true,"url":"https://lannuaire.service-public.gouv.fr/occitanie/tarn-et-garonne/1f94ec42-5a86-44d4-b5d5-29b322edafdd"}
{"nom":"Saint-Clair","nomNormalise":"saintclair","typeCollectivite":"Commune","region":"Occitanie","departement":"Tarn-et-Garonne","departementCode":"82","adresse":{"street":"1906 route de Saint-Clair","postalCode":"82400","city":"Saint-Clair","country":"France"},"contacts":{"email":"mairie-saint.clair@info82.com","telephone":"0563396876"},"horaires":"Le Mardi : de 09h00 à 12h00\nLe Jeudi : de 09h00 à 12h00\nLe Vendredi : de 14h00 à 17h00","latitude":44.162926,"longitude":0.946602,"website":"","hasWebsite":false,"hasHoraires":true,"url":"https://lannuaire.service-public.gouv.fr/occitanie/tarn-et-garonne/9f1a6b25-4981-4e59-9f84-9a21db51b822"}
{"nom":"Sainte-Juliette","nomNormalise":"saintejuliette","typeCollectivite":"Commune","region":"Occitanie","departement":"Tarn-et-Garonne","departementCode":"82","adresse":{"street":"50 rue Tour-de-l'église","postalCode":"82110","city":"Sainte-Juliette","country":"France"},"contacts":{"email":"mairie@sainte-juliette.fr","telephone":"0563946721"},"horaires":"Le Lundi : de 08h00 à 12h00\nLe Vendredi : de 08h00 à 12h00\nAutres jours sur rendez-vous","latitude":44.286972,"longitude":1.169461,"website":"","hasWebsite":false,"hasHoraires":true,"url":"https://lannuaire.service-public.gouv.fr/occitanie/tarn-et-garonne/78a0ef17-4bea-4b43-9dfb-7ccf725629c2"}
{"nom":"Saint-Étienne-de-Tulmont","nomNormalise":"saintetiennedetulmont","typeCollectivite":"Commune","region":"Occitanie","departement":"Tarn-et-Garonne","departementCode":"82","adresse":{"street":"4 rue de la Mairie","postalCode":"82410","city":"Saint-Étienne-de-Tulmont","country":"France"},"contacts":{"email":"mairie@saint-etienne-de-tulmont.fr","telephone":"0563645057"},"horaires":"Du Lundi au Jeudi : de 08h30 à 13h00 de 13h30 à 17h30\nLe Vendredi : de 08h30 à 13h00 de 13h30 à 17h00","latitude":44.050095,"longitude":1.459612,"website":"https://www.saint-etienne-de-tulmont.fr/","hasWebsite":true,"hasHoraires":true,"url":"https://lannuaire.service-public.gouv.fr/occitanie/tarn-et-garonne/dc4bb60b-842b-4816-a8ce-c5c4b73163b1"}
{"nom":"Saint-Georges","nomNormalise":"saintgeorges","typeCollectivite":"Commune","region":"Occitanie","departement":"Tarn-et-Garonne","departementCode":"82","adresse":{"street":"La Pagèse","postalCode":"82240","city":"Saint-Georges","country":"France"},"contacts":{"email":"mairie@saint-georges82.fr","telephone":"0563649729"},"horaires":"Le Lundi : de 09h00 à 12h00\nLe Mardi : de 13h30 à 17h00\nLe Jeudi : de 09h00 à 12h00\nFermé le mercredi et le vendredi","latitude":44.222218,"longitude":1.6440729,"website":"","hasWebsite":false,"hasHoraires":true,"url":"https://lannuaire.service-public.gouv.fr/occitanie/tarn-et-garonne/5fe0ff5e-09e9-49d2-b1f0-f4244af1aff6"}
{"nom":"Saint-Jean-du-Bouzet","nomNormalise":"saintjeandubouzet","typeCollectivite":"Commune","region":"Occitanie","departement":"Tarn-et-Garonne","departementCode":"82","adresse":{"street":"7 route de l’Olivier","postalCode":"82120","city":"Saint-Jean-du-Bouzet","country":"France"},"contacts":{"email":"mairie-saint.jean.du.bouzet@info82.com","telephone":"0563940265"},"horaires":"Le Lundi : de 08h00 à 12h00","latitude":43.989983,"longitude":0.875098,"website":"","hasWebsite":false,"hasHoraires":true,"url":"https://lannuaire.service-public.gouv.fr/occitanie/tarn-et-garonne/56de43cf-3556-46e0-8f71-bab420f5c239"}
{"nom":"Saint-Loup","nomNormalise":"saintloup","typeCollectivite":"Commune","region":"Occitanie","departement":"Tarn-et-Garonne","departementCode":"82","adresse":{"street":"17 rue de la Mairie","postalCode":"82340","city":"Saint-Loup","country":"France"},"contacts":{"email":"mairie-saint.loup@info82.com","telephone":"0563395639"},"horaires":"Du Lundi au Mardi : de 09h00 à 12h00\nLe Mercredi : de 09h00 à 12h00 de 14h00 à 18h00\nLe Jeudi : de 09h00 à 12h00\nLe Vendredi : de 09h00 à 12h00 de 14h00 à 18h00","latitude":44.085285,"longitude":0.856464,"website":"http://www.saint-loup-82.fr/","hasWebsite":true,"hasHoraires":true,"url":"https://lannuaire.service-public.gouv.fr/occitanie/tarn-et-garonne/f5936893-3ea3-47eb-bebc-2b4fe179877e"}
{"nom":"Saint-Michel","nomNormalise":"saintmichel","typeCollectivite":"Commune","region":"Occitanie","departement":"Tarn-et-Garonne","departementCode":"82","adresse":{"street":"1 place de la Mairie","postalCode":"82340","city":"Saint-Michel","country":"France"},"contacts":{"email":"mairie-saint.michel@info82.com","telephone":"0563948810"},"horaires":"Le Mardi : de 08h00 à 12h00\nLe Vendredi : de 08h00 à 12h00 de 13h00 à 17h30","latitude":44.032677,"longitude":0.94556,"website":"","hasWebsite":false,"hasHoraires":true,"url":"https://lannuaire.service-public.gouv.fr/occitanie/tarn-et-garonne/f1a91429-a670-42f6-ab81-f2f6b7d99c7e"}
{"nom":"Saint-Nauphary","nomNormalise":"saintnauphary","typeCollectivite":"Commune","region":"Occitanie","departement":"Tarn-et-Garonne","departementCode":"82","adresse":{"street":"907 route d'Albi","postalCode":"82370","city":"Saint-Nauphary","country":"France"},"contacts":{"email":"mairie@saint-nauphary.com","telephone":"0563256558"},"horaires":"Du Lundi au Mardi : de 08h00 à 12h00 de 13h30 à 17h30\nLe Mercredi : de 08h00 à 12h00\nDu Jeudi au Vendredi : de 08h00 à 12h00 de 13h30 à 17h30\nLe Samedi : de 09h00 à 12h00","latitude":43.964447,"longitude":1.428901,"website":"https://www.saint-nauphary.com/","hasWebsite":true,"hasHoraires":true,"url":"https://lannuaire.service-public.gouv.fr/occitanie/tarn-et-garonne/402d0ca8-ab59-4495-9b5b-8e19e410130d"}
{"nom":"Saint-Nazaire-de-Valentane","nomNormalise":"saintnazairedevalentane","typeCollectivite":"Commune","region":"Occitanie","departement":"Tarn-et-Garonne","departementCode":"82","adresse":{"street":"26 rue de la Mairie","postalCode":"82190","city":"Saint-Nazaire-de-Valentane","country":"France"},"contacts":{"email":"mairie@st-nazaire-de-valentane.fr","telephone":"0563942696"},"horaires":"Le Lundi : de 09h00 à 12h00\nLe Mardi : de 13h30 à 17h30\nLe Jeudi : de 13h30 à 17h30","latitude":44.222946,"longitude":1.012662,"website":"http://www.saint-nazaire-de-valentane.fr/","hasWebsite":true,"hasHoraires":true,"url":"https://lannuaire.service-public.gouv.fr/occitanie/tarn-et-garonne/ca7d0d77-8dc6-4ebf-8bb8-beab11fc432e"}
{"nom":"Saint-Nicolas-de-la-Grave","nomNormalise":"saintnicolasdelagrave","typeCollectivite":"Commune","region":"Occitanie","departement":"Tarn-et-Garonne","departementCode":"82","adresse":{"street":"Place du Château","postalCode":"82210","city":"Saint-Nicolas-de-la-Grave","country":"France"},"contacts":{"email":"mairie@ville-stnicolas82.fr","telephone":"0563959255"},"horaires":"Du Lundi au Vendredi : de 09h00 à 12h00 de 13h30 à 17h00","latitude":44.0643,"longitude":1.02354,"website":"http://www.ville-stnicolas82.fr/","hasWebsite":true,"hasHoraires":true,"url":"https://lannuaire.service-public.gouv.fr/occitanie/tarn-et-garonne/d7135724-9eee-4a24-a210-5fcfbeb24a4e"}
{"nom":"Saint-Paul-d'Espis","nomNormalise":"saintpauldespis","typeCollectivite":"Commune","region":"Occitanie","departement":"Tarn-et-Garonne","departementCode":"82","adresse":{"street":"10 place de l'Église","postalCode":"82400","city":"Saint-Paul-d'Espis","country":"France"},"contacts":{"email":"mairie-saint.paul.d.espis@info82.com","telephone":"0563395122"},"horaires":"Du Lundi au Vendredi : de 08h30 à 12h00","latitude":44.143284,"longitude":0.968704,"website":"http://www.saint-paul-despis.fr/","hasWebsite":true,"hasHoraires":true,"url":"https://lannuaire.service-public.gouv.fr/occitanie/tarn-et-garonne/6a0b564c-fa01-48f4-ae0c-92ed3fe6e085"}
{"nom":"Saint-Porquier","nomNormalise":"saintporquier","typeCollectivite":"Commune","region":"Occitanie","departement":"Tarn-et-Garonne","departementCode":"82","adresse":{"street":"1 place de l'Hôtel-de-Ville","postalCode":"82700","city":"Saint-Porquier","country":"France"},"contacts":{"email":"mairie@saint-porquier.fr","telephone":"0563687271"},"horaires":"Le Lundi : de 09h15 à 12h15\nLe Mardi : de 08h30 à 12h00\nDu Mercredi au Jeudi : de 08h30 à 12h00 de 13h30 à 16h00\nLe Vendredi : de 08h30 à 12h00","latitude":44.0044,"longitude":1.17728,"website":"http://www.saint-porquier.fr/","hasWebsite":true,"hasHoraires":true,"url":"https://lannuaire.service-public.gouv.fr/occitanie/tarn-et-garonne/8a66fee6-18b0-4634-a40c-e6ff25d5d782"}
{"nom":"Saint-Projet","nomNormalise":"saintprojet","typeCollectivite":"Commune","region":"Occitanie","departement":"Tarn-et-Garonne","departementCode":"82","adresse":{"street":"48 rue de la Mairie","postalCode":"82160","city":"Saint-Projet","country":"France"},"contacts":{"email":"mairie@saint-projet82.fr","telephone":"0563657487"},"horaires":"Le Lundi : de 09h00 à 12h00\nLe Mardi : de 13h30 à 17h00\nLe Jeudi : de 09h00 à 12h00\nLe Vendredi : de 10h00 à 12h00","latitude":44.30372,"longitude":1.790771,"website":"","hasWebsite":false,"hasHoraires":true,"url":"https://lannuaire.service-public.gouv.fr/occitanie/tarn-et-garonne/56e231f6-1e90-443b-a39e-75939ddc52c2"}
{"nom":"Saint-Sardos","nomNormalise":"saintsardos","typeCollectivite":"Commune","region":"Occitanie","departement":"Tarn-et-Garonne","departementCode":"82","adresse":{"street":"2 rue de la République","postalCode":"82600","city":"Saint-Sardos","country":"France"},"contacts":{"email":"mairie-saint.sardos@info82.com","telephone":"0563643187"},"horaires":"Du Lundi au Mardi : de 13h30 à 17h30\nDu Jeudi au Vendredi : de 13h30 à 17h30\nLe Samedi : de 09h00 à 12h00","latitude":43.899567,"longitude":1.1333247,"website":"http://www.saint-sardos82.fr/","hasWebsite":true,"hasHoraires":true,"url":"https://lannuaire.service-public.gouv.fr/occitanie/tarn-et-garonne/9890648a-b6ee-4f96-b3cf-d56ec4e136a4"}
{"nom":"Saint-Vincent-d'Autéjac","nomNormalise":"saintvincentdautejac","typeCollectivite":"Commune","region":"Occitanie","departement":"Tarn-et-Garonne","departementCode":"82","adresse":{"street":"1 place de la Mairie","postalCode":"82300","city":"Saint-Vincent-d'Autéjac","country":"France"},"contacts":{"email":"mairie-saint.vincent.dautejac@info82.com","telephone":"0563311951"},"horaires":"Le Lundi : de 09h00 à 12h30\nLe Jeudi : de 09h00 à 12h30","latitude":44.160675,"longitude":1.471213,"website":"","hasWebsite":false,"hasHoraires":true,"url":"https://lannuaire.service-public.gouv.fr/occitanie/tarn-et-garonne/532e35f5-66f8-4926-bf78-ced8b76352ca"}
{"nom":"Saint-Vincent-Lespinasse","nomNormalise":"saintvincentlespinasse","typeCollectivite":"Commune","region":"Occitanie","departement":"Tarn-et-Garonne","departementCode":"82","adresse":{"street":"36 place du Bourg","postalCode":"82400","city":"Saint-Vincent-Lespinasse","country":"France"},"contacts":{"email":"commune.stvincentlespinasse82@orange.fr","telephone":"0563396109"},"horaires":"Le Lundi : de 09h00 à 12h00\nLe Mercredi : de 09h00 à 12h00\nLe Vendredi : de 09h00 à 12h00","latitude":44.11783,"longitude":0.954181,"website":"http://www.saint-vincent-lespinasse.fr/","hasWebsite":true,"hasHoraires":true,"url":"https://lannuaire.service-public.gouv.fr/occitanie/tarn-et-garonne/a6eb735e-8f28-46c9-b5c7-4df41d1a4075"}
{"nom":"Sauveterre","nomNormalise":"sauveterre","typeCollectivite":"Commune","region":"Occitanie","departement":"Tarn-et-Garonne","departementCode":"82","adresse":{"street":"Le Bourg","postalCode":"82110","city":"Sauveterre","country":"France"},"contacts":{"email":"mairie-sauveterre@info82.com","telephone":"0563958338"},"horaires":"Le Lundi : de 14h00 à 18h00\nLe Jeudi : de 08h30 à 12h00","latitude":44.260002,"longitude":1.268891,"website":"","hasWebsite":false,"hasHoraires":true,"url":"https://lannuaire.service-public.gouv.fr/occitanie/tarn-et-garonne/7808eddd-f2cd-4931-b94c-e4e4f274c243"}
{"nom":"Savenès","nomNormalise":"savenes","typeCollectivite":"Commune","region":"Occitanie","departement":"Tarn-et-Garonne","departementCode":"82","adresse":{"street":"14 rue de la Mairie","postalCode":"82600","city":"Savenès","country":"France"},"contacts":{"email":"mairie-savenes@info82.com","telephone":"0563025386"},"horaires":"Le Lundi : de 09h00 à 12h00\nLe Mardi : de 15h30 à 18h00\nLe Jeudi : de 15h30 à 18h00\nLe Vendredi : de 13h30 à 16h00","latitude":43.82986,"longitude":1.20197,"website":"http://www.savenes.fr/","hasWebsite":true,"hasHoraires":true,"url":"https://lannuaire.service-public.gouv.fr/occitanie/tarn-et-garonne/f9774370-e0a6-4ed0-b458-86aa02485639"}
{"nom":"Septfonds","nomNormalise":"septfonds","typeCollectivite":"Commune","region":"Occitanie","departement":"Tarn-et-Garonne","departementCode":"82","adresse":{"street":"Rue de la République","postalCode":"82240","city":"Septfonds","country":"France"},"contacts":{"email":"mairie@septfonds.fr","telephone":"0563649027"},"horaires":"Le Lundi : de 09h00 à 11h00 de 14h00 à 17h00\nDu Mardi au Vendredi : de 09h00 à 12h00 de 14h00 à 17h00","latitude":44.17834,"longitude":1.6185799,"website":"http://www.septfonds.fr/","hasWebsite":true,"hasHoraires":true,"url":"https://lannuaire.service-public.gouv.fr/occitanie/tarn-et-garonne/14f14fde-a93b-4c9e-b577-bfe62d043f3e"}
{"nom":"Sérignac","nomNormalise":"serignac","typeCollectivite":"Commune","region":"Occitanie","departement":"Tarn-et-Garonne","departementCode":"82","adresse":{"street":"2 rue des sept Caporaux","postalCode":"82500","city":"Sérignac","country":"France"},"contacts":{"email":"mairie-serignac@info82.com","telephone":"0563023551"},"horaires":"Du Lundi au Vendredi : de 09h00 à 12h00","latitude":43.92022,"longitude":1.02272,"website":"http://www.serignac82.fr/","hasWebsite":true,"hasHoraires":true,"url":"https://lannuaire.service-public.gouv.fr/occitanie/tarn-et-garonne/a368e14c-65e1-4ddd-83d1-4a09b2fc5338"}
{"nom":"Sistels","nomNormalise":"sistels","typeCollectivite":"Commune","region":"Occitanie","departement":"Tarn-et-Garonne","departementCode":"82","adresse":{"street":"Le Bourg","postalCode":"82340","city":"Sistels","country":"France"},"contacts":{"email":"mairie-sistels@info82.com","telephone":"0563399072"},"horaires":"Le Mardi : de 13h30 à 18h00\nLe Jeudi : de 13h00 à 18h00","latitude":44.060196,"longitude":0.783577,"website":"","hasWebsite":false,"hasHoraires":true,"url":"https://lannuaire.service-public.gouv.fr/occitanie/tarn-et-garonne/635a4bf7-df32-4757-8749-db715e141eb9"}
{"nom":"Touffailles","nomNormalise":"touffailles","typeCollectivite":"Commune","region":"Occitanie","departement":"Tarn-et-Garonne","departementCode":"82","adresse":{"street":"Le Bourg","postalCode":"82190","city":"Touffailles","country":"France"},"contacts":{"email":"mairie-touffailles@info82.com","telephone":"0563944891"},"horaires":"Du Lundi au Mardi : de 13h30 à 18h00\nLe Jeudi : de 13h30 à 18h00","latitude":44.27285,"longitude":1.051098,"website":"","hasWebsite":false,"hasHoraires":true,"url":"https://lannuaire.service-public.gouv.fr/occitanie/tarn-et-garonne/e48cd0aa-fc7d-40d5-957e-217762d46b60"}
{"nom":"Tréjouls","nomNormalise":"trejouls","typeCollectivite":"Commune","region":"Occitanie","departement":"Tarn-et-Garonne","departementCode":"82","adresse":{"street":"1 place de la Mairie","postalCode":"82110","city":"Tréjouls","country":"France"},"contacts":{"email":"mairie-trejouls@info82.com","telephone":"0563958385"},"horaires":"Le Mardi : de 08h30 à 12h30 de 15h00 à 17h30\nLe Vendredi : de 08h30 à 12h30 de 15h00 à 17h30","latitude":44.267525,"longitude":1.236542,"website":"","hasWebsite":false,"hasHoraires":true,"url":"https://lannuaire.service-public.gouv.fr/occitanie/tarn-et-garonne/17caeed8-affd-40b7-b6fb-d09d5e2607a2"}
{"nom":"Vaïssac","nomNormalise":"vaissac","typeCollectivite":"Commune","region":"Occitanie","departement":"Tarn-et-Garonne","departementCode":"82","adresse":{"street":"1 rue du Village","postalCode":"82800","city":"Vaïssac","country":"France"},"contacts":{"email":"mairie@vaissac.fr","telephone":"0563309594"},"horaires":"Le Lundi : de 08h45 à 12h00 de 13h15 à 18h00\nLe Mardi : de 08h45 à 12h00 de 13h30 à 18h00\nLe Mercredi : de 08h45 à 12h00 de 13h00 à 18h00\nLe Jeudi : de 08h45 à 12h00 de 13h30 à 18h00\nLe Vendredi : de 08h45 à 12h00","latitude":44.033516,"longitude":1.569059,"website":"","hasWebsite":false,"hasHoraires":true,"url":"https://lannuaire.service-public.gouv.fr/occitanie/tarn-et-garonne/a5d5182d-7096-46b7-b357-ba81ce0e428d"}
{"nom":"Valeilles","nomNormalise":"valeilles","typeCollectivite":"Commune","region":"Occitanie","departement":"Tarn-et-Garonne","departementCode":"82","adresse":{"street":"2975 route de Montaigu","postalCode":"82150","city":"Valeilles","country":"France"},"contacts":{"email":"mairie-valeilles@info82.com","telephone":"0563952435"},"horaires":"Du Lundi au Mardi : de 08h45 à 12h00\nDu Jeudi au Vendredi : de 08h45 à 12h00","latitude":44.363964,"longitude":0.923143,"website":"","hasWebsite":false,"hasHoraires":true,"url":"https://lannuaire.service-public.gouv.fr/occitanie/tarn-et-garonne/12c72c5c-4e4d-4ee0-b62f-fb8b0f420d91"}
{"nom":"Valence-d'Agen","nomNormalise":"valencedagen","typeCollectivite":"Commune","region":"Occitanie","departement":"Tarn-et-Garonne","departementCode":"82","adresse":{"street":"25 rue de la République","postalCode":"82400","city":"Valence-d'Agen","country":"France"},"contacts":{"email":"mairie@valencedagen.fr","telephone":"0563296666"},"horaires":"Du Lundi au Jeudi : de 08h30 à 12h30 de 13h30 à 17h00\nLe Vendredi : de 08h30 à 12h30 de 13h30 à 17h30\n\nPendant la crise sanitaire téléphoner avant de se déplacer.","latitude":44.108,"longitude":0.88814,"website":"http://www.valencedagen.fr/","hasWebsite":true,"hasHoraires":true,"url":"https://lannuaire.service-public.gouv.fr/occitanie/tarn-et-garonne/d5ae2bcb-bd71-4edc-91d3-7807e0fe7244"}
{"nom":"Varen","nomNormalise":"varen","typeCollectivite":"Commune","region":"Occitanie","departement":"Tarn-et-Garonne","departementCode":"82","adresse":{"street":"31 rue de la Mairie","postalCode":"82330","city":"Varen","country":"France"},"contacts":{"email":"mairie-varen@info82.com","telephone":"0563654231"},"horaires":"Du Lundi au Jeudi : de 10h00 à 12h30\nLe Vendredi : de 10h00 à 12h00 de 14h30 à 16h30","latitude":44.15747,"longitude":1.893755,"website":"http://www.varen.fr/","hasWebsite":true,"hasHoraires":true,"url":"https://lannuaire.service-public.gouv.fr/occitanie/tarn-et-garonne/f0afd024-9e96-439e-9755-4225fa16212a"}
{"nom":"Varennes","nomNormalise":"varennes","typeCollectivite":"Commune","region":"Occitanie","departement":"Tarn-et-Garonne","departementCode":"82","adresse":{"street":"11 place Pousergues","postalCode":"82370","city":"Varennes","country":"France"},"contacts":{"email":"mairie-varennes@info82.com","telephone":"0563680279"},"horaires":"Le Lundi : de 08h15 à 12h00\nLe Mardi : de 08h15 à 12h00 de 13h30 à 17h30\nDu Mercredi au Jeudi : de 08h30 à 12h00\nLe Vendredi : de 08h15 à 12h00 de 13h30 à 18h00","latitude":43.900833,"longitude":1.4990374,"website":"http://www.varennes82.fr/","hasWebsite":true,"hasHoraires":true,"url":"https://lannuaire.service-public.gouv.fr/occitanie/tarn-et-garonne/e7e4ebde-9e19-4cb9-b27d-0419aa859864"}
{"nom":"Vazerac","nomNormalise":"vazerac","typeCollectivite":"Commune","region":"Occitanie","departement":"Tarn-et-Garonne","departementCode":"82","adresse":{"street":"1 place de la Mairie","postalCode":"82220","city":"Vazerac","country":"France"},"contacts":{"email":"mairie-vazerac@info82.com","telephone":"0563677801"},"horaires":"Du Lundi au Mercredi : de 08h30 à 12h00\n\nAccueil sur rendez-vous les lundi et mercredi après-midi pour l'urbanisme.\nLe Jeudi : de 13h30 à 17h30\nLe Vendredi : de 08h30 à 12h00","latitude":44.190533,"longitude":1.2855254,"website":"http://www.vazerac.fr/","hasWebsite":true,"hasHoraires":true,"url":"https://lannuaire.service-public.gouv.fr/occitanie/tarn-et-garonne/17019ebc-0c99-4341-a7f6-924e19cb20e6"}
{"nom":"Verdun-sur-Garonne","nomNormalise":"verdunsurgaronne","typeCollectivite":"Commune","region":"Occitanie","departement":"Tarn-et-Garonne","departementCode":"82","adresse":{"street":"Place de la Mairie","postalCode":"82600","city":"Verdun-sur-Garonne","country":"France"},"contacts":{"email":"mairie@verdun-sur-garonne.fr","telephone":"0563025036"},"horaires":"Le Lundi : de 14h00 à 17h00\nDu Mardi au Mercredi : de 08h30 à 12h00 de 14h00 à 17h00\nLe Jeudi : de 08h30 à 12h00 de 15h00 à 19h00\nLe Vendredi : de 08h30 à 12h00 de 14h00 à 17h00\nLe Samedi : de 09h00 à 12h00","latitude":43.853935,"longitude":1.235582,"website":"https://www.verdun-sur-garonne.fr/","hasWebsite":true,"hasHoraires":true,"url":"https://lannuaire.service-public.gouv.fr/occitanie/tarn-et-garonne/ef36d095-5404-43a9-a6b5-d88a7fa82e0c"}
{"nom":"Verfeil-sur-Seye","nomNormalise":"verfeilsurseye","typeCollectivite":"Commune","region":"Occitanie","departement":"Tarn-et-Garonne","departementCode":"82","adresse":{"street":"2 place de la Mairie","postalCode":"82330","city":"Verfeil-sur-Seye","country":"France"},"contacts":{"email":"mairie-de-verfeil-sur-seye@wanadoo.fr","telephone":"0563654608"},"horaires":"Du Lundi au Vendredi : de 09h00 à 12h00","latitude":44.18594,"longitude":1.87863,"website":"","hasWebsite":false,"hasHoraires":true,"url":"https://lannuaire.service-public.gouv.fr/occitanie/tarn-et-garonne/85fa30cf-ea1a-43fe-be2b-a27f78b63570"}
{"nom":"Verlhac-Tescou","nomNormalise":"verlhactescou","typeCollectivite":"Commune","region":"Occitanie","departement":"Tarn-et-Garonne","departementCode":"82","adresse":{"street":"73 route de Monclar","postalCode":"82230","city":"Verlhac-Tescou","country":"France"},"contacts":{"email":"mairie@verlhac-tescou.fr","telephone":"0563304201"},"horaires":"Du Lundi au Mardi : de 08h30 à 12h30 de 13h00 à 17h00\nDu Jeudi au Vendredi : de 08h30 à 12h30 de 13h00 à 17h00","latitude":43.928703,"longitude":1.538758,"website":"https://www.verlhac-tescou.fr/","hasWebsite":true,"hasHoraires":true,"url":"https://lannuaire.service-public.gouv.fr/occitanie/tarn-et-garonne/7f10edb1-5a1c-47e2-b716-db1cf0e79f22"}
{"nom":"Vigueron","nomNormalise":"vigueron","typeCollectivite":"Commune","region":"Occitanie","departement":"Tarn-et-Garonne","departementCode":"82","adresse":{"street":"1 rue de la Mairie","postalCode":"82500","city":"Vigueron","country":"France"},"contacts":{"email":"mairie@vigueron.fr","telephone":"0563207724"},"horaires":"Le Lundi : de 13h30 à 17h30\nLe Vendredi : de 09h00 à 13h00","latitude":43.88416,"longitude":1.054919,"website":"","hasWebsite":false,"hasHoraires":true,"url":"https://lannuaire.service-public.gouv.fr/occitanie/tarn-et-garonne/72035752-0b41-4bb3-a2ca-dda4cc092a7c"}
{"nom":"Villebrumier","nomNormalise":"villebrumier","typeCollectivite":"Commune","region":"Occitanie","departement":"Tarn-et-Garonne","departementCode":"82","adresse":{"street":"1 place de la Mairie","postalCode":"82370","city":"Villebrumier","country":"France"},"contacts":{"email":"mairie-villebrumier@info82.com","telephone":"0563680406"},"horaires":"Le Lundi : de 08h30 à 12h30 de 13h30 à 17h30\nLe Mardi : de 08h30 à 12h30\nLe Mercredi : de 08h30 à 12h30 de 13h30 à 17h30\nLe Jeudi : de 08h30 à 12h30\nLe Vendredi : de 08h30 à 12h30 de 14h00 à 17h30\nLe Samedi : de 08h30 à 10h30","latitude":43.9068,"longitude":1.45419,"website":"http://www.villebrumier.fr/","hasWebsite":true,"hasHoraires":true,"url":"https://lannuaire.service-public.gouv.fr/occitanie/tarn-et-garonne/f5628869-7ceb-4099-88bb-7949d45e7bdf"}
{"nom":"Villemade","nomNormalise":"villemade","typeCollectivite":"Commune","region":"Occitanie","departement":"Tarn-et-Garonne","departementCode":"82","adresse":{"street":"8 rue des Écoles","postalCode":"82130","city":"Villemade","country":"France"},"contacts":{"email":"mairie-villemade@info82.com","telephone":"0563033409"},"horaires":"Le Lundi : de 08h30 à 12h30 de 14h00 à 18h00\nDu Mardi au Mercredi : de 08h30 à 12h30\nLe Jeudi : de 08h30 à 12h30 de 14h00 à 18h00\nLe Vendredi : de 08h30 à 12h30 de 14h00 à 17h00\nLe Samedi : de 09h00 à 12h00","latitude":44.075535,"longitude":1.287767,"website":"http://www.villemade.fr/","hasWebsite":true,"hasHoraires":true,"url":"https://lannuaire.service-public.gouv.fr/occitanie/tarn-et-garonne/777570e4-4944-42d1-9a5f-9524d65759b4"}
