{"nom":"Aiguines","nomNormalise":"aiguines","typeCollectivite":"Commune","region":"Provence-Alpes-Côte d'Azur","departement":"Var","departementCode":"83","adresse":{"street":"1 Place de la Mairie","postalCode":"83630","city":"Aiguines","country":"France"},"contacts":{"email":"contact@aiguines.fr","telephone":"0494702193"},"horaires":"Du Lundi au Vendredi : de 09h00 à 12h00","latitude":43.7747,"longitude":6.24345,"website":"https://www.aiguines.fr/","hasWebsite":true,"hasHoraires":true,"url":"https://lannuaire.service-public.gouv.fr/provence-alpes-cote-d-azur/var/6182ac0a-7a9d-48ac-a1dc-1347d4a4d273"}
{"nom":"Ampus","nomNormalise":"ampus","typeCollectivite":"Commune","region":"Provence-Alpes-Côte d'Azur","departement":"Var","departementCode":"83","adresse":{"street":"Place de la Mairie","postalCode":"83111","city":"Ampus","country":"France"},"contacts":{"email":"ampus@mairie-ampus.fr","telephone":"0494709711"},"horaires":"Du Lundi au Mardi : de 09h30 à 12h30\nLe Mercredi : de 09h30 à 12h30 de 14h00 à 17h00\nDu Jeudi au Vendredi : de 09h30 à 12h00","latitude":43.6072,"longitude":6.38344,"website":"https://www.mairie-ampus.com/","hasWebsite":true,"hasHoraires":true,"url":"https://lannuaire.service-public.gouv.fr/provence-alpes-cote-d-azur/var/2f218c2a-2962-4c3b-9c65-0597568640cf"}
{"nom":"Artignosc-sur-Verdon","nomNormalise":"artignoscsurverdon","typeCollectivite":"Commune","region":"Provence-Alpes-Côte d'Azur","departement":"Var","departementCode":"83","adresse":{"street":"54 chemin des Planets","postalCode":"83630","city":"Artignosc-sur-Verdon","country":"France"},"contacts":{"email":"mairie-artignosc@wanadoo.fr","telephone":"0494807004"},"horaires":"Du Lundi au Mardi : de 08h30 à 12h30 de 13h30 à 16h30\nLe Mercredi : de 08h00 à 12h00\nDu Jeudi au Vendredi : de 08h30 à 12h30 de 13h30 à 16h30","latitude":43.704365,"longitude":6.092873,"website":"https://www.artignosc-sur-verdon.fr/","hasWebsite":true,"hasHoraires":true,"url":"https://lannuaire.service-public.gouv.fr/provence-alpes-cote-d-azur/var/264daf29-c0f3-45f6-afe4-ee35dcc336bf"}
{"nom":"Artigues","nomNormalise":"artigues","typeCollectivite":"Commune","region":"Provence-Alpes-Côte d'Azur","departement":"Var","departementCode":"83","adresse":{"street":"7 rue de la Mairie","postalCode":"83560","city":"Artigues","country":"France"},"contacts":{"email":"mairieartigues@orange.fr","telephone":"0494803102"},"horaires":"Le Lundi : de 08h00 à 12h30 de 14h00 à 17h00\nDu Mardi au Jeudi : de 08h00 à 12h30\nLe Vendredi : de 08h00 à 12h30 de 14h00 à 17h00","latitude":43.59335,"longitude":5.8114505,"website":"https://artiguesenprovence.fr/","hasWebsite":true,"hasHoraires":true,"url":"https://lannuaire.service-public.gouv.fr/provence-alpes-cote-d-azur/var/76a13f6e-7620-4d23-8f4c-d1c466368399"}
{"nom":"Aups","nomNormalise":"aups","typeCollectivite":"Commune","region":"Provence-Alpes-Côte d'Azur","departement":"Var","departementCode":"83","adresse":{"street":"Place Frédéric-Mistral","postalCode":"83630","city":"Aups","country":"France"},"contacts":{"email":"accueil@mairie-aups.com","telephone":"0494700007"},"horaires":"Du Lundi au Mardi : de 08h00 à 12h00 de 13h30 à 16h30\nLe Mercredi : de 08h00 à 12h00\nDu Jeudi au Vendredi : de 08h00 à 12h00 de 13h30 à 16h30\nLe Samedi : de 09h00 à 12h00\n\nLe service cartes d'identité et passeports est fermé le samedi et ouvert sur rendez-vous uniquement les autres jours.","latitude":43.6272,"longitude":6.22341,"website":"https://aups.fr/","hasWebsite":true,"hasHoraires":true,"url":"https://lannuaire.service-public.gouv.fr/provence-alpes-cote-d-azur/var/55ad711c-0cb8-4f39-8cf4-81f83fc76f90"}
{"nom":"Bagnols-en-Forêt","nomNormalise":"bagnolsenforet","typeCollectivite":"Commune","region":"Provence-Alpes-Côte d'Azur","departement":"Var","departementCode":"83","adresse":{"street":"1 place de l'Hôtel-de-Ville","postalCode":"83600","city":"Bagnols-en-Forêt","country":"France"},"contacts":{"email":"mairie@bagnolsenforet.fr","telephone":"0494403150"},"horaires":"Du Lundi au Vendredi : de 09h00 à 12h00 de 14h00 à 17h00","latitude":43.537178,"longitude":6.698654,"website":"https://www.bagnolsenforet.fr/","hasWebsite":true,"hasHoraires":true,"url":"https://lannuaire.service-public.gouv.fr/provence-alpes-cote-d-azur/var/e7f92f20-6bf4-4321-b25d-bf75101746e2"}
{"nom":"Bandol","nomNormalise":"bandol","typeCollectivite":"Commune","region":"Provence-Alpes-Côte d'Azur","departement":"Var","departementCode":"83","adresse":{"street":"1 Place de la Liberté","postalCode":"83150","city":"Bandol","country":"France"},"contacts":{"email":"dgs@bandol.fr","telephone":"0494291230"},"horaires":"Du Lundi au Jeudi : de 08h30 à 12h00 de 13h30 à 17h00\nLe Vendredi : de 08h30 à 12h00 de 13h30 à 16h30","latitude":43.136204,"longitude":5.75474,"website":"https://www.bandol.fr/","hasWebsite":true,"hasHoraires":true,"url":"https://lannuaire.service-public.gouv.fr/provence-alpes-cote-d-azur/var/b346668f-f12f-4c9b-9bad-d8701648cf95"}
{"nom":"Bargème","nomNormalise":"bargeme","typeCollectivite":"Commune","region":"Provence-Alpes-Côte d'Azur","departement":"Var","departementCode":"83","adresse":{"street":"1 place de la Mairie","postalCode":"83840","city":"Bargème","country":"France"},"contacts":{"email":"contact@mairie-bargeme.fr","telephone":"0494502194"},"horaires":"Du Lundi au Mardi : de 09h00 à 12h00 de 14h00 à 17h00\nDu Jeudi au Vendredi : de 09h00 à 12h00 de 14h00 à 17h00","latitude":43.73005,"longitude":6.57287,"website":"https://www.bargeme.fr/","hasWebsite":true,"hasHoraires":true,"url":"https://lannuaire.service-public.gouv.fr/provence-alpes-cote-d-azur/var/7bd36f27-54c5-4100-8006-acd2f7e993fb"}
{"nom":"Bargemon","nomNormalise":"bargemon","typeCollectivite":"Commune","region":"Provence-Alpes-Côte d'Azur","departement":"Var","departementCode":"83","adresse":{"street":"1 place de la Mairie","postalCode":"83830","city":"Bargemon","country":"France"},"contacts":{"email":"mairiebargemon@orange.fr","telephone":"0494390920"},"horaires":"Du Lundi au Vendredi : de 08h00 à 12h00 de 14h00 à 17h00","latitude":43.619038,"longitude":6.550857,"website":"https://mairie-bargemon.fr/","hasWebsite":true,"hasHoraires":true,"url":"https://lannuaire.service-public.gouv.fr/provence-alpes-cote-d-azur/var/bf94c3e6-d70f-47a3-a628-f85df6742318"}
{"nom":"Barjols","nomNormalise":"barjols","typeCollectivite":"Commune","region":"Provence-Alpes-Côte d'Azur","departement":"Var","departementCode":"83","adresse":{"street":"Place Capitaine-Vincens","postalCode":"83670","city":"Barjols","country":"France"},"contacts":{"email":"dg-secretariat@barjols.fr","telephone":"0494728060"},"horaires":"Du Mardi au Vendredi : de 09h00 à 12h00 de 13h30 à 17h45\nLe Samedi : de 09h00 à 12h00","latitude":43.5574,"longitude":6.0077,"website":"https://barjols.fr/","hasWebsite":true,"hasHoraires":true,"url":"https://lannuaire.service-public.gouv.fr/provence-alpes-cote-d-azur/var/5eb46a9b-eaa8-4675-9c56-23e3d59772b3"}
{"nom":"Baudinard-sur-Verdon","nomNormalise":"baudinardsurverdon","typeCollectivite":"Commune","region":"Provence-Alpes-Côte d'Azur","departement":"Var","departementCode":"83","adresse":{"street":"36 Grand'rue","postalCode":"83630","city":"Baudinard-sur-Verdon","country":"France"},"contacts":{"email":"mairiedebaudinard@gmail.com","telephone":"0494701861"},"horaires":"Du Lundi au Vendredi : de 08h00 à 12h00","latitude":43.716564,"longitude":6.1364326,"website":"http://www.baudinard.fr/","hasWebsite":true,"hasHoraires":true,"url":"https://lannuaire.service-public.gouv.fr/provence-alpes-cote-d-azur/var/79051615-1c2c-4ee4-94b8-f48d91f76cd3"}
{"nom":"Bauduen","nomNormalise":"bauduen","typeCollectivite":"Commune","region":"Provence-Alpes-Côte d'Azur","departement":"Var","departementCode":"83","adresse":{"street":"Place du Monument-aux-Morts","postalCode":"83630","city":"Bauduen","country":"France"},"contacts":{"email":"mairie@bauduen.fr","telephone":"0494509905"},"horaires":"Du Lundi au Vendredi : de 09h00 à 12h00","latitude":43.73418,"longitude":6.174812,"website":"https://www.bauduen.fr/","hasWebsite":true,"hasHoraires":true,"url":"https://lannuaire.service-public.gouv.fr/provence-alpes-cote-d-azur/var/9e62f845-e386-46a4-adc8-318e60ee8026"}
{"nom":"Belgentier","nomNormalise":"belgentier","typeCollectivite":"Commune","region":"Provence-Alpes-Côte d'Azur","departement":"Var","departementCode":"83","adresse":{"street":"Avenue du 8-Mai-1945","postalCode":"83210","city":"Belgentier","country":"France"},"contacts":{"email":"mairie.belgentier@wanadoo.fr","telephone":"0494331300"},"horaires":"Du Lundi au Vendredi : de 10h00 à 12h00 de 14h00 à 17h00","latitude":43.24385,"longitude":6.001002,"website":"https://belgentier.fr/","hasWebsite":true,"hasHoraires":true,"url":"https://lannuaire.service-public.gouv.fr/provence-alpes-cote-d-azur/var/8b081b86-a835-4287-a1f9-e2649dd611f8"}
{"nom":"Besse-sur-Issole","nomNormalise":"bessesurissole","typeCollectivite":"Commune","region":"Provence-Alpes-Côte d'Azur","departement":"Var","departementCode":"83","adresse":{"street":"15 boulevard Paul-Bert","postalCode":"83890","city":"Besse-sur-Issole","country":"France"},"contacts":{"email":"mairie.besse@wanadoo.fr","telephone":"0494697004"},"horaires":"Du Lundi au Jeudi : de 08h00 à 12h00 de 13h30 à 17h30\nLe Vendredi : de 08h00 à 12h00 de 13h30 à 16h30","latitude":43.348656,"longitude":6.178561,"website":"https://www.besse-sur-issole.fr/","hasWebsite":true,"hasHoraires":true,"url":"https://lannuaire.service-public.gouv.fr/provence-alpes-cote-d-azur/var/3881f929-ae2a-456c-80b4-9500c83cb1c1"}
{"nom":"Bormes-les-Mimosas","nomNormalise":"bormeslesmimosas","typeCollectivite":"Commune","region":"Provence-Alpes-Côte d'Azur","departement":"Var","departementCode":"83","adresse":{"street":"1 place Saint-François","postalCode":"83230","city":"Bormes-les-Mimosas","country":"France"},"contacts":{"email":"courrier@ville-bormes.fr","telephone":"0494053450"},"horaires":"Du Lundi au Vendredi : de 08h00 à 12h00 de 13h30 à 17h00","latitude":43.151173,"longitude":6.344367,"website":"https://www.ville-bormes.fr/fr","hasWebsite":true,"hasHoraires":true,"url":"https://lannuaire.service-public.gouv.fr/provence-alpes-cote-d-azur/var/0cc6c1f3-c064-4873-8e5f-13207226378d"}
{"nom":"Bras","nomNormalise":"bras","typeCollectivite":"Commune","region":"Provence-Alpes-Côte d'Azur","departement":"Var","departementCode":"83","adresse":{"street":"Route de Brignoles","postalCode":"83149","city":"Bras","country":"France"},"contacts":{"email":"secretariat@mairie-bras.fr","telephone":"0494372340"},"horaires":"Du Lundi au Vendredi : de 08h00 à 12h00 de 13h30 à 16h00","latitude":43.47081,"longitude":5.9575,"website":"https://mairie-bras.fr/fr/","hasWebsite":true,"hasHoraires":true,"url":"https://lannuaire.service-public.gouv.fr/provence-alpes-cote-d-azur/var/ce2a9be7-3e3b-477e-9b2f-6360f44bf8bb"}
{"nom":"Brenon","nomNormalise":"brenon","typeCollectivite":"Commune","region":"Provence-Alpes-Côte d'Azur","departement":"Var","departementCode":"83","adresse":{"street":"Hameau des Henry","postalCode":"83840","city":"Brenon","country":"France"},"contacts":{"email":"mairiedebrenon@gmail.com","telephone":"0613856214"},"horaires":"Le Mardi : de 09h00 à 12h00\nDu Jeudi au Vendredi : de 09h00 à 12h00","latitude":43.766724,"longitude":6.543774,"website":"","hasWebsite":false,"hasHoraires":true,"url":"https://lannuaire.service-public.gouv.fr/provence-alpes-cote-d-azur/var/d5ce689f-b063-40ea-91c0-cfe09229dc75"}
{"nom":"Brignoles","nomNormalise":"brignoles","typeCollectivite":"Commune","region":"Provence-Alpes-Côte d'Azur","departement":"Var","departementCode":"83","adresse":{"street":"9 place Carami","postalCode":"83170","city":"Brignoles","country":"France"},"contacts":{"email":"contact@brignoles.fr","telephone":"0494862222"},"horaires":"Du Lundi au Vendredi : de 08h00 à 12h00 de 13h30 à 17h00\nLe Samedi : de 09h00 à 12h00","latitude":43.406597,"longitude":6.061673,"website":"https://www.brignoles.fr/","hasWebsite":true,"hasHoraires":true,"url":"https://lannuaire.service-public.gouv.fr/provence-alpes-cote-d-azur/var/9b35c458-6d65-449c-955f-32d8b5fbcec2"}
{"nom":"Brue-Auriac","nomNormalise":"brueauriac","typeCollectivite":"Commune","region":"Provence-Alpes-Côte d'Azur","departement":"Var","departementCode":"83","adresse":{"street":"Cours Roux-de-Corse","postalCode":"83119","city":"Brue-Auriac","country":"France"},"contacts":{"email":"accueil@brue-auriac.fr","telephone":"0498052626"},"horaires":"Du Lundi au Mardi : de 10h00 à 12h00 de 15h00 à 17h30\nDu Jeudi au Vendredi : de 10h00 à 12h00 de 15h00 à 17h30","latitude":43.52709,"longitude":5.9468355,"website":"https://www.brue-auriac.fr/Commune.a/b0l/Tous","hasWebsite":true,"hasHoraires":true,"url":"https://lannuaire.service-public.gouv.fr/provence-alpes-cote-d-azur/var/546a4538-84e3-4228-92a7-aa0ae05163e8"}
{"nom":"Cabasse","nomNormalise":"cabasse","typeCollectivite":"Commune","region":"Provence-Alpes-Côte d'Azur","departement":"Var","departementCode":"83","adresse":{"street":"1 place de la République","postalCode":"83340","city":"Cabasse-sur-Issole","country":"France"},"contacts":{"email":"mairie.cabasse@orange.fr","telephone":"0498051280"},"horaires":"Du Lundi au Vendredi : de 08h30 à 12h30 de 15h00 à 17h00\nPermanence de l'urbanisme sur rendez-vous.","latitude":43.426147,"longitude":6.222106,"website":"https://www.mairie-cabasse.fr/","hasWebsite":true,"hasHoraires":true,"url":"https://lannuaire.service-public.gouv.fr/provence-alpes-cote-d-azur/var/1d72c6de-9789-43d6-8f48-55b5abff42cc"}
{"nom":"Callas","nomNormalise":"callas","typeCollectivite":"Commune","region":"Provence-Alpes-Côte d'Azur","departement":"Var","departementCode":"83","adresse":{"street":"Place de la Victoire","postalCode":"83830","city":"Callas","country":"France"},"contacts":{"email":"mairie@callas.fr","telephone":"0494766107"},"horaires":"Du Lundi au Vendredi : de 09h30 à 12h00 de 14h00 à 16h00\nLe Samedi : de 09h30 à 12h00","latitude":43.59282,"longitude":6.537958,"website":"https://callas.fr/","hasWebsite":true,"hasHoraires":true,"url":"https://lannuaire.service-public.gouv.fr/provence-alpes-cote-d-azur/var/3196df89-bc93-4ac5-af17-087a599b8827"}
{"nom":"Callian","nomNormalise":"callian","typeCollectivite":"Commune","region":"Provence-Alpes-Côte d'Azur","departement":"Var","departementCode":"83","adresse":{"street":"Place de la Mairie","postalCode":"83440","city":"Callian","country":"France"},"contacts":{"email":"mairiecallian@callian.fr","telephone":"0494399840"},"horaires":"Du Lundi au Vendredi : de 09h00 à 12h00 de 14h00 à 17h00","latitude":43.62267,"longitude":6.7532,"website":"https://www.callian.fr/","hasWebsite":true,"hasHoraires":true,"url":"https://lannuaire.service-public.gouv.fr/provence-alpes-cote-d-azur/var/3de97e28-e83b-4e51-9715-20498207c748"}
{"nom":"Camps-la-Source","nomNormalise":"campslasource","typeCollectivite":"Commune","region":"Provence-Alpes-Côte d'Azur","departement":"Var","departementCode":"83","adresse":{"street":"1 place de la Mairie","postalCode":"83170","city":"Camps-la-Source","country":"France"},"contacts":{"email":"mairie.camps.la.source@wanadoo.fr","telephone":"0494808359"},"horaires":"Le Lundi : de 09h00 à 12h00\nLe Mardi : de 09h00 à 12h00 de 14h00 à 17h00\nLe Mercredi : de 09h00 à 12h00 de 14h00 à 16h00\nLe Jeudi : de 09h00 à 12h00\nLe Vendredi : de 09h00 à 12h00 de 14h00 à 16h00","latitude":43.386276,"longitude":6.094485,"website":"https://www.campslasource.fr/","hasWebsite":true,"hasHoraires":true,"url":"https://lannuaire.service-public.gouv.fr/provence-alpes-cote-d-azur/var/8341b5f7-073d-42ea-9b78-21e4337e66ab"}
{"nom":"Carcès","nomNormalise":"carces","typeCollectivite":"Commune","region":"Provence-Alpes-Côte d'Azur","departement":"Var","departementCode":"83","adresse":{"street":"31 rue du Maréchal-Foch","postalCode":"83570","city":"Carcès","country":"France"},"contacts":{"email":"accueil@mairie-carces.fr","telephone":"0494045014"},"horaires":"Le Lundi : de 09h00 à 12h00 de 13h30 à 17h00\nLe Mardi : de 09h00 à 12h00\nDu Mercredi au Jeudi : de 09h00 à 12h00 de 13h30 à 17h00\nDu Vendredi au Samedi : de 09h00 à 12h00","latitude":43.47651,"longitude":6.182329,"website":"https://www.carces.fr/","hasWebsite":true,"hasHoraires":true,"url":"https://lannuaire.service-public.gouv.fr/provence-alpes-cote-d-azur/var/fa54db59-f6fe-4549-abde-b90f84d730ec"}
{"nom":"Carnoules","nomNormalise":"carnoules","typeCollectivite":"Commune","region":"Provence-Alpes-Côte d'Azur","departement":"Var","departementCode":"83","adresse":{"street":"27 cours Victor-Hugo","postalCode":"83660","city":"Carnoules","country":"France"},"contacts":{"email":"mairie@carnoules.fr","telephone":"0494138000"},"horaires":"Du Lundi au Vendredi : de 08h00 à 12h00 de 15h00 à 17h00","latitude":43.3029,"longitude":6.18964,"website":"https://www.carnoules.fr/","hasWebsite":true,"hasHoraires":true,"url":"https://lannuaire.service-public.gouv.fr/provence-alpes-cote-d-azur/var/dcbbc1b0-a793-4f44-b65e-204bba5a833e"}
{"nom":"Carqueiranne","nomNormalise":"carqueiranne","typeCollectivite":"Commune","region":"Provence-Alpes-Côte d'Azur","departement":"Var","departementCode":"83","adresse":{"street":"Place de la République","postalCode":"83320","city":"Carqueiranne","country":"France"},"contacts":{"email":"","telephone":"0494014040"},"horaires":"Du Lundi au Vendredi : de 08h30 à 12h00 de 13h45 à 17h30","latitude":43.09489,"longitude":6.074489,"website":"https://www.carqueiranne.fr/","hasWebsite":true,"hasHoraires":true,"url":"https://lannuaire.service-public.gouv.fr/provence-alpes-cote-d-azur/var/7b4731bb-be00-4cc7-bb87-8039cde74396"}
{"nom":"Cavalaire-sur-Mer","nomNormalise":"cavalairesurmer","typeCollectivite":"Commune","region":"Provence-Alpes-Côte d'Azur","departement":"Var","departementCode":"83","adresse":{"street":"109 avenue Gabriel Peri","postalCode":"83240","city":"Cavalaire-sur-Mer","country":"France"},"contacts":{"email":"courrier@cavalaire.fr","telephone":"0494004800"},"horaires":"Du Lundi au Jeudi : de 08h00 à 17h00\nLe Vendredi : de 08h00 à 16h00","latitude":43.17344,"longitude":6.5316505,"website":"https://www.cavalaire.fr/","hasWebsite":true,"hasHoraires":true,"url":"https://lannuaire.service-public.gouv.fr/provence-alpes-cote-d-azur/var/8740727c-80ed-4beb-8df3-0dc5419d64ec"}
{"nom":"Châteaudouble","nomNormalise":"chateaudouble","typeCollectivite":"Commune","region":"Provence-Alpes-Côte d'Azur","departement":"Var","departementCode":"83","adresse":{"street":"1 Place Vieille","postalCode":"83300","city":"Châteaudouble","country":"France"},"contacts":{"email":"chateaudouble@orange.fr","telephone":"0498105135"},"horaires":"Du Lundi au Vendredi : de 08h30 à 12h00","latitude":43.59967,"longitude":6.449266,"website":"https://www.chateaudouble.fr/","hasWebsite":true,"hasHoraires":true,"url":"https://lannuaire.service-public.gouv.fr/provence-alpes-cote-d-azur/var/08ec5db8-72f9-415a-884e-d616318493a7"}
{"nom":"Châteauvert","nomNormalise":"chateauvert","typeCollectivite":"Commune","region":"Provence-Alpes-Côte d'Azur","departement":"Var","departementCode":"83","adresse":{"street":"24 route de Barjols","postalCode":"83670","city":"Châteauvert","country":"France"},"contacts":{"email":"mairie.chateauvert83@orange.fr","telephone":"0494770202"},"horaires":"Du Lundi au Mardi : de 08h00 à 12h30 de 13h00 à 17h30\nLe Jeudi : de 08h00 à 12h30 de 13h00 à 17h30\nLe Vendredi : de 08h00 à 12h30 de 13h00 à 16h30","latitude":43.503105,"longitude":6.008204,"website":"http://www.chateauvert.fr/","hasWebsite":true,"hasHoraires":true,"url":"https://lannuaire.service-public.gouv.fr/provence-alpes-cote-d-azur/var/2dcc71f5-6099-4828-b75c-7839adef12ca"}
{"nom":"Châteauvieux","nomNormalise":"chateauvieux","typeCollectivite":"Commune","region":"Provence-Alpes-Côte d'Azur","departement":"Var","departementCode":"83","adresse":{"street":"70 rue de la Mairie","postalCode":"83840","city":"Châteauvieux","country":"France"},"contacts":{"email":"chateauvieux3@wanadoo.fr","telephone":"0494842016"},"horaires":"Du Lundi au Mardi : de 09h00 à 12h00 de 13h00 à 17h00\nDu Jeudi au Vendredi : de 09h00 à 12h00 de 13h00 à 17h00","latitude":43.77809,"longitude":6.576752,"website":"","hasWebsite":false,"hasHoraires":true,"url":"https://lannuaire.service-public.gouv.fr/provence-alpes-cote-d-azur/var/9c1f8c9a-d37e-4de0-90cd-a4ae3f3726e6"}
{"nom":"Claviers","nomNormalise":"claviers","typeCollectivite":"Commune","region":"Provence-Alpes-Côte d'Azur","departement":"Var","departementCode":"83","adresse":{"street":"3 place du 8-Mai-1945","postalCode":"83830","city":"Claviers","country":"France"},"contacts":{"email":"mairie@mairie-claviers.fr","telephone":"0494766207"},"horaires":"Du Lundi au Mardi : de 09h00 à 12h00 de 14h00 à 18h00\nDu Mercredi au Vendredi : de 09h00 à 12h00","latitude":43.601227,"longitude":6.562124,"website":"http://www.mairie-claviers.fr/","hasWebsite":true,"hasHoraires":true,"url":"https://lannuaire.service-public.gouv.fr/provence-alpes-cote-d-azur/var/68b3a8bb-cd5e-442a-a125-f6a92df3512c"}
{"nom":"Cogolin","nomNormalise":"cogolin","typeCollectivite":"Commune","region":"Provence-Alpes-Côte d'Azur","departement":"Var","departementCode":"83","adresse":{"street":"2 place de la République","postalCode":"83310","city":"Cogolin","country":"France"},"contacts":{"email":"mairie@cogolin.fr","telephone":"0494566545"},"horaires":"Du Lundi au Jeudi : de 08h30 à 17h00\nLe Vendredi : de 08h30 à 15h30","latitude":43.251865,"longitude":6.533501,"website":"https://www.cogolin.fr/","hasWebsite":true,"hasHoraires":true,"url":"https://lannuaire.service-public.gouv.fr/provence-alpes-cote-d-azur/var/dee6f89f-69bf-4753-ac2f-0b6ae85e3169"}
{"nom":"Collobrières","nomNormalise":"collobrieres","typeCollectivite":"Commune","region":"Provence-Alpes-Côte d'Azur","departement":"Var","departementCode":"83","adresse":{"street":"Place de la Libération","postalCode":"83610","city":"Collobrières","country":"France"},"contacts":{"email":"servicecommunication@collobrieres.fr","telephone":"0494138383"},"horaires":"Du Lundi au Vendredi : de 08h30 à 12h30 de 15h30 à 17h45","latitude":43.2375,"longitude":6.30899,"website":"https://www.collobrieres.fr/","hasWebsite":true,"hasHoraires":true,"url":"https://lannuaire.service-public.gouv.fr/provence-alpes-cote-d-azur/var/817d8982-e378-45d5-9330-b904b9d9def0"}
{"nom":"Comps-sur-Artuby","nomNormalise":"compssurartuby","typeCollectivite":"Commune","region":"Provence-Alpes-Côte d'Azur","departement":"Var","departementCode":"83","adresse":{"street":"2 place de la République","postalCode":"83840","city":"Comps-sur-Artuby","country":"France"},"contacts":{"email":"mairie.compsurartuby@wanadoo.fr","telephone":"0494502400"},"horaires":"Du Lundi au Vendredi : de 10h30 à 12h30 de 14h30 à 16h30","latitude":43.7097,"longitude":6.50847,"website":"https://comps-sur-artuby.fr/","hasWebsite":true,"hasHoraires":true,"url":"https://lannuaire.service-public.gouv.fr/provence-alpes-cote-d-azur/var/e02270d2-4b60-4d31-8bc1-4458678b5638"}
{"nom":"Correns","nomNormalise":"correns","typeCollectivite":"Commune","region":"Provence-Alpes-Côte d'Azur","departement":"Var","departementCode":"83","adresse":{"street":"5 place du Général-de-Gaulle","postalCode":"83570","city":"Correns","country":"France"},"contacts":{"email":"mairie@correns.fr","telephone":"0494372195"},"horaires":"Du Mardi au Samedi : de 09h00 à 12h00","latitude":43.48798,"longitude":6.079518,"website":"https://www.correns.fr/fr/","hasWebsite":true,"hasHoraires":true,"url":"https://lannuaire.service-public.gouv.fr/provence-alpes-cote-d-azur/var/dc6c4bb2-5be2-4a9f-84d1-10380938b0da"}
{"nom":"Cotignac","nomNormalise":"cotignac","typeCollectivite":"Commune","region":"Provence-Alpes-Côte d'Azur","departement":"Var","departementCode":"83","adresse":{"street":"Hôtel de Ville","postalCode":"83570","city":"Cotignac","country":"France"},"contacts":{"email":"contact@mairiecotignac.fr","telephone":"0494726020"},"horaires":"Du Lundi au Vendredi : de 09h00 à 12h00","latitude":43.529003,"longitude":6.1486597,"website":"https://mairiecotignac.fr/","hasWebsite":true,"hasHoraires":true,"url":"https://lannuaire.service-public.gouv.fr/provence-alpes-cote-d-azur/var/4797d8c6-1666-4a97-80ba-acc8f76246d3"}
{"nom":"Cuers","nomNormalise":"cuers","typeCollectivite":"Commune","region":"Provence-Alpes-Côte d'Azur","departement":"Var","departementCode":"83","adresse":{"street":"Place du Général-Magnan","postalCode":"83390","city":"Cuers","country":"France"},"contacts":{"email":"standard.mairie@cuers.fr","telephone":"0494135070"},"horaires":"Du Lundi au Jeudi : de 08h00 à 12h00 de 13h30 à 17h00\nLe Vendredi : de 08h00 à 12h00 de 13h30 à 16h30","latitude":43.23729,"longitude":6.072796,"website":"https://www.cuers.fr/","hasWebsite":true,"hasHoraires":true,"url":"https://lannuaire.service-public.gouv.fr/provence-alpes-cote-d-azur/var/093d2254-5982-40a6-a53a-429a0d474167"}
{"nom":"Draguignan","nomNormalise":"draguignan","typeCollectivite":"Commune","region":"Provence-Alpes-Côte d'Azur","departement":"Var","departementCode":"83","adresse":{"street":"28 rue Georges-Cisson","postalCode":"83300","city":"Draguignan","country":"France"},"contacts":{"email":"mairie@ville-draguignan.fr","telephone":"0494603100"},"horaires":"Du Lundi au Vendredi : de 08h00 à 17h00\nLe Samedi : de 09h00 à 12h00\n\nAccueil ouvert pour l'état civil uniquement.","latitude":43.53792,"longitude":6.4634905,"website":"https://www.ville-draguignan.fr/","hasWebsite":true,"hasHoraires":true,"url":"https://lannuaire.service-public.gouv.fr/provence-alpes-cote-d-azur/var/2b1aaadb-0d1d-4759-a90f-e71384aba738"}
{"nom":"Entrecasteaux","nomNormalise":"entrecasteaux","typeCollectivite":"Commune","region":"Provence-Alpes-Côte d'Azur","departement":"Var","departementCode":"83","adresse":{"street":"1 place du Général-Estève","postalCode":"83570","city":"Entrecasteaux","country":"France"},"contacts":{"email":"mairie@entrecasteaux.fr","telephone":"0494372288"},"horaires":"Le Lundi : de 08h30 à 12h00 de 13h30 à 16h30\nLe Mardi : de 08h30 à 12h00 de 14h30 à 16h30\nLe Mercredi : de 08h30 à 12h00\nLe Jeudi : de 08h30 à 12h00 de 14h30 à 16h30\nLe Vendredi : de 08h30 à 12h00 de 13h30 à 16h30","latitude":43.514675,"longitude":6.242711,"website":"http://www.entrecasteaux.fr/","hasWebsite":true,"hasHoraires":true,"url":"https://lannuaire.service-public.gouv.fr/provence-alpes-cote-d-azur/var/e6a619d5-9007-4c70-9db8-150fd34e96ef"}
{"nom":"Esparron‑de‑Pallières","nomNormalise":"esparrondepallieres","typeCollectivite":"Commune","region":"Provence-Alpes-Côte d'Azur","departement":"Var","departementCode":"83","adresse":{"street":"Place de l'Église","postalCode":"83560","city":"Esparron‑de‑Pallières","country":"France"},"contacts":{"email":"mairie@esparron.fr","telephone":"0494806026"},"horaires":"Du Mardi au Mercredi : de 08h00 à 12h00\nLe Vendredi : de 13h00 à 16h00\nLe Samedi : de 10h00 à 12h00","latitude":43.698772,"longitude":5.954354,"website":"https://www.esparron.fr/","hasWebsite":true,"hasHoraires":true,"url":"https://lannuaire.service-public.gouv.fr/provence-alpes-cote-d-azur/var/17d138e9-dcaf-4944-96b1-fd35d6ee7a30"}
{"nom":"Evenos","nomNormalise":"evenos","typeCollectivite":"Commune","region":"Provence-Alpes-Côte d'Azur","departement":"Var","departementCode":"83","adresse":{"street":"2 Route de Toulon","postalCode":"83330","city":"Évenos","country":"France"},"contacts":{"email":"mairie@evenos.fr","telephone":"0494985086"},"horaires":"Du Lundi au Jeudi : de 08h30 à 12h00 de 14h30 à 17h00\nLe Vendredi : de 08h30 à 12h00 de 14h30 à 16h00","latitude":43.167904,"longitude":5.828511,"website":"https://www.evenos.fr/","hasWebsite":true,"hasHoraires":true,"url":"https://lannuaire.service-public.gouv.fr/provence-alpes-cote-d-azur/var/d8b722d9-af88-4972-9815-58d9a66b6ae3"}
{"nom":"Fayence","nomNormalise":"fayence","typeCollectivite":"Commune","region":"Provence-Alpes-Côte d'Azur","departement":"Var","departementCode":"83","adresse":{"street":"2 place de la République","postalCode":"83440","city":"Fayence","country":"France"},"contacts":{"email":"contact@ville-fayence.fr","telephone":"0494391500"},"horaires":"Du Lundi au Vendredi : de 08h30 à 12h30 de 13h30 à 17h30","latitude":43.62402,"longitude":6.694492,"website":"https://www.ville-fayence.fr/","hasWebsite":true,"hasHoraires":true,"url":"https://lannuaire.service-public.gouv.fr/provence-alpes-cote-d-azur/var/15a5bd53-0283-4398-b21b-654aec4f6121"}
{"nom":"Figanières","nomNormalise":"figanieres","typeCollectivite":"Commune","region":"Provence-Alpes-Côte d'Azur","departement":"Var","departementCode":"83","adresse":{"street":"1 rue Saint-Éloi","postalCode":"83830","city":"Figanières","country":"France"},"contacts":{"email":"mairie@figanieres.com","telephone":"0494509360"},"horaires":"Le Lundi : de 10h00 à 12h00\nLe Mardi : de 10h00 à 12h00 de 15h00 à 17h00\nLe Mercredi : de 10h00 à 12h00\nDu Jeudi au Vendredi : de 10h00 à 12h00 de 15h00 à 17h00","latitude":43.570583,"longitude":6.496807,"website":"https://figanieres.com/","hasWebsite":true,"hasHoraires":true,"url":"https://lannuaire.service-public.gouv.fr/provence-alpes-cote-d-azur/var/f7460772-e015-4010-868e-9b7fb7bedb89"}
{"nom":"Flassans-sur-Issole","nomNormalise":"flassanssurissole","typeCollectivite":"Commune","region":"Provence-Alpes-Côte d'Azur","departement":"Var","departementCode":"83","adresse":{"street":"30 bis avenue du Général-de-Gaulle","postalCode":"83340","city":"Flassans-sur-Issole","country":"France"},"contacts":{"email":"portailfamille@flassans.fr","telephone":"0494370050"},"horaires":"Le Lundi : de 08h30 à 12h00 de 13h30 à 17h15\nLe Mardi : de 08h30 à 12h00\nDu Mercredi au Vendredi : de 08h30 à 12h00 de 13h30 à 17h15","latitude":43.37,"longitude":6.22356,"website":"https://www.flassans.fr/","hasWebsite":true,"hasHoraires":true,"url":"https://lannuaire.service-public.gouv.fr/provence-alpes-cote-d-azur/var/89c5b563-f92b-4dc7-9e19-dfc599b8e2c0"}
{"nom":"Flayosc","nomNormalise":"flayosc","typeCollectivite":"Commune","region":"Provence-Alpes-Côte d'Azur","departement":"Var","departementCode":"83","adresse":{"street":"100 Avenue Angelin-German","postalCode":"83780","city":"Flayosc","country":"France"},"contacts":{"email":"mairie@flayosc.fr","telephone":"0494704003"},"horaires":"Du Lundi au Jeudi : de 08h30 à 12h00 de 13h30 à 17h00\nLe Vendredi : de 08h30 à 15h00","latitude":43.534573,"longitude":6.394899,"website":"http://www.flayosc.fr/","hasWebsite":true,"hasHoraires":true,"url":"https://lannuaire.service-public.gouv.fr/provence-alpes-cote-d-azur/var/d9a6f2d2-a637-446b-b035-102b4567e5d9"}
{"nom":"Forcalqueiret","nomNormalise":"forcalqueiret","typeCollectivite":"Commune","region":"Provence-Alpes-Côte d'Azur","departement":"Var","departementCode":"83","adresse":{"street":"27 avenue Frédéric-Mistral","postalCode":"83136","city":"Forcalqueiret","country":"France"},"contacts":{"email":"accueil@forcalqueiret.fr","telephone":"0498051399"},"horaires":"Du Lundi au Mardi : de 08h00 à 12h00 de 13h30 à 17h15\nLe Mercredi : de 08h00 à 12h00\nDu Jeudi au Vendredi : de 08h00 à 12h00 de 13h30 à 17h15","latitude":43.33534,"longitude":6.07975,"website":"https://www.forcalqueiret.fr/","hasWebsite":true,"hasHoraires":true,"url":"https://lannuaire.service-public.gouv.fr/provence-alpes-cote-d-azur/var/d774caba-8317-438f-9b73-dd5fe022a9b4"}
{"nom":"Fox-Amphoux","nomNormalise":"foxamphoux","typeCollectivite":"Commune","region":"Provence-Alpes-Côte d'Azur","departement":"Var","departementCode":"83","adresse":{"street":"132 place de la Mairie","postalCode":"83670","city":"Fox-Amphoux","country":"France"},"contacts":{"email":"mairie.fox@orange.fr","telephone":"0494807158"},"horaires":"Le Lundi : de 09h00 à 16h00\nDu Mardi au Vendredi : de 08h00 à 12h00","latitude":43.59558,"longitude":6.108256,"website":"https://www.foxamphoux.fr/","hasWebsite":true,"hasHoraires":true,"url":"https://lannuaire.service-public.gouv.fr/provence-alpes-cote-d-azur/var/e02fbe53-0752-4126-864e-284a39ccba11"}
{"nom":"Fréjus","nomNormalise":"frejus","typeCollectivite":"Commune","region":"Provence-Alpes-Côte d'Azur","departement":"Var","departementCode":"83","adresse":{"street":"45 place Camille-Formigé","postalCode":"83608","city":"Fréjus","country":"France"},"contacts":{"email":"s.courrier@ville-frejus.fr","telephone":"0494176600"},"horaires":"Du Lundi au Vendredi : de 08h30 à 12h00 de 13h00 à 17h00\n\nContacter l'accueil pour obtenir les horaires d'ouverture des différents services.\nLe Samedi : de 08h30 à 12h00\n\n(uniquement cartes d'identités et passeports sur RDV)","latitude":43.432755,"longitude":6.73655,"website":"https://www.ville-frejus.fr/","hasWebsite":true,"hasHoraires":true,"url":"https://lannuaire.service-public.gouv.fr/provence-alpes-cote-d-azur/var/2c344fe0-7ff2-4899-b0fa-f3e3cb6b10d9"}
{"nom":"Garéoult","nomNormalise":"gareoult","typeCollectivite":"Commune","region":"Provence-Alpes-Côte d'Azur","departement":"Var","departementCode":"83","adresse":{"street":"16 place de l'Église","postalCode":"83136","city":"Garéoult","country":"France"},"contacts":{"email":"mairie@gareoult.fr","telephone":"0494049472"},"horaires":"Du Lundi au Jeudi : de 08h30 à 12h00 de 13h30 à 17h15\nLe Vendredi : de 08h30 à 12h00 de 13h30 à 16h00\nLe Samedi : de 08h30 à 12h00\n\nAccueil ouvert pour l'état civil uniquement.","latitude":43.328995,"longitude":6.0462523,"website":"https://www.gareoult.fr/","hasWebsite":true,"hasHoraires":true,"url":"https://lannuaire.service-public.gouv.fr/provence-alpes-cote-d-azur/var/4f32960e-d414-40d0-a9a3-14891aad9275"}
{"nom":"Gassin","nomNormalise":"gassin","typeCollectivite":"Commune","region":"Provence-Alpes-Côte d'Azur","departement":"Var","departementCode":"83","adresse":{"street":"Place de la Mairie","postalCode":"83580","city":"Gassin","country":"France"},"contacts":{"email":"secretariat@mairie-gassin.fr","telephone":"0494566200"},"horaires":"Du Lundi au Vendredi : de 08h30 à 12h00 de 14h00 à 17h00","latitude":43.228687,"longitude":6.585478,"website":"https://www.mairie-gassin.fr/","hasWebsite":true,"hasHoraires":true,"url":"https://lannuaire.service-public.gouv.fr/provence-alpes-cote-d-azur/var/89f23a04-bd4b-4edb-8f0b-3c15434154cd"}
{"nom":"Ginasservis","nomNormalise":"ginasservis","typeCollectivite":"Commune","region":"Provence-Alpes-Côte d'Azur","departement":"Var","departementCode":"83","adresse":{"street":"Place du Docteur-Richaud","postalCode":"83560","city":"Ginasservis","country":"France"},"contacts":{"email":"mairie@ginasservis.com","telephone":"0498052141"},"horaires":"Du Lundi au Vendredi : de 09h00 à 12h00 de 16h00 à 18h00\nLe Samedi : de 09h00 à 12h00","latitude":43.67103,"longitude":5.848495,"website":"https://ginasservis.fr/","hasWebsite":true,"hasHoraires":true,"url":"https://lannuaire.service-public.gouv.fr/provence-alpes-cote-d-azur/var/3cb2bbf7-ddd5-4d8b-bd01-d308f66d520c"}
{"nom":"Gonfaron","nomNormalise":"gonfaron","typeCollectivite":"Commune","region":"Provence-Alpes-Côte d'Azur","departement":"Var","departementCode":"83","adresse":{"street":"1 avenue du 8-Mai-1945","postalCode":"83590","city":"Gonfaron","country":"France"},"contacts":{"email":"mairie-gonfaron@wanadoo.fr","telephone":"0494783005"},"horaires":"Du Lundi au Vendredi : de 08h00 à 12h00 de 14h00 à 17h00","latitude":43.319916,"longitude":6.287701,"website":"https://www.mairie-gonfaron.fr/","hasWebsite":true,"hasHoraires":true,"url":"https://lannuaire.service-public.gouv.fr/provence-alpes-cote-d-azur/var/38c01fbd-c4f6-45f0-afd7-d8c6af00ed2d"}
{"nom":"Grimaud","nomNormalise":"grimaud","typeCollectivite":"Commune","region":"Provence-Alpes-Côte d'Azur","departement":"Var","departementCode":"83","adresse":{"street":"Avenue de la Cabro-d'Or","postalCode":"83310","city":"Grimaud","country":"France"},"contacts":{"email":"dir.generale@mairie-grimaud.fr","telephone":"0494556900"},"horaires":"Du Lundi au Vendredi : de 09h00 à 12h00 de 14h00 à 17h00","latitude":43.274815,"longitude":6.522919,"website":"http://www.mairie-grimaud.fr/","hasWebsite":true,"hasHoraires":true,"url":"https://lannuaire.service-public.gouv.fr/provence-alpes-cote-d-azur/var/fffdb221-ef56-4c28-b30e-601f60dae6d6"}
{"nom":"Hyères","nomNormalise":"hyeres","typeCollectivite":"Commune","region":"Provence-Alpes-Côte d'Azur","departement":"Var","departementCode":"83","adresse":{"street":"12 avenue Joseph-Clotis","postalCode":"83412","city":"Hyères Cedex","country":"France"},"contacts":{"email":"mairie@ville-hyeres.fr","telephone":"0494007878"},"horaires":"Du Lundi au Vendredi : de 08h30 à 17h30","latitude":43.1201,"longitude":6.13017,"website":"https://hyeres.fr/","hasWebsite":true,"hasHoraires":true,"url":"https://lannuaire.service-public.gouv.fr/provence-alpes-cote-d-azur/var/64b74e90-e388-4758-a891-34c7ba070f8a"}
{"nom":"La Bastide","nomNormalise":"labastide","typeCollectivite":"Commune","region":"Provence-Alpes-Côte d'Azur","departement":"Var","departementCode":"83","adresse":{"street":"32 chemin du Château","postalCode":"83840","city":"La Bastide","country":"France"},"contacts":{"email":"mairie.labastide0779@orange.fr","telephone":"0494768019"},"horaires":"Le Lundi : de 08h00 à 12h30 de 14h00 à 18h00\nLe Mardi : de 14h00 à 18h00\nLe Mercredi : de 08h30 à 12h30\nDu Jeudi au Vendredi : de 14h00 à 18h00","latitude":43.733715,"longitude":6.6241946,"website":"","hasWebsite":false,"hasHoraires":true,"url":"https://lannuaire.service-public.gouv.fr/provence-alpes-cote-d-azur/var/a00d638e-6942-42bc-a051-59d8a68ce380"}
{"nom":"La Cadière-d'Azur","nomNormalise":"lacadieredazur","typeCollectivite":"Commune","region":"Provence-Alpes-Côte d'Azur","departement":"Var","departementCode":"83","adresse":{"street":"11 rue Gabriel Péri","postalCode":"83740","city":"La Cadière-d'Azur","country":"France"},"contacts":{"email":"secretariat@lacadieredazur.fr","telephone":"0494982525"},"horaires":"Du Lundi au Vendredi : de 08h30 à 12h30 de 13h30 à 17h00","latitude":43.19651,"longitude":5.756717,"website":"https://lacadieredazur.fr/","hasWebsite":true,"hasHoraires":true,"url":"https://lannuaire.service-public.gouv.fr/provence-alpes-cote-d-azur/var/14aa1c4f-f24c-46cd-b722-a4bcb4196910"}
{"nom":"La Celle","nomNormalise":"lacelle","typeCollectivite":"Commune","region":"Provence-Alpes-Côte d'Azur","departement":"Var","departementCode":"83","adresse":{"street":"2 place du Général-de-Gaulle","postalCode":"83170","city":"La Celle","country":"France"},"contacts":{"email":"contact@mairielacelle.fr","telephone":"0494690904"},"horaires":"Le Lundi : de 09h00 à 12h00\nLe Mardi : de 09h00 à 12h00 de 14h00 à 16h00\nLe Mercredi : de 09h00 à 12h00 de 14h00 à 16h00\nLe Jeudi : de 09h30 à 12h00 de 14h00 à 16h00\nLe Vendredi : de 09h00 à 12h00 de 14h00 à 16h00","latitude":43.3939,"longitude":6.04084,"website":"https://www.lacelle-var.fr/","hasWebsite":true,"hasHoraires":true,"url":"https://lannuaire.service-public.gouv.fr/provence-alpes-cote-d-azur/var/71bcd0a3-084d-4d3a-bcc3-6fd442cba484"}
{"nom":"La Crau","nomNormalise":"lacrau","typeCollectivite":"Commune","region":"Provence-Alpes-Côte d'Azur","departement":"Var","departementCode":"83","adresse":{"street":"Boulevard de la République","postalCode":"83260","city":"La Crau","country":"France"},"contacts":{"email":"mairie@villedelacrau.fr","telephone":"0494015680"},"horaires":"Du Lundi au Vendredi : de 08h00 à 12h00 de 13h30 à 17h00","latitude":43.1484,"longitude":6.0739555,"website":"http://www.villedelacrau.fr/","hasWebsite":true,"hasHoraires":true,"url":"https://lannuaire.service-public.gouv.fr/provence-alpes-cote-d-azur/var/865ca40d-33fc-433f-9750-95806cc64b5d"}
{"nom":"La Croix-Valmer","nomNormalise":"lacroixvalmer","typeCollectivite":"Commune","region":"Provence-Alpes-Côte d'Azur","departement":"Var","departementCode":"83","adresse":{"street":"102 rue Louis-Martin","postalCode":"83420","city":"La Croix-Valmer","country":"France"},"contacts":{"email":"contact@lacroixvalmer.fr","telephone":"0494551313"},"horaires":"Du Lundi au Jeudi : de 08h30 à 16h30\nLe Vendredi : de 08h30 à 13h00","latitude":43.208035,"longitude":6.5683074,"website":"https://www.lacroixvalmer.fr/","hasWebsite":true,"hasHoraires":true,"url":"https://lannuaire.service-public.gouv.fr/provence-alpes-cote-d-azur/var/b89f50fe-293e-480a-9e14-3103384989bc"}
{"nom":"La Farlède","nomNormalise":"lafarlede","typeCollectivite":"Commune","region":"Provence-Alpes-Côte d'Azur","departement":"Var","departementCode":"83","adresse":{"street":"Place de la Liberté","postalCode":"83210","city":"La Farlède","country":"France"},"contacts":{"email":"mairie@lafarlede.fr","telephone":"0494278585"},"horaires":"Du Lundi au Vendredi : de 08h00 à 12h30 de 14h00 à 17h00\n\nPendant la crise sanitaire contacter l'accueil afin de savoir si un rendez-vous est nécessaire.","latitude":43.16705,"longitude":6.04314,"website":"https://www.lafarlede.fr/","hasWebsite":true,"hasHoraires":true,"url":"https://lannuaire.service-public.gouv.fr/provence-alpes-cote-d-azur/var/918c022b-4d2a-4053-9ff0-dc9e2cd0c85b"}
{"nom":"La Garde","nomNormalise":"lagarde","typeCollectivite":"Commune","region":"Provence-Alpes-Côte d'Azur","departement":"Var","departementCode":"83","adresse":{"street":"Rue Jean-Baptiste-Lavène","postalCode":"83130","city":"La Garde","country":"France"},"contacts":{"email":"contact-mairie@ville-lagarde.fr","telephone":"0494089800"},"horaires":"Du Lundi au Vendredi : de 08h30 à 12h00 de 13h30 à 17h30\nLe Samedi : de 08h30 à 12h00\n\nAccueil ouvert uniquement pour l'état civil.","latitude":43.123695,"longitude":6.010975,"website":"https://www.ville-lagarde.fr/","hasWebsite":true,"hasHoraires":true,"url":"https://lannuaire.service-public.gouv.fr/provence-alpes-cote-d-azur/var/d5e22cde-6dd2-41e4-b163-3afb98130438"}
{"nom":"La Garde-Freinet","nomNormalise":"lagardefreinet","typeCollectivite":"Commune","region":"Provence-Alpes-Côte d'Azur","departement":"Var","departementCode":"83","adresse":{"street":"Place de la Mairie","postalCode":"83680","city":"La Garde-Freinet","country":"France"},"contacts":{"email":"mairie@lagardefreinet.fr","telephone":"0494552100"},"horaires":"Du Lundi au Jeudi : de 08h30 à 12h30 de 14h00 à 17h00\nLe Vendredi : de 08h30 à 12h30 de 14h00 à 16h00","latitude":43.3182,"longitude":6.46889,"website":"https://www.lgf83.fr/","hasWebsite":true,"hasHoraires":true,"url":"https://lannuaire.service-public.gouv.fr/provence-alpes-cote-d-azur/var/af267e59-0fca-41c5-89d3-61947cc2eeba"}
{"nom":"La Londe-les-Maures","nomNormalise":"lalondelesmaures","typeCollectivite":"Commune","region":"Provence-Alpes-Côte d'Azur","departement":"Var","departementCode":"83","adresse":{"street":"Place du 11-Novembre","postalCode":"83250","city":"La Londe-les-Maures","country":"France"},"contacts":{"email":"contact@lalondelesmaures.fr","telephone":"0494015500"},"horaires":"Du Lundi au Vendredi : de 08h00 à 12h30 de 13h30 à 17h00\nLe Samedi : de 09h00 à 11h30","latitude":43.138386,"longitude":6.235621,"website":"https://www.ville-lalondelesmaures.fr/","hasWebsite":true,"hasHoraires":true,"url":"https://lannuaire.service-public.gouv.fr/provence-alpes-cote-d-azur/var/1aa750a7-70dc-4b71-9e42-1f13b1c0f46a"}
{"nom":"La Martre","nomNormalise":"lamartre","typeCollectivite":"Commune","region":"Provence-Alpes-Côte d'Azur","departement":"Var","departementCode":"83","adresse":{"street":"1 Place des Tilleuls","postalCode":"83840","city":"La Martre","country":"France"},"contacts":{"email":"mairie-lamartre@orange.fr","telephone":"0494604790"},"horaires":"Du Lundi au Mardi : de 09h00 à 12h00 de 14h00 à 18h00\nDu Jeudi au Vendredi : de 09h00 à 12h00 de 14h00 à 18h00","latitude":43.77161,"longitude":6.599143,"website":"https://lamartre.fr/","hasWebsite":true,"hasHoraires":true,"url":"https://lannuaire.service-public.gouv.fr/provence-alpes-cote-d-azur/var/8a147125-1202-4318-add9-f46216eb0496"}
{"nom":"La Mole","nomNormalise":"lamole","typeCollectivite":"Commune","region":"Provence-Alpes-Côte d'Azur","departement":"Var","departementCode":"83","adresse":{"street":"2 place de la Mairie","postalCode":"83310","city":"La Mole","country":"France"},"contacts":{"email":"contact@lamole.fr","telephone":"0494400580"},"horaires":"Le Lundi : de 08h30 à 12h00\nLe Mardi : de 08h30 à 12h00 de 13h00 à 16h30\nLe Mercredi : de 08h30 à 12h00 de 13h00 à 16h30\nLe Jeudi : de 08h30 à 12h00\nLe Vendredi : de 08h30 à 12h00 de 13h00 à 16h30","latitude":43.207195,"longitude":6.465124,"website":"https://www.lamole.fr/","hasWebsite":true,"hasHoraires":true,"url":"https://lannuaire.service-public.gouv.fr/provence-alpes-cote-d-azur/var/2aa6cf37-5889-48c0-b927-22846f4aecdc"}
{"nom":"La Motte","nomNormalise":"lamotte","typeCollectivite":"Commune","region":"Provence-Alpes-Côte d'Azur","departement":"Var","departementCode":"83","adresse":{"street":"Place Clemenceau","postalCode":"83920","city":"La Motte","country":"France"},"contacts":{"email":"secretaire-general@ville-la-motte.com","telephone":"0494504455"},"horaires":"Du Lundi au Vendredi : de 08h30 à 12h30 de 13h30 à 16h30","latitude":43.492664,"longitude":6.534828,"website":"https://ville-la-motte.com/","hasWebsite":true,"hasHoraires":true,"url":"https://lannuaire.service-public.gouv.fr/provence-alpes-cote-d-azur/var/f67d5aa1-9c61-439b-ae4f-3ec48078e963"}
{"nom":"La Roquebrussanne","nomNormalise":"laroquebrussanne","typeCollectivite":"Commune","region":"Provence-Alpes-Côte d'Azur","departement":"Var","departementCode":"83","adresse":{"street":"31 rue Georges-Clemenceau","postalCode":"83136","city":"La Roquebrussanne","country":"France"},"contacts":{"email":"mairie@laroquebrussanne.fr","telephone":"0494370090"},"horaires":"Le Lundi : de 09h00 à 12h00 de 14h00 à 16h00\nLe Mardi : de 09h00 à 12h00 de 14h00 à 16h00\nLe Mercredi : de 09h00 à 12h00\nLe Jeudi : de 09h00 à 12h00 de 14h00 à 16h00\nLe Vendredi : de 09h00 à 12h00\nLe Samedi : de 09h00 à 12h00\n\nLe 1er et 3ème samedi de chaque mois","latitude":43.339615,"longitude":5.9765463,"website":"https://www.la-roquebrussanne.fr/","hasWebsite":true,"hasHoraires":true,"url":"https://lannuaire.service-public.gouv.fr/provence-alpes-cote-d-azur/var/b9e6b7d1-c736-4fb1-bb3b-d2230e0be555"}
{"nom":"La Roque-Esclapon","nomNormalise":"laroqueesclapon","typeCollectivite":"Commune","region":"Provence-Alpes-Côte d'Azur","departement":"Var","departementCode":"83","adresse":{"street":"50 rue de la Mairie","postalCode":"83840","city":"La Roque-Esclapon","country":"France"},"contacts":{"email":"mairie@laroque-esclapon.fr","telephone":"0494504050"},"horaires":"Du Lundi au Vendredi : de 09h30 à 12h30","latitude":43.72414,"longitude":6.629795,"website":"https://laroque-esclapon.fr/","hasWebsite":true,"hasHoraires":true,"url":"https://lannuaire.service-public.gouv.fr/provence-alpes-cote-d-azur/var/cd2946cd-82a3-49ea-ae43-07f209569ebc"}
{"nom":"La Seyne-sur-Mer","nomNormalise":"laseynesurmer","typeCollectivite":"Commune","region":"Provence-Alpes-Côte d'Azur","departement":"Var","departementCode":"83","adresse":{"street":"20 quai Saturnin-Fabre","postalCode":"83500","city":"La Seyne-sur-Mer","country":"France"},"contacts":{"email":"mairie@la-seyne.fr","telephone":"0494069500"},"horaires":"Du Lundi au Vendredi : de 08h00 à 17h30","latitude":43.10156,"longitude":5.881795,"website":"https://www.la-seyne.fr/","hasWebsite":true,"hasHoraires":true,"url":"https://lannuaire.service-public.gouv.fr/provence-alpes-cote-d-azur/var/15678b88-9fee-4cfe-9fa3-1e86aba91ea6"}
{"nom":"La Valette-du-Var","nomNormalise":"lavaletteduvar","typeCollectivite":"Commune","region":"Provence-Alpes-Côte d'Azur","departement":"Var","departementCode":"83","adresse":{"street":"Batiment A","postalCode":"83167","city":"La Valette-du-Var Cedex","country":"France"},"contacts":{"email":"cabinet.maire@lavalette83.fr","telephone":"0494619090"},"horaires":"Le Lundi : de 08h30 à 17h30\nDu Mardi au Mercredi : de 08h30 à 12h30 de 13h30 à 17h30\nLe Jeudi : de 08h30 à 12h30\nLe Vendredi : de 08h30 à 12h30 de 13h30 à 17h30","latitude":43.13758,"longitude":5.985054,"website":"https://www.lavalette83.fr/","hasWebsite":true,"hasHoraires":true,"url":"https://lannuaire.service-public.gouv.fr/provence-alpes-cote-d-azur/var/ed319700-e95e-4cc6-9ae6-e34aa02fc764"}
{"nom":"La Verdière","nomNormalise":"laverdiere","typeCollectivite":"Commune","region":"Provence-Alpes-Côte d'Azur","departement":"Var","departementCode":"83","adresse":{"street":"Hôtel de Ville","postalCode":"83560","city":"La Verdière","country":"France"},"contacts":{"email":"mairiedelaverdiere@orange.fr","telephone":"0494041210"},"horaires":"Le Lundi : de 09h00 à 12h00 de 14h00 à 17h00\nDu Mardi au Jeudi : de 09h00 à 12h00\nLe Vendredi : de 09h00 à 12h00 de 14h00 à 17h00","latitude":43.636078,"longitude":5.93655,"website":"https://laverdiere.fr/","hasWebsite":true,"hasHoraires":true,"url":"https://lannuaire.service-public.gouv.fr/provence-alpes-cote-d-azur/var/760ee3ac-7ff7-4897-b014-7b6940d4340f"}
{"nom":"Le Beausset","nomNormalise":"lebeausset","typeCollectivite":"Commune","region":"Provence-Alpes-Côte d'Azur","departement":"Var","departementCode":"83","adresse":{"street":"Place Jean-Jaurès","postalCode":"83330","city":"Le Beausset","country":"France"},"contacts":{"email":"accueil@ville-lebeausset.fr","telephone":"0494985575"},"horaires":"Du Lundi au Jeudi : de 08h00 à 12h00 de 13h30 à 17h00\nLe Vendredi : de 08h00 à 12h00 de 13h30 à 16h00\n\nAccueil sur rendez-vous uniquement pour le service passeports et cartes d'identités, pendant la crise sanitaire accueil sur rendez-vous uniquement.","latitude":43.1984,"longitude":5.80185,"website":"https://www.ville-lebeausset.fr/","hasWebsite":true,"hasHoraires":true,"url":"https://lannuaire.service-public.gouv.fr/provence-alpes-cote-d-azur/var/f4d7c5cb-8e06-494f-a9c2-3939e950d284"}
{"nom":"Le Bourguet","nomNormalise":"lebourguet","typeCollectivite":"Commune","region":"Provence-Alpes-Côte d'Azur","departement":"Var","departementCode":"83","adresse":{"street":"1 rue du Château","postalCode":"83840","city":"Le Bourguet","country":"France"},"contacts":{"email":"mairie-lebourguet@orange.fr","telephone":"0494769182"},"horaires":"Le Lundi : de 09h00 à 16h30\nLe Mercredi : de 09h00 à 16h30","latitude":43.78368,"longitude":6.518749,"website":"","hasWebsite":false,"hasHoraires":true,"url":"https://lannuaire.service-public.gouv.fr/provence-alpes-cote-d-azur/var/376ce981-7f0c-4089-85ed-2184224228c0"}
{"nom":"Le Cannet-des-Maures","nomNormalise":"lecannetdesmaures","typeCollectivite":"Commune","region":"Provence-Alpes-Côte d'Azur","departement":"Var","departementCode":"83","adresse":{"street":"Parc Henri-Pellegrin","postalCode":"83340","city":"Le Cannet-des-Maures","country":"France"},"contacts":{"email":"accueil.mairie@lecannetdesmaures.com","telephone":"0494500600"},"horaires":"Du Lundi au Jeudi : de 08h30 à 12h00 de 13h30 à 17h30\nLe Vendredi : de 08h30 à 12h00 de 13h30 à 16h30\n\nEt les veilles de jours fériés.","latitude":43.3922,"longitude":6.34179,"website":"https://www.lecannetdesmaures.com/","hasWebsite":true,"hasHoraires":true,"url":"https://lannuaire.service-public.gouv.fr/provence-alpes-cote-d-azur/var/6f102082-fd55-42d1-8b8c-f114330dcb9f"}
{"nom":"Le Castellet","nomNormalise":"lecastellet","typeCollectivite":"Commune","region":"Provence-Alpes-Côte d'Azur","departement":"Var","departementCode":"83","adresse":{"street":"Place du Champ-de-Bataille","postalCode":"83330","city":"Le Castellet","country":"France"},"contacts":{"email":"mairie.centrale@ville-lecastellet.fr","telephone":"0494985790"},"horaires":"Du Lundi au Jeudi : de 08h00 à 12h00 de 13h30 à 17h00\nLe Vendredi : de 08h00 à 12h00 de 13h30 à 16h30\n\nL'accueil pour l'urbanisme se fait sur rendez-vous uniquement.","latitude":43.203484,"longitude":5.7763886,"website":"https://www.ville-lecastellet.fr/","hasWebsite":true,"hasHoraires":true,"url":"https://lannuaire.service-public.gouv.fr/provence-alpes-cote-d-azur/var/8369a19f-2543-4ad7-807c-a5a5a046723c"}
{"nom":"Le Lavandou","nomNormalise":"lelavandou","typeCollectivite":"Commune","region":"Provence-Alpes-Côte d'Azur","departement":"Var","departementCode":"83","adresse":{"street":"Place Ernest-Reyer","postalCode":"83980","city":"Le Lavandou","country":"France"},"contacts":{"email":"secretariat.maire@le-lavandou.fr","telephone":"0494051570"},"horaires":"Du Lundi au Vendredi : de 08h30 à 12h00 de 13h30 à 17h00","latitude":43.138004,"longitude":6.3691487,"website":"https://le-lavandou.fr/","hasWebsite":true,"hasHoraires":true,"url":"https://lannuaire.service-public.gouv.fr/provence-alpes-cote-d-azur/var/3c8d8968-5ee5-43f0-988c-56d973966dd7"}
{"nom":"Le Luc","nomNormalise":"leluc","typeCollectivite":"Commune","region":"Provence-Alpes-Côte d'Azur","departement":"Var","departementCode":"83","adresse":{"street":"3 place de la Liberté","postalCode":"83340","city":"Le Luc","country":"France"},"contacts":{"email":"cab@mairie-leluc.fr","telephone":"0494500100"},"horaires":"Du Lundi au Mercredi : de 08h30 à 12h30 de 13h30 à 17h00\nLe Jeudi : de 08h30 à 12h30 de 14h30 à 17h00\nLe Vendredi : de 08h30 à 12h30 de 13h30 à 16h30\nLe Samedi : de 08h30 à 12h30","latitude":43.394527,"longitude":6.313178,"website":"https://www.mairie-leluc.com/","hasWebsite":true,"hasHoraires":true,"url":"https://lannuaire.service-public.gouv.fr/provence-alpes-cote-d-azur/var/6312e17d-36ee-4b89-a15d-99b7f8575356"}
{"nom":"Le Muy","nomNormalise":"lemuy","typeCollectivite":"Commune","region":"Provence-Alpes-Côte d'Azur","departement":"Var","departementCode":"83","adresse":{"street":"4 rue de l'Hôtel-de-Ville","postalCode":"83490","city":"Le Muy","country":"France"},"contacts":{"email":"info@ville-lemuy.fr","telephone":"0494198424"},"horaires":"Du Lundi au Vendredi : de 08h30 à 12h00 de 13h30 à 17h00","latitude":43.4703,"longitude":6.56571,"website":"https://www.ville-lemuy.fr/index.php","hasWebsite":true,"hasHoraires":true,"url":"https://lannuaire.service-public.gouv.fr/provence-alpes-cote-d-azur/var/43870cd4-f10f-4615-8cce-18cb4878d310"}
{"nom":"Le Plan-de-la-Tour","nomNormalise":"leplandelatour","typeCollectivite":"Commune","region":"Provence-Alpes-Côte d'Azur","departement":"Var","departementCode":"83","adresse":{"street":"37 Place Maréchal-Foch","postalCode":"83120","city":"Le Plan-de-la-Tour","country":"France"},"contacts":{"email":"mairie@plandelatour.net","telephone":"0494550755"},"horaires":"Du Lundi au Vendredi : de 08h30 à 12h00 de 15h30 à 17h30","latitude":43.33858,"longitude":6.546521,"website":"https://www.leplandelatour.fr/","hasWebsite":true,"hasHoraires":true,"url":"https://lannuaire.service-public.gouv.fr/provence-alpes-cote-d-azur/var/121082a9-f124-438a-af7d-63cd71ab55e2"}
{"nom":"Le Pradet","nomNormalise":"lepradet","typeCollectivite":"Commune","region":"Provence-Alpes-Côte d'Azur","departement":"Var","departementCode":"83","adresse":{"street":"Parc Cravero","postalCode":"83220","city":"Le Pradet","country":"France"},"contacts":{"email":"accueil@le-pradet.fr","telephone":"0494086947"},"horaires":"Du Lundi au Vendredi : de 08h30 à 12h00 de 13h30 à 17h00","latitude":43.107323,"longitude":6.021054,"website":"https://www.le-pradet.fr/","hasWebsite":true,"hasHoraires":true,"url":"https://lannuaire.service-public.gouv.fr/provence-alpes-cote-d-azur/var/14b3d1fe-91e9-4286-963c-2c9ef503a2b0"}
{"nom":"Le Revest-les-Eaux","nomNormalise":"lerevestleseaux","typeCollectivite":"Commune","region":"Provence-Alpes-Côte d'Azur","departement":"Var","departementCode":"83","adresse":{"street":"Place Jean-Jaurès","postalCode":"83200","city":"Le Revest-les-Eaux","country":"France"},"contacts":{"email":"contactmairie@lerevest83.fr","telephone":"0494981990"},"horaires":"Du Lundi au Vendredi : de 08h30 à 12h00 de 14h00 à 17h30","latitude":43.176666,"longitude":5.925439,"website":"https://www.lerevest83.fr/fr/","hasWebsite":true,"hasHoraires":true,"url":"https://lannuaire.service-public.gouv.fr/provence-alpes-cote-d-azur/var/f7aefd67-65bb-47f4-9f34-baaff37a8394"}
{"nom":"Les Adrets-de-l'Estérel","nomNormalise":"lesadretsdelesterel","typeCollectivite":"Commune","region":"Provence-Alpes-Côte d'Azur","departement":"Var","departementCode":"83","adresse":{"street":"2 route du Violon","postalCode":"83600","city":"Les Adrets-de-l'Estérel","country":"France"},"contacts":{"email":"contact@mairie-adrets-esterel.fr","telephone":"0494193666"},"horaires":"Du Lundi au Jeudi : de 08h00 à 12h00 de 13h30 à 17h30\nLe Vendredi : de 08h00 à 12h00 de 14h00 à 17h00","latitude":43.525684,"longitude":6.814348,"website":"https://www.lesadretsdelesterel.fr/","hasWebsite":true,"hasHoraires":true,"url":"https://lannuaire.service-public.gouv.fr/provence-alpes-cote-d-azur/var/b78ddee3-79f6-41f8-82bb-fc2c35b03dea"}
{"nom":"Les Arcs","nomNormalise":"lesarcs","typeCollectivite":"Commune","region":"Provence-Alpes-Côte d'Azur","departement":"Var","departementCode":"83","adresse":{"street":"Place du Général-de-Gaulle","postalCode":"83460","city":"Les Arcs","country":"France"},"contacts":{"email":"mairie@lesarcssurargens.fr","telephone":"0494475670"},"horaires":"Du Lundi au Vendredi : de 08h30 à 12h00 de 13h30 à 17h00","latitude":43.462914,"longitude":6.479028,"website":"https://www.mairie-les-arcs-sur-argens.fr/","hasWebsite":true,"hasHoraires":true,"url":"https://lannuaire.service-public.gouv.fr/provence-alpes-cote-d-azur/var/78cb5b25-f57f-43bc-a49d-92737e31b571"}
{"nom":"Les Mayons","nomNormalise":"lesmayons","typeCollectivite":"Commune","region":"Provence-Alpes-Côte d'Azur","departement":"Var","departementCode":"83","adresse":{"street":"143 Grande-Rue","postalCode":"83340","city":"Les Mayons","country":"France"},"contacts":{"email":"mairielesmayons@wanadoo.fr","telephone":"0494600093"},"horaires":"Du Lundi au Vendredi : de 10h00 à 12h00 de 16h30 à 17h30","latitude":43.313942,"longitude":6.357829,"website":"https://www.lesmayons.fr/","hasWebsite":true,"hasHoraires":true,"url":"https://lannuaire.service-public.gouv.fr/provence-alpes-cote-d-azur/var/2cbb2835-b453-44f6-81d8-896a638174e6"}
{"nom":"Les Salles-sur-Verdon","nomNormalise":"lessallessurverdon","typeCollectivite":"Commune","region":"Provence-Alpes-Côte d'Azur","departement":"Var","departementCode":"83","adresse":{"street":"Place Sainte-Anne","postalCode":"83630","city":"Les Salles-sur-Verdon","country":"France"},"contacts":{"email":"mairie@lessallessurverdon.fr","telephone":"0498106356"},"horaires":"Du Lundi au Vendredi : de 09h00 à 12h00","latitude":43.773655,"longitude":6.208357,"website":"http://www.lessallessurverdon.fr/","hasWebsite":true,"hasHoraires":true,"url":"https://lannuaire.service-public.gouv.fr/provence-alpes-cote-d-azur/var/cf5e2737-4446-4b02-a92b-3b3ab666f694"}
{"nom":"Le Thoronet","nomNormalise":"lethoronet","typeCollectivite":"Commune","region":"Provence-Alpes-Côte d'Azur","departement":"Var","departementCode":"83","adresse":{"street":"4 place Sadi-Carnot","postalCode":"83340","city":"Le Thoronet","country":"France"},"contacts":{"email":"contact@lethoronet.fr","telephone":"0494738711"},"horaires":"Du Lundi au Jeudi : de 08h30 à 11h30 de 14h30 à 17h30\nLe Vendredi : de 08h30 à 11h30 de 14h30 à 16h00","latitude":43.45193,"longitude":6.3019724,"website":"http://www.lethoronet.org/","hasWebsite":true,"hasHoraires":true,"url":"https://lannuaire.service-public.gouv.fr/provence-alpes-cote-d-azur/var/44c71f4c-bdfc-425f-ac78-a0b4b7b545f1"}
{"nom":"Le Val","nomNormalise":"leval","typeCollectivite":"Commune","region":"Provence-Alpes-Côte d'Azur","departement":"Var","departementCode":"83","adresse":{"street":"5 place de la Libération","postalCode":"83143","city":"Le Val","country":"France"},"contacts":{"email":"contact@mairie-leval.fr","telephone":"0494370220"},"horaires":"Du Lundi au Vendredi : de 08h30 à 12h00 de 14h00 à 17h00","latitude":43.439087,"longitude":6.072571,"website":"https://www.mairie-leval.fr/","hasWebsite":true,"hasHoraires":true,"url":"https://lannuaire.service-public.gouv.fr/provence-alpes-cote-d-azur/var/8f61f175-0539-4c58-bd8c-95819b3f0004"}
{"nom":"Lorgues","nomNormalise":"lorgues","typeCollectivite":"Commune","region":"Provence-Alpes-Côte d'Azur","departement":"Var","departementCode":"83","adresse":{"street":"Cours de la République","postalCode":"83510","city":"Lorgues","country":"France"},"contacts":{"email":"infos@lorgues.fr","telephone":"0494859292"},"horaires":"Du Lundi au Jeudi : de 08h30 à 12h00 de 13h30 à 17h00\nLe Vendredi : de 08h30 à 16h30","latitude":43.49309,"longitude":6.3584595,"website":"https://www.mairiedelorgues.fr/","hasWebsite":true,"hasHoraires":true,"url":"https://lannuaire.service-public.gouv.fr/provence-alpes-cote-d-azur/var/5b58d647-6055-4989-8085-0a2d7f11546d"}
{"nom":"Mazaugues","nomNormalise":"mazaugues","typeCollectivite":"Commune","region":"Provence-Alpes-Côte d'Azur","departement":"Var","departementCode":"83","adresse":{"street":"46 boulevard Lambert","postalCode":"83136","city":"Mazaugues","country":"France"},"contacts":{"email":"accueil@mairie-mazaugues.org","telephone":"0494869503"},"horaires":"Du Lundi au Mercredi : de 09h00 à 12h00 de 13h30 à 16h30\nLe Jeudi : de 09h00 à 12h00\nLe Vendredi : de 09h00 à 12h00 de 13h30 à 16h30\nLe Samedi : de 09h00 à 12h00","latitude":43.347576,"longitude":5.922395,"website":"https://www.mazaugues.net/","hasWebsite":true,"hasHoraires":true,"url":"https://lannuaire.service-public.gouv.fr/provence-alpes-cote-d-azur/var/af53f59e-d664-4274-9384-768f5f7a101d"}
{"nom":"Méounes-lès-Montrieux","nomNormalise":"meouneslesmontrieux","typeCollectivite":"Commune","region":"Provence-Alpes-Côte d'Azur","departement":"Var","departementCode":"83","adresse":{"street":"12 route de Brignoles","postalCode":"83136","city":"Méounes-lès-Montrieux","country":"France"},"contacts":{"email":"mairie@meounes.com","telephone":"0494138320"},"horaires":"Du Lundi au Mardi : de 08h30 à 12h00 de 14h00 à 16h00\nLe Mercredi : de 08h30 à 11h00\nDu Jeudi au Vendredi : de 08h30 à 12h00 de 14h00 à 16h00\nLe Samedi : de 08h30 à 11h00","latitude":43.2818,"longitude":5.96993,"website":"https://www.meounes.com/","hasWebsite":true,"hasHoraires":true,"url":"https://lannuaire.service-public.gouv.fr/provence-alpes-cote-d-azur/var/dd442a72-77d8-4752-b539-dcaa150304ef"}
{"nom":"Moissac-Bellevue","nomNormalise":"moissacbellevue","typeCollectivite":"Commune","region":"Provence-Alpes-Côte d'Azur","departement":"Var","departementCode":"83","adresse":{"street":"15 le Cours","postalCode":"83630","city":"Moissac-Bellevue","country":"France"},"contacts":{"email":"mairiemoissac83@orange.fr","telephone":"0494701621"},"horaires":"Le Lundi : de 08h30 à 11h30\nDu Mercredi au Vendredi : de 08h30 à 11h30","latitude":43.652992,"longitude":6.166823,"website":"https://www.moissac-bellevue.fr/","hasWebsite":true,"hasHoraires":true,"url":"https://lannuaire.service-public.gouv.fr/provence-alpes-cote-d-azur/var/8e8a1110-1263-4fb2-81af-2b515457940d"}
{"nom":"Mons","nomNormalise":"mons","typeCollectivite":"Commune","region":"Provence-Alpes-Côte d'Azur","departement":"Var","departementCode":"83","adresse":{"street":"1 place Saint-Sébastien","postalCode":"83440","city":"Mons","country":"France"},"contacts":{"email":"mairie-mons83@wanadoo.fr","telephone":"0494392239"},"horaires":"Le Lundi : de 08h30 à 12h00 de 14h00 à 16h00\nLe Mardi : de 08h30 à 12h00\nLe Mercredi : de 08h30 à 12h00 de 14h00 à 16h00\nLe Jeudi : de 08h30 à 12h00\nLe Vendredi : de 08h30 à 12h00 de 14h00 à 16h00","latitude":43.68925,"longitude":6.71275,"website":"https://mairie-mons83.fr/","hasWebsite":true,"hasHoraires":true,"url":"https://lannuaire.service-public.gouv.fr/provence-alpes-cote-d-azur/var/02ecbb45-db71-45c4-ac69-6b219cc9c370"}
{"nom":"Montauroux","nomNormalise":"montauroux","typeCollectivite":"Commune","region":"Provence-Alpes-Côte d'Azur","departement":"Var","departementCode":"83","adresse":{"street":"Place du Clos","postalCode":"83440","city":"Montauroux","country":"France"},"contacts":{"email":"mairie@ville-montauroux.fr","telephone":"0494504100"},"horaires":"Du Lundi au Vendredi : de 08h30 à 12h00 de 14h00 à 17h00","latitude":43.6178,"longitude":6.76446,"website":"https://www.montauroux.fr/","hasWebsite":true,"hasHoraires":true,"url":"https://lannuaire.service-public.gouv.fr/provence-alpes-cote-d-azur/var/3ac3a597-5d4c-44d8-838c-6bc7f1bcf426"}
{"nom":"Montferrat","nomNormalise":"montferrat","typeCollectivite":"Commune","region":"Provence-Alpes-Côte d'Azur","departement":"Var","departementCode":"83","adresse":{"street":"1 placette de la Mairie","postalCode":"83131","city":"Montferrat","country":"France"},"contacts":{"email":"mairie@montferrat.fr","telephone":"0494502191"},"horaires":"Le Lundi : de 09h00 à 12h00\nLe Mardi : de 09h00 à 12h00 de 14h00 à 17h00\nDu Mercredi au Jeudi : de 09h00 à 12h00\nLe Vendredi : de 09h00 à 12h00 de 14h00 à 17h00","latitude":43.61286,"longitude":6.481968,"website":"https://www.montferrat.fr/","hasWebsite":true,"hasHoraires":true,"url":"https://lannuaire.service-public.gouv.fr/provence-alpes-cote-d-azur/var/c051245d-f982-4f77-8da4-700395cb8540"}
{"nom":"Montfort-sur-Argens","nomNormalise":"montfortsurargens","typeCollectivite":"Commune","region":"Provence-Alpes-Côte d'Azur","departement":"Var","departementCode":"83","adresse":{"street":"7 rue de la Rouguière","postalCode":"83570","city":"Montfort-sur-Argens","country":"France"},"contacts":{"email":"contact@montfortsurargens.fr","telephone":"0494372290"},"horaires":"Du Lundi au Mardi : de 09h00 à 12h00\nLe Mercredi : de 09h00 à 12h00 de 14h00 à 17h00\nDu Jeudi au Samedi : de 09h00 à 12h00","latitude":43.473778,"longitude":6.121517,"website":"https://www.montfort-sur-argens.fr/","hasWebsite":true,"hasHoraires":true,"url":"https://lannuaire.service-public.gouv.fr/provence-alpes-cote-d-azur/var/01a7a78a-e426-476e-ae5e-37640e2ced6c"}
{"nom":"Montmeyan","nomNormalise":"montmeyan","typeCollectivite":"Commune","region":"Provence-Alpes-Côte d'Azur","departement":"Var","departementCode":"83","adresse":{"street":"17 Avenue du Verdon","postalCode":"83670","city":"Montmeyan","country":"France"},"contacts":{"email":"mairie.montmeyan@orange.fr","telephone":"0494696080"},"horaires":"Du Lundi au Mercredi : de 09h00 à 12h00\nDu Vendredi au Samedi : de 09h00 à 12h00","latitude":43.6481,"longitude":6.06334,"website":"http://www.montmeyan.fr/","hasWebsite":true,"hasHoraires":true,"url":"https://lannuaire.service-public.gouv.fr/provence-alpes-cote-d-azur/var/5c3e73a9-89f9-48ff-8f97-5b441c7a6e3c"}
{"nom":"Nans-les-Pins","nomNormalise":"nanslespins","typeCollectivite":"Commune","region":"Provence-Alpes-Côte d'Azur","departement":"Var","departementCode":"83","adresse":{"street":"13 avenue Julien-Jourdan","postalCode":"83860","city":"Nans-les-Pins","country":"France"},"contacts":{"email":"elus@mairie-nanslespins.fr","telephone":"0494372141"},"horaires":"Le Lundi : de 08h30 à 12h00 de 14h00 à 17h00\nLe Mardi : de 08h30 à 12h00\nLe Mercredi : de 08h30 à 12h00 de 14h00 à 17h00\nLe Jeudi : de 08h30 à 12h00\nLe Vendredi : de 08h30 à 12h00 de 14h00 à 17h00\nLe Samedi : de 09h00 à 12h00","latitude":43.3725,"longitude":5.78574,"website":"https://www.mairie-nanslespins.fr/","hasWebsite":true,"hasHoraires":true,"url":"https://lannuaire.service-public.gouv.fr/provence-alpes-cote-d-azur/var/0f305f11-69b7-4c8f-aeef-f9846536d57a"}
{"nom":"Néoules","nomNormalise":"neoules","typeCollectivite":"Commune","region":"Provence-Alpes-Côte d'Azur","departement":"Var","departementCode":"83","adresse":{"street":"1 avenue de Provence","postalCode":"83136","city":"Néoules","country":"France"},"contacts":{"email":"mairie@neoules.fr","telephone":"0494372277"},"horaires":"Du Lundi au Mardi : de 09h00 à 12h00 de 14h00 à 16h00\nDu Jeudi au Vendredi : de 09h00 à 12h00 de 14h00 à 16h00\nLe Samedi : de 09h00 à 12h00","latitude":43.30936,"longitude":6.013246,"website":"https://www.neoules.fr/","hasWebsite":true,"hasHoraires":true,"url":"https://lannuaire.service-public.gouv.fr/provence-alpes-cote-d-azur/var/edbbccfa-5f2d-4786-b926-69c2c3d13b15"}
{"nom":"Ollières","nomNormalise":"ollieres","typeCollectivite":"Commune","region":"Provence-Alpes-Côte d'Azur","departement":"Var","departementCode":"83","adresse":{"street":"28 place Frédéric-Mistral","postalCode":"83470","city":"Ollières","country":"France"},"contacts":{"email":"mairie@ollieres.fr","telephone":"0494780233"},"horaires":"Du Lundi au Mardi : de 08h00 à 12h00\nLe Mercredi : de 14h00 à 17h00\nDu Jeudi au Vendredi : de 08h00 à 12h00","latitude":43.483185,"longitude":5.828748,"website":"https://www.ollieres-83.com/","hasWebsite":true,"hasHoraires":true,"url":"https://lannuaire.service-public.gouv.fr/provence-alpes-cote-d-azur/var/73b640a7-78ef-41dd-9cc5-a15a73452ce5"}
{"nom":"Ollioules","nomNormalise":"ollioules","typeCollectivite":"Commune","region":"Provence-Alpes-Côte d'Azur","departement":"Var","departementCode":"83","adresse":{"street":"7 avenue du Général-de-Gaulle","postalCode":"83191","city":"Ollioules","country":"France"},"contacts":{"email":"contact@ollioules.fr","telephone":"0494304141"},"horaires":"Du Lundi au Vendredi : de 08h00 à 12h00 de 13h30 à 17h00\nLe Samedi : de 08h30 à 11h00\n\nAccueil ouvert uniquement pour l'état civil.","latitude":43.139683,"longitude":5.847663,"website":"https://www.ollioules.fr/","hasWebsite":true,"hasHoraires":true,"url":"https://lannuaire.service-public.gouv.fr/provence-alpes-cote-d-azur/var/f606c005-4fde-436a-9c49-79bdbade8d8f"}
{"nom":"Pierrefeu-du-Var","nomNormalise":"pierrefeuduvar","typeCollectivite":"Commune","region":"Provence-Alpes-Côte d'Azur","departement":"Var","departementCode":"83","adresse":{"street":"Place Urbain-Sénès","postalCode":"83390","city":"Pierrefeu-du-Var","country":"France"},"contacts":{"email":"mairie@pierrefeu-du-var.fr","telephone":"0494135313"},"horaires":"Du Lundi au Vendredi : de 08h30 à 12h00 de 13h00 à 17h00","latitude":43.2269,"longitude":6.14452,"website":"https://www.pierrefeu-du-var.fr/","hasWebsite":true,"hasHoraires":true,"url":"https://lannuaire.service-public.gouv.fr/provence-alpes-cote-d-azur/var/f68709be-9680-4bcc-906b-025722e6bb27"}
{"nom":"Pignans","nomNormalise":"pignans","typeCollectivite":"Commune","region":"Provence-Alpes-Côte d'Azur","departement":"Var","departementCode":"83","adresse":{"street":"7 place de la Mairie","postalCode":"83790","city":"Pignans","country":"France"},"contacts":{"email":"accueil@pignans.fr","telephone":"0494135490"},"horaires":"Du Lundi au Vendredi : de 08h30 à 12h00 de 14h30 à 17h00","latitude":43.3498,"longitude":6.17711,"website":"http://www.pignans.fr/","hasWebsite":true,"hasHoraires":true,"url":"https://lannuaire.service-public.gouv.fr/provence-alpes-cote-d-azur/var/8402ccfb-0c89-4431-b69c-36773ca54b8b"}
{"nom":"Plan-d'Aups-Sainte-Baume","nomNormalise":"plandaupssaintebaume","typeCollectivite":"Commune","region":"Provence-Alpes-Côte d'Azur","departement":"Var","departementCode":"83","adresse":{"street":"1 avenue de la Libération","postalCode":"83640","city":"Plan-d'Aups-Sainte-Baume","country":"France"},"contacts":{"email":"mairie@plan-daups.fr","telephone":"0442045010"},"horaires":"Le Lundi : de 13h30 à 17h00\nLe Mardi : de 08h30 à 12h00 de 13h30 à 17h00\nLe Mercredi : de 08h30 à 12h00\nDu Jeudi au Vendredi : de 08h30 à 12h00 de 13h30 à 17h00","latitude":43.3268,"longitude":5.71182,"website":"https://www.plan-daups.fr/","hasWebsite":true,"hasHoraires":true,"url":"https://lannuaire.service-public.gouv.fr/provence-alpes-cote-d-azur/var/0b5ef5e2-5f2f-4901-96fa-f111e4751b1c"}
{"nom":"Pontevès","nomNormalise":"ponteves","typeCollectivite":"Commune","region":"Provence-Alpes-Côte d'Azur","departement":"Var","departementCode":"83","adresse":{"street":"31 L'Esplanade","postalCode":"83670","city":"Pontevès","country":"France"},"contacts":{"email":"serviceadministratif@mairie-ponteves.fr","telephone":"0494771141"},"horaires":"Du Lundi au Mardi : de 09h00 à 12h00\nDu Jeudi au Vendredi : de 09h00 à 12h00\nLe Samedi : de 09h00 à 12h00\n\n1er et 3ième samedi du mois.","latitude":43.55326,"longitude":6.031534,"website":"http://www.ponteves.fr/","hasWebsite":true,"hasHoraires":true,"url":"https://lannuaire.service-public.gouv.fr/provence-alpes-cote-d-azur/var/478b5645-ae55-41c2-8b9a-bc127cf194a8"}
{"nom":"Pourcieux","nomNormalise":"pourcieux","typeCollectivite":"Commune","region":"Provence-Alpes-Côte d'Azur","departement":"Var","departementCode":"83","adresse":{"street":"25 rue de l'Église","postalCode":"83470","city":"Pourcieux","country":"France"},"contacts":{"email":"mairie@pourcieux.fr","telephone":"0494780205"},"horaires":"Le Lundi : de 08h00 à 12h00 de 13h00 à 17h00\nLe Mardi : de 13h00 à 17h00\nLe Mercredi : de 08h00 à 12h00\nLe Jeudi : de 13h00 à 17h00\nLe Vendredi : de 08h00 à 12h00 de 13h00 à 17h00","latitude":43.470505,"longitude":5.785839,"website":"http://www.pourcieux.fr/","hasWebsite":true,"hasHoraires":true,"url":"https://lannuaire.service-public.gouv.fr/provence-alpes-cote-d-azur/var/329a9b85-fec9-4f40-ac1e-6af558aefa8e"}
{"nom":"Pourrières","nomNormalise":"pourrieres","typeCollectivite":"Commune","region":"Provence-Alpes-Côte d'Azur","departement":"Var","departementCode":"83","adresse":{"street":"Place Jules-Michel","postalCode":"83910","city":"Pourrières","country":"France"},"contacts":{"email":"accueil@pourrieres.fr","telephone":"0498051170"},"horaires":"Du Lundi au Mardi : de 09h00 à 12h00 de 13h30 à 16h30\nLe Mercredi : de 09h00 à 12h00\nDu Jeudi au Vendredi : de 09h00 à 12h00 de 13h30 à 16h30","latitude":43.50409,"longitude":5.73535,"website":"https://www.pourrieres.fr/","hasWebsite":true,"hasHoraires":true,"url":"https://lannuaire.service-public.gouv.fr/provence-alpes-cote-d-azur/var/7d88b6ab-63a9-403b-9a4e-7f7fa206a676"}
{"nom":"Puget-sur-Argens","nomNormalise":"pugetsurargens","typeCollectivite":"Commune","region":"Provence-Alpes-Côte d'Azur","departement":"Var","departementCode":"83","adresse":{"street":"137 boulevard Cavalier","postalCode":"83480","city":"Puget-sur-Argens","country":"France"},"contacts":{"email":"accueilp@mairie-puget-sur-argens.com","telephone":"0494196700"},"horaires":"Le Lundi : de 08h00 à 17h00\nDu Lundi au Jeudi : de 08h00 à 12h00 de 14h00 à 17h00\nLe Vendredi : de 08h00 à 12h00 de 14h00 à 16h30","latitude":43.456333,"longitude":6.683368,"website":"https://www.pugetsurargens.fr/","hasWebsite":true,"hasHoraires":true,"url":"https://lannuaire.service-public.gouv.fr/provence-alpes-cote-d-azur/var/a86f9ee2-68c0-4e0b-b82b-71ac301ad38f"}
{"nom":"Puget-Ville","nomNormalise":"pugetville","typeCollectivite":"Commune","region":"Provence-Alpes-Côte d'Azur","departement":"Var","departementCode":"83","adresse":{"street":"368 rue de la Libération","postalCode":"83390","city":"Puget-Ville","country":"France"},"contacts":{"email":"mairie@puget-ville.fr","telephone":"0494138200"},"horaires":"Le Lundi : de 08h30 à 12h00\nDu Mardi au Jeudi : de 08h30 à 12h00 de 14h00 à 17h30\nLe Vendredi : de 08h30 à 12h00\nLe Samedi : de 09h00 à 12h00","latitude":43.28932,"longitude":6.136326,"website":"http://www.puget-ville.fr/","hasWebsite":true,"hasHoraires":true,"url":"https://lannuaire.service-public.gouv.fr/provence-alpes-cote-d-azur/var/29a9082d-7564-4e06-bb28-4071c761e369"}
{"nom":"Ramatuelle","nomNormalise":"ramatuelle","typeCollectivite":"Commune","region":"Provence-Alpes-Côte d'Azur","departement":"Var","departementCode":"83","adresse":{"street":"60 boulevard du 8-Mai-1945","postalCode":"83350","city":"Ramatuelle","country":"France"},"contacts":{"email":"info@mairie-ramatuelle.fr","telephone":"0498126666"},"horaires":"Du Lundi au Vendredi : de 08h30 à 12h00 de 13h00 à 17h00","latitude":43.224304,"longitude":6.6317463,"website":"https://www.ramatuelle.fr/","hasWebsite":true,"hasHoraires":true,"url":"https://lannuaire.service-public.gouv.fr/provence-alpes-cote-d-azur/var/3e5f2063-90cd-4b1f-ad2a-56be9b6f210d"}
{"nom":"Rayol-Canadel-sur-Mer","nomNormalise":"rayolcanadelsurmer","typeCollectivite":"Commune","region":"Provence-Alpes-Côte d'Azur","departement":"Var","departementCode":"83","adresse":{"street":"Route départementale 559","postalCode":"83820","city":"Rayol-Canadel-sur-Mer","country":"France"},"contacts":{"email":"accueil.mairie@rayol-canadel.fr","telephone":"0494156100"},"horaires":"Du Lundi au Jeudi : de 08h30 à 12h00 de 13h15 à 17h00\nLe Vendredi : de 08h30 à 12h00","latitude":43.160717,"longitude":6.467125,"website":"https://www.rayol-canadel.fr/","hasWebsite":true,"hasHoraires":true,"url":"https://lannuaire.service-public.gouv.fr/provence-alpes-cote-d-azur/var/76c97584-3725-4799-907b-c85a3e11b812"}
{"nom":"Régusse","nomNormalise":"regusse","typeCollectivite":"Commune","region":"Provence-Alpes-Côte d'Azur","departement":"Var","departementCode":"83","adresse":{"street":"48 Cours Alexandre-Gariel","postalCode":"83630","city":"Régusse","country":"France"},"contacts":{"email":"contact@mairie-regusse83.fr","telephone":"0494701623"},"horaires":"Du Lundi au Vendredi : de 08h00 à 12h00","latitude":43.65641,"longitude":6.129491,"website":"https://mairie-regusse83.fr/fr/","hasWebsite":true,"hasHoraires":true,"url":"https://lannuaire.service-public.gouv.fr/provence-alpes-cote-d-azur/var/46b54830-0359-4392-91af-45f3bf32595f"}
{"nom":"Rians","nomNormalise":"rians","typeCollectivite":"Commune","region":"Provence-Alpes-Côte d'Azur","departement":"Var","departementCode":"83","adresse":{"street":"30 rue de la République","postalCode":"83560","city":"Rians","country":"France"},"contacts":{"email":"accueil@mairie-rians.fr","telephone":"0494726480"},"horaires":"Du Lundi au Jeudi : de 08h00 à 12h00 de 13h30 à 16h15\nLe Vendredi : de 08h00 à 12h00 de 13h30 à 16h00\nLe Samedi : de 08h00 à 12h00","latitude":43.606514,"longitude":5.757851,"website":"https://www.ville-rians.fr/","hasWebsite":true,"hasHoraires":true,"url":"https://lannuaire.service-public.gouv.fr/provence-alpes-cote-d-azur/var/f2060dad-8be0-4201-800d-42503e9d818b"}
{"nom":"Riboux","nomNormalise":"riboux","typeCollectivite":"Commune","region":"Provence-Alpes-Côte d'Azur","departement":"Var","departementCode":"83","adresse":{"street":"Placette de la Mairie","postalCode":"13780","city":"Riboux","country":"France"},"contacts":{"email":"secretariat@mairiederiboux.fr","telephone":"0442738868"},"horaires":"Le Mercredi : de 09h00 à 12h00\nLe Jeudi : de 09h00 à 12h00 de 13h30 à 15h30","latitude":43.302715,"longitude":5.756478,"website":"https://www.riboux.com/","hasWebsite":true,"hasHoraires":true,"url":"https://lannuaire.service-public.gouv.fr/provence-alpes-cote-d-azur/var/2983ff67-6ded-4eac-88cf-7f3183d78021"}
{"nom":"Rocbaron","nomNormalise":"rocbaron","typeCollectivite":"Commune","region":"Provence-Alpes-Côte d'Azur","departement":"Var","departementCode":"83","adresse":{"street":"Place du Souvenir-Français","postalCode":"83136","city":"Rocbaron","country":"France"},"contacts":{"email":"contact@mairie-rocbaron.fr","telephone":"0494728472"},"horaires":"Du Lundi au Mardi : de 08h30 à 12h00 de 13h30 à 17h00\nLe Mercredi : de 08h30 à 12h00\nDu Jeudi au Vendredi : de 08h30 à 12h00 de 13h30 à 17h00","latitude":43.304176,"longitude":6.091139,"website":"https://www.mairie-rocbaron.fr/","hasWebsite":true,"hasHoraires":true,"url":"https://lannuaire.service-public.gouv.fr/provence-alpes-cote-d-azur/var/722d9bfd-8647-40c4-bf79-da95bff0f6e0"}
{"nom":"Roquebrune-sur-Argens","nomNormalise":"roquebrunesurargens","typeCollectivite":"Commune","region":"Provence-Alpes-Côte d'Azur","departement":"Var","departementCode":"83","adresse":{"street":"Rue Grande-André-Cabasse","postalCode":"83520","city":"Roquebrune-sur-Argens","country":"France"},"contacts":{"email":"mairie@mairie-roquebrune-argens.fr","telephone":"0494195959"},"horaires":"Du Lundi au Jeudi : de 08h00 à 12h00 de 13h30 à 17h00\nLe Vendredi : de 08h30 à 12h00 de 13h30 à 16h30","latitude":43.4443,"longitude":6.63784,"website":"https://www.roquebrune.com/","hasWebsite":true,"hasHoraires":true,"url":"https://lannuaire.service-public.gouv.fr/provence-alpes-cote-d-azur/var/7ca7d9f9-3cfd-4e8f-af03-320148524802"}
{"nom":"Rougiers","nomNormalise":"rougiers","typeCollectivite":"Commune","region":"Provence-Alpes-Côte d'Azur","departement":"Var","departementCode":"83","adresse":{"street":"15 avenue de Brignoles","postalCode":"83170","city":"Rougiers","country":"France"},"contacts":{"email":"mairie.de-rougiers@wanadoo.fr","telephone":"0498059330"},"horaires":"Du Lundi au Mardi : de 08h30 à 12h30\nLe Mercredi : de 08h00 à 12h30 de 13h30 à 17h30\nLe Jeudi : de 08h30 à 12h30\nLe Vendredi : de 08h30 à 12h30 de 13h30 à 17h30","latitude":43.39269,"longitude":5.851676,"website":"https://www.rougiers.fr/","hasWebsite":true,"hasHoraires":true,"url":"https://lannuaire.service-public.gouv.fr/provence-alpes-cote-d-azur/var/c4485112-ff2a-41d2-ba54-42fddabb3743"}
{"nom":"Saint-Antonin-du-Var","nomNormalise":"saintantoninduvar","typeCollectivite":"Commune","region":"Provence-Alpes-Côte d'Azur","departement":"Var","departementCode":"83","adresse":{"street":"Route d'Entrecasteaux","postalCode":"83510","city":"Saint-Antonin-du-Var","country":"France"},"contacts":{"email":"saint.antonin.mairie@orange.fr","telephone":"0494044208"},"horaires":"Le Lundi : de 08h30 à 11h30 de 14h00 à 17h00\nDu Mardi au Vendredi : de 08h30 à 11h30","latitude":43.510105,"longitude":6.287412,"website":"http://www.saintantoninduvar.com/","hasWebsite":true,"hasHoraires":true,"url":"https://lannuaire.service-public.gouv.fr/provence-alpes-cote-d-azur/var/b0fff824-1fa1-4a41-8d0c-7b881104df6f"}
{"nom":"Saint-Cyr-sur-Mer","nomNormalise":"saintcyrsurmer","typeCollectivite":"Commune","region":"Provence-Alpes-Côte d'Azur","departement":"Var","departementCode":"83","adresse":{"street":"Place d'Estienne-d'Orves","postalCode":"83270","city":"Saint-Cyr-sur-Mer","country":"France"},"contacts":{"email":"mairie@saintcyrsurmer.fr","telephone":"0494262622"},"horaires":"Du Lundi au Vendredi : de 08h00 à 12h00 de 13h30 à 17h00\nLe Mardi : de 08h00 à 12h00 de 13h30 à 19h00","latitude":43.18196,"longitude":5.710917,"website":"https://www.saintcyrsurmer.fr/saint-cyr-sur-mer-3.html","hasWebsite":true,"hasHoraires":true,"url":"https://lannuaire.service-public.gouv.fr/provence-alpes-cote-d-azur/var/b31ccf1b-2d45-4e1e-b9b4-e920ed4e05e9"}
{"nom":"Sainte-Anastasie-sur-Issole","nomNormalise":"sainteanastasiesurissole","typeCollectivite":"Commune","region":"Provence-Alpes-Côte d'Azur","departement":"Var","departementCode":"83","adresse":{"street":"33 rue Notre-Dame","postalCode":"83136","city":"Sainte-Anastasie-sur-Issole","country":"France"},"contacts":{"email":"mairie@sainte-anastasie-sur-issole.fr","telephone":"0494696440"},"horaires":"Du Lundi au Mardi : de 08h00 à 12h00\nLe Mercredi : de 08h00 à 12h00 de 13h30 à 16h30\nDu Jeudi au Vendredi : de 08h00 à 12h00","latitude":43.341557,"longitude":6.125359,"website":"https://sainte-anastasie-sur-issole.fr/","hasWebsite":true,"hasHoraires":true,"url":"https://lannuaire.service-public.gouv.fr/provence-alpes-cote-d-azur/var/33d52743-c14d-4ee9-b9b8-53708d023e8e"}
{"nom":"Sainte-Maxime","nomNormalise":"saintemaxime","typeCollectivite":"Commune","region":"Provence-Alpes-Côte d'Azur","departement":"Var","departementCode":"83","adresse":{"street":"Boulevard des Mimosas","postalCode":"83120","city":"Sainte-Maxime","country":"France"},"contacts":{"email":"mairie@sainte-maxime.fr","telephone":"0494794242"},"horaires":"Du Lundi au Vendredi : de 08h30 à 12h00 de 14h00 à 17h30","latitude":43.309696,"longitude":6.640533,"website":"https://www.sainte-maxime.fr/","hasWebsite":true,"hasHoraires":true,"url":"https://lannuaire.service-public.gouv.fr/provence-alpes-cote-d-azur/var/2d741628-79ac-425c-8bbc-ea99f51ce23e"}
{"nom":"Saint-Julien","nomNormalise":"saintjulien","typeCollectivite":"Commune","region":"Provence-Alpes-Côte d'Azur","departement":"Var","departementCode":"83","adresse":{"street":"22 rue de l'Hôtel-de-Ville","postalCode":"83560","city":"Saint-Julien","country":"France"},"contacts":{"email":"contact@sjlm.fr","telephone":"0494800478"},"horaires":"Du Lundi au Vendredi : de 08h30 à 12h00\nLes trois premiers samedis du mois : de 08h30 à 12h00","latitude":43.6937,"longitude":5.914947,"website":"https://www.sjlm.fr/","hasWebsite":true,"hasHoraires":true,"url":"https://lannuaire.service-public.gouv.fr/provence-alpes-cote-d-azur/var/97f9e456-e5de-422b-9108-6c6df3581de7"}
{"nom":"Saint-Mandrier-sur-Mer","nomNormalise":"saintmandriersurmer","typeCollectivite":"Commune","region":"Provence-Alpes-Côte d'Azur","departement":"Var","departementCode":"83","adresse":{"street":"Place des Résistants","postalCode":"83430","city":"Saint-Mandrier-sur-Mer","country":"France"},"contacts":{"email":"info@ville-saintmandrier.fr","telephone":"0494115160"},"horaires":"Du Lundi au Vendredi : de 08h30 à 12h00 de 13h30 à 17h00\nLe Samedi : de 09h00 à 12h00\n\nService urbanisme ouvert les lundis, mercredis et vendredis après midi sur rendez-vous uniquement.","latitude":43.078163,"longitude":5.928626,"website":"https://www.ville-saintmandrier.fr/","hasWebsite":true,"hasHoraires":true,"url":"https://lannuaire.service-public.gouv.fr/provence-alpes-cote-d-azur/var/f7ed71a7-4b5c-4d3e-a670-fd9601d45be3"}
{"nom":"Saint-Martin-de-Pallières","nomNormalise":"saintmartindepallieres","typeCollectivite":"Commune","region":"Provence-Alpes-Côte d'Azur","departement":"Var","departementCode":"83","adresse":{"street":"1 place de la Mairie","postalCode":"83560","city":"Saint-Martin-de-Pallières","country":"France"},"contacts":{"email":"mairie-stmartindepallieres@orange.fr","telephone":"0494728045"},"horaires":"Le Mardi : de 09h00 à 12h00\nLe Jeudi : de 09h00 à 12h00\nLe Vendredi : de 14h00 à 18h00\nLe Samedi : de 09h00 à 12h00","latitude":43.589046,"longitude":5.885031,"website":"https://mairie-stmartindepallieres.fr/","hasWebsite":true,"hasHoraires":true,"url":"https://lannuaire.service-public.gouv.fr/provence-alpes-cote-d-azur/var/29f5ea35-ea5a-4f22-9397-c496e631297a"}
{"nom":"Saint-Maximin-la-Sainte-Baume","nomNormalise":"saintmaximinlasaintebaume","typeCollectivite":"Commune","region":"Provence-Alpes-Côte d'Azur","departement":"Var","departementCode":"83","adresse":{"street":"Parvis Charles-II-d'Anjou","postalCode":"83470","city":"Saint-Maximin-la-Sainte-Baume","country":"France"},"contacts":{"email":"secretariatgeneral@st-maximin.fr","telephone":"0494729300"},"horaires":"Du Lundi au Vendredi : de 08h30 à 12h00 de 13h30 à 17h00","latitude":43.45301,"longitude":5.8632474,"website":"https://www.st-maximin.fr/","hasWebsite":true,"hasHoraires":true,"url":"https://lannuaire.service-public.gouv.fr/provence-alpes-cote-d-azur/var/d7f6028b-0b6a-48f6-b49b-ad2ba651b3b5"}
{"nom":"Saint-Paul-en-Forêt","nomNormalise":"saintpaulenforet","typeCollectivite":"Commune","region":"Provence-Alpes-Côte d'Azur","departement":"Var","departementCode":"83","adresse":{"street":"154 place du Champ-de-Foire","postalCode":"83440","city":"Saint-Paul-en-Forêt","country":"France"},"contacts":{"email":"accueil@saintpaulenforet.fr","telephone":"0494390880"},"horaires":"Du Lundi au Mardi : de 08h30 à 12h00 de 13h30 à 17h00\nDu Jeudi au Vendredi : de 08h30 à 12h00 de 13h30 à 17h00","latitude":43.56675,"longitude":6.692764,"website":"http://www.saintpaulenforet.fr/","hasWebsite":true,"hasHoraires":true,"url":"https://lannuaire.service-public.gouv.fr/provence-alpes-cote-d-azur/var/5010961a-476e-47f7-9641-346e1b0d3c05"}
{"nom":"Saint-Raphaël","nomNormalise":"saintraphael","typeCollectivite":"Commune","region":"Provence-Alpes-Côte d'Azur","departement":"Var","departementCode":"83","adresse":{"street":"Hôtel de Ville","postalCode":"83701","city":"Saint-Raphaël Cedex","country":"France"},"contacts":{"email":"monsieurlemaire@ville-saintraphael.fr","telephone":"0494821500"},"horaires":"Du Lundi au Jeudi : de 08h00 à 12h00 de 13h30 à 17h00\nLe Vendredi : de 08h00 à 12h00 de 13h30 à 16h30","latitude":43.42518,"longitude":6.768542,"website":"https://www.ville-saintraphael.fr/","hasWebsite":true,"hasHoraires":true,"url":"https://lannuaire.service-public.gouv.fr/provence-alpes-cote-d-azur/var/4b3fbc0a-81ba-4ef7-aeb0-58d621b5d72e"}
{"nom":"Saint-Tropez","nomNormalise":"sainttropez","typeCollectivite":"Commune","region":"Provence-Alpes-Côte d'Azur","departement":"Var","departementCode":"83","adresse":{"street":"Place de l'Hôtel-de-ville","postalCode":"83990","city":"Saint-Tropez","country":"France"},"contacts":{"email":"citoyennete@ville-sainttropez.fr","telephone":"0494559000"},"horaires":"Du Lundi au Mardi : de 08h30 à 12h30 de 13h30 à 17h00\nLe Mercredi : de 08h30 à 17h00\nDu Jeudi au Vendredi : de 08h30 à 12h30 de 13h30 à 17h00","latitude":43.27341,"longitude":6.63964,"website":"https://www.saint-tropez.fr/","hasWebsite":true,"hasHoraires":true,"url":"https://lannuaire.service-public.gouv.fr/provence-alpes-cote-d-azur/var/9c86aa14-9784-433e-988e-a8d75eb2f6fa"}
{"nom":"Saint-Zacharie","nomNormalise":"saintzacharie","typeCollectivite":"Commune","region":"Provence-Alpes-Côte d'Azur","departement":"Var","departementCode":"83","adresse":{"street":"1 cours Louis-Blanc","postalCode":"83640","city":"Saint-Zacharie","country":"France"},"contacts":{"email":"cabinetdumaire@st-zacharie.fr","telephone":"0442326332"},"horaires":"Du Lundi au Vendredi : de 08h30 à 12h00 de 14h00 à 18h00\nLe Samedi : de 08h30 à 12h00","latitude":43.3859,"longitude":5.70703,"website":"http://www.saint-zacharie.fr/","hasWebsite":true,"hasHoraires":true,"url":"https://lannuaire.service-public.gouv.fr/provence-alpes-cote-d-azur/var/6c5b781b-1548-402f-9cfb-4fe97b4db2df"}
{"nom":"Salernes","nomNormalise":"salernes","typeCollectivite":"Commune","region":"Provence-Alpes-Côte d'Azur","departement":"Var","departementCode":"83","adresse":{"street":"Place Georges-Clemenceau","postalCode":"83690","city":"Salernes","country":"France"},"contacts":{"email":"mairie@ville-salernes.fr","telephone":"0494604000"},"horaires":"Du Lundi au Jeudi : de 08h30 à 12h00 de 14h00 à 17h00\nLe Vendredi : de 08h30 à 12h00 de 14h00 à 16h30","latitude":43.5628,"longitude":6.23324,"website":"https://www.ville-salernes.fr/","hasWebsite":true,"hasHoraires":true,"url":"https://lannuaire.service-public.gouv.fr/provence-alpes-cote-d-azur/var/da7c749e-1d3a-48f9-ada9-16620b4152ec"}
{"nom":"Sanary-sur-Mer","nomNormalise":"sanarysurmer","typeCollectivite":"Commune","region":"Provence-Alpes-Côte d'Azur","departement":"Var","departementCode":"83","adresse":{"street":"1 place de la République","postalCode":"83110","city":"Sanary-sur-Mer","country":"France"},"contacts":{"email":"contact@sanarysurmer.fr","telephone":"0494329700"},"horaires":"Du Lundi au Jeudi : de 08h30 à 16h30\nLe Vendredi : de 08h30 à 15h30","latitude":43.11802,"longitude":5.801435,"website":"https://www.sanarysurmer.com/","hasWebsite":true,"hasHoraires":true,"url":"https://lannuaire.service-public.gouv.fr/provence-alpes-cote-d-azur/var/f50f2502-cdad-461d-b6eb-f6195a18f940"}
{"nom":"Seillans","nomNormalise":"seillans","typeCollectivite":"Commune","region":"Provence-Alpes-Côte d'Azur","departement":"Var","departementCode":"83","adresse":{"street":"9 rue du Valat","postalCode":"83440","city":"Seillans","country":"France"},"contacts":{"email":"contact@seillans.fr","telephone":"0494504546"},"horaires":"Du Lundi au Vendredi : de 08h30 à 12h00 de 13h30 à 17h00","latitude":43.63658,"longitude":6.643195,"website":"https://www.seillans.fr/","hasWebsite":true,"hasHoraires":true,"url":"https://lannuaire.service-public.gouv.fr/provence-alpes-cote-d-azur/var/d87f72ac-d511-406f-a686-1fd5d334e2d7"}
{"nom":"Seillons-Source-d'Argens","nomNormalise":"seillonssourcedargens","typeCollectivite":"Commune","region":"Provence-Alpes-Côte d'Azur","departement":"Var","departementCode":"83","adresse":{"street":"39 Place Gabriel-Péri","postalCode":"83470","city":"Seillons-Source-d'Argens","country":"France"},"contacts":{"email":"contact@mairie-de-seillons.fr","telephone":"0498052040"},"horaires":"Du Lundi au Vendredi : de 08h30 à 12h00","latitude":43.496273,"longitude":5.883623,"website":"http://www.vivreaseillons.fr/","hasWebsite":true,"hasHoraires":true,"url":"https://lannuaire.service-public.gouv.fr/provence-alpes-cote-d-azur/var/5662d83e-4457-406c-a960-22b9fa088795"}
{"nom":"Signes","nomNormalise":"signes","typeCollectivite":"Commune","region":"Provence-Alpes-Côte d'Azur","departement":"Var","departementCode":"83","adresse":{"street":"5 rue Saint-Jean","postalCode":"83870","city":"Signes","country":"France"},"contacts":{"email":"mairie@signes.fr","telephone":"0494253080"},"horaires":"Du Lundi au Vendredi : de 09h00 à 12h00 de 14h00 à 16h30","latitude":43.290882,"longitude":5.863493,"website":"https://mairiesignes.fr/","hasWebsite":true,"hasHoraires":true,"url":"https://lannuaire.service-public.gouv.fr/provence-alpes-cote-d-azur/var/c58a985b-75d4-49d1-9347-e7e0eb79769a"}
{"nom":"Sillans-la-Cascade","nomNormalise":"sillanslacascade","typeCollectivite":"Commune","region":"Provence-Alpes-Côte d'Azur","departement":"Var","departementCode":"83","adresse":{"street":"Rue du Château","postalCode":"83690","city":"Sillans-la-Cascade","country":"France"},"contacts":{"email":"mairie.sillans-la-cascade@wanadoo.fr","telephone":"0494046304"},"horaires":"Du Lundi au Vendredi : de 08h30 à 12h00\n\nSur rendez-vous l'après-midi.","latitude":43.5672,"longitude":6.17954,"website":"https://sillans-la-cascade.fr/","hasWebsite":true,"hasHoraires":true,"url":"https://lannuaire.service-public.gouv.fr/provence-alpes-cote-d-azur/var/382b880a-67d3-41af-90ca-fe1e1edc5e5b"}
{"nom":"Six-Fours-les-Plages","nomNormalise":"sixfourslesplages","typeCollectivite":"Commune","region":"Provence-Alpes-Côte d'Azur","departement":"Var","departementCode":"83","adresse":{"street":"Place du 18-Juin-1940","postalCode":"83183","city":"Six-Fours-les-Plages","country":"France"},"contacts":{"email":"doleances@mairie-six-fours.fr","telephone":"0494349300"},"horaires":"Du Lundi au Vendredi : de 08h30 à 16h30\nLe Samedi : de 08h30 à 11h00\nAccueil ouvert de 7h45 à 15h15 en juillet-août.","latitude":43.093372,"longitude":5.83994,"website":"https://www.ville-six-fours.fr/","hasWebsite":true,"hasHoraires":true,"url":"https://lannuaire.service-public.gouv.fr/provence-alpes-cote-d-azur/var/4284c09c-f55a-41b5-90e0-ec62f75039ac"}
{"nom":"Solliès-Pont","nomNormalise":"solliespont","typeCollectivite":"Commune","region":"Provence-Alpes-Côte d'Azur","departement":"Var","departementCode":"83","adresse":{"street":"1 rue de la République","postalCode":"83210","city":"Solliès-Pont","country":"France"},"contacts":{"email":"mairie@solliespont.fr","telephone":"0494135800"},"horaires":"Le Lundi : de 08h30 à 12h30 de 13h30 à 17h30\nDu Mardi au Vendredi : de 08h30 à 12h30 de 13h30 à 17h00","latitude":43.190384,"longitude":6.041507,"website":"https://www.ville-sollies-pont.fr/","hasWebsite":true,"hasHoraires":true,"url":"https://lannuaire.service-public.gouv.fr/provence-alpes-cote-d-azur/var/23b0aedf-1d17-4b1f-a12b-a1be201ed44f"}
{"nom":"Solliès-Toucas","nomNormalise":"solliestoucas","typeCollectivite":"Commune","region":"Provence-Alpes-Côte d'Azur","departement":"Var","departementCode":"83","adresse":{"street":"Place Clément-Balestra","postalCode":"83210","city":"Solliès-Toucas","country":"France"},"contacts":{"email":"","telephone":"0494289047"},"horaires":"Du Lundi au Vendredi : de 08h30 à 12h00 de 13h30 à 17h00\nEt le 1er Samedi du mois de 9h00 à 12h00.","latitude":43.206303,"longitude":6.026143,"website":"https://www.ville-solliestoucas.fr/","hasWebsite":true,"hasHoraires":true,"url":"https://lannuaire.service-public.gouv.fr/provence-alpes-cote-d-azur/var/1e6c30ee-950a-422b-b89d-1dd085d4f3f1"}
{"nom":"Solliès-Ville","nomNormalise":"solliesville","typeCollectivite":"Commune","region":"Provence-Alpes-Côte d'Azur","departement":"Var","departementCode":"83","adresse":{"street":"9 rue du 6e-Régiment-de-Tirailleurs-Sénégalais","postalCode":"83210","city":"Solliès-Ville","country":"France"},"contacts":{"email":"contact@solliesville.fr","telephone":"0494138030"},"horaires":"Du Lundi au Mercredi : de 08h00 à 12h00 de 13h00 à 16h30\nLe Jeudi : de 08h00 à 12h00\nLe Vendredi : de 08h00 à 12h00 de 13h00 à 16h30","latitude":43.182487,"longitude":6.037807,"website":"https://solliesville.fr/","hasWebsite":true,"hasHoraires":true,"url":"https://lannuaire.service-public.gouv.fr/provence-alpes-cote-d-azur/var/6e9d7c7f-d715-4d0f-b217-2dc2488e29f5"}
{"nom":"Tanneron","nomNormalise":"tanneron","typeCollectivite":"Commune","region":"Provence-Alpes-Côte d'Azur","departement":"Var","departementCode":"83","adresse":{"street":"Place de la Mairie","postalCode":"83440","city":"Tanneron","country":"France"},"contacts":{"email":"accueil@communedetanneron.fr","telephone":"0493606813"},"horaires":"Du Lundi au Mardi : de 08h30 à 12h00 de 13h30 à 17h30\nLe Mercredi : de 08h30 à 12h00\nDu Jeudi au Vendredi : de 08h30 à 12h00 de 13h30 à 17h30","latitude":43.59034,"longitude":6.87568,"website":"https://www.communedetanneron.fr/","hasWebsite":true,"hasHoraires":true,"url":"https://lannuaire.service-public.gouv.fr/provence-alpes-cote-d-azur/var/d6f954d5-8770-4b3f-8c9a-5f34b6b79e1a"}
{"nom":"Taradeau","nomNormalise":"taradeau","typeCollectivite":"Commune","region":"Provence-Alpes-Côte d'Azur","departement":"Var","departementCode":"83","adresse":{"street":"38 route de Flayosc","postalCode":"83460","city":"Taradeau","country":"France"},"contacts":{"email":"accueil@mairie-taradeau.fr","telephone":"0494997030"},"horaires":"Le Lundi : de 09h00 à 12h00\nDu Mardi au Jeudi : de 09h00 à 12h00 de 15h00 à 17h30\nLe Vendredi : de 09h00 à 12h00","latitude":43.454594,"longitude":6.4275875,"website":"https://mairie-taradeau.fr/","hasWebsite":true,"hasHoraires":true,"url":"https://lannuaire.service-public.gouv.fr/provence-alpes-cote-d-azur/var/bf215370-523b-4a03-bae8-19df58d48217"}
{"nom":"Tavernes","nomNormalise":"tavernes","typeCollectivite":"Commune","region":"Provence-Alpes-Côte d'Azur","departement":"Var","departementCode":"83","adresse":{"street":"15 place de la Mairie","postalCode":"83670","city":"Tavernes","country":"France"},"contacts":{"email":"mairiedetavernes@orange.fr","telephone":"0498053636"},"horaires":"Du Lundi au Mardi : de 08h00 à 16h00\nLe Mercredi : de 08h00 à 15h00\nLe Jeudi : de 08h00 à 16h00\nLe Vendredi : de 08h00 à 15h00","latitude":43.59386,"longitude":6.016659,"website":"http://www.mairie-tavernes.fr/","hasWebsite":true,"hasHoraires":true,"url":"https://lannuaire.service-public.gouv.fr/provence-alpes-cote-d-azur/var/f0722b4e-a5db-4b5e-a68c-3ccf10006d86"}
{"nom":"Toulon","nomNormalise":"toulon","typeCollectivite":"Commune","region":"Provence-Alpes-Côte d'Azur","departement":"Var","departementCode":"83","adresse":{"street":"Avenue de la République","postalCode":"83000","city":"Toulon","country":"France"},"contacts":{"email":"","telephone":"0494363000"},"horaires":"Du Lundi au Vendredi : de 08h30 à 16h30","latitude":43.119694,"longitude":5.9327555,"website":"https://www.toulon.fr/","hasWebsite":true,"hasHoraires":true,"url":"https://lannuaire.service-public.gouv.fr/provence-alpes-cote-d-azur/var/64b14e6b-d7ff-4cda-876b-bcebef5837e1"}
{"nom":"Tourrettes","nomNormalise":"tourrettes","typeCollectivite":"Commune","region":"Provence-Alpes-Côte d'Azur","departement":"Var","departementCode":"83","adresse":{"street":"Place de la Mairie","postalCode":"83440","city":"Tourrettes","country":"France"},"contacts":{"email":"mairie@mairie-tourrettes-83.fr","telephone":"0494390720"},"horaires":"Du Lundi au Vendredi : de 09h00 à 12h00 de 14h00 à 17h00\nLe Samedi : de 09h00 à 12h00\n\nAccueil ouvert uniquement pour l'état civil et les rendez-vous avec le maire et l'urbanisme.","latitude":43.623173,"longitude":6.701985,"website":"https://www.mairie-tourrettes-83.fr/","hasWebsite":true,"hasHoraires":true,"url":"https://lannuaire.service-public.gouv.fr/provence-alpes-cote-d-azur/var/25e4f7b3-d093-438b-8be9-0d5e3678f6a4"}
{"nom":"Tourtour","nomNormalise":"tourtour","typeCollectivite":"Commune","region":"Provence-Alpes-Côte d'Azur","departement":"Var","departementCode":"83","adresse":{"street":"Château Raphélis","postalCode":"83690","city":"Tourtour","country":"France"},"contacts":{"email":"accueil@mairietourtour.com","telephone":"0498102525"},"horaires":"Du Lundi au Vendredi : de 09h00 à 12h00","latitude":43.589302,"longitude":6.302249,"website":"https://mairie-tourtour.fr/","hasWebsite":true,"hasHoraires":true,"url":"https://lannuaire.service-public.gouv.fr/provence-alpes-cote-d-azur/var/0614ff12-ce64-48cb-ad8e-f8bd6978cfe0"}
{"nom":"Tourves","nomNormalise":"tourves","typeCollectivite":"Commune","region":"Provence-Alpes-Côte d'Azur","departement":"Var","departementCode":"83","adresse":{"street":"Place de l'Hôtel-de-Ville","postalCode":"83170","city":"Tourves","country":"France"},"contacts":{"email":"accueil@tourves.fr","telephone":"0494370000"},"horaires":"Du Lundi au Vendredi : de 08h00 à 12h00 de 13h30 à 17h30","latitude":43.407906,"longitude":5.924093,"website":"https://www.tourves.fr/","hasWebsite":true,"hasHoraires":true,"url":"https://lannuaire.service-public.gouv.fr/provence-alpes-cote-d-azur/var/8aed7736-151c-41b2-95e0-0d24990b9325"}
{"nom":"Trans-en-Provence","nomNormalise":"transenprovence","typeCollectivite":"Commune","region":"Provence-Alpes-Côte d'Azur","departement":"Var","departementCode":"83","adresse":{"street":"25 avenue de la Gare","postalCode":"83720","city":"Trans-en-Provence","country":"France"},"contacts":{"email":"accueil@transenprovence.fr","telephone":"0494606249"},"horaires":"Du Lundi au Jeudi : de 08h30 à 12h00 de 13h30 à 17h00\nLe Vendredi : de 08h30 à 12h30 de 13h30 à 16h30","latitude":43.503582,"longitude":6.4853935,"website":"https://www.transenprovence.fr/","hasWebsite":true,"hasHoraires":true,"url":"https://lannuaire.service-public.gouv.fr/provence-alpes-cote-d-azur/var/85c638b1-c492-493a-94ae-b9846358ce06"}
{"nom":"Trigance","nomNormalise":"trigance","typeCollectivite":"Commune","region":"Provence-Alpes-Côte d'Azur","departement":"Var","departementCode":"83","adresse":{"street":"6 place Saint-Michel","postalCode":"83840","city":"Trigance","country":"France"},"contacts":{"email":"mairie@trigance.fr","telephone":"0494762320"},"horaires":"Le Lundi : de 09h00 à 12h00 de 13h30 à 17h00\nLe Mardi : de 09h00 à 12h00\nLe Mercredi : de 10h00 à 12h00 de 13h30 à 17h00\nLe Jeudi : de 09h00 à 12h00 de 13h30 à 17h00","latitude":43.76022,"longitude":6.4418178,"website":"https://trigance.fr/","hasWebsite":true,"hasHoraires":true,"url":"https://lannuaire.service-public.gouv.fr/provence-alpes-cote-d-azur/var/0e0903b9-0adb-41eb-ace6-de1841044e7b"}
{"nom":"Varages","nomNormalise":"varages","typeCollectivite":"Commune","region":"Provence-Alpes-Côte d'Azur","departement":"Var","departementCode":"83","adresse":{"street":"Place de la IVe-République","postalCode":"83670","city":"Varages","country":"France"},"contacts":{"email":"secretariatdumaire@varages.fr","telephone":"0494728510"},"horaires":"Du Lundi au Vendredi : de 09h00 à 12h00 de 13h30 à 15h30\nLe Samedi : de 09h00 à 12h00","latitude":43.59682,"longitude":5.960297,"website":"http://www.varages.fr/","hasWebsite":true,"hasHoraires":true,"url":"https://lannuaire.service-public.gouv.fr/provence-alpes-cote-d-azur/var/4975dc08-04af-462c-aa5b-4fda880c6d93"}
{"nom":"Vérignon","nomNormalise":"verignon","typeCollectivite":"Commune","region":"Provence-Alpes-Côte d'Azur","departement":"Var","departementCode":"83","adresse":{"street":"Le Hameau","postalCode":"83630","city":"Vérignon","country":"France"},"contacts":{"email":"mairie@verignon.fr","telephone":"0494700781"},"horaires":"Du Lundi au Mardi : de 09h00 à 12h00\nDu Mercredi au Jeudi : de 09h00 à 12h00\nLe Vendredi : de 09h00 à 15h00","latitude":43.653904,"longitude":6.272812,"website":"","hasWebsite":false,"hasHoraires":true,"url":"https://lannuaire.service-public.gouv.fr/provence-alpes-cote-d-azur/var/f0ee96ff-a1cf-412c-a005-be321a222000"}
{"nom":"Vidauban","nomNormalise":"vidauban","typeCollectivite":"Commune","region":"Provence-Alpes-Côte d'Azur","departement":"Var","departementCode":"83","adresse":{"street":"Place Georges-Clemenceau","postalCode":"83550","city":"Vidauban","country":"France"},"contacts":{"email":"accueil@vidauban.fr","telephone":"0494999900"},"horaires":"Du Lundi au Vendredi : de 08h30 à 12h00 de 13h30 à 17h00\n\nLe service état civil est ouvert le mardi jusqu'à 18h30.\nLe service état civil est ouvert le mardi jusqu'à 18h30.","latitude":43.4269,"longitude":6.43108,"website":"https://www.mairie-vidauban.fr/","hasWebsite":true,"hasHoraires":true,"url":"https://lannuaire.service-public.gouv.fr/provence-alpes-cote-d-azur/var/b1c7f75a-c055-45c7-a00d-41dcea7ca723"}
{"nom":"Villecroze","nomNormalise":"villecroze","typeCollectivite":"Commune","region":"Provence-Alpes-Côte d'Azur","departement":"Var","departementCode":"83","adresse":{"street":"Place Victor-Espitalier","postalCode":"83690","city":"Villecroze","country":"France"},"contacts":{"email":"accueil@mairie-villecroze.fr","telephone":"0494706306"},"horaires":"Le Lundi : de 08h30 à 12h00 de 13h30 à 16h30\nLe Mardi : de 08h30 à 12h00\nLe Mercredi : de 08h30 à 12h00 de 13h30 à 16h30\nDu Jeudi au Vendredi : de 08h30 à 12h00","latitude":43.582394,"longitude":6.274981,"website":"http://mairie-villecroze.fr/","hasWebsite":true,"hasHoraires":true,"url":"https://lannuaire.service-public.gouv.fr/provence-alpes-cote-d-azur/var/5d951203-dc82-4acd-ac10-72fd0e1c3b13"}
{"nom":"Vinon-sur-Verdon","nomNormalise":"vinonsurverdon","typeCollectivite":"Commune","region":"Provence-Alpes-Côte d'Azur","departement":"Var","departementCode":"83","adresse":{"street":"66 avenue de la Libération","postalCode":"83560","city":"Vinon-sur-Verdon","country":"France"},"contacts":{"email":"secretariatdgs@vinon-sur-verdon.fr","telephone":"0492788031"},"horaires":"Du Lundi au Mardi : de 08h30 à 12h00 de 13h30 à 17h00\nLe Mercredi : de 08h30 à 12h00\nLe Jeudi : de 08h30 à 12h00 de 13h30 à 17h00\nLe Vendredi : de 08h30 à 12h00","latitude":43.7256,"longitude":5.81267,"website":"https://www.vinon-sur-verdon.fr/","hasWebsite":true,"hasHoraires":true,"url":"https://lannuaire.service-public.gouv.fr/provence-alpes-cote-d-azur/var/2def46cd-c180-4252-9dff-6c2a47dd23c3"}
{"nom":"Vins-sur-Caramy","nomNormalise":"vinssurcaramy","typeCollectivite":"Commune","region":"Provence-Alpes-Côte d'Azur","departement":"Var","departementCode":"83","adresse":{"street":"Place de l'Église","postalCode":"83170","city":"Vins-sur-Caramy","country":"France"},"contacts":{"email":"accueil@vinssurcaramy.fr","telephone":"0494370040"},"horaires":"Du Lundi au Mardi : de 10h00 à 12h00 de 16h00 à 17h00\nLe Mercredi : de 10h00 à 12h00\nDu Jeudi au Vendredi : de 10h00 à 12h00 de 16h00 à 17h00","latitude":43.43358,"longitude":6.141687,"website":"https://www.vinssurcaramy.fr/","hasWebsite":true,"hasHoraires":true,"url":"https://lannuaire.service-public.gouv.fr/provence-alpes-cote-d-azur/var/9ef4c54c-3f4a-4e53-b762-e2c0d806d2f7"}
