{"nom":"Althen-des-Paluds","nomNormalise":"althendespaluds","typeCollectivite":"Commune","region":"Provence-Alpes-Côte d'Azur","departement":"Vaucluse","departementCode":"84","adresse":{"street":"Place de la Mairie","postalCode":"84210","city":"Althen-des-Paluds","country":"France"},"contacts":{"email":"mairie@althendespaluds.fr","telephone":"0490620102"},"horaires":"Du Lundi au Mardi : de 08h30 à 12h00 de 13h15 à 17h30\nLe Mercredi : de 08h00 à 12h00 de 13h15 à 17h30\nLe Jeudi : de 08h30 à 12h00 de 13h15 à 17h30\nLe Vendredi : de 08h30 à 12h00","latitude":44.004337,"longitude":4.958824,"website":"https://althendespaluds.fr/","hasWebsite":true,"hasHoraires":true,"url":"https://lannuaire.service-public.gouv.fr/provence-alpes-cote-d-azur/vaucluse/c6c97508-532b-423b-991f-1b5d7ccca739"}
{"nom":"Ansouis","nomNormalise":"ansouis","typeCollectivite":"Commune","region":"Provence-Alpes-Côte d'Azur","departement":"Vaucluse","departementCode":"84","adresse":{"street":"29 boulevard des Platanes","postalCode":"84240","city":"Ansouis","country":"France"},"contacts":{"email":"mairie@ansouis.fr","telephone":"0490098379"},"horaires":"Le Lundi : de 09h00 à 12h00 de 13h00 à 17h00\nLe Mardi : de 09h00 à 12h00\nLe Mercredi : de 09h00 à 12h00 de 13h00 à 17h00\nDu Jeudi au Vendredi : de 09h00 à 12h00","latitude":43.73798,"longitude":5.46484,"website":"https://ansouis.fr/","hasWebsite":true,"hasHoraires":true,"url":"https://lannuaire.service-public.gouv.fr/provence-alpes-cote-d-azur/vaucluse/b4d0d595-3099-4206-befe-1745fe2ccfb8"}
{"nom":"Apt","nomNormalise":"apt","typeCollectivite":"Commune","region":"Provence-Alpes-Côte d'Azur","departement":"Vaucluse","departementCode":"84","adresse":{"street":"Place Gabriel-Péri","postalCode":"84405","city":"Apt","country":"France"},"contacts":{"email":"mairie@apt.fr","telephone":"0490740034"},"horaires":"Du Lundi au Jeudi : de 08h00 à 12h00 de 14h00 à 17h30\nLe Vendredi : de 08h00 à 12h00 de 14h00 à 17h00","latitude":43.875965,"longitude":5.394576,"website":"http://www.apt.fr/","hasWebsite":true,"hasHoraires":true,"url":"https://lannuaire.service-public.gouv.fr/provence-alpes-cote-d-azur/vaucluse/0a4c3010-d46d-4f1c-b075-c0abd5ae42df"}
{"nom":"Aubignan","nomNormalise":"aubignan","typeCollectivite":"Commune","region":"Provence-Alpes-Côte d'Azur","departement":"Vaucluse","departementCode":"84","adresse":{"street":"1 place de l'Hôtel-de-Ville","postalCode":"84810","city":"Aubignan","country":"France"},"contacts":{"email":"mairie@aubignan.fr","telephone":"0490626114"},"horaires":"Du Lundi au Mardi : de 08h00 à 17h00\nLe Mercredi : de 08h00 à 12h00\nLe Jeudi : de 08h00 à 17h00\nLe Vendredi : de 08h00 à 12h00","latitude":44.099358,"longitude":5.025084,"website":"https://www.aubignan.fr/","hasWebsite":true,"hasHoraires":true,"url":"https://lannuaire.service-public.gouv.fr/provence-alpes-cote-d-azur/vaucluse/27732f6f-7981-4331-addf-3eac9c362da6"}
{"nom":"Aurel","nomNormalise":"aurel","typeCollectivite":"Commune","region":"Provence-Alpes-Côte d'Azur","departement":"Vaucluse","departementCode":"84","adresse":{"street":"1 place de la Mairie","postalCode":"84390","city":"Aurel","country":"France"},"contacts":{"email":"aurel.mairie@orange.fr","telephone":"0490640076"},"horaires":"Le Lundi : de 09h00 à 12h00\nLe Mercredi : de 09h00 à 12h00 de 13h00 à 15h00\nLe Jeudi : de 09h00 à 12h00","latitude":44.128098,"longitude":5.427529,"website":"http://www.mairie-aurel.fr/","hasWebsite":true,"hasHoraires":true,"url":"https://lannuaire.service-public.gouv.fr/provence-alpes-cote-d-azur/vaucluse/c65415f5-4ec9-44af-91d0-fd4043911dd9"}
{"nom":"Auribeau","nomNormalise":"auribeau","typeCollectivite":"Commune","region":"Provence-Alpes-Côte d'Azur","departement":"Vaucluse","departementCode":"84","adresse":{"street":"44 rue Saint-Pierre","postalCode":"84400","city":"Auribeau","country":"France"},"contacts":{"email":"mairiedauribeau@wanadoo.fr","telephone":"0490752065"},"horaires":"Le Jeudi : de 13h00 à 17h00","latitude":43.836407,"longitude":5.458464,"website":"","hasWebsite":false,"hasHoraires":true,"url":"https://lannuaire.service-public.gouv.fr/provence-alpes-cote-d-azur/vaucluse/3adbb1d6-b87c-44f1-b653-d4fb2dac0871"}
{"nom":"Avignon","nomNormalise":"avignon","typeCollectivite":"Commune","region":"Provence-Alpes-Côte d'Azur","departement":"Vaucluse","departementCode":"84","adresse":{"street":"Place de l'Horloge","postalCode":"84000","city":"Avignon","country":"France"},"contacts":{"email":"contact@mairie-avignon.com","telephone":"0490808000"},"horaires":"Du Lundi au Vendredi : de 08h00 à 17h30","latitude":43.949287,"longitude":4.805589,"website":"https://www.avignon.fr/","hasWebsite":true,"hasHoraires":true,"url":"https://lannuaire.service-public.gouv.fr/provence-alpes-cote-d-azur/vaucluse/e240fe6c-a111-4ce4-a40c-a32ee3c31feb"}
{"nom":"Beaumes-de-Venise","nomNormalise":"beaumesdevenise","typeCollectivite":"Commune","region":"Provence-Alpes-Côte d'Azur","departement":"Vaucluse","departementCode":"84","adresse":{"street":"85 avenue Raspail","postalCode":"84190","city":"Beaumes-de-Venise","country":"France"},"contacts":{"email":"accueil.mairie@beaumes-de-venise.fr","telephone":"0490629434"},"horaires":"Du Lundi au Vendredi : de 08h30 à 12h00 de 13h30 à 16h00","latitude":44.1207,"longitude":5.028429,"website":"https://www.beaumes-de-venise.fr/accueil.html","hasWebsite":true,"hasHoraires":true,"url":"https://lannuaire.service-public.gouv.fr/provence-alpes-cote-d-azur/vaucluse/3717403b-803e-4edd-8d48-34019ef0c071"}
{"nom":"Beaumont-de-Pertuis","nomNormalise":"beaumontdepertuis","typeCollectivite":"Commune","region":"Provence-Alpes-Côte d'Azur","departement":"Vaucluse","departementCode":"84","adresse":{"street":"Avenue de Verdun","postalCode":"84120","city":"Beaumont-de-Pertuis","country":"France"},"contacts":{"email":"accueil@beaumontdepertuis.fr","telephone":"0490080105"},"horaires":"Le Lundi : de 09h00 à 12h00 de 14h00 à 17h00\nLe Mardi : de 09h00 à 12h00\nLe Mercredi : de 09h00 à 12h00 de 14h00 à 16h00\nLe Jeudi : de 09h00 à 12h00\nLe Vendredi : de 09h00 à 12h00 de 14h00 à 17h00","latitude":43.704086,"longitude":5.655983,"website":"https://beaumontdepertuis.fr/","hasWebsite":true,"hasHoraires":true,"url":"https://lannuaire.service-public.gouv.fr/provence-alpes-cote-d-azur/vaucluse/9f56e25a-320a-4616-998d-dcdaffad282a"}
{"nom":"Beaumont-du-Ventoux","nomNormalise":"beaumontduventoux","typeCollectivite":"Commune","region":"Provence-Alpes-Côte d'Azur","departement":"Vaucluse","departementCode":"84","adresse":{"street":"1 place de la Mairie","postalCode":"84340","city":"Beaumont-du-Ventoux","country":"France"},"contacts":{"email":"mairie@beaumont-du-ventoux.fr","telephone":"0490652113"},"horaires":"Le Mardi : de 13h30 à 17h30\nLe Mercredi : de 09h00 à 12h00\nDu Jeudi au Vendredi : de 13h30 à 17h30","latitude":44.184174,"longitude":5.166135,"website":"http://beaumontduventoux.fr/","hasWebsite":true,"hasHoraires":true,"url":"https://lannuaire.service-public.gouv.fr/provence-alpes-cote-d-azur/vaucluse/543947b1-a85f-4fb9-ab85-a1696de9d35e"}
{"nom":"Bédarrides","nomNormalise":"bedarrides","typeCollectivite":"Commune","region":"Provence-Alpes-Côte d'Azur","departement":"Vaucluse","departementCode":"84","adresse":{"street":"36 Grande rue Charles-de-Gaulle","postalCode":"84370","city":"Bédarrides","country":"France"},"contacts":{"email":"accueil@bedarrides.eu","telephone":"0490330148"},"horaires":"Du Lundi au Vendredi : de 08h30 à 12h00 de 13h00 à 16h30","latitude":44.0407,"longitude":4.89767,"website":"https://www.ville-bedarrides.com/","hasWebsite":true,"hasHoraires":true,"url":"https://lannuaire.service-public.gouv.fr/provence-alpes-cote-d-azur/vaucluse/413e6361-75eb-4878-bce5-37c3c3aab488"}
{"nom":"Bédoin","nomNormalise":"bedoin","typeCollectivite":"Commune","region":"Provence-Alpes-Côte d'Azur","departement":"Vaucluse","departementCode":"84","adresse":{"street":"301 avenue Barral-des-Baux","postalCode":"84410","city":"Bédoin","country":"France"},"contacts":{"email":"accueil@bedoin.fr","telephone":"0490656008"},"horaires":"Du Lundi au Mardi : de 08h00 à 12h00 de 13h30 à 17h30\nLe Mercredi : de 08h00 à 12h00\nDu Jeudi au Vendredi : de 08h00 à 12h00 de 13h30 à 17h30\nLe Samedi : de 08h30 à 12h00","latitude":44.1229,"longitude":5.18046,"website":"https://www.bedoin-mont-ventoux.fr/accueil.html","hasWebsite":true,"hasHoraires":true,"url":"https://lannuaire.service-public.gouv.fr/provence-alpes-cote-d-azur/vaucluse/d759524a-153f-4f0c-a5c5-4eafa88cfde6"}
{"nom":"Blauvac","nomNormalise":"blauvac","typeCollectivite":"Commune","region":"Provence-Alpes-Côte d'Azur","departement":"Vaucluse","departementCode":"84","adresse":{"street":"9 route de Saint-Estève","postalCode":"84570","city":"Blauvac","country":"France"},"contacts":{"email":"blauvac@wanadoo.fr","telephone":"0490618141"},"horaires":"Du Lundi au Mercredi : de 09h00 à 12h00\nLe Jeudi : de 09h00 à 12h00 de 13h00 à 17h00\nLe Vendredi : de 09h00 à 12h00","latitude":44.02965,"longitude":5.199343,"website":"https://www.blauvac.fr/","hasWebsite":true,"hasHoraires":true,"url":"https://lannuaire.service-public.gouv.fr/provence-alpes-cote-d-azur/vaucluse/ea1c2c85-d911-47b1-9931-4d1976a01fb0"}
{"nom":"Bollène","nomNormalise":"bollene","typeCollectivite":"Commune","region":"Provence-Alpes-Côte d'Azur","departement":"Vaucluse","departementCode":"84","adresse":{"street":"Place Reynaud-de-la-Gardette","postalCode":"84500","city":"Bollène","country":"France"},"contacts":{"email":"mairie@ville-bollene.fr","telephone":"0490405100"},"horaires":"Du Lundi au Vendredi : de 08h30 à 12h00 de 13h30 à 17h00","latitude":44.2801,"longitude":4.74831,"website":"https://ville-bollene.fr/fr/","hasWebsite":true,"hasHoraires":true,"url":"https://lannuaire.service-public.gouv.fr/provence-alpes-cote-d-azur/vaucluse/23b1ef9c-0db5-4ec9-95e0-4a1ee993862a"}
{"nom":"Bonnieux","nomNormalise":"bonnieux","typeCollectivite":"Commune","region":"Provence-Alpes-Côte d'Azur","departement":"Vaucluse","departementCode":"84","adresse":{"street":"3 rue Jean-Baptiste-Aurard","postalCode":"84480","city":"Bonnieux","country":"France"},"contacts":{"email":"mairie@bonnieux84.fr","telephone":"0490758006"},"horaires":"Du Lundi au Vendredi : de 09h15 à 12h15","latitude":43.823006,"longitude":5.306584,"website":"http://www.bonnieux84.fr/","hasWebsite":true,"hasHoraires":true,"url":"https://lannuaire.service-public.gouv.fr/provence-alpes-cote-d-azur/vaucluse/9a760e0b-ae71-4f62-a56d-6e9468677456"}
{"nom":"Brantes","nomNormalise":"brantes","typeCollectivite":"Commune","region":"Provence-Alpes-Côte d'Azur","departement":"Vaucluse","departementCode":"84","adresse":{"street":"Le village","postalCode":"84390","city":"Brantes","country":"France"},"contacts":{"email":"mairie.brantes@orange.fr","telephone":"0475280946"},"horaires":"Le Lundi : de 14h00 à 18h00\nLe Mercredi : de 08h00 à 12h00 de 14h00 à 18h00","latitude":44.19331,"longitude":5.334436,"website":"","hasWebsite":false,"hasHoraires":true,"url":"https://lannuaire.service-public.gouv.fr/provence-alpes-cote-d-azur/vaucluse/56273304-aa0b-4f75-b96c-92a0a65e1aa7"}
{"nom":"Buisson","nomNormalise":"buisson","typeCollectivite":"Commune","region":"Provence-Alpes-Côte d'Azur","departement":"Vaucluse","departementCode":"84","adresse":{"street":"23 rue de la Mairie","postalCode":"84110","city":"Buisson","country":"France"},"contacts":{"email":"accueil@mairie-buisson.com","telephone":"0490289020"},"horaires":"Le Lundi : de 08h00 à 12h00 de 14h00 à 17h00\nLe Jeudi : de 08h00 à 12h00 de 14h00 à 17h00","latitude":44.279926,"longitude":4.9978127,"website":"http://www.mairie-buisson.com/","hasWebsite":true,"hasHoraires":true,"url":"https://lannuaire.service-public.gouv.fr/provence-alpes-cote-d-azur/vaucluse/67297b07-1c33-476e-a250-947d6f8f80b3"}
{"nom":"Buoux","nomNormalise":"buoux","typeCollectivite":"Commune","region":"Provence-Alpes-Côte d'Azur","departement":"Vaucluse","departementCode":"84","adresse":{"street":"1 place de la Mairie","postalCode":"84480","city":"Buoux","country":"France"},"contacts":{"email":"mairiedebuoux@orange.fr","telephone":"0490743605"},"horaires":"Du Lundi au Jeudi : de 14h00 à 16h00","latitude":43.83133,"longitude":5.377775,"website":"","hasWebsite":false,"hasHoraires":true,"url":"https://lannuaire.service-public.gouv.fr/provence-alpes-cote-d-azur/vaucluse/4f8bfcf7-d6c0-4865-96a1-d5e6a7225e78"}
{"nom":"Cabrières-d'Aigues","nomNormalise":"cabrieresdaigues","typeCollectivite":"Commune","region":"Provence-Alpes-Côte d'Azur","departement":"Vaucluse","departementCode":"84","adresse":{"street":"1 place de l'Ormeau","postalCode":"84240","city":"Cabrières-d'Aigues","country":"France"},"contacts":{"email":"contact@cabrieresdaigues.com","telephone":"0490776184"},"horaires":"Du Lundi au Mardi : de 08h30 à 12h30 de 14h00 à 17h30\nLe Mercredi : de 08h30 à 12h30\nDu Jeudi au Vendredi : de 08h30 à 12h30 de 14h00 à 17h30","latitude":43.7846,"longitude":5.49777,"website":"http://www.cabrieresdaigues.com/","hasWebsite":true,"hasHoraires":true,"url":"https://lannuaire.service-public.gouv.fr/provence-alpes-cote-d-azur/vaucluse/96d51cba-c793-45da-a57c-c7b9ddd33107"}
{"nom":"Cabrières-d'Avignon","nomNormalise":"cabrieresdavignon","typeCollectivite":"Commune","region":"Provence-Alpes-Côte d'Azur","departement":"Vaucluse","departementCode":"84","adresse":{"street":"76 cours Jean-Giono","postalCode":"84220","city":"Cabrières-d'Avignon","country":"France"},"contacts":{"email":"mairie@cabrieresdavignon.fr","telephone":"0490769204"},"horaires":"Du Lundi au Vendredi : de 08h30 à 12h30 de 13h30 à 17h30","latitude":43.890377,"longitude":5.150506,"website":"https://www.cabrieresdavignon.fr/","hasWebsite":true,"hasHoraires":true,"url":"https://lannuaire.service-public.gouv.fr/provence-alpes-cote-d-azur/vaucluse/5adfab89-75e2-4d0c-9088-134bb227d292"}
{"nom":"Cadenet","nomNormalise":"cadenet","typeCollectivite":"Commune","region":"Provence-Alpes-Côte d'Azur","departement":"Vaucluse","departementCode":"84","adresse":{"street":"16 cours Voltaire","postalCode":"84160","city":"Cadenet","country":"France"},"contacts":{"email":"accueil@mairiecadenet.fr","telephone":"0490681326"},"horaires":"Le Lundi : de 08h30 à 12h00\nDu Mardi au Mercredi : de 08h30 à 12h00 de 13h30 à 17h00\nLe Jeudi : de 08h30 à 12h00\nLe Vendredi : de 08h30 à 12h00 de 13h30 à 17h00","latitude":43.736187,"longitude":5.3746333,"website":"https://www.mairie-cadenet.fr/","hasWebsite":true,"hasHoraires":true,"url":"https://lannuaire.service-public.gouv.fr/provence-alpes-cote-d-azur/vaucluse/cce73061-f62d-4c1a-9845-deeb42f1e2db"}
{"nom":"Caderousse","nomNormalise":"caderousse","typeCollectivite":"Commune","region":"Provence-Alpes-Côte d'Azur","departement":"Vaucluse","departementCode":"84","adresse":{"street":"Rue Berbiguier","postalCode":"84860","city":"Caderousse","country":"France"},"contacts":{"email":"contact@caderousse.fr","telephone":"0490519069"},"horaires":"Du Lundi au Jeudi : de 08h30 à 12h00 de 13h30 à 17h00\nLe Vendredi : de 08h30 à 12h00","latitude":44.1027,"longitude":4.75714,"website":"https://www.caderousse.fr/","hasWebsite":true,"hasHoraires":true,"url":"https://lannuaire.service-public.gouv.fr/provence-alpes-cote-d-azur/vaucluse/de53593f-4618-4e58-822d-370257a731e6"}
{"nom":"Cairanne","nomNormalise":"cairanne","typeCollectivite":"Commune","region":"Provence-Alpes-Côte d'Azur","departement":"Vaucluse","departementCode":"84","adresse":{"street":"40 avenue de la Libération","postalCode":"84290","city":"Cairanne","country":"France"},"contacts":{"email":"mairie@cairanne.fr","telephone":"0490308212"},"horaires":"Du Lundi au Mardi : de 08h00 à 12h00 de 13h30 à 17h30\nLe Mercredi : de 08h00 à 12h00\nLe Jeudi : de 08h00 à 12h00 de 13h30 à 17h30\nLe Vendredi : de 08h00 à 12h00\nLe Samedi : de 09h00 à 12h00","latitude":44.23005,"longitude":4.931378,"website":"http://www.cairanne.net/","hasWebsite":true,"hasHoraires":true,"url":"https://lannuaire.service-public.gouv.fr/provence-alpes-cote-d-azur/vaucluse/887fb37a-6c57-4a22-bc0a-4c119e0ac0e1"}
{"nom":"Camaret-sur-Aigues","nomNormalise":"camaretsuraigues","typeCollectivite":"Commune","region":"Provence-Alpes-Côte d'Azur","departement":"Vaucluse","departementCode":"84","adresse":{"street":"80 cours du Midi","postalCode":"84850","city":"Camaret-sur-Aigues","country":"France"},"contacts":{"email":"contact@camaret.org","telephone":"0490372260"},"horaires":"Du Lundi au Vendredi : de 08h00 à 12h00 de 13h00 à 17h00","latitude":44.16407,"longitude":4.873148,"website":"https://www.camaret.org/","hasWebsite":true,"hasHoraires":true,"url":"https://lannuaire.service-public.gouv.fr/provence-alpes-cote-d-azur/vaucluse/8fe46a00-4822-4608-a14f-d490967644b2"}
{"nom":"Caromb","nomNormalise":"caromb","typeCollectivite":"Commune","region":"Provence-Alpes-Côte d'Azur","departement":"Vaucluse","departementCode":"84","adresse":{"street":"141 avenue du Grand-Jardin","postalCode":"84330","city":"Caromb","country":"France"},"contacts":{"email":"contact@ville-caromb.fr","telephone":"0490624028"},"horaires":"Du Lundi au Vendredi : de 08h30 à 12h00 de 13h30 à 17h00","latitude":44.1112,"longitude":5.10618,"website":"https://www.ville-caromb.fr/accueil.html","hasWebsite":true,"hasHoraires":true,"url":"https://lannuaire.service-public.gouv.fr/provence-alpes-cote-d-azur/vaucluse/51f08569-f6c9-427b-864c-e5b8a20c13e2"}
{"nom":"Carpentras","nomNormalise":"carpentras","typeCollectivite":"Commune","region":"Provence-Alpes-Côte d'Azur","departement":"Vaucluse","departementCode":"84","adresse":{"street":"Place Maurice-Charretier","postalCode":"84200","city":"Carpentras","country":"France"},"contacts":{"email":"mairie@carpentras.fr","telephone":"0490608400"},"horaires":"Du Lundi au Vendredi : de 08h00 à 17h30\nLe Samedi : de 09h00 à 12h00\n\nAccueil ouvert pour l'état civil uniquement","latitude":44.055355,"longitude":5.0486174,"website":"https://www.carpentras.fr/accueil.html","hasWebsite":true,"hasHoraires":true,"url":"https://lannuaire.service-public.gouv.fr/provence-alpes-cote-d-azur/vaucluse/c1c29961-e256-49fd-b167-79e36ad709f9"}
{"nom":"Caseneuve","nomNormalise":"caseneuve","typeCollectivite":"Commune","region":"Provence-Alpes-Côte d'Azur","departement":"Vaucluse","departementCode":"84","adresse":{"street":"575 route de Saint-Martin de Castillon","postalCode":"84750","city":"Caseneuve","country":"France"},"contacts":{"email":"mairie84750@orange.fr","telephone":"0490752001"},"horaires":"Du Lundi au Mardi : de 08h00 à 12h00 de 13h30 à 17h00\nLe Mercredi : de 08h00 à 12h00\nLe Jeudi : de 08h00 à 12h00 de 13h30 à 17h00\nLe Vendredi : de 08h00 à 12h00","latitude":43.886993,"longitude":5.48381,"website":"http://www.caseneuve.fr/","hasWebsite":true,"hasHoraires":true,"url":"https://lannuaire.service-public.gouv.fr/provence-alpes-cote-d-azur/vaucluse/7e4b0644-0e7a-4d25-b095-36c58d5b24a2"}
{"nom":"Castellet-en-Luberon","nomNormalise":"castelletenluberon","typeCollectivite":"Commune","region":"Provence-Alpes-Côte d'Azur","departement":"Vaucluse","departementCode":"84","adresse":{"street":"1 avenue des Cyprès","postalCode":"84400","city":"Castellet-en-Luberon","country":"France"},"contacts":{"email":"mairie.castellet@wanadoo.fr","telephone":"0490752166"},"horaires":"Du Lundi au Mardi : de 15h00 à 17h00","latitude":43.83917,"longitude":5.477881,"website":"","hasWebsite":false,"hasHoraires":true,"url":"https://lannuaire.service-public.gouv.fr/provence-alpes-cote-d-azur/vaucluse/0f339594-21d4-49c1-9e7a-447189d677b7"}
{"nom":"Caumont-sur-Durance","nomNormalise":"caumontsurdurance","typeCollectivite":"Commune","region":"Provence-Alpes-Côte d'Azur","departement":"Vaucluse","departementCode":"84","adresse":{"street":"Place du 8-Mai-1945","postalCode":"84510","city":"Caumont-sur-Durance","country":"France"},"contacts":{"email":"mairie@caumont-sur-durance.fr","telephone":"0490012020"},"horaires":"Le Lundi : de 09h00 à 12h30 de 13h30 à 17h30\nDu Mardi au Vendredi : de 08h30 à 12h30 de 13h30 à 17h30","latitude":43.892868,"longitude":4.944563,"website":"https://www.caumont-sur-durance.fr/","hasWebsite":true,"hasHoraires":true,"url":"https://lannuaire.service-public.gouv.fr/provence-alpes-cote-d-azur/vaucluse/d47b5df5-cfd3-41e2-b35c-3fffba5b1d81"}
{"nom":"Cavaillon","nomNormalise":"cavaillon","typeCollectivite":"Commune","region":"Provence-Alpes-Côte d'Azur","departement":"Vaucluse","departementCode":"84","adresse":{"street":"Place Joseph-Guis","postalCode":"84300","city":"Cavaillon","country":"France"},"contacts":{"email":"accueil@ville-cavaillon.fr","telephone":"0490712418"},"horaires":"Du Lundi au Vendredi : de 08h30 à 12h00 de 13h30 à 17h30\nConsulter le site internet pour connaître les horaires des différents services.","latitude":43.835667,"longitude":5.037991,"website":"https://www.cavaillon.com/","hasWebsite":true,"hasHoraires":true,"url":"https://lannuaire.service-public.gouv.fr/provence-alpes-cote-d-azur/vaucluse/8d47d7f0-d13d-410f-baf7-3901bde06970"}
{"nom":"Châteauneuf-de-Gadagne","nomNormalise":"chateauneufdegadagne","typeCollectivite":"Commune","region":"Provence-Alpes-Côte d'Azur","departement":"Vaucluse","departementCode":"84","adresse":{"street":"1 place de la Pastière","postalCode":"84470","city":"Châteauneuf-de-Gadagne","country":"France"},"contacts":{"email":"contact@chateauneufdegadagne.com","telephone":"0490224110"},"horaires":"Du Lundi au Vendredi : de 08h00 à 12h00 de 13h00 à 16h30","latitude":43.927647,"longitude":4.9439993,"website":"http://www.chateauneufdegadagne.fr/","hasWebsite":true,"hasHoraires":true,"url":"https://lannuaire.service-public.gouv.fr/provence-alpes-cote-d-azur/vaucluse/ab21a76a-c42b-44b6-93c9-3f602d6428ca"}
{"nom":"Châteauneuf-du-Pape","nomNormalise":"chateauneufdupape","typeCollectivite":"Commune","region":"Provence-Alpes-Côte d'Azur","departement":"Vaucluse","departementCode":"84","adresse":{"street":"8 rue Joseph-Ducos","postalCode":"84232","city":"Châteauneuf-du-Pape Cedex","country":"France"},"contacts":{"email":"info@mairie.chateauneuf.com","telephone":"0490835757"},"horaires":"Du Lundi au Vendredi : de 08h30 à 12h00 de 13h30 à 17h00","latitude":44.0564,"longitude":4.83095,"website":"http://www.chateauneufdupape.org/","hasWebsite":true,"hasHoraires":true,"url":"https://lannuaire.service-public.gouv.fr/provence-alpes-cote-d-azur/vaucluse/989bbbd5-6476-4dd5-abab-955ba07aa355"}
{"nom":"Cheval-Blanc","nomNormalise":"chevalblanc","typeCollectivite":"Commune","region":"Provence-Alpes-Côte d'Azur","departement":"Vaucluse","departementCode":"84","adresse":{"street":"3 rue de l'Église","postalCode":"84460","city":"Cheval-Blanc","country":"France"},"contacts":{"email":"secretariat.maire@ville-chevalblanc.fr","telephone":"0490710117"},"horaires":"Du Lundi au Vendredi : de 08h30 à 12h30 de 13h30 à 17h30\nLe Samedi : de 08h30 à 12h00","latitude":43.800346,"longitude":5.063762,"website":"https://www.ville-chevalblanc.fr/","hasWebsite":true,"hasHoraires":true,"url":"https://lannuaire.service-public.gouv.fr/provence-alpes-cote-d-azur/vaucluse/5bf534e0-0639-466e-9e63-d5f742eb485f"}
{"nom":"Courthézon","nomNormalise":"courthezon","typeCollectivite":"Commune","region":"Provence-Alpes-Côte d'Azur","departement":"Vaucluse","departementCode":"84","adresse":{"street":"Château de Val-Seille","postalCode":"84350","city":"Courthézon","country":"France"},"contacts":{"email":"mairie@courthezon.fr","telephone":"0490707206"},"horaires":"Du Lundi au Vendredi : de 08h30 à 12h00 de 13h30 à 17h00","latitude":44.090214,"longitude":4.883183,"website":"https://www.courthezon.fr/","hasWebsite":true,"hasHoraires":true,"url":"https://lannuaire.service-public.gouv.fr/provence-alpes-cote-d-azur/vaucluse/daa50615-d0d2-4dad-b6bd-3e2fbe47b3ef"}
{"nom":"Crestet","nomNormalise":"crestet","typeCollectivite":"Commune","region":"Provence-Alpes-Côte d'Azur","departement":"Vaucluse","departementCode":"84","adresse":{"street":"1 chemin des Condamines","postalCode":"84110","city":"Crestet","country":"France"},"contacts":{"email":"secretariat@crestet.fr","telephone":"0490360672"},"horaires":"Le Lundi : de 08h15 à 12h00\nLe Mercredi : de 14h00 à 17h00\nLe Vendredi : de 08h15 à 12h00","latitude":44.220974,"longitude":5.0941653,"website":"http://www.crestet.fr/","hasWebsite":true,"hasHoraires":true,"url":"https://lannuaire.service-public.gouv.fr/provence-alpes-cote-d-azur/vaucluse/889867f2-3f1d-485c-9c88-1c0c0a540ef0"}
{"nom":"Crillon-le-Brave","nomNormalise":"crillonlebrave","typeCollectivite":"Commune","region":"Provence-Alpes-Côte d'Azur","departement":"Vaucluse","departementCode":"84","adresse":{"street":"1 rue de l'Église","postalCode":"84410","city":"Crillon-le-Brave","country":"France"},"contacts":{"email":"mairie.crillonlebrave@wanadoo.fr","telephone":"0490656061"},"horaires":"Du Lundi au Mardi : de 08h00 à 12h00 de 13h30 à 17h00\nLe Mercredi : de 08h00 à 12h00\nLe Jeudi : de 08h00 à 12h00 de 13h30 à 17h00\nLe Vendredi : de 08h00 à 12h00","latitude":44.1181,"longitude":5.14465,"website":"http://www.crillonlebrave.fr/","hasWebsite":true,"hasHoraires":true,"url":"https://lannuaire.service-public.gouv.fr/provence-alpes-cote-d-azur/vaucluse/faf31ac4-3f51-48f1-a53b-cee765a3332e"}
{"nom":"Cucuron","nomNormalise":"cucuron","typeCollectivite":"Commune","region":"Provence-Alpes-Côte d'Azur","departement":"Vaucluse","departementCode":"84","adresse":{"street":"31 rue Léonce-Brieugne","postalCode":"84160","city":"Cucuron","country":"France"},"contacts":{"email":"accueil@mairie-cucuron.fr","telephone":"0490772201"},"horaires":"Du Lundi au Jeudi : de 08h00 à 12h00 de 13h30 à 17h30\nLe Vendredi : de 08h00 à 12h00 de 13h30 à 16h30","latitude":43.77325,"longitude":5.4384985,"website":"http://www.cucuron.fr/","hasWebsite":true,"hasHoraires":true,"url":"https://lannuaire.service-public.gouv.fr/provence-alpes-cote-d-azur/vaucluse/31cac75b-fb70-4be1-ac8e-3d20acf66e45"}
{"nom":"Entraigues-sur-la-Sorgue","nomNormalise":"entraiguessurlasorgue","typeCollectivite":"Commune","region":"Provence-Alpes-Côte d'Azur","departement":"Vaucluse","departementCode":"84","adresse":{"street":"35 place du 8-Mai-1945","postalCode":"84320","city":"Entraigues-sur-la-Sorgue","country":"France"},"contacts":{"email":"contact@mairie-entraigues.fr","telephone":"0490831716"},"horaires":"Du Lundi au Vendredi : de 08h30 à 12h30 de 13h30 à 17h00\nLe Vendredi : de 08h30 à 12h30 de 13h30 à 16h30","latitude":44.0035,"longitude":4.9278,"website":"http://www.ville-entraigues84.fr/","hasWebsite":true,"hasHoraires":true,"url":"https://lannuaire.service-public.gouv.fr/provence-alpes-cote-d-azur/vaucluse/72f0914e-4e17-4301-b04c-329680ba4238"}
{"nom":"Entrechaux","nomNormalise":"entrechaux","typeCollectivite":"Commune","region":"Provence-Alpes-Côte d'Azur","departement":"Vaucluse","departementCode":"84","adresse":{"street":"1 place Paul-Guintrand","postalCode":"84340","city":"Entrechaux","country":"France"},"contacts":{"email":"mairie.entrechaux@orange.fr","telephone":"0490460011"},"horaires":"Du Lundi au Mardi : de 09h00 à 12h00\nLe Mercredi : de 09h00 à 12h00 de 14h00 à 17h00\nDu Jeudi au Vendredi : de 09h00 à 12h00","latitude":44.218014,"longitude":5.138202,"website":"http://www.entrechaux-en-provence.fr/","hasWebsite":true,"hasHoraires":true,"url":"https://lannuaire.service-public.gouv.fr/provence-alpes-cote-d-azur/vaucluse/92eba92b-61f6-42ef-8fbd-94032b92273c"}
{"nom":"Faucon","nomNormalise":"faucon","typeCollectivite":"Commune","region":"Provence-Alpes-Côte d'Azur","departement":"Vaucluse","departementCode":"84","adresse":{"street":"Rue du Maquis","postalCode":"84110","city":"Faucon","country":"France"},"contacts":{"email":"secretaire.faucon84@orange.fr","telephone":"0490464025"},"horaires":"Le Lundi : de 14h00 à 18h00\nLe Mercredi : de 08h30 à 12h30\nLe Vendredi : de 14h00 à 18h00","latitude":44.25992,"longitude":5.146397,"website":"https://www.mairiedefaucon.fr/","hasWebsite":true,"hasHoraires":true,"url":"https://lannuaire.service-public.gouv.fr/provence-alpes-cote-d-azur/vaucluse/d5dacc80-4053-4a0b-841c-af6512aa4ead"}
{"nom":"Flassan","nomNormalise":"flassan","typeCollectivite":"Commune","region":"Provence-Alpes-Côte d'Azur","departement":"Vaucluse","departementCode":"84","adresse":{"street":"2 place de la Mairie","postalCode":"84410","city":"Flassan","country":"France"},"contacts":{"email":"mairie@flassan.fr","telephone":"0490618122"},"horaires":"Du Lundi au Vendredi : de 09h00 à 12h00","latitude":44.098797,"longitude":5.242509,"website":"http://www.flassan.fr/","hasWebsite":true,"hasHoraires":true,"url":"https://lannuaire.service-public.gouv.fr/provence-alpes-cote-d-azur/vaucluse/435b3ebd-1286-4f3f-bace-67735bd44d2c"}
{"nom":"Fontaine-de-Vaucluse","nomNormalise":"fontainedevaucluse","typeCollectivite":"Commune","region":"Provence-Alpes-Côte d'Azur","departement":"Vaucluse","departementCode":"84","adresse":{"street":"1 place de la Colonne","postalCode":"84800","city":"Fontaine-de-Vaucluse","country":"France"},"contacts":{"email":"mairie@fontainedevaucluse.fr","telephone":"0490203179"},"horaires":"Du Lundi au Vendredi : de 09h00 à 12h00","latitude":43.922268,"longitude":5.127214,"website":"https://www.fontainedevaucluse.fr/","hasWebsite":true,"hasHoraires":true,"url":"https://lannuaire.service-public.gouv.fr/provence-alpes-cote-d-azur/vaucluse/0d870a1e-ee89-4357-99f9-6d70d0dc8a39"}
{"nom":"Gargas","nomNormalise":"gargas","typeCollectivite":"Commune","region":"Provence-Alpes-Côte d'Azur","departement":"Vaucluse","departementCode":"84","adresse":{"street":"4 place du Château","postalCode":"84400","city":"Gargas","country":"France"},"contacts":{"email":"info@gargas.fr","telephone":"0490741270"},"horaires":"Du Lundi au Mardi : de 08h30 à 12h00 de 14h00 à 17h30\nLe Jeudi : de 08h30 à 12h00 de 14h00 à 17h30\nLe Vendredi : de 08h30 à 12h00 de 14h00 à 17h00","latitude":43.90221,"longitude":5.358346,"website":"https://www.gargas.fr/","hasWebsite":true,"hasHoraires":true,"url":"https://lannuaire.service-public.gouv.fr/provence-alpes-cote-d-azur/vaucluse/f1d28ab1-d9a5-4794-83da-f1a4664e3304"}
{"nom":"Gignac","nomNormalise":"gignac","typeCollectivite":"Commune","region":"Provence-Alpes-Côte d'Azur","departement":"Vaucluse","departementCode":"84","adresse":{"street":"20 la Placeto","postalCode":"84400","city":"Gignac","country":"France"},"contacts":{"email":"mairiedegignac@orange.fr","telephone":"0490742074"},"horaires":"Le Lundi : de 14h30 à 17h00\nLe Mardi : de 13h30 à 16h00\nLe Jeudi : de 10h00 à 12h00","latitude":43.91921,"longitude":5.527389,"website":"","hasWebsite":false,"hasHoraires":true,"url":"https://lannuaire.service-public.gouv.fr/provence-alpes-cote-d-azur/vaucluse/7f018e6a-e41a-4b36-ab37-c3f3224f489a"}
{"nom":"Gigondas","nomNormalise":"gigondas","typeCollectivite":"Commune","region":"Provence-Alpes-Côte d'Azur","departement":"Vaucluse","departementCode":"84","adresse":{"street":"13 place Gabrielle-Andéol","postalCode":"84190","city":"Gigondas","country":"France"},"contacts":{"email":"administration@gigondas-mairie.fr","telephone":"0490658690"},"horaires":"Du Lundi au Jeudi : de 09h00 à 13h00\nLe Vendredi : de 09h00 à 12h30 de 13h30 à 16h00","latitude":44.163445,"longitude":5.004201,"website":"https://www.gigondas-dm.fr/","hasWebsite":true,"hasHoraires":true,"url":"https://lannuaire.service-public.gouv.fr/provence-alpes-cote-d-azur/vaucluse/929a8ed6-ed19-4a00-989c-6c06db149150"}
{"nom":"Gordes","nomNormalise":"gordes","typeCollectivite":"Commune","region":"Provence-Alpes-Côte d'Azur","departement":"Vaucluse","departementCode":"84","adresse":{"street":"1 place du Château","postalCode":"84220","city":"Gordes","country":"France"},"contacts":{"email":"secretariat@gordes-village.com","telephone":"0490720208"},"horaires":"Le Lundi : de 09h00 à 12h00 de 14h00 à 17h00\nLe Mardi : de 08h00 à 12h00 de 14h00 à 17h00\nLe Mercredi : de 08h00 à 12h00\nLe Jeudi : de 08h00 à 12h00 de 14h00 à 17h00\nLe Vendredi : de 08h00 à 12h00\nLe Samedi : de 09h00 à 12h00\n\nLe service urbanisme reçoit sur rendez-vous uniquement.","latitude":43.9112,"longitude":5.19988,"website":"https://www.gordes-village.com/","hasWebsite":true,"hasHoraires":true,"url":"https://lannuaire.service-public.gouv.fr/provence-alpes-cote-d-azur/vaucluse/844e91b5-895d-4d7c-99eb-2509ccb72449"}
{"nom":"Goult","nomNormalise":"goult","typeCollectivite":"Commune","region":"Provence-Alpes-Côte d'Azur","departement":"Vaucluse","departementCode":"84","adresse":{"street":"31 place Jean-Moulin","postalCode":"84220","city":"Goult","country":"France"},"contacts":{"email":"mairiedegoult@orange.fr","telephone":"0490722016"},"horaires":"Du Lundi au Mardi : de 08h00 à 12h00 de 14h00 à 16h00\nLe Mercredi : de 08h00 à 12h00\nLe Jeudi : de 08h00 à 12h00 de 14h00 à 16h00\nLe Vendredi : de 08h00 à 12h00\nLe Samedi : de 09h00 à 12h00","latitude":43.863674,"longitude":5.242289,"website":"http://www.goult.fr/","hasWebsite":true,"hasHoraires":true,"url":"https://lannuaire.service-public.gouv.fr/provence-alpes-cote-d-azur/vaucluse/997a8ff7-a667-4570-bd82-2b768279c1e9"}
{"nom":"Grambois","nomNormalise":"grambois","typeCollectivite":"Commune","region":"Provence-Alpes-Côte d'Azur","departement":"Vaucluse","departementCode":"84","adresse":{"street":"2 place de la Mairie","postalCode":"84240","city":"Grambois","country":"France"},"contacts":{"email":"accueilmairie@grambois.fr","telephone":"0490779113"},"horaires":"Le Lundi : de 09h00 à 12h00\nLe Mardi : de 09h00 à 12h00 de 14h00 à 16h00\nLe Mercredi : de 09h00 à 12h00\nDu Jeudi au Vendredi : de 09h00 à 12h00 de 14h00 à 16h00\nLe Samedi : de 09h00 à 12h00","latitude":43.7624,"longitude":5.58903,"website":"http://www.grambois.fr/","hasWebsite":true,"hasHoraires":true,"url":"https://lannuaire.service-public.gouv.fr/provence-alpes-cote-d-azur/vaucluse/db4644e2-2fd5-4482-b7b8-a82707a06e7b"}
{"nom":"Grillon","nomNormalise":"grillon","typeCollectivite":"Commune","region":"Provence-Alpes-Côte d'Azur","departement":"Vaucluse","departementCode":"84","adresse":{"street":"10 avenue du Comtat","postalCode":"84600","city":"Grillon","country":"France"},"contacts":{"email":"accueil@grillon84.fr","telephone":"0490350081"},"horaires":"Le Lundi : de 09h00 à 12h00 de 14h00 à 18h00\nLe Mardi : de 09h00 à 12h00 de 14h00 à 16h00\nLe Mercredi : de 09h00 à 12h00\nDu Jeudi au Vendredi : de 09h00 à 12h00 de 14h00 à 16h00","latitude":44.3938,"longitude":4.929757,"website":"https://www.grillon84.fr/","hasWebsite":true,"hasHoraires":true,"url":"https://lannuaire.service-public.gouv.fr/provence-alpes-cote-d-azur/vaucluse/5c581617-dac1-45ca-a8d5-1fb0bde5c123"}
{"nom":"Jonquerettes","nomNormalise":"jonquerettes","typeCollectivite":"Commune","region":"Provence-Alpes-Côte d'Azur","departement":"Vaucluse","departementCode":"84","adresse":{"street":"6 impasse de l'Ancienne-École","postalCode":"84450","city":"Jonquerettes","country":"France"},"contacts":{"email":"mairie@jonquerettes.fr","telephone":"0490224269"},"horaires":"Du Lundi au Mercredi : de 08h30 à 12h30 de 14h00 à 16h30\nLe Jeudi : de 08h30 à 12h30\nLe Vendredi : de 08h30 à 12h30 de 14h00 à 16h30","latitude":43.94689,"longitude":4.933003,"website":"https://www.jonquerettes.fr/","hasWebsite":true,"hasHoraires":true,"url":"https://lannuaire.service-public.gouv.fr/provence-alpes-cote-d-azur/vaucluse/c3d069cb-bdbe-42ab-bfdb-019bcd090c11"}
{"nom":"Jonquières","nomNormalise":"jonquieres","typeCollectivite":"Commune","region":"Provence-Alpes-Côte d'Azur","departement":"Vaucluse","departementCode":"84","adresse":{"street":"Avenue de la Libération","postalCode":"84150","city":"Jonquières","country":"France"},"contacts":{"email":"mairie@jonquieres.fr","telephone":"0490705900"},"horaires":"Du Lundi au Jeudi : de 08h00 à 12h00 de 13h30 à 16h45\nLe Vendredi : de 08h00 à 12h00 de 13h30 à 16h00","latitude":44.11569,"longitude":4.8960156,"website":"http://www.jonquieres.fr/","hasWebsite":true,"hasHoraires":true,"url":"https://lannuaire.service-public.gouv.fr/provence-alpes-cote-d-azur/vaucluse/d4d1ebc1-baab-4185-924c-1919182f2680"}
{"nom":"Joucas","nomNormalise":"joucas","typeCollectivite":"Commune","region":"Provence-Alpes-Côte d'Azur","departement":"Vaucluse","departementCode":"84","adresse":{"street":"1 place de la Mairie","postalCode":"84220","city":"Joucas","country":"France"},"contacts":{"email":"contact@joucas.fr","telephone":"0490057800"},"horaires":"Du Lundi au Vendredi : de 09h00 à 12h30\nLe Samedi : de 10h00 à 11h30","latitude":43.92554,"longitude":5.251895,"website":"https://www.joucas.fr/","hasWebsite":true,"hasHoraires":true,"url":"https://lannuaire.service-public.gouv.fr/provence-alpes-cote-d-azur/vaucluse/80b7cee6-2e67-49f5-b5bf-22768e8bb0c4"}
{"nom":"L'Isle-sur-la-Sorgue","nomNormalise":"lislesurlasorgue","typeCollectivite":"Commune","region":"Provence-Alpes-Côte d'Azur","departement":"Vaucluse","departementCode":"84","adresse":{"street":"Rue Carnot","postalCode":"84801","city":"L'Isle-sur-la-Sorgue Cedex","country":"France"},"contacts":{"email":"contact@islesurlasorgue.fr","telephone":"0490380645"},"horaires":"Du Lundi au Vendredi : de 08h30 à 12h30 de 13h30 à 17h30\nLe Samedi : de 09h00 à 12h00\n\nAccueil ouvert uniquement le troisième samedi du mois et fermé en juillet-août.","latitude":43.91899,"longitude":5.0503817,"website":"https://www.islesurlasorgue.fr/","hasWebsite":true,"hasHoraires":true,"url":"https://lannuaire.service-public.gouv.fr/provence-alpes-cote-d-azur/vaucluse/aae23151-8537-4d70-a992-e1b9fc64c2df"}
{"nom":"La Bastide-des-Jourdans","nomNormalise":"labastidedesjourdans","typeCollectivite":"Commune","region":"Provence-Alpes-Côte d'Azur","departement":"Vaucluse","departementCode":"84","adresse":{"street":"1 place de la République","postalCode":"84240","city":"La Bastide-des-Jourdans","country":"France"},"contacts":{"email":"mairie@bastidedesjourdans.com","telephone":"0490778104"},"horaires":"Du Lundi au Jeudi : de 08h00 à 12h00 de 13h30 à 17h00\nLe Vendredi : de 08h00 à 12h00 de 13h30 à 16h30","latitude":43.785324,"longitude":5.6338234,"website":"https://bastidedesjourdans.com/","hasWebsite":true,"hasHoraires":true,"url":"https://lannuaire.service-public.gouv.fr/provence-alpes-cote-d-azur/vaucluse/1fb120ce-5927-43f3-8ff3-b761348f4602"}
{"nom":"La Bastidonne","nomNormalise":"labastidonne","typeCollectivite":"Commune","region":"Provence-Alpes-Côte d'Azur","departement":"Vaucluse","departementCode":"84","adresse":{"street":"17A rue des Ferrages","postalCode":"84120","city":"La Bastidonne","country":"France"},"contacts":{"email":"mairie@la-bastidonne.fr","telephone":"0490096395"},"horaires":"Du Lundi au Mardi : de 08h30 à 12h15 de 13h30 à 16h30\nLe Vendredi : de 08h30 à 12h15 de 13h30 à 16h30","latitude":43.700203,"longitude":5.567777,"website":"https://labastidonne.fr/","hasWebsite":true,"hasHoraires":true,"url":"https://lannuaire.service-public.gouv.fr/provence-alpes-cote-d-azur/vaucluse/ad50007d-2949-49c3-9cea-9dee946432ad"}
{"nom":"Lacoste","nomNormalise":"lacoste","typeCollectivite":"Commune","region":"Provence-Alpes-Côte d'Azur","departement":"Vaucluse","departementCode":"84","adresse":{"street":"27 place de la Mairie","postalCode":"84480","city":"Lacoste","country":"France"},"contacts":{"email":"mairie@lacoste-84.com","telephone":"0490758204"},"horaires":"Du Lundi au Mardi : de 13h00 à 17h00\nDu Jeudi au Vendredi : de 13h00 à 17h00","latitude":43.831528,"longitude":5.272978,"website":"http://www.lacoste-84.com/","hasWebsite":true,"hasHoraires":true,"url":"https://lannuaire.service-public.gouv.fr/provence-alpes-cote-d-azur/vaucluse/1f83c9a7-7afb-4e0e-9bae-5bb9082604a8"}
{"nom":"Lafare","nomNormalise":"lafare","typeCollectivite":"Commune","region":"Provence-Alpes-Côte d'Azur","departement":"Vaucluse","departementCode":"84","adresse":{"street":"1 allée du Grand-Jardin","postalCode":"84190","city":"Lafare","country":"France"},"contacts":{"email":"mairie.lafare@gmail.com","telephone":"0490629617"},"horaires":"Le Mardi : de 13h30 à 17h30\nLe Vendredi : de 09h00 à 12h00","latitude":44.146328,"longitude":5.051128,"website":"","hasWebsite":false,"hasHoraires":true,"url":"https://lannuaire.service-public.gouv.fr/provence-alpes-cote-d-azur/vaucluse/6dba68c8-b843-4fa2-8934-4dda1f8ac9b3"}
{"nom":"Lagarde-d'Apt","nomNormalise":"lagardedapt","typeCollectivite":"Commune","region":"Provence-Alpes-Côte d'Azur","departement":"Vaucluse","departementCode":"84","adresse":{"street":"Le Village","postalCode":"84400","city":"Lagarde-d'Apt","country":"France"},"contacts":{"email":"mairiedelagardedapt@orange.fr","telephone":"0490750093"},"horaires":"Le Lundi : de 09h00 à 17h00","latitude":43.98358,"longitude":5.472964,"website":"","hasWebsite":false,"hasHoraires":true,"url":"https://lannuaire.service-public.gouv.fr/provence-alpes-cote-d-azur/vaucluse/fc099270-58ea-45ce-8fc8-474b6961df62"}
{"nom":"Lagarde-Paréol","nomNormalise":"lagardepareol","typeCollectivite":"Commune","region":"Provence-Alpes-Côte d'Azur","departement":"Vaucluse","departementCode":"84","adresse":{"street":"57 rue de la Mairie","postalCode":"84290","city":"Lagarde-Paréol","country":"France"},"contacts":{"email":"mairie@lagardepareol.fr","telephone":"0490308191"},"horaires":"Du Lundi au Mardi : de 08h30 à 13h00\nLe Mercredi : de 08h30 à 12h00\nDu Jeudi au Vendredi : de 08h30 à 13h00","latitude":44.228428,"longitude":4.850824,"website":"https://www.lagardepareol.fr/","hasWebsite":true,"hasHoraires":true,"url":"https://lannuaire.service-public.gouv.fr/provence-alpes-cote-d-azur/vaucluse/0bfaa4f2-c47a-4ec7-9960-d00de7720666"}
{"nom":"Lagnes","nomNormalise":"lagnes","typeCollectivite":"Commune","region":"Provence-Alpes-Côte d'Azur","departement":"Vaucluse","departementCode":"84","adresse":{"street":"248 rue de la République","postalCode":"84800","city":"Lagnes","country":"France"},"contacts":{"email":"accueil@lagnes.fr","telephone":"0490203019"},"horaires":"Du Lundi au Vendredi : de 08h00 à 12h00","latitude":43.8926,"longitude":5.11433,"website":"http://www.lagnes.fr/","hasWebsite":true,"hasHoraires":true,"url":"https://lannuaire.service-public.gouv.fr/provence-alpes-cote-d-azur/vaucluse/0f843f80-7146-4a35-a279-d61d024cc1cb"}
{"nom":"La Motte-d'Aigues","nomNormalise":"lamottedaigues","typeCollectivite":"Commune","region":"Provence-Alpes-Côte d'Azur","departement":"Vaucluse","departementCode":"84","adresse":{"street":"Parc Reybaud","postalCode":"84240","city":"La Motte-d'Aigues","country":"France"},"contacts":{"email":"mairie-lamotte.accueil@wanadoo.fr","telephone":"0490776209"},"horaires":"Du Lundi au Jeudi : de 08h00 à 12h00 de 13h00 à 17h00\nLe Vendredi : de 08h00 à 12h00","latitude":43.773006,"longitude":5.521645,"website":"https://www.lamottedaigues.fr/","hasWebsite":true,"hasHoraires":true,"url":"https://lannuaire.service-public.gouv.fr/provence-alpes-cote-d-azur/vaucluse/0832bdb9-313d-4974-96b3-562b845f40f7"}
{"nom":"Lamotte-du-Rhone","nomNormalise":"lamottedurhone","typeCollectivite":"Commune","region":"Provence-Alpes-Côte d'Azur","departement":"Vaucluse","departementCode":"84","adresse":{"street":"100 place de la Liberté","postalCode":"84840","city":"Lamotte-du-Rhone","country":"France"},"contacts":{"email":"mairie-lamotte2@orange.fr","telephone":"0490302032"},"horaires":"Du Lundi au Vendredi : de 13h30 à 17h30","latitude":44.26494,"longitude":4.6804934,"website":"https://www.lamottedurhone.com/","hasWebsite":true,"hasHoraires":true,"url":"https://lannuaire.service-public.gouv.fr/provence-alpes-cote-d-azur/vaucluse/6a1b4f2b-5835-4ef1-b0e4-e64d80c1bfe7"}
{"nom":"Lapalud","nomNormalise":"lapalud","typeCollectivite":"Commune","region":"Provence-Alpes-Côte d'Azur","departement":"Vaucluse","departementCode":"84","adresse":{"street":"35 cours des Platanes","postalCode":"84840","city":"Lapalud","country":"France"},"contacts":{"email":"accueil@lapalud.net","telephone":"0490403073"},"horaires":"Du Lundi au Vendredi : de 08h30 à 12h00 de 13h30 à 17h30","latitude":44.305,"longitude":4.68765,"website":"http://www.mairie-lapalud.fr/","hasWebsite":true,"hasHoraires":true,"url":"https://lannuaire.service-public.gouv.fr/provence-alpes-cote-d-azur/vaucluse/b49632f2-0bea-4156-b418-9d246e59366c"}
{"nom":"La Roque-Alric","nomNormalise":"laroquealric","typeCollectivite":"Commune","region":"Provence-Alpes-Côte d'Azur","departement":"Vaucluse","departementCode":"84","adresse":{"street":"1 rue de la Mairie","postalCode":"84190","city":"La Roque-Alric","country":"France"},"contacts":{"email":"mairie@laroquealric.fr","telephone":"0490629671"},"horaires":"Le Lundi : de 08h30 à 12h00 de 13h30 à 16h00\nLe Mercredi : de 08h30 à 12h00","latitude":44.143917,"longitude":5.064176,"website":"https://www.laroquealric.fr/","hasWebsite":true,"hasHoraires":true,"url":"https://lannuaire.service-public.gouv.fr/provence-alpes-cote-d-azur/vaucluse/f47b2fdd-59e3-4ef0-b967-c6b983790a4a"}
{"nom":"La Roque-sur-Pernes","nomNormalise":"laroquesurpernes","typeCollectivite":"Commune","region":"Provence-Alpes-Côte d'Azur","departement":"Vaucluse","departementCode":"84","adresse":{"street":"24 rue Eugène-Imbert","postalCode":"84210","city":"La Roque-sur-Pernes","country":"France"},"contacts":{"email":"accueil@mairie-laroque-pernes.fr","telephone":"0490665333"},"horaires":"Le Lundi : de 08h00 à 12h00\nLe Mercredi : de 08h00 à 12h00\nLe Vendredi : de 08h00 à 12h00","latitude":43.97898,"longitude":5.107173,"website":"","hasWebsite":false,"hasHoraires":true,"url":"https://lannuaire.service-public.gouv.fr/provence-alpes-cote-d-azur/vaucluse/229f9c94-bd91-40f6-864d-f5d821ffb23e"}
{"nom":"La Tour-d'Aigues","nomNormalise":"latourdaigues","typeCollectivite":"Commune","region":"Provence-Alpes-Côte d'Azur","departement":"Vaucluse","departementCode":"84","adresse":{"street":"Place de l'Église","postalCode":"84240","city":"La Tour-d'Aigues","country":"France"},"contacts":{"email":"accueil.mairie@latourdaigues.fr","telephone":"0490074108"},"horaires":"Du Lundi au Vendredi : de 08h30 à 12h00 de 14h00 à 18h00\nLe Samedi : de 09h00 à 11h00\n\nPermanence état civil uniquement.","latitude":43.725513,"longitude":5.548366,"website":"https://www.latourdaigues.fr/","hasWebsite":true,"hasHoraires":true,"url":"https://lannuaire.service-public.gouv.fr/provence-alpes-cote-d-azur/vaucluse/d2d24ce0-9b9a-444b-b028-fce0dd2e058f"}
{"nom":"Lauris","nomNormalise":"lauris","typeCollectivite":"Commune","region":"Provence-Alpes-Côte d'Azur","departement":"Vaucluse","departementCode":"84","adresse":{"street":"Place Joseph-Garnier","postalCode":"84360","city":"Lauris","country":"France"},"contacts":{"email":"contact.mairie@lauris.fr","telephone":"0490082001"},"horaires":"Du Lundi au Vendredi : de 08h30 à 12h00","latitude":43.7472,"longitude":5.31509,"website":"https://www.lauris.fr/","hasWebsite":true,"hasHoraires":true,"url":"https://lannuaire.service-public.gouv.fr/provence-alpes-cote-d-azur/vaucluse/70061a97-7996-48a8-adc4-7b37842daee3"}
{"nom":"Le Barroux","nomNormalise":"lebarroux","typeCollectivite":"Commune","region":"Provence-Alpes-Côte d'Azur","departement":"Vaucluse","departementCode":"84","adresse":{"street":"146 Rue des Ecoles","postalCode":"84330","city":"Le Barroux","country":"France"},"contacts":{"email":"mairie@lebarroux.fr","telephone":"0490624311"},"horaires":"Du Lundi au Mercredi : de 09h15 à 12h15 de 13h30 à 17h45","latitude":44.13514,"longitude":5.099648,"website":"https://www.lebarroux.fr/accueil.html","hasWebsite":true,"hasHoraires":true,"url":"https://lannuaire.service-public.gouv.fr/provence-alpes-cote-d-azur/vaucluse/0a61a07d-2aba-429c-ae8d-cff919bc476b"}
{"nom":"Le Beaucet","nomNormalise":"lebeaucet","typeCollectivite":"Commune","region":"Provence-Alpes-Côte d'Azur","departement":"Vaucluse","departementCode":"84","adresse":{"street":"7 rue Coste-Chaude","postalCode":"84210","city":"Le Beaucet","country":"France"},"contacts":{"email":"mairie.beaucet@orange.fr","telephone":"0490660023"},"horaires":"Le Mardi : de 08h30 à 12h30\nLe Mercredi : de 08h30 à 15h00\nLe Vendredi : de 08h30 à 12h30","latitude":43.983463,"longitude":5.119532,"website":"https://www.lebeaucet.com/","hasWebsite":true,"hasHoraires":true,"url":"https://lannuaire.service-public.gouv.fr/provence-alpes-cote-d-azur/vaucluse/e45231f5-9d54-4962-a095-a0e68316cf75"}
{"nom":"Le Pontet","nomNormalise":"lepontet","typeCollectivite":"Commune","region":"Provence-Alpes-Côte d'Azur","departement":"Vaucluse","departementCode":"84","adresse":{"street":"13 rue de l'Hôtel-de-Ville","postalCode":"84134","city":"Le Pontet Cedex","country":"France"},"contacts":{"email":"communication@mairie-lepontet.fr","telephone":"0490316600"},"horaires":"Du Lundi au Vendredi : de 08h15 à 12h00 de 13h15 à 17h00\nLe Samedi : de 09h00 à 12h00\n\nPermanence état civil et service population uniquement.","latitude":43.96054,"longitude":4.864863,"website":"https://www.ville-lepontet.com/","hasWebsite":true,"hasHoraires":true,"url":"https://lannuaire.service-public.gouv.fr/provence-alpes-cote-d-azur/vaucluse/4f7f6c7d-b63c-4597-84b0-63594ce7fd58"}
{"nom":"Les Beaumettes","nomNormalise":"lesbeaumettes","typeCollectivite":"Commune","region":"Provence-Alpes-Côte d'Azur","departement":"Vaucluse","departementCode":"84","adresse":{"street":"1 place de la Mairie","postalCode":"84220","city":"Les Beaumettes","country":"France"},"contacts":{"email":"mairie.lesbeaumettes@orange.fr","telephone":"0490722260"},"horaires":"Le Mardi : de 08h00 à 12h00 de 13h30 à 18h00\nLe Vendredi : de 08h00 à 12h00 de 13h30 à 17h00","latitude":43.8582,"longitude":5.202502,"website":"","hasWebsite":false,"hasHoraires":true,"url":"https://lannuaire.service-public.gouv.fr/provence-alpes-cote-d-azur/vaucluse/d52a38de-147f-4fbb-994f-88b34311c370"}
{"nom":"Les Taillades","nomNormalise":"lestaillades","typeCollectivite":"Commune","region":"Provence-Alpes-Côte d'Azur","departement":"Vaucluse","departementCode":"84","adresse":{"street":"Place de la Mairie","postalCode":"84300","city":"Les Taillades","country":"France"},"contacts":{"email":"accueil@lestaillades.fr","telephone":"0490710998"},"horaires":"Du Lundi au Mardi : de 08h30 à 12h30 de 13h30 à 17h15\nLe Mercredi : de 08h30 à 12h30\nLe Jeudi : de 08h30 à 12h30 de 13h30 à 17h15\nLe Vendredi : de 08h30 à 12h30","latitude":43.8336,"longitude":5.09335,"website":"https://www.lestaillades.fr/","hasWebsite":true,"hasHoraires":true,"url":"https://lannuaire.service-public.gouv.fr/provence-alpes-cote-d-azur/vaucluse/cbde2de5-07c2-4940-9de5-9430153a502d"}
{"nom":"Le Thor","nomNormalise":"lethor","typeCollectivite":"Commune","region":"Provence-Alpes-Côte d'Azur","departement":"Vaucluse","departementCode":"84","adresse":{"street":"190 cours Gambetta","postalCode":"84250","city":"Le Thor","country":"France"},"contacts":{"email":"mairie@ville-lethor.fr","telephone":"0490339184"},"horaires":"Du Lundi au Vendredi : de 08h30 à 12h00 de 13h30 à 17h00","latitude":43.9277,"longitude":4.99296,"website":"https://www.ville-lethor.fr/","hasWebsite":true,"hasHoraires":true,"url":"https://lannuaire.service-public.gouv.fr/provence-alpes-cote-d-azur/vaucluse/22134e3d-eac5-4e1e-98e9-0732c0cebd41"}
{"nom":"Lioux","nomNormalise":"lioux","typeCollectivite":"Commune","region":"Provence-Alpes-Côte d'Azur","departement":"Vaucluse","departementCode":"84","adresse":{"street":"Le Village","postalCode":"84220","city":"Lioux","country":"France"},"contacts":{"email":"mairie.lioux@wanadoo.fr","telephone":"0490056164"},"horaires":"Le Lundi : de 09h00 à 12h00 de 14h00 à 17h00\nLe Jeudi : de 09h00 à 12h00 de 14h00 à 17h00\nLe Vendredi : de 14h00 à 18h00\n\nPermanence du maire également.\nAccueil ouvert uniquement sur rendez-vous.","latitude":43.946033,"longitude":5.301366,"website":"","hasWebsite":false,"hasHoraires":true,"url":"https://lannuaire.service-public.gouv.fr/provence-alpes-cote-d-azur/vaucluse/088685f7-de42-4846-ac7e-a4d4fc6cd902"}
{"nom":"Loriol-du-Comtat","nomNormalise":"loriolducomtat","typeCollectivite":"Commune","region":"Provence-Alpes-Côte d'Azur","departement":"Vaucluse","departementCode":"84","adresse":{"street":"Place de l'Hôtel-de-Ville","postalCode":"84870","city":"Loriol-du-Comtat","country":"France"},"contacts":{"email":"mairie@loriolducomtat.fr","telephone":"0490129110"},"horaires":"Du Lundi au Mardi : de 08h30 à 17h30\nLe Mercredi : de 08h30 à 12h00 de 13h30 à 17h30\nLe Jeudi : de 08h30 à 17h30\nLe Vendredi : de 08h30 à 16h30","latitude":44.07639,"longitude":5.00188,"website":"https://www.loriolducomtat.fr/","hasWebsite":true,"hasHoraires":true,"url":"https://lannuaire.service-public.gouv.fr/provence-alpes-cote-d-azur/vaucluse/19620bb4-7424-4275-ac0d-15f0ec10d915"}
{"nom":"Lourmarin","nomNormalise":"lourmarin","typeCollectivite":"Commune","region":"Provence-Alpes-Côte d'Azur","departement":"Vaucluse","departementCode":"84","adresse":{"street":"21 rue Henri-de-Savornin","postalCode":"84160","city":"Lourmarin","country":"France"},"contacts":{"email":"mairie@lourmarin.com","telephone":"0490680413"},"horaires":"Le Lundi : de 09h00 à 12h00\nLe Mardi : de 09h00 à 12h00 de 14h00 à 17h00\nLe Mercredi : de 09h00 à 12h00\nLe Jeudi : de 09h00 à 12h00 de 14h00 à 17h00\nLe Vendredi : de 09h00 à 12h00","latitude":43.7631,"longitude":5.363,"website":"http://www.lourmarin.com/","hasWebsite":true,"hasHoraires":true,"url":"https://lannuaire.service-public.gouv.fr/provence-alpes-cote-d-azur/vaucluse/965df8c6-bc74-449f-975b-0cc026ecff38"}
{"nom":"Malaucène","nomNormalise":"malaucene","typeCollectivite":"Commune","region":"Provence-Alpes-Côte d'Azur","departement":"Vaucluse","departementCode":"84","adresse":{"street":"Cours des Isnards","postalCode":"84340","city":"Malaucène","country":"France"},"contacts":{"email":"mairie@malaucene.fr","telephone":"0490652017"},"horaires":"Du Lundi au Vendredi : de 08h30 à 12h00 de 13h30 à 17h00","latitude":44.175,"longitude":5.13216,"website":"https://www.malaucene.fr/","hasWebsite":true,"hasHoraires":true,"url":"https://lannuaire.service-public.gouv.fr/provence-alpes-cote-d-azur/vaucluse/755d1f61-4010-465b-aae0-e324d8983aa2"}
{"nom":"Malemort-du-Comtat","nomNormalise":"malemortducomtat","typeCollectivite":"Commune","region":"Provence-Alpes-Côte d'Azur","departement":"Vaucluse","departementCode":"84","adresse":{"street":"52 avenue du Docteur-Tondut","postalCode":"84570","city":"Malemort-du-Comtat","country":"France"},"contacts":{"email":"accueil-mairie@malemortducomtat.fr","telephone":"0490697111"},"horaires":"Du Lundi au Mardi : de 09h00 à 12h00 de 13h30 à 16h30\nLe Mercredi : de 09h00 à 12h00\nLe Vendredi : de 09h00 à 12h00 de 13h30 à 16h30","latitude":44.022,"longitude":5.15658,"website":"http://www.malemortducomtat.fr/","hasWebsite":true,"hasHoraires":true,"url":"https://lannuaire.service-public.gouv.fr/provence-alpes-cote-d-azur/vaucluse/36fae698-4ea5-40ae-a469-f153950feace"}
{"nom":"Maubec","nomNormalise":"maubec","typeCollectivite":"Commune","region":"Provence-Alpes-Côte d'Azur","departement":"Vaucluse","departementCode":"84","adresse":{"street":"450 Grande-Rue","postalCode":"84660","city":"Maubec","country":"France"},"contacts":{"email":"contact@mairiemaubec-luberon.fr","telephone":"0490769209"},"horaires":"Du Lundi au Samedi : de 08h30 à 12h15","latitude":43.84398,"longitude":5.140068,"website":"https://www.mairiemaubec-luberon.fr/","hasWebsite":true,"hasHoraires":true,"url":"https://lannuaire.service-public.gouv.fr/provence-alpes-cote-d-azur/vaucluse/f142e08a-2ac9-4553-9eca-08f98bdfdad4"}
{"nom":"Mazan","nomNormalise":"mazan","typeCollectivite":"Commune","region":"Provence-Alpes-Côte d'Azur","departement":"Vaucluse","departementCode":"84","adresse":{"street":"66 boulevard de la Tournelle","postalCode":"84380","city":"Mazan","country":"France"},"contacts":{"email":"contact@mazan.fr","telephone":"0490697019"},"horaires":"Le Lundi : de 08h30 à 12h00 de 13h30 à 17h00\nLe Mardi : de 08h30 à 12h00\nLe Mercredi : de 08h30 à 12h00 de 13h30 à 17h00\nLe Jeudi : de 08h30 à 12h00\nLe Vendredi : de 08h30 à 12h00 de 13h30 à 17h00","latitude":44.0564,"longitude":5.12625,"website":"https://www.mazan.fr/","hasWebsite":true,"hasHoraires":true,"url":"https://lannuaire.service-public.gouv.fr/provence-alpes-cote-d-azur/vaucluse/6b19e1f7-3f2e-4484-927e-4b82a0f37256"}
{"nom":"Ménerbes","nomNormalise":"menerbes","typeCollectivite":"Commune","region":"Provence-Alpes-Côte d'Azur","departement":"Vaucluse","departementCode":"84","adresse":{"street":"20 place de l'Horloge","postalCode":"84560","city":"Ménerbes","country":"France"},"contacts":{"email":"contact@menerbes.fr","telephone":"0490722205"},"horaires":"Le Mardi : de 09h00 à 12h00 de 14h00 à 17h00\nLe Mercredi : de 09h00 à 12h00\nDu Jeudi au Vendredi : de 09h00 à 12h00 de 14h00 à 17h00\nLe Samedi : de 09h00 à 12h00","latitude":43.834118,"longitude":5.203881,"website":"https://www.menerbes.fr/","hasWebsite":true,"hasHoraires":true,"url":"https://lannuaire.service-public.gouv.fr/provence-alpes-cote-d-azur/vaucluse/9d8cfbe3-30d3-475f-a62b-caf8aca0098c"}
{"nom":"Mérindol","nomNormalise":"merindol","typeCollectivite":"Commune","region":"Provence-Alpes-Côte d'Azur","departement":"Vaucluse","departementCode":"84","adresse":{"street":"Place de la Mairie","postalCode":"84360","city":"Mérindol","country":"France"},"contacts":{"email":"mairie@merindol.fr","telephone":"0490728107"},"horaires":"Le Lundi : de 08h30 à 12h30 de 14h00 à 16h30\nDu Mardi au Vendredi : de 08h30 à 12h30\nLe Samedi : de 10h00 à 12h00","latitude":43.7554,"longitude":5.20278,"website":"http://www.merindol.fr/","hasWebsite":true,"hasHoraires":true,"url":"https://lannuaire.service-public.gouv.fr/provence-alpes-cote-d-azur/vaucluse/f4ff8e62-ce7c-40e3-aff9-3ca761539fc1"}
{"nom":"Méthamis","nomNormalise":"methamis","typeCollectivite":"Commune","region":"Provence-Alpes-Côte d'Azur","departement":"Vaucluse","departementCode":"84","adresse":{"street":"Place de la Mairie","postalCode":"84570","city":"Méthamis","country":"France"},"contacts":{"email":"mairie@methamis.fr","telephone":"0490618102"},"horaires":"Du Lundi au Mardi : de 08h30 à 12h00\nDu Jeudi au Vendredi : de 08h30 à 12h00","latitude":44.015358,"longitude":5.224718,"website":"https://methamis.fr/","hasWebsite":true,"hasHoraires":true,"url":"https://lannuaire.service-public.gouv.fr/provence-alpes-cote-d-azur/vaucluse/edd180d0-7741-466e-82ca-203c85454ded"}
{"nom":"Mirabeau","nomNormalise":"mirabeau","typeCollectivite":"Commune","region":"Provence-Alpes-Côte d'Azur","departement":"Vaucluse","departementCode":"84","adresse":{"street":"8 rue de la Mairie","postalCode":"84120","city":"Mirabeau","country":"France"},"contacts":{"email":"mairiemirabeau@wanadoo.fr","telephone":"0490770004"},"horaires":"Le Lundi : de 08h30 à 12h00 de 13h30 à 17h00\nLe Mardi : de 08h30 à 12h00\nLe Mercredi : de 08h30 à 12h00 de 13h30 à 17h00\nLe Jeudi : de 08h30 à 12h00\nLe Vendredi : de 08h30 à 12h00 de 13h30 à 17h00\nLe Samedi : de 08h30 à 11h30","latitude":43.70439,"longitude":5.6561007,"website":"https://www.mirabeauenluberon.fr/","hasWebsite":true,"hasHoraires":true,"url":"https://lannuaire.service-public.gouv.fr/provence-alpes-cote-d-azur/vaucluse/15da8875-3361-48dd-9014-ed10e1f16e88"}
{"nom":"Modène","nomNormalise":"modene","typeCollectivite":"Commune","region":"Provence-Alpes-Côte d'Azur","departement":"Vaucluse","departementCode":"84","adresse":{"street":"31 rue Sainte-Catherine","postalCode":"84330","city":"Modène","country":"France"},"contacts":{"email":"secretariat@mairiedemodene.com","telephone":"0490624189"},"horaires":"Du Lundi au Mardi : de 09h00 à 12h00 de 14h00 à 17h00\nLe Mercredi : de 09h00 à 12h00\nDu Jeudi au Vendredi : de 09h00 à 12h00 de 14h00 à 17h00","latitude":44.101044,"longitude":5.1305203,"website":"https://www.mairiedemodene.com/","hasWebsite":true,"hasHoraires":true,"url":"https://lannuaire.service-public.gouv.fr/provence-alpes-cote-d-azur/vaucluse/a5701093-7482-43f1-8621-19825c557c54"}
{"nom":"Mondragon","nomNormalise":"mondragon","typeCollectivite":"Commune","region":"Provence-Alpes-Côte d'Azur","departement":"Vaucluse","departementCode":"84","adresse":{"street":"545 rue des Clastres","postalCode":"84430","city":"Mondragon","country":"France"},"contacts":{"email":"accueil@mondragon.fr","telephone":"0490408251"},"horaires":"Du Lundi au Jeudi : de 08h30 à 12h00 de 13h30 à 17h30\nLe Vendredi : de 08h30 à 12h00 de 13h30 à 17h00","latitude":44.236988,"longitude":4.711959,"website":"https://www.mondragon.fr/","hasWebsite":true,"hasHoraires":true,"url":"https://lannuaire.service-public.gouv.fr/provence-alpes-cote-d-azur/vaucluse/ebd89c48-f05a-4fd6-b930-902f3b97fa0b"}
{"nom":"Monieux","nomNormalise":"monieux","typeCollectivite":"Commune","region":"Provence-Alpes-Côte d'Azur","departement":"Vaucluse","departementCode":"84","adresse":{"street":"1 place Jean-Gabert","postalCode":"84390","city":"Monieux","country":"France"},"contacts":{"email":"mairie-de-monieux@orange.fr","telephone":"0490640309"},"horaires":"Du Lundi au Mardi : de 09h00 à 12h00 de 14h00 à 17h30\nLe Mercredi : de 09h00 à 12h00\nDu Jeudi au Vendredi : de 09h00 à 12h00 de 14h00 à 17h30","latitude":44.067947,"longitude":5.359538,"website":"https://www.monieux.fr/","hasWebsite":true,"hasHoraires":true,"url":"https://lannuaire.service-public.gouv.fr/provence-alpes-cote-d-azur/vaucluse/396ab718-168e-4e00-a5fc-9e4a7d34e773"}
{"nom":"Monteux","nomNormalise":"monteux","typeCollectivite":"Commune","region":"Provence-Alpes-Côte d'Azur","departement":"Vaucluse","departementCode":"84","adresse":{"street":"28 place des Droits-de-l'Homme","postalCode":"84170","city":"Monteux","country":"France"},"contacts":{"email":"ville.monteux@monteux.fr","telephone":"0490669700"},"horaires":"Du Lundi au Vendredi : de 08h30 à 12h15 de 13h45 à 17h30","latitude":44.0343,"longitude":4.99539,"website":"https://www.monteux.fr/","hasWebsite":true,"hasHoraires":true,"url":"https://lannuaire.service-public.gouv.fr/provence-alpes-cote-d-azur/vaucluse/13b2e7ee-5933-4008-8d7b-71884eaa7c9d"}
{"nom":"Morières-lès-Avignon","nomNormalise":"moriereslesavignon","typeCollectivite":"Commune","region":"Provence-Alpes-Côte d'Azur","departement":"Vaucluse","departementCode":"84","adresse":{"street":"53 rue Louis-Pasteur","postalCode":"84310","city":"Morières-lès-Avignon","country":"France"},"contacts":{"email":"contacts@morieres.fr","telephone":"0490838712"},"horaires":"Du Lundi au Vendredi : de 08h00 à 12h00 de 13h00 à 17h00","latitude":43.94249,"longitude":4.905278,"website":"https://www.ville-moriereslesavignon.fr/","hasWebsite":true,"hasHoraires":true,"url":"https://lannuaire.service-public.gouv.fr/provence-alpes-cote-d-azur/vaucluse/fad6a7a6-9b8d-4292-9d59-b762e7ff30e6"}
{"nom":"Mormoiron","nomNormalise":"mormoiron","typeCollectivite":"Commune","region":"Provence-Alpes-Côte d'Azur","departement":"Vaucluse","departementCode":"84","adresse":{"street":"9 place de la Mairie","postalCode":"84570","city":"Mormoiron","country":"France"},"contacts":{"email":"accueil@ville-mormoiron.fr","telephone":"0490618017"},"horaires":"Le Lundi : de 08h30 à 12h00\nDu Mardi au Vendredi : de 08h30 à 16h30\n\nFermeture à 15h30 en jullet-août","latitude":44.067688,"longitude":5.183815,"website":"http://www.mormoiron.com/","hasWebsite":true,"hasHoraires":true,"url":"https://lannuaire.service-public.gouv.fr/provence-alpes-cote-d-azur/vaucluse/9ced43f4-ff0a-47d2-bc76-10cb179023d8"}
{"nom":"Mornas","nomNormalise":"mornas","typeCollectivite":"Commune","region":"Provence-Alpes-Côte d'Azur","departement":"Vaucluse","departementCode":"84","adresse":{"street":"1 rue de la Mairie","postalCode":"84550","city":"Mornas","country":"France"},"contacts":{"email":"accueil@mairie-mornas.fr","telephone":"0490370097"},"horaires":"Du Lundi au Mardi : de 08h30 à 12h00 de 13h30 à 17h30\nLe Mercredi : de 08h30 à 12h00\nDu Jeudi au Vendredi : de 08h30 à 12h00 de 13h30 à 17h30","latitude":44.2034,"longitude":4.7277,"website":"https://www.mornas.fr/","hasWebsite":true,"hasHoraires":true,"url":"https://lannuaire.service-public.gouv.fr/provence-alpes-cote-d-azur/vaucluse/0f381bf8-8197-4b3d-8c57-d9f2864a49ba"}
{"nom":"Murs","nomNormalise":"murs","typeCollectivite":"Commune","region":"Provence-Alpes-Côte d'Azur","departement":"Vaucluse","departementCode":"84","adresse":{"street":"2 Grand'rue","postalCode":"84220","city":"Murs","country":"France"},"contacts":{"email":"accueil@communedemurs-vaucluse.fr","telephone":"0490726000"},"horaires":"Du Lundi au Mardi : de 09h00 à 12h00\nDu Jeudi au Samedi : de 09h00 à 12h00","latitude":43.951706,"longitude":5.241182,"website":"http://www.communedemurs-vaucluse.fr/","hasWebsite":true,"hasHoraires":true,"url":"https://lannuaire.service-public.gouv.fr/provence-alpes-cote-d-azur/vaucluse/e3bb7406-d838-4a16-bb41-a4317f29a7ee"}
{"nom":"Oppède","nomNormalise":"oppede","typeCollectivite":"Commune","region":"Provence-Alpes-Côte d'Azur","departement":"Vaucluse","departementCode":"84","adresse":{"street":"75 place Félix-Autard","postalCode":"84580","city":"Oppède","country":"France"},"contacts":{"email":"mairie@oppede.fr","telephone":"0490769006"},"horaires":"Du Mardi au Jeudi : de 09h00 à 12h00\nLe Vendredi : de 09h00 à 12h00 de 13h30 à 17h30","latitude":43.8433,"longitude":5.1678,"website":"http://www.oppede.fr/","hasWebsite":true,"hasHoraires":true,"url":"https://lannuaire.service-public.gouv.fr/provence-alpes-cote-d-azur/vaucluse/e2169f61-5333-418b-93c8-d9cfe0ae7979"}
{"nom":"Orange","nomNormalise":"orange","typeCollectivite":"Commune","region":"Provence-Alpes-Côte d'Azur","departement":"Vaucluse","departementCode":"84","adresse":{"street":"Place Georges-Clemenceau","postalCode":"84106","city":"Orange","country":"France"},"contacts":{"email":"accueil.guichet@ville-orange.fr","telephone":"0490514141"},"horaires":"Du Lundi au Jeudi : de 08h00 à 12h00 de 13h30 à 17h30\nLe Vendredi : de 08h00 à 12h00\nPour l'état civil : consulter le site internet.","latitude":44.1377,"longitude":4.80796,"website":"https://www.ville-orange.fr/","hasWebsite":true,"hasHoraires":true,"url":"https://lannuaire.service-public.gouv.fr/provence-alpes-cote-d-azur/vaucluse/310d47a3-06a2-4064-8c73-0aa605cbf858"}
{"nom":"Pernes-les-Fontaines","nomNormalise":"perneslesfontaines","typeCollectivite":"Commune","region":"Provence-Alpes-Côte d'Azur","departement":"Vaucluse","departementCode":"84","adresse":{"street":"Place Aristide-Briand","postalCode":"84210","city":"Pernes-les-Fontaines","country":"France"},"contacts":{"email":"contact@perneslesfontaines.fr","telephone":"0490614500"},"horaires":"Le Lundi : de 08h30 à 17h00\nLe Mardi : de 08h30 à 12h00 de 13h15 à 16h30\nLe Mercredi : de 08h30 à 17h00\nLe Jeudi : de 08h30 à 12h00 de 13h15 à 16h30\nLe Vendredi : de 08h30 à 16h30","latitude":43.9971,"longitude":5.06045,"website":"https://www.perneslesfontaines.fr/","hasWebsite":true,"hasHoraires":true,"url":"https://lannuaire.service-public.gouv.fr/provence-alpes-cote-d-azur/vaucluse/70a4e74d-5511-43ab-94b2-4bc3e7d19ef3"}
{"nom":"Pertuis","nomNormalise":"pertuis","typeCollectivite":"Commune","region":"Provence-Alpes-Côte d'Azur","departement":"Vaucluse","departementCode":"84","adresse":{"street":"Rue Voltaire","postalCode":"84120","city":"Pertuis","country":"France"},"contacts":{"email":"communication@mairie-pertuis.fr","telephone":"0490790274"},"horaires":"Du Lundi au Jeudi : de 08h00 à 12h00 de 13h30 à 17h30\nLe Vendredi : de 08h00 à 12h00 de 13h30 à 16h30","latitude":43.6914,"longitude":5.5015583,"website":"https://www.ville-pertuis.fr/","hasWebsite":true,"hasHoraires":true,"url":"https://lannuaire.service-public.gouv.fr/provence-alpes-cote-d-azur/vaucluse/fba2f768-6d90-4892-8e64-e2d5cd82defa"}
{"nom":"Peypin-d'Aigues","nomNormalise":"peypindaigues","typeCollectivite":"Commune","region":"Provence-Alpes-Côte d'Azur","departement":"Vaucluse","departementCode":"84","adresse":{"street":"15 Grande-Rue","postalCode":"84240","city":"Peypin-d'Aigues","country":"France"},"contacts":{"email":"mairie.peypin.aigues@orange.fr","telephone":"0490777601"},"horaires":"Du Lundi au Mardi : de 08h15 à 12h00 de 13h30 à 16h45\nDu Mercredi au Jeudi : de 08h15 à 12h00\nLe Vendredi : de 08h15 à 12h00 de 13h30 à 16h45","latitude":43.787506,"longitude":5.5695496,"website":"https://peypindaigues.fr/","hasWebsite":true,"hasHoraires":true,"url":"https://lannuaire.service-public.gouv.fr/provence-alpes-cote-d-azur/vaucluse/2144409a-414b-4f1c-891c-302e099bdc18"}
{"nom":"Piolenc","nomNormalise":"piolenc","typeCollectivite":"Commune","region":"Provence-Alpes-Côte d'Azur","departement":"Vaucluse","departementCode":"84","adresse":{"street":"6 rue Jean-Moulin","postalCode":"84420","city":"Piolenc","country":"France"},"contacts":{"email":"contact@mairie-piolenc.fr","telephone":"0490296366"},"horaires":"Du Lundi au Vendredi : de 08h00 à 12h00 de 14h00 à 18h00","latitude":44.1781,"longitude":4.76099,"website":"https://mairie-piolenc.fr/","hasWebsite":true,"hasHoraires":true,"url":"https://lannuaire.service-public.gouv.fr/provence-alpes-cote-d-azur/vaucluse/59c17b5c-8987-40ff-8997-539a55de658b"}
{"nom":"Puget-sur-Durance","nomNormalise":"pugetsurdurance","typeCollectivite":"Commune","region":"Provence-Alpes-Côte d'Azur","departement":"Vaucluse","departementCode":"84","adresse":{"street":"1 place du Portalas","postalCode":"84360","city":"Puget-sur-Durance","country":"France"},"contacts":{"email":"accueil@pugetsurdurance.fr","telephone":"0490082196"},"horaires":"Le Mardi : de 14h00 à 16h00\nLe Mercredi : de 09h00 à 12h00\nLe Jeudi : de 17h00 à 19h30\nLe Vendredi : de 09h00 à 12h00","latitude":43.75568,"longitude":5.269835,"website":"https://www.pugetsurdurance.fr/","hasWebsite":true,"hasHoraires":true,"url":"https://lannuaire.service-public.gouv.fr/provence-alpes-cote-d-azur/vaucluse/76bf9363-0dde-431a-b834-8bd34ced4a3a"}
{"nom":"Puyméras","nomNormalise":"puymeras","typeCollectivite":"Commune","region":"Provence-Alpes-Côte d'Azur","departement":"Vaucluse","departementCode":"84","adresse":{"street":"8 place de la Mairie","postalCode":"84110","city":"Puyméras","country":"France"},"contacts":{"email":"mairie.puymeras@gmail.com","telephone":"0490464090"},"horaires":"Du Lundi au Jeudi : de 09h00 à 12h00","latitude":44.27062,"longitude":5.128005,"website":"http://www.mairiepuymeras.com/","hasWebsite":true,"hasHoraires":true,"url":"https://lannuaire.service-public.gouv.fr/provence-alpes-cote-d-azur/vaucluse/505209dd-7039-44c1-822f-0fb11ef833c5"}
{"nom":"Puyvert","nomNormalise":"puyvert","typeCollectivite":"Commune","region":"Provence-Alpes-Côte d'Azur","departement":"Vaucluse","departementCode":"84","adresse":{"street":"4 rue des Écoles","postalCode":"84160","city":"Puyvert","country":"France"},"contacts":{"email":"mairie@puyvert.fr","telephone":"0490083824"},"horaires":"Du Lundi au Mardi : de 13h00 à 17h00\nDu Jeudi au Vendredi : de 13h00 à 17h00","latitude":43.7594,"longitude":5.34288,"website":"http://www.puyvert.fr/","hasWebsite":true,"hasHoraires":true,"url":"https://lannuaire.service-public.gouv.fr/provence-alpes-cote-d-azur/vaucluse/bf333302-31f7-4638-9a83-dd7d7dc93c05"}
{"nom":"Rasteau","nomNormalise":"rasteau","typeCollectivite":"Commune","region":"Provence-Alpes-Côte d'Azur","departement":"Vaucluse","departementCode":"84","adresse":{"street":"2 rue des Écoles","postalCode":"84110","city":"Rasteau","country":"France"},"contacts":{"email":"secretariatrasteau@orange.fr","telephone":"0490461047"},"horaires":"Du Lundi au Jeudi : de 08h00 à 12h00","latitude":44.284,"longitude":5.03414,"website":"http://www.rasteau.fr/","hasWebsite":true,"hasHoraires":true,"url":"https://lannuaire.service-public.gouv.fr/provence-alpes-cote-d-azur/vaucluse/1d9921b4-4179-46d4-9926-dc9ba982490b"}
{"nom":"Richerenches","nomNormalise":"richerenches","typeCollectivite":"Commune","region":"Provence-Alpes-Côte d'Azur","departement":"Vaucluse","departementCode":"84","adresse":{"street":"217 avenue de la Rabasse","postalCode":"84600","city":"Richerenches","country":"France"},"contacts":{"email":"mairie.richerenches@orange.fr","telephone":"0490280200"},"horaires":"Du Lundi au Mardi : de 13h30 à 17h30\nDu Jeudi au Vendredi : de 13h30 à 17h30","latitude":44.359913,"longitude":4.911684,"website":"http://www.richerenches-info-mairie.fr/","hasWebsite":true,"hasHoraires":true,"url":"https://lannuaire.service-public.gouv.fr/provence-alpes-cote-d-azur/vaucluse/f9921983-4229-439b-88a0-184351282d56"}
{"nom":"Roaix","nomNormalise":"roaix","typeCollectivite":"Commune","region":"Provence-Alpes-Côte d'Azur","departement":"Vaucluse","departementCode":"84","adresse":{"street":"617 route des Princes-d'Orange","postalCode":"84110","city":"Roaix","country":"France"},"contacts":{"email":"contact@mairie-roaix.fr","telephone":"0490461146"},"horaires":"Le Lundi : de 13h00 à 17h00\nLe Mercredi : de 08h30 à 11h30 de 13h00 à 17h00\nLe Vendredi : de 13h00 à 17h00","latitude":44.24889,"longitude":5.025755,"website":"","hasWebsite":false,"hasHoraires":true,"url":"https://lannuaire.service-public.gouv.fr/provence-alpes-cote-d-azur/vaucluse/2c35d786-5829-4a6b-9b74-f330255d7d17"}
{"nom":"Robion","nomNormalise":"robion","typeCollectivite":"Commune","region":"Provence-Alpes-Côte d'Azur","departement":"Vaucluse","departementCode":"84","adresse":{"street":"1 place Clément-Gros","postalCode":"84440","city":"Robion","country":"France"},"contacts":{"email":"accueil@mairie-robion.fr","telephone":"0490766044"},"horaires":"Du Lundi au Vendredi : de 09h00 à 12h30 de 13h30 à 17h30","latitude":43.84431,"longitude":5.112112,"website":"https://www.robion-mairie.com/","hasWebsite":true,"hasHoraires":true,"url":"https://lannuaire.service-public.gouv.fr/provence-alpes-cote-d-azur/vaucluse/d5b2c319-69d8-42e4-af08-122e4186c412"}
{"nom":"Roussillon","nomNormalise":"roussillon","typeCollectivite":"Commune","region":"Provence-Alpes-Côte d'Azur","departement":"Vaucluse","departementCode":"84","adresse":{"street":"2 place de la Mairie","postalCode":"84220","city":"Roussillon","country":"France"},"contacts":{"email":"accueil@roussillon-en-provence.fr","telephone":"0490056016"},"horaires":"Le Lundi : de 09h00 à 12h00\nLe Mardi : de 09h00 à 12h00 de 14h00 à 17h00\nLe Mercredi : de 09h00 à 12h00\nLe Jeudi : de 09h00 à 12h00 de 14h00 à 17h00\nLe Vendredi : de 09h00 à 12h00","latitude":43.902653,"longitude":5.2929997,"website":"https://www.roussillon-en-provence.fr/","hasWebsite":true,"hasHoraires":true,"url":"https://lannuaire.service-public.gouv.fr/provence-alpes-cote-d-azur/vaucluse/91327188-3e32-4840-a462-d89961948b1d"}
{"nom":"Rustrel","nomNormalise":"rustrel","typeCollectivite":"Commune","region":"Provence-Alpes-Côte d'Azur","departement":"Vaucluse","departementCode":"84","adresse":{"street":"Le Château","postalCode":"84400","city":"Rustrel","country":"France"},"contacts":{"email":"mairierustrel@orange.fr","telephone":"0490049109"},"horaires":"Du Lundi au Vendredi : de 09h00 à 12h00","latitude":43.9245,"longitude":5.48417,"website":"https://www.rustrel.fr/","hasWebsite":true,"hasHoraires":true,"url":"https://lannuaire.service-public.gouv.fr/provence-alpes-cote-d-azur/vaucluse/0d2f56c6-463a-4fed-9b0a-0715f33ddd2c"}
{"nom":"Sablet","nomNormalise":"sablet","typeCollectivite":"Commune","region":"Provence-Alpes-Côte d'Azur","departement":"Vaucluse","departementCode":"84","adresse":{"street":"38 route d'Orange","postalCode":"84110","city":"Sablet","country":"France"},"contacts":{"email":"accueil@sablet84110.fr","telephone":"0490469019"},"horaires":"Du Lundi au Vendredi : de 08h30 à 12h00","latitude":44.19492,"longitude":5.00647,"website":"https://sablet-provence.fr/","hasWebsite":true,"hasHoraires":true,"url":"https://lannuaire.service-public.gouv.fr/provence-alpes-cote-d-azur/vaucluse/20f152cd-e815-4bb3-ae31-a59560cecdcb"}
{"nom":"Saignon","nomNormalise":"saignon","typeCollectivite":"Commune","region":"Provence-Alpes-Côte d'Azur","departement":"Vaucluse","departementCode":"84","adresse":{"street":"26 place de l'Église","postalCode":"84400","city":"Saignon","country":"France"},"contacts":{"email":"mairie@saignon.fr","telephone":"0490741630"},"horaires":"Du Lundi au Vendredi : de 08h00 à 12h00","latitude":43.862446,"longitude":5.429802,"website":"https://saignon.fr/","hasWebsite":true,"hasHoraires":true,"url":"https://lannuaire.service-public.gouv.fr/provence-alpes-cote-d-azur/vaucluse/b51985d2-2167-4671-98f9-b2ea87c0d62b"}
{"nom":"Saint-Christol","nomNormalise":"saintchristol","typeCollectivite":"Commune","region":"Provence-Alpes-Côte d'Azur","departement":"Vaucluse","departementCode":"84","adresse":{"street":"1 place de la Mairie","postalCode":"84390","city":"Saint-Christol","country":"France"},"contacts":{"email":"mairie@mairie-saintchristol.fr","telephone":"0490750105"},"horaires":"Du Lundi au Mercredi : de 08h00 à 12h00 de 13h30 à 17h30\nLe Jeudi : de 08h00 à 12h00\nLe Vendredi : de 08h00 à 12h00 de 13h30 à 16h30","latitude":44.02798,"longitude":5.492804,"website":"http://www.mairie-saintchristol.fr/","hasWebsite":true,"hasHoraires":true,"url":"https://lannuaire.service-public.gouv.fr/provence-alpes-cote-d-azur/vaucluse/cd1b2b0d-7437-4ff5-adca-32a33c3fbd86"}
{"nom":"Saint-Didier","nomNormalise":"saintdidier","typeCollectivite":"Commune","region":"Provence-Alpes-Côte d'Azur","departement":"Vaucluse","departementCode":"84","adresse":{"street":"Hôtel de Ville","postalCode":"84210","city":"Saint-Didier","country":"France"},"contacts":{"email":"mairie@saint-didier84.fr","telephone":"0490660139"},"horaires":"Du Lundi au Vendredi : de 08h30 à 12h00 de 13h30 à 16h00\nLe Samedi : de 09h00 à 12h00","latitude":44.00541,"longitude":5.1107025,"website":"https://www.mairie-saint-didier.com/services-municipaux-saint-didier-84210","hasWebsite":true,"hasHoraires":true,"url":"https://lannuaire.service-public.gouv.fr/provence-alpes-cote-d-azur/vaucluse/a713f416-4712-48c7-ab4c-c037d75a1802"}
{"nom":"Sainte-Cécile-les-Vignes","nomNormalise":"saintececilelesvignes","typeCollectivite":"Commune","region":"Provence-Alpes-Côte d'Azur","departement":"Vaucluse","departementCode":"84","adresse":{"street":"Place Max-Aubert","postalCode":"84290","city":"Sainte-Cécile-les-Vignes","country":"France"},"contacts":{"email":"mairie@sainte-cecile.org","telephone":"0490308017"},"horaires":"Du Lundi au Mardi : de 08h00 à 12h00 de 13h30 à 17h00\nLe Mercredi : de 08h00 à 12h00\nDu Jeudi au Vendredi : de 08h00 à 12h00 de 13h30 à 17h00","latitude":44.244938,"longitude":4.8867702,"website":"https://www.sainte-cecile.org/","hasWebsite":true,"hasHoraires":true,"url":"https://lannuaire.service-public.gouv.fr/provence-alpes-cote-d-azur/vaucluse/65922c75-9564-4ce4-8f9f-72b451f1f173"}
{"nom":"Saint-Hippolyte-le-Graveyron","nomNormalise":"sainthippolytelegraveyron","typeCollectivite":"Commune","region":"Provence-Alpes-Côte d'Azur","departement":"Vaucluse","departementCode":"84","adresse":{"street":"1 route de Caromb","postalCode":"84330","city":"Saint-Hippolyte-le-Graveyron","country":"France"},"contacts":{"email":"mairiesainthippolytelegraveyron@wanadoo.fr","telephone":"0490624173"},"horaires":"Le Mardi : de 09h00 à 12h00\nLe Vendredi : de 09h00 à 12h00","latitude":44.121468,"longitude":5.075374,"website":"http://www.saint-hippolyte-le-graveyron.fr/","hasWebsite":true,"hasHoraires":true,"url":"https://lannuaire.service-public.gouv.fr/provence-alpes-cote-d-azur/vaucluse/e7d2c2b2-2803-4a47-8faf-f6deb7f01a64"}
{"nom":"Saint-Léger-du-Ventoux","nomNormalise":"saintlegerduventoux","typeCollectivite":"Commune","region":"Provence-Alpes-Côte d'Azur","departement":"Vaucluse","departementCode":"84","adresse":{"street":"26 Rue de la Mairie","postalCode":"84390","city":"Saint-Léger-du-Ventoux","country":"France"},"contacts":{"email":"mairie-st-leger-ventoux@orange.fr","telephone":"0475280227"},"horaires":"Le Mardi : de 09h00 à 11h30 de 14h00 à 17h30\nLe Jeudi : de 09h00 à 11h30 de 14h00 à 17h30","latitude":44.21171,"longitude":5.275729,"website":"","hasWebsite":false,"hasHoraires":true,"url":"https://lannuaire.service-public.gouv.fr/provence-alpes-cote-d-azur/vaucluse/3f7fc3e7-2cb8-4704-b27e-48f0f606bb43"}
{"nom":"Saint-Marcellin-lès-Vaison","nomNormalise":"saintmarcellinlesvaison","typeCollectivite":"Commune","region":"Provence-Alpes-Côte d'Azur","departement":"Vaucluse","departementCode":"84","adresse":{"street":"38 rue de la Magdelaine","postalCode":"84110","city":"Saint-Marcellin-lès-Vaison","country":"France"},"contacts":{"email":"st-marcellin-vaison1@orange.fr","telephone":"0979056046"},"horaires":"Le Mardi : de 09h00 à 13h00\nDu Jeudi au Vendredi : de 09h00 à 13h00","latitude":44.230698,"longitude":5.096376,"website":"https://st-marcellin-vaison.fr/","hasWebsite":true,"hasHoraires":true,"url":"https://lannuaire.service-public.gouv.fr/provence-alpes-cote-d-azur/vaucluse/0a479367-8084-4a1a-88f4-36efd23744e5"}
{"nom":"Saint-Martin-de-Castillon","nomNormalise":"saintmartindecastillon","typeCollectivite":"Commune","region":"Provence-Alpes-Côte d'Azur","departement":"Vaucluse","departementCode":"84","adresse":{"street":"Place de la Poste","postalCode":"84750","city":"Saint-Martin-de-Castillon","country":"France"},"contacts":{"email":"accueil@saintmartindecastillon.fr","telephone":"0490752008"},"horaires":"Du Lundi au Vendredi : de 09h00 à 12h00","latitude":43.92412,"longitude":5.485818,"website":"https://saintmartindecastillon.fr/","hasWebsite":true,"hasHoraires":true,"url":"https://lannuaire.service-public.gouv.fr/provence-alpes-cote-d-azur/vaucluse/4faad8e4-5b4d-4741-b8d6-adeebe65e6e1"}
{"nom":"Saint-Martin-de-la-Brasque","nomNormalise":"saintmartindelabrasque","typeCollectivite":"Commune","region":"Provence-Alpes-Côte d'Azur","departement":"Vaucluse","departementCode":"84","adresse":{"street":"6 cours du Mont-Libre","postalCode":"84760","city":"Saint-Martin-de-la-Brasque","country":"France"},"contacts":{"email":"mairiestmartin3@orange.fr","telephone":"0490776102"},"horaires":"Du Lundi au Jeudi : de 08h00 à 12h00\nLe Vendredi : de 08h00 à 12h00 de 13h30 à 16h30","latitude":43.768787,"longitude":5.5358887,"website":"https://www.saintmartindelabrasque.com/","hasWebsite":true,"hasHoraires":true,"url":"https://lannuaire.service-public.gouv.fr/provence-alpes-cote-d-azur/vaucluse/0cfa5338-d2c3-4e2b-bef8-7a4d7b8a8774"}
{"nom":"Saint-Pantaléon","nomNormalise":"saintpantaleon","typeCollectivite":"Commune","region":"Provence-Alpes-Côte d'Azur","departement":"Vaucluse","departementCode":"84","adresse":{"street":"1 place de la Mairie","postalCode":"84220","city":"Saint-Pantaléon","country":"France"},"contacts":{"email":"mairie.stpantaleon@orange.fr","telephone":"0490722308"},"horaires":"Du Lundi au Mardi : de 08h30 à 12h00 de 13h30 à 17h00\nLe Jeudi : de 08h30 à 12h00 de 13h30 à 17h00\nLe Vendredi : de 08h30 à 12h00","latitude":43.880928,"longitude":5.215138,"website":"","hasWebsite":false,"hasHoraires":true,"url":"https://lannuaire.service-public.gouv.fr/provence-alpes-cote-d-azur/vaucluse/95adb163-8ba7-4693-bac4-065c561d147e"}
{"nom":"Saint-Pierre-de-Vassols","nomNormalise":"saintpierredevassols","typeCollectivite":"Commune","region":"Provence-Alpes-Côte d'Azur","departement":"Vaucluse","departementCode":"84","adresse":{"street":"30 allée des Pins","postalCode":"84330","city":"Saint-Pierre-de-Vassols","country":"France"},"contacts":{"email":"accueil@saintpierredevassols.fr","telephone":"0490624110"},"horaires":"Du Lundi au Mardi : de 08h30 à 12h00 de 13h30 à 16h30\nLe Jeudi : de 08h30 à 12h00\nLe Vendredi : de 08h30 à 12h00 de 13h30 à 16h30\nEn juillet et en août accueil ouvert les lundis, mardis, jeudis et vendredis de 8h30 à 12h30.","latitude":44.100155,"longitude":5.136929,"website":"https://saintpierredevassols.fr/","hasWebsite":true,"hasHoraires":true,"url":"https://lannuaire.service-public.gouv.fr/provence-alpes-cote-d-azur/vaucluse/85ddc491-e94b-4eae-a57f-69f66e7ca1b6"}
{"nom":"Saint-Romain-en-Viennois","nomNormalise":"saintromainenviennois","typeCollectivite":"Commune","region":"Provence-Alpes-Côte d'Azur","departement":"Vaucluse","departementCode":"84","adresse":{"street":"Hôtel de Ville","postalCode":"84110","city":"Saint-Romain-en-Viennois","country":"France"},"contacts":{"email":"mairie84116@gmail.com","telephone":"0490464198"},"horaires":"Du Lundi au Mardi : de 08h30 à 12h30 de 13h30 à 17h00\nLe Mercredi : de 08h30 à 12h00\nLe Jeudi : de 08h30 à 12h30 de 13h30 à 17h00\nLe Vendredi : de 08h30 à 12h30 de 13h30 à 16h00","latitude":44.258102,"longitude":5.108576,"website":"","hasWebsite":false,"hasHoraires":true,"url":"https://lannuaire.service-public.gouv.fr/provence-alpes-cote-d-azur/vaucluse/cbe30ea5-6902-4400-a726-506713833653"}
{"nom":"Saint-Roman-de-Malegarde","nomNormalise":"saintromandemalegarde","typeCollectivite":"Commune","region":"Provence-Alpes-Côte d'Azur","departement":"Vaucluse","departementCode":"84","adresse":{"street":"Place de Verdun","postalCode":"84290","city":"Saint-Roman-de-Malegarde","country":"France"},"contacts":{"email":"mairie.stromandemalegarde@wanadoo.fr","telephone":"0490289228"},"horaires":"Du Lundi au Vendredi : de 09h00 à 12h00","latitude":44.28657,"longitude":4.929566,"website":"","hasWebsite":false,"hasHoraires":true,"url":"https://lannuaire.service-public.gouv.fr/provence-alpes-cote-d-azur/vaucluse/1e9ac859-aea5-442f-8da3-4ffab03a97d9"}
{"nom":"Saint-Saturnin-lès-Apt","nomNormalise":"saintsaturninlesapt","typeCollectivite":"Commune","region":"Provence-Alpes-Côte d'Azur","departement":"Vaucluse","departementCode":"84","adresse":{"street":"9 place de la Mairie","postalCode":"84490","city":"Saint-Saturnin-lès-Apt","country":"France"},"contacts":{"email":"mairie@saintsaturninlesapt.fr","telephone":"0490754312"},"horaires":"Du Lundi au Vendredi : de 13h00 à 17h00","latitude":43.944023,"longitude":5.383574,"website":"https://www.saintsaturninlesapt.fr/","hasWebsite":true,"hasHoraires":true,"url":"https://lannuaire.service-public.gouv.fr/provence-alpes-cote-d-azur/vaucluse/41ada3f9-5446-4aff-81f4-b35c2bade4c4"}
{"nom":"Saint-Saturnin-lès-Avignon","nomNormalise":"saintsaturninlesavignon","typeCollectivite":"Commune","region":"Provence-Alpes-Côte d'Azur","departement":"Vaucluse","departementCode":"84","adresse":{"street":"126 boulevard de la Libération","postalCode":"84450","city":"Saint-Saturnin-lès-Avignon","country":"France"},"contacts":{"email":"mairie@saintsaturnin.com","telephone":"0490226300"},"horaires":"Du Lundi au Vendredi : de 08h30 à 12h00 de 13h30 à 17h00\nLe Samedi : de 09h00 à 12h00","latitude":43.956,"longitude":4.92968,"website":"https://www.saintsaturnin.com/","hasWebsite":true,"hasHoraires":true,"url":"https://lannuaire.service-public.gouv.fr/provence-alpes-cote-d-azur/vaucluse/7712ee4a-c21f-4ee4-8820-5617a456698e"}
{"nom":"Saint-Trinit","nomNormalise":"sainttrinit","typeCollectivite":"Commune","region":"Provence-Alpes-Côte d'Azur","departement":"Vaucluse","departementCode":"84","adresse":{"street":"22 rue de la Mairie","postalCode":"84390","city":"Saint-Trinit","country":"France"},"contacts":{"email":"secretariat@mairie-saint-trinit.com","telephone":"0490750185"},"horaires":"Du Lundi au Mardi : de 08h45 à 16h30\nLe Mercredi : de 08h30 à 12h15\nDu Jeudi au Vendredi : de 08h45 à 16h30","latitude":44.102127,"longitude":5.465653,"website":"https://www.mairie-saint-trinit.com/","hasWebsite":true,"hasHoraires":true,"url":"https://lannuaire.service-public.gouv.fr/provence-alpes-cote-d-azur/vaucluse/0ec874b1-30cc-4fe7-a1f8-128e2021b36e"}
{"nom":"Sannes","nomNormalise":"sannes","typeCollectivite":"Commune","region":"Provence-Alpes-Côte d'Azur","departement":"Vaucluse","departementCode":"84","adresse":{"street":"15 rue du Cœur de village","postalCode":"84240","city":"Sannes","country":"France"},"contacts":{"email":"accueil@sannes.fr","telephone":"0490776229"},"horaires":"Le Mardi : de 08h00 à 12h00 de 13h00 à 16h00\nLe Mercredi : de 08h00 à 12h00\nLe Jeudi : de 08h00 à 12h00 de 13h00 à 16h00","latitude":43.757587,"longitude":5.490762,"website":"https://www.sannes.fr/","hasWebsite":true,"hasHoraires":true,"url":"https://lannuaire.service-public.gouv.fr/provence-alpes-cote-d-azur/vaucluse/249bc9f3-0012-4083-888e-3efd2286174b"}
{"nom":"Sarrians","nomNormalise":"sarrians","typeCollectivite":"Commune","region":"Provence-Alpes-Côte d'Azur","departement":"Vaucluse","departementCode":"84","adresse":{"street":"1 place du 1er-Août-1944","postalCode":"84260","city":"Sarrians","country":"France"},"contacts":{"email":"population@ville-sarrians.fr","telephone":"0490122121"},"horaires":"Du Lundi au Vendredi : de 08h30 à 12h30 de 13h30 à 17h00","latitude":44.083157,"longitude":4.9720445,"website":"https://www.ville-sarrians.fr/accueil.html","hasWebsite":true,"hasHoraires":true,"url":"https://lannuaire.service-public.gouv.fr/provence-alpes-cote-d-azur/vaucluse/f133fd6d-0ebf-4556-9f10-6d836bfd4385"}
{"nom":"Sault","nomNormalise":"sault","typeCollectivite":"Commune","region":"Provence-Alpes-Côte d'Azur","departement":"Vaucluse","departementCode":"84","adresse":{"street":"4 place du Marché","postalCode":"84390","city":"Sault","country":"France"},"contacts":{"email":"contact@mairie-sault-84.fr","telephone":"0490640230"},"horaires":"Du Lundi au Vendredi : de 08h00 à 12h00\n\nL'après-midi sur rendez-vous uniquement.","latitude":44.09182,"longitude":5.40871,"website":"https://mairie-sault-84.fr/","hasWebsite":true,"hasHoraires":true,"url":"https://lannuaire.service-public.gouv.fr/provence-alpes-cote-d-azur/vaucluse/a49e27fd-ea95-45b6-a109-0d8d101927e2"}
{"nom":"Saumane-de-Vaucluse","nomNormalise":"saumanedevaucluse","typeCollectivite":"Commune","region":"Provence-Alpes-Côte d'Azur","departement":"Vaucluse","departementCode":"84","adresse":{"street":"1 place de la Mairie","postalCode":"84800","city":"Saumane-de-Vaucluse","country":"France"},"contacts":{"email":"mairie@saumane-de-vaucluse.fr","telephone":"0490203279"},"horaires":"Du Lundi au Mardi : de 09h00 à 13h00\nDu Jeudi au Vendredi : de 09h00 à 13h00","latitude":43.93594,"longitude":5.10574,"website":"https://www.saumane-de-vaucluse.fr/","hasWebsite":true,"hasHoraires":true,"url":"https://lannuaire.service-public.gouv.fr/provence-alpes-cote-d-azur/vaucluse/aa45c00e-4b61-4915-a7bd-bad6fc9765f2"}
{"nom":"Savoillans","nomNormalise":"savoillans","typeCollectivite":"Commune","region":"Provence-Alpes-Côte d'Azur","departement":"Vaucluse","departementCode":"84","adresse":{"street":"1 place de la mairie","postalCode":"84390","city":"Savoillans","country":"France"},"contacts":{"email":"commune-de-savoillans@orange.fr","telephone":"0475288097"},"horaires":"Le Lundi : de 08h30 à 12h00 de 13h30 à 16h30\nLe Mardi : de 13h30 à 16h30\nLe Vendredi : de 13h30 à 16h30","latitude":44.179535,"longitude":5.374932,"website":"","hasWebsite":false,"hasHoraires":true,"url":"https://lannuaire.service-public.gouv.fr/provence-alpes-cote-d-azur/vaucluse/2e12e425-5fa2-4507-8fc1-2b43f8e58a29"}
{"nom":"Séguret","nomNormalise":"seguret","typeCollectivite":"Commune","region":"Provence-Alpes-Côte d'Azur","departement":"Vaucluse","departementCode":"84","adresse":{"street":"579 B route Claude-Faraud","postalCode":"84110","city":"Séguret","country":"France"},"contacts":{"email":"mairie@seguret.fr","telephone":"0490469106"},"horaires":"Du Lundi au Jeudi : de 09h00 à 13h00\nLe Vendredi : de 09h00 à 17h00","latitude":44.207035,"longitude":5.020121,"website":"http://village-seguret.fr/","hasWebsite":true,"hasHoraires":true,"url":"https://lannuaire.service-public.gouv.fr/provence-alpes-cote-d-azur/vaucluse/486720d0-4ec8-41a9-9c80-4f68f99a1876"}
{"nom":"Sérignan-du-Comtat","nomNormalise":"serignanducomtat","typeCollectivite":"Commune","region":"Provence-Alpes-Côte d'Azur","departement":"Vaucluse","departementCode":"84","adresse":{"street":"1 place Gildas-Ferrand","postalCode":"84830","city":"Sérignan-du-Comtat","country":"France"},"contacts":{"email":"mairie@serignanducomtat.com","telephone":"0490700003"},"horaires":"Le Lundi : de 08h30 à 12h00 de 13h30 à 17h00\nLe Mardi : de 08h30 à 12h00\nLe Mercredi : de 08h30 à 12h00 de 13h30 à 17h30\nLe Jeudi : de 08h30 à 12h00 de 13h30 à 17h00\nLe Vendredi : de 08h30 à 12h00 de 13h30 à 16h00","latitude":44.19339,"longitude":4.84837,"website":"http://www.serignanducomtat.fr/","hasWebsite":true,"hasHoraires":true,"url":"https://lannuaire.service-public.gouv.fr/provence-alpes-cote-d-azur/vaucluse/356611f1-ff8a-4300-abc4-26f50d983322"}
{"nom":"Sivergues","nomNormalise":"sivergues","typeCollectivite":"Commune","region":"Provence-Alpes-Côte d'Azur","departement":"Vaucluse","departementCode":"84","adresse":{"street":"1 chemin Le-Pas-des-Ensarris","postalCode":"84400","city":"Sivergues","country":"France"},"contacts":{"email":"sivergues.mairie@orange.fr","telephone":"0490740293"},"horaires":"Le Mardi : de 13h30 à 17h30","latitude":43.81902,"longitude":5.4072437,"website":"https://www.panneaupocket.com/","hasWebsite":true,"hasHoraires":true,"url":"https://lannuaire.service-public.gouv.fr/provence-alpes-cote-d-azur/vaucluse/503837c6-7a24-48a3-923c-053959d11ffa"}
{"nom":"Sorgues","nomNormalise":"sorgues","typeCollectivite":"Commune","region":"Provence-Alpes-Côte d'Azur","departement":"Vaucluse","departementCode":"84","adresse":{"street":"80 route d'Entraigues","postalCode":"84706","city":"Sorgues Cedex","country":"France"},"contacts":{"email":"mairie@sorgues.fr","telephone":"0490397100"},"horaires":"Du Lundi au Vendredi : de 08h00 à 17h30","latitude":44.007343,"longitude":4.877806,"website":"http://www.sorgues.fr/","hasWebsite":true,"hasHoraires":true,"url":"https://lannuaire.service-public.gouv.fr/provence-alpes-cote-d-azur/vaucluse/578644c9-a49a-4c15-85d9-641eaa9cb2bc"}
{"nom":"Suzette","nomNormalise":"suzette","typeCollectivite":"Commune","region":"Provence-Alpes-Côte d'Azur","departement":"Vaucluse","departementCode":"84","adresse":{"street":"70 rue de Suza","postalCode":"84190","city":"Suzette","country":"France"},"contacts":{"email":"mairie.suzette@orange.fr","telephone":"0490629639"},"horaires":"Le Mardi : de 09h00 à 12h30 de 13h00 à 17h00\nLe Jeudi : de 09h00 à 12h30 de 13h00 à 16h00","latitude":44.16798,"longitude":5.068431,"website":"https://www.suzette-mairie.fr/accueil.html","hasWebsite":true,"hasHoraires":true,"url":"https://lannuaire.service-public.gouv.fr/provence-alpes-cote-d-azur/vaucluse/a03894cf-6d38-425d-8c76-0e36c5f5b114"}
{"nom":"Travaillan","nomNormalise":"travaillan","typeCollectivite":"Commune","region":"Provence-Alpes-Côte d'Azur","departement":"Vaucluse","departementCode":"84","adresse":{"street":"1 place Jean-Moulin","postalCode":"84850","city":"Travaillan","country":"France"},"contacts":{"email":"mairie@travaillan.fr","telephone":"0490372401"},"horaires":"Du Lundi au Mardi : de 08h45 à 16h30\nLe Mercredi : de 08h45 à 12h45\nDu Jeudi au Vendredi : de 08h45 à 16h30","latitude":44.182137,"longitude":4.90129,"website":"https://www.travaillan.fr/","hasWebsite":true,"hasHoraires":true,"url":"https://lannuaire.service-public.gouv.fr/provence-alpes-cote-d-azur/vaucluse/980775bb-b488-44d7-8d34-29576de2d478"}
{"nom":"Uchaux","nomNormalise":"uchaux","typeCollectivite":"Commune","region":"Provence-Alpes-Côte d'Azur","departement":"Vaucluse","departementCode":"84","adresse":{"street":"Place de la Mairie","postalCode":"84100","city":"Uchaux","country":"France"},"contacts":{"email":"accueil@uchaux.fr","telephone":"0490406240"},"horaires":"Du Lundi au Mardi : de 08h00 à 12h00 de 14h00 à 17h00\nLe Mercredi : de 08h00 à 12h00\nDu Jeudi au Vendredi : de 08h00 à 12h00 de 14h00 à 17h00","latitude":44.209614,"longitude":4.800421,"website":"https://uchaux.fr/","hasWebsite":true,"hasHoraires":true,"url":"https://lannuaire.service-public.gouv.fr/provence-alpes-cote-d-azur/vaucluse/1160ef49-3c35-4600-b5cf-be4564cd4dd8"}
{"nom":"Vacqueyras","nomNormalise":"vacqueyras","typeCollectivite":"Commune","region":"Provence-Alpes-Côte d'Azur","departement":"Vaucluse","departementCode":"84","adresse":{"street":"8 place de la Mairie","postalCode":"84190","city":"Vacqueyras","country":"France"},"contacts":{"email":"contact@ville-vacqueyras.fr","telephone":"0490658424"},"horaires":"Du Lundi au Mardi : de 08h00 à 12h00 de 14h00 à 17h30\nLe Mercredi : de 09h00 à 12h00 de 14h00 à 18h00\nLe Jeudi : de 08h00 à 12h00\nLe Vendredi : de 08h00 à 13h00 de 13h30 à 16h00","latitude":44.137566,"longitude":4.9846053,"website":"http://ville-vacqueyras.fr/","hasWebsite":true,"hasHoraires":true,"url":"https://lannuaire.service-public.gouv.fr/provence-alpes-cote-d-azur/vaucluse/49af05f6-ac9b-4d3d-982a-5943b7656b59"}
{"nom":"Vaison-la-Romaine","nomNormalise":"vaisonlaromaine","typeCollectivite":"Commune","region":"Provence-Alpes-Côte d'Azur","departement":"Vaucluse","departementCode":"84","adresse":{"street":"6 cours Taulignan","postalCode":"84110","city":"Vaison-la-Romaine","country":"France"},"contacts":{"email":"accueil@vaison-la-romaine.fr","telephone":"0490365000"},"horaires":"Du Lundi au Mercredi : de 08h00 à 12h00 de 13h30 à 17h00\nLe Jeudi : de 08h00 à 17h00\nLe Vendredi : de 08h00 à 12h00 de 13h30 à 17h00\nLe Samedi : de 10h00 à 12h00\n\nAccueil ouvert uniquement pour l'état civil et fermé en juillet-août.","latitude":44.2417,"longitude":5.074154,"website":"http://www.vaison-la-romaine.com/","hasWebsite":true,"hasHoraires":true,"url":"https://lannuaire.service-public.gouv.fr/provence-alpes-cote-d-azur/vaucluse/721b2da4-43de-4b69-ae1a-fda7388155b4"}
{"nom":"Valréas","nomNormalise":"valreas","typeCollectivite":"Commune","region":"Provence-Alpes-Côte d'Azur","departement":"Vaucluse","departementCode":"84","adresse":{"street":"8 place Aristide-Briand","postalCode":"84600","city":"Valréas","country":"France"},"contacts":{"email":"courrier@mairie-valreas.fr","telephone":"0490350045"},"horaires":"Du Lundi au Vendredi : de 08h00 à 12h00 de 13h30 à 16h00","latitude":44.383263,"longitude":4.990648,"website":"https://valreas.net/","hasWebsite":true,"hasHoraires":true,"url":"https://lannuaire.service-public.gouv.fr/provence-alpes-cote-d-azur/vaucluse/9d99f051-670a-4542-b7f3-56af2c20c798"}
{"nom":"Vaugines","nomNormalise":"vaugines","typeCollectivite":"Commune","region":"Provence-Alpes-Côte d'Azur","departement":"Vaucluse","departementCode":"84","adresse":{"street":"3 place de la Mairie","postalCode":"84160","city":"Vaugines","country":"France"},"contacts":{"email":"mairie@vaugines.fr","telephone":"0490772508"},"horaires":"Le Lundi : de 14h00 à 17h00\nDu Mardi au Jeudi : de 08h30 à 12h30\nLe Vendredi : de 08h30 à 12h30 de 14h00 à 17h00","latitude":43.779133,"longitude":5.415248,"website":"https://www.vaugines.fr/","hasWebsite":true,"hasHoraires":true,"url":"https://lannuaire.service-public.gouv.fr/provence-alpes-cote-d-azur/vaucluse/590ab9da-b5d6-4b62-a2af-ced5bd2ac09f"}
{"nom":"Vedène","nomNormalise":"vedene","typeCollectivite":"Commune","region":"Provence-Alpes-Côte d'Azur","departement":"Vaucluse","departementCode":"84","adresse":{"street":"11 rue Jean-Moulin","postalCode":"84270","city":"Vedène","country":"France"},"contacts":{"email":"mairie@mairie-vedene.fr","telephone":"0490237676"},"horaires":"Du Lundi au Vendredi : de 08h30 à 12h00 de 13h30 à 17h00\nFermeture du service état civil le jeudi après-midi.","latitude":43.97816,"longitude":4.9041824,"website":"https://www.mairie-vedene.fr/","hasWebsite":true,"hasHoraires":true,"url":"https://lannuaire.service-public.gouv.fr/provence-alpes-cote-d-azur/vaucluse/8bc9eee4-0119-4eb6-b5ac-662a6fff7fc8"}
{"nom":"Velleron","nomNormalise":"velleron","typeCollectivite":"Commune","region":"Provence-Alpes-Côte d'Azur","departement":"Vaucluse","departementCode":"84","adresse":{"street":"Place du Château","postalCode":"84740","city":"Velleron","country":"France"},"contacts":{"email":"contact@velleron.fr","telephone":"0490200071"},"horaires":"Du Lundi au Jeudi : de 08h30 à 12h00 de 13h30 à 17h00\nLe Vendredi : de 08h30 à 12h00","latitude":43.9571,"longitude":5.02947,"website":"https://www.velleron.fr/","hasWebsite":true,"hasHoraires":true,"url":"https://lannuaire.service-public.gouv.fr/provence-alpes-cote-d-azur/vaucluse/6eb80697-7d58-4365-99fb-31d9b9a0be9b"}
{"nom":"Venasque","nomNormalise":"venasque","typeCollectivite":"Commune","region":"Provence-Alpes-Côte d'Azur","departement":"Vaucluse","departementCode":"84","adresse":{"street":"88 Grand'rue","postalCode":"84210","city":"Venasque","country":"France"},"contacts":{"email":"mairie@mairievenasque.fr","telephone":"0490660293"},"horaires":"Du Lundi au Vendredi : de 08h00 à 12h00","latitude":43.996,"longitude":5.14663,"website":"https://www.venasque.fr/accueil.html","hasWebsite":true,"hasHoraires":true,"url":"https://lannuaire.service-public.gouv.fr/provence-alpes-cote-d-azur/vaucluse/ddf4297c-72cd-4b4e-8c2f-f083e45b0895"}
{"nom":"Viens","nomNormalise":"viens","typeCollectivite":"Commune","region":"Provence-Alpes-Côte d'Azur","departement":"Vaucluse","departementCode":"84","adresse":{"street":"Quartier le Rang","postalCode":"84750","city":"Viens","country":"France"},"contacts":{"email":"commune-de-viens@wanadoo.fr","telephone":"0490752002"},"horaires":"Du Lundi au Mardi : de 09h00 à 12h00\nDu Jeudi au Vendredi : de 09h00 à 12h00\n\nAccueil possible sur rendez-vous les après-midi.","latitude":43.895473,"longitude":5.566641,"website":"https://www.mairie-viens.fr/","hasWebsite":true,"hasHoraires":true,"url":"https://lannuaire.service-public.gouv.fr/provence-alpes-cote-d-azur/vaucluse/bfb73226-443b-4e93-a94f-03fbdc6fbe2b"}
{"nom":"Villars","nomNormalise":"villars","typeCollectivite":"Commune","region":"Provence-Alpes-Côte d'Azur","departement":"Vaucluse","departementCode":"84","adresse":{"street":"8 place de la Mairie","postalCode":"84400","city":"Villars","country":"France"},"contacts":{"email":"secretairegenerale@villars84400.fr","telephone":"0490754001"},"horaires":"Du Lundi au Jeudi : de 09h00 à 12h00\nLe Vendredi : de 09h00 à 12h00 de 13h30 à 16h30","latitude":43.92342,"longitude":5.40545,"website":"https://www.villars-en-provence.fr/","hasWebsite":true,"hasHoraires":true,"url":"https://lannuaire.service-public.gouv.fr/provence-alpes-cote-d-azur/vaucluse/33d5ebf6-b09a-45f3-b8f4-5128b8e32efb"}
{"nom":"Villedieu","nomNormalise":"villedieu","typeCollectivite":"Commune","region":"Provence-Alpes-Côte d'Azur","departement":"Vaucluse","departementCode":"84","adresse":{"street":"12 place de la Libération","postalCode":"84110","city":"Villedieu","country":"France"},"contacts":{"email":"mairie@villedieu-vaucluse.fr","telephone":"0490289250"},"horaires":"Le Mardi : de 13h00 à 16h00\nLe Jeudi : de 13h00 à 16h00\nLe Vendredi : de 10h00 à 12h00","latitude":44.283844,"longitude":5.033666,"website":"https://www.villedieu-vaucluse.fr/","hasWebsite":true,"hasHoraires":true,"url":"https://lannuaire.service-public.gouv.fr/provence-alpes-cote-d-azur/vaucluse/b3d1e1ad-c66c-4cc5-bfab-d52f3fc41428"}
{"nom":"Villelaure","nomNormalise":"villelaure","typeCollectivite":"Commune","region":"Provence-Alpes-Côte d'Azur","departement":"Vaucluse","departementCode":"84","adresse":{"street":"Place du Général-de-Gaulle","postalCode":"84530","city":"Villelaure","country":"France"},"contacts":{"email":"mairie@villelaure.fr","telephone":"0490098383"},"horaires":"Le Lundi : de 08h00 à 12h00 de 13h30 à 17h00\nLe Mardi : de 08h00 à 12h00\nLe Mercredi : de 08h00 à 12h00 de 13h30 à 17h00\nLe Jeudi : de 08h00 à 12h00\nLe Vendredi : de 08h00 à 12h00 de 13h30 à 17h00","latitude":43.709892,"longitude":5.433346,"website":"https://villelaure.fr/","hasWebsite":true,"hasHoraires":true,"url":"https://lannuaire.service-public.gouv.fr/provence-alpes-cote-d-azur/vaucluse/bd5176ec-880e-4ee8-ba62-51d37ddfe189"}
{"nom":"Villes-sur-Auzon","nomNormalise":"villessurauzon","typeCollectivite":"Commune","region":"Provence-Alpes-Côte d'Azur","departement":"Vaucluse","departementCode":"84","adresse":{"street":"4 place de la Mairie","postalCode":"84570","city":"Villes-sur-Auzon","country":"France"},"contacts":{"email":"mairie@villes-sur-auzon.fr","telephone":"0490618205"},"horaires":"Le Lundi : de 09h00 à 12h00 de 13h30 à 16h30\nDu Mardi au Vendredi : de 09h00 à 12h00","latitude":44.0574,"longitude":5.23407,"website":"https://www.villes-sur-auzon.fr/","hasWebsite":true,"hasHoraires":true,"url":"https://lannuaire.service-public.gouv.fr/provence-alpes-cote-d-azur/vaucluse/53e37a93-e23b-48e5-85d1-a1b3f25d1ae1"}
{"nom":"Violès","nomNormalise":"violes","typeCollectivite":"Commune","region":"Provence-Alpes-Côte d'Azur","departement":"Vaucluse","departementCode":"84","adresse":{"street":"Cours Rigot","postalCode":"84150","city":"Violès","country":"France"},"contacts":{"email":"mairiedevioles@violes.fr","telephone":"0490709211"},"horaires":"Du Lundi au Vendredi : de 09h00 à 12h00 de 13h30 à 17h00","latitude":44.162,"longitude":4.95288,"website":"https://www.violes.fr/","hasWebsite":true,"hasHoraires":true,"url":"https://lannuaire.service-public.gouv.fr/provence-alpes-cote-d-azur/vaucluse/62023f39-5180-400d-bc60-8e991b4eb0d3"}
{"nom":"Visan","nomNormalise":"visan","typeCollectivite":"Commune","region":"Provence-Alpes-Côte d'Azur","departement":"Vaucluse","departementCode":"84","adresse":{"street":"Place du Jeu-de-Paume","postalCode":"84820","city":"Visan","country":"France"},"contacts":{"email":"contact@visan-mairie.com","telephone":"0490285090"},"horaires":"Le Lundi : de 08h30 à 12h30\nLe Mardi : de 08h30 à 12h00\nLe Mercredi : de 08h30 à 12h30\nLe Jeudi : de 08h30 à 12h00\nLe Vendredi : de 08h30 à 12h30","latitude":44.313717,"longitude":4.95105,"website":"https://visan-mairie.fr/","hasWebsite":true,"hasHoraires":true,"url":"https://lannuaire.service-public.gouv.fr/provence-alpes-cote-d-azur/vaucluse/c206e707-d094-4038-98a8-f838d6b24334"}
{"nom":"Vitrolles-en-Lubéron","nomNormalise":"vitrollesenluberon","typeCollectivite":"Commune","region":"Provence-Alpes-Côte d'Azur","departement":"Vaucluse","departementCode":"84","adresse":{"street":"13 rue de la Mairie","postalCode":"84240","city":"Vitrolles-en-Lubéron","country":"France"},"contacts":{"email":"mairie@vitrolles-en-luberon.fr","telephone":"0490778201"},"horaires":"Le Lundi : de 09h30 à 12h30\nLe Jeudi : de 09h30 à 12h30","latitude":43.81123,"longitude":5.595266,"website":"https://www.vitrolles-en-luberon.fr/","hasWebsite":true,"hasHoraires":true,"url":"https://lannuaire.service-public.gouv.fr/provence-alpes-cote-d-azur/vaucluse/7124d111-8b21-4d23-9e8d-90eea5dbb55c"}
