{"nom":"Aizenay","nomNormalise":"aizenay","typeCollectivite":"Commune","region":"Pays de la Loire","departement":"Vendée","departementCode":"85","adresse":{"street":"8 avenue de Verdun","postalCode":"85190","city":"Aizenay","country":"France"},"contacts":{"email":"contact@mairie-aizenay.fr","telephone":"0251946046"},"horaires":"Du Lundi au Vendredi : de 09h00 à 13h00 de 14h00 à 17h30\nLe Samedi : de 09h00 à 12h00\n\nUniquement pour les urgences.","latitude":46.7386,"longitude":-1.60872,"website":"https://www.aizenay.fr/","hasWebsite":true,"hasHoraires":true,"url":"https://lannuaire.service-public.gouv.fr/pays-de-la-loire/vendee/231160ee-074e-41dd-82db-5dde6c7bf6da"}
{"nom":"Angles","nomNormalise":"angles","typeCollectivite":"Commune","region":"Pays de la Loire","departement":"Vendée","departementCode":"85","adresse":{"street":"1 place du Colonel-Arnaud-Beltrame","postalCode":"85750","city":"Angles","country":"France"},"contacts":{"email":"mairie@angles.fr","telephone":"0251975224"},"horaires":"Du Lundi au Mardi : de 09h00 à 12h00 de 14h00 à 16h30\nLe Mercredi : de 09h00 à 12h00\nDu Jeudi au Vendredi : de 09h00 à 12h00 de 14h00 à 16h30\nLe Samedi : de 09h00 à 12h00","latitude":46.408875,"longitude":-1.4040613,"website":"https://www.angles.fr/","hasWebsite":true,"hasHoraires":true,"url":"https://lannuaire.service-public.gouv.fr/pays-de-la-loire/vendee/4eb7605a-65da-4439-8ada-d6938e94087c"}
{"nom":"Antigny","nomNormalise":"antigny","typeCollectivite":"Commune","region":"Pays de la Loire","departement":"Vendée","departementCode":"85","adresse":{"street":"26 place de la Mairie","postalCode":"85120","city":"Antigny","country":"France"},"contacts":{"email":"contact@antigny85.fr","telephone":"0251516004"},"horaires":"Du Lundi au Vendredi : de 09h00 à 12h30 de 14h00 à 18h00","latitude":46.6216,"longitude":-0.769798,"website":"https://www.antigny85.fr/","hasWebsite":true,"hasHoraires":true,"url":"https://lannuaire.service-public.gouv.fr/pays-de-la-loire/vendee/60920e4c-4983-4206-8646-b4017e4e5598"}
{"nom":"Apremont","nomNormalise":"apremont","typeCollectivite":"Commune","region":"Pays de la Loire","departement":"Vendée","departementCode":"85","adresse":{"street":"9 place du Calvaire","postalCode":"85220","city":"Apremont","country":"France"},"contacts":{"email":"mairie@apremont85.fr","telephone":"0251557366"},"horaires":"Le Lundi : de 09h00 à 12h30\nLe Mardi : de 09h00 à 12h30 de 14h00 à 16h00\nDu Mercredi au Vendredi : de 09h00 à 12h30","latitude":46.7316,"longitude":-1.75817,"website":"https://apremont85.fr/","hasWebsite":true,"hasHoraires":true,"url":"https://lannuaire.service-public.gouv.fr/pays-de-la-loire/vendee/dbc1ce69-62a3-4e70-8de5-4098368c2690"}
{"nom":"Aubigny-les-Clouzeaux","nomNormalise":"aubignylesclouzeaux","typeCollectivite":"Commune","region":"Pays de la Loire","departement":"Vendée","departementCode":"85","adresse":{"street":"23 rue Haxo","postalCode":"85430","city":"Aubigny-les-Clouzeaux","country":"France"},"contacts":{"email":"contact@aubignylesclouzeaux.fr","telephone":"0251987015"},"horaires":"Le Lundi : de 08h30 à 12h30 de 14h00 à 17h30\nLe Mardi : de 14h00 à 17h30\nLe Mercredi : de 08h30 à 12h30\nDu Jeudi au Vendredi : de 14h00 à 17h30","latitude":46.6304,"longitude":-1.50967,"website":"https://www.aubigny-les-clouzeaux.fr/","hasWebsite":true,"hasHoraires":true,"url":"https://lannuaire.service-public.gouv.fr/pays-de-la-loire/vendee/da18d255-a3de-489d-a3d5-9509ba36a73b"}
{"nom":"Auchay-sur-Vendée","nomNormalise":"auchaysurvendee","typeCollectivite":"Commune","region":"Pays de la Loire","departement":"Vendée","departementCode":"85","adresse":{"street":"Auzay","postalCode":"85200","city":"Auchay-sur-Vendée","country":"France"},"contacts":{"email":"secretariat@auchaysurvendee.fr","telephone":"0251518203"},"horaires":"Le Lundi : de 09h00 à 12h00\nDu Mercredi au Vendredi : de 09h00 à 12h00","latitude":46.4422,"longitude":-0.863638,"website":"http://www.auchaysurvendee.fr/","hasWebsite":true,"hasHoraires":true,"url":"https://lannuaire.service-public.gouv.fr/pays-de-la-loire/vendee/8473b9bf-3e87-44be-a885-f4d5122918ac"}
{"nom":"Avrillé","nomNormalise":"avrille","typeCollectivite":"Commune","region":"Pays de la Loire","departement":"Vendée","departementCode":"85","adresse":{"street":"2 avenue du Général-de-Gaulle","postalCode":"85440","city":"Avrillé","country":"France"},"contacts":{"email":"mairie.avrille85@wanadoo.fr","telephone":"0251223222"},"horaires":"Du Lundi au Mardi : de 09h00 à 12h15\nLe Mercredi : de 09h00 à 12h15 de 14h00 à 17h30\nDu Jeudi au Vendredi : de 09h00 à 12h15","latitude":46.469757,"longitude":-1.4950001,"website":"https://avrille85.fr/fr/","hasWebsite":true,"hasHoraires":true,"url":"https://lannuaire.service-public.gouv.fr/pays-de-la-loire/vendee/088dc269-5afe-4a08-bedc-d2423cdfa746"}
{"nom":"Barbâtre","nomNormalise":"barbatre","typeCollectivite":"Commune","region":"Pays de la Loire","departement":"Vendée","departementCode":"85","adresse":{"street":"Rue de l'Église","postalCode":"85630","city":"Barbâtre","country":"France"},"contacts":{"email":"accueil.mairie@barbatre.fr","telephone":"0251396858"},"horaires":"Du Lundi au Mardi : de 09h00 à 12h00 de 14h00 à 17h00\nDu Jeudi au Vendredi : de 09h00 à 12h00 de 14h00 à 17h00","latitude":46.9435,"longitude":-2.1805,"website":"http://www.barbatre.fr/","hasWebsite":true,"hasHoraires":true,"url":"https://lannuaire.service-public.gouv.fr/pays-de-la-loire/vendee/6fc7def4-0a0c-4227-93cf-b4271a076592"}
{"nom":"Bazoges-en-Paillers","nomNormalise":"bazogesenpaillers","typeCollectivite":"Commune","region":"Pays de la Loire","departement":"Vendée","departementCode":"85","adresse":{"street":"1 place de l'Église","postalCode":"85130","city":"Bazoges-en-Paillers","country":"France"},"contacts":{"email":"mairie@bazoges-en-paillers.fr","telephone":"0251077332"},"horaires":"Du Mardi au Jeudi : de 09h00 à 12h00\nLe Vendredi : de 14h00 à 18h00\nLe Samedi : de 09h00 à 12h00\n\nAccueil fermé en juillet-août.","latitude":46.9084,"longitude":-1.13268,"website":"http://www.bazoges-en-paillers.fr/","hasWebsite":true,"hasHoraires":true,"url":"https://lannuaire.service-public.gouv.fr/pays-de-la-loire/vendee/7044e11a-3094-41a9-9161-ee769c8c3124"}
{"nom":"Bazoges-en-Pareds","nomNormalise":"bazogesenpareds","typeCollectivite":"Commune","region":"Pays de la Loire","departement":"Vendée","departementCode":"85","adresse":{"street":"4 rue du Maréchal-de-Lattre-de-Tassigny","postalCode":"85390","city":"Bazoges-en-Pareds","country":"France"},"contacts":{"email":"mairie@bazoges-en-pareds.fr","telephone":"0251512519"},"horaires":"Le Lundi : de 15h00 à 19h00\nLe Mercredi : de 09h00 à 12h30\nLe Vendredi : de 15h00 à 18h00\nLe Samedi : de 10h30 à 12h00\n\n1er samedi de chaque mois","latitude":46.657013,"longitude":-0.915016,"website":"https://www.bazoges-en-pareds.fr/","hasWebsite":true,"hasHoraires":true,"url":"https://lannuaire.service-public.gouv.fr/pays-de-la-loire/vendee/16b9c20c-2b5d-4048-930a-0b0eb23bedf5"}
{"nom":"Beaufou","nomNormalise":"beaufou","typeCollectivite":"Commune","region":"Pays de la Loire","departement":"Vendée","departementCode":"85","adresse":{"street":"2 Place des Tilleuls","postalCode":"85170","city":"Beaufou","country":"France"},"contacts":{"email":"mairie@mairie-beaufou.fr","telephone":"0251312194"},"horaires":"Le Lundi : de 09h00 à 13h00 de 14h00 à 18h00\nLe Mardi : de 09h00 à 13h00\nLe Mercredi : de 09h00 à 12h30\nLe Jeudi : de 09h00 à 13h00\nLe Vendredi : de 09h00 à 13h00 de 14h00 à 16h00","latitude":46.82406,"longitude":-1.528262,"website":"http://www.mairie-beaufou.fr/","hasWebsite":true,"hasHoraires":true,"url":"https://lannuaire.service-public.gouv.fr/pays-de-la-loire/vendee/8cf97132-80ef-4f0c-bb61-f412f41da1a9"}
{"nom":"Beaulieu-sous-la-Roche","nomNormalise":"beaulieusouslaroche","typeCollectivite":"Commune","region":"Pays de la Loire","departement":"Vendée","departementCode":"85","adresse":{"street":"4 place du Marché","postalCode":"85190","city":"Beaulieu-sous-la-Roche","country":"France"},"contacts":{"email":"mairie@beaulieusouslaroche.fr","telephone":"0251988038"},"horaires":"Du Lundi au Vendredi : de 13h30 à 17h30\nLe Samedi : de 09h00 à 12h00\n\nUniquement le 2ème et 4ème de chaque mois.","latitude":46.67663,"longitude":-1.6104684,"website":"http://www.beaulieusouslaroche.fr/","hasWebsite":true,"hasHoraires":true,"url":"https://lannuaire.service-public.gouv.fr/pays-de-la-loire/vendee/d3eba7d1-015c-4393-b43d-48f69a182122"}
{"nom":"Beaurepaire","nomNormalise":"beaurepaire","typeCollectivite":"Commune","region":"Pays de la Loire","departement":"Vendée","departementCode":"85","adresse":{"street":"28 rue de la Promenade","postalCode":"85500","city":"Beaurepaire","country":"France"},"contacts":{"email":"mairie@beaurepaire85.fr","telephone":"0251910224"},"horaires":"Du Lundi au Mardi : de 08h30 à 12h30\nLe Mercredi : de 08h30 à 12h30 de 14h00 à 16h00\nLe Jeudi : de 08h30 à 12h30\nLe Vendredi : de 08h30 à 12h30 de 14h00 à 16h00\nLe Samedi : de 09h00 à 12h00\n\nFermé en Juillet et Août, et la dernière quinzaine de Décembre","latitude":46.905,"longitude":-1.08132,"website":"http://www.mairie-beaurepaire85.fr/","hasWebsite":true,"hasHoraires":true,"url":"https://lannuaire.service-public.gouv.fr/pays-de-la-loire/vendee/6473c9d5-0d45-4948-8316-0bc29436cdd9"}
{"nom":"Beauvoir-sur-Mer","nomNormalise":"beauvoirsurmer","typeCollectivite":"Commune","region":"Pays de la Loire","departement":"Vendée","departementCode":"85","adresse":{"street":"Place de l'Hôtel-de-Ville","postalCode":"85230","city":"Beauvoir-sur-Mer","country":"France"},"contacts":{"email":"secretariat@mairie-beauvoirsurmer.fr","telephone":"0251687032"},"horaires":"Le Lundi : de 08h30 à 12h30 de 14h00 à 17h00\nLe Mardi : de 08h30 à 12h30\nDu Mercredi au Jeudi : de 08h30 à 12h30 de 14h00 à 18h00\nLe Vendredi : de 08h30 à 12h30 de 14h00 à 17h00","latitude":46.9157,"longitude":-2.04375,"website":"https://www.mairie-beauvoirsurmer.fr/","hasWebsite":true,"hasHoraires":true,"url":"https://lannuaire.service-public.gouv.fr/pays-de-la-loire/vendee/95a8291e-7525-461c-9261-11f8b9cd8f05"}
{"nom":"Bellevigny","nomNormalise":"bellevigny","typeCollectivite":"Commune","region":"Pays de la Loire","departement":"Vendée","departementCode":"85","adresse":{"street":"1 square Jeanne-de-Belleville","postalCode":"85170","city":"Bellevigny","country":"France"},"contacts":{"email":"mairie@bellevigny.fr","telephone":"0251411117"},"horaires":"Du Lundi au Vendredi : de 09h00 à 12h00 de 14h00 à 17h00","latitude":46.8052,"longitude":-1.4503238,"website":"http://www.bellevigny.fr/","hasWebsite":true,"hasHoraires":true,"url":"https://lannuaire.service-public.gouv.fr/pays-de-la-loire/vendee/cd970dc5-c3b8-4987-b509-0a370fc851e3"}
{"nom":"Benet","nomNormalise":"benet","typeCollectivite":"Commune","region":"Pays de la Loire","departement":"Vendée","departementCode":"85","adresse":{"street":"Place de la Résistance","postalCode":"85490","city":"Benet","country":"France"},"contacts":{"email":"accueil@mairie-benet.fr","telephone":"0251009626"},"horaires":"Le Lundi : de 09h00 à 12h00 de 14h00 à 17h30\nLe Mardi : de 09h00 à 12h00 de 14h00 à 19h00\nLe Mercredi : de 09h00 à 12h00 de 14h00 à 17h30\nLe Jeudi : de 14h00 à 17h30\nLe Vendredi : de 09h00 à 12h00 de 14h00 à 17h30","latitude":46.3819,"longitude":-0.572524,"website":"http://www.mairie-benet.fr/","hasWebsite":true,"hasHoraires":true,"url":"https://lannuaire.service-public.gouv.fr/pays-de-la-loire/vendee/fc4e8c48-c9b1-4f64-b0ba-ceb269676acd"}
{"nom":"Bessay","nomNormalise":"bessay","typeCollectivite":"Commune","region":"Pays de la Loire","departement":"Vendée","departementCode":"85","adresse":{"street":"7 rue Principale","postalCode":"85320","city":"Bessay","country":"France"},"contacts":{"email":"secretariat@commune-bessay.fr","telephone":"0251275382"},"horaires":"Du Lundi au Mardi : de 08h30 à 12h30\nLe Jeudi : de 08h30 à 12h30\nLe Vendredi : de 13h30 à 16h30","latitude":46.538,"longitude":-1.15451,"website":"","hasWebsite":false,"hasHoraires":true,"url":"https://lannuaire.service-public.gouv.fr/pays-de-la-loire/vendee/9abca667-48b3-4863-88f1-294df969b5ab"}
{"nom":"Bois-de-Céné","nomNormalise":"boisdecene","typeCollectivite":"Commune","region":"Pays de la Loire","departement":"Vendée","departementCode":"85","adresse":{"street":"35 rue de la Motte","postalCode":"85710","city":"Bois-de-Céné","country":"France"},"contacts":{"email":"mairie@boisdecene.fr","telephone":"0251682084"},"horaires":"Du Lundi au Vendredi : de 09h00 à 12h00 de 13h30 à 16h30\nLe Samedi : de 09h00 à 12h00\n\nPermanence du maire uniquement sur rendez-vous.","latitude":46.9381,"longitude":-1.88912,"website":"https://www.boisdecene.fr/","hasWebsite":true,"hasHoraires":true,"url":"https://lannuaire.service-public.gouv.fr/pays-de-la-loire/vendee/22ba4700-828d-4932-85bf-5ede32d8667c"}
{"nom":"Mairie déléguée - Boufféré","nomNormalise":"mairiedelegueebouffere","typeCollectivite":"Commune","region":"Pays de la Loire","departement":"Vendée","departementCode":"85","adresse":{"street":"Boufféré","postalCode":"85600","city":"Montaigu-Vendée","country":"France"},"contacts":{"email":"mairie@montaigu-vendee.com","telephone":"0251092121"},"horaires":"Du Lundi au Jeudi : de 09h00 à 12h00\nLe Samedi : de 09h00 à 12h00\n\nSemaine impaire uniquement.","latitude":46.9414,"longitude":-1.2901,"website":"https://www.montaigu-vendee.com/","hasWebsite":true,"hasHoraires":true,"url":"https://lannuaire.service-public.gouv.fr/pays-de-la-loire/vendee/b16443d3-4f70-44c4-9b74-6c2c056cd2f6"}
{"nom":"Bouillé-Courdault","nomNormalise":"bouillecourdault","typeCollectivite":"Commune","region":"Pays de la Loire","departement":"Vendée","departementCode":"85","adresse":{"street":"37 rue du Prieuré","postalCode":"85420","city":"Bouillé-Courdault","country":"France"},"contacts":{"email":"mairie@bouille-courdault.com","telephone":"0251524050"},"horaires":"Le Mardi : de 14h00 à 19h00\nDu Jeudi au Vendredi : de 14h00 à 19h00","latitude":46.3897,"longitude":-0.687388,"website":"https://bouille-courdault.com/","hasWebsite":true,"hasHoraires":true,"url":"https://lannuaire.service-public.gouv.fr/pays-de-la-loire/vendee/51e90373-5e19-4141-b2a7-c971c0e59f85"}
{"nom":"Bouin","nomNormalise":"bouin","typeCollectivite":"Commune","region":"Pays de la Loire","departement":"Vendée","departementCode":"85","adresse":{"street":"Place de l'Église","postalCode":"85230","city":"Bouin","country":"France"},"contacts":{"email":"contact@bouin.fr","telephone":"0251497414"},"horaires":"Du Lundi au Samedi : de 09h00 à 12h00","latitude":46.9749,"longitude":-1.99901,"website":"https://www.bouin.fr/","hasWebsite":true,"hasHoraires":true,"url":"https://lannuaire.service-public.gouv.fr/pays-de-la-loire/vendee/072bd73b-f72b-4fdd-8dc9-c9a956fbc43f"}
{"nom":"Bourneau","nomNormalise":"bourneau","typeCollectivite":"Commune","region":"Pays de la Loire","departement":"Vendée","departementCode":"85","adresse":{"street":"4 rue du Château","postalCode":"85200","city":"Bourneau","country":"France"},"contacts":{"email":"contact@mairiedebourneau.fr","telephone":"0251002204"},"horaires":"Le Lundi : de 11h00 à 12h30 de 14h00 à 18h00\nLe Mardi : de 09h15 à 12h30\nLe Jeudi : de 09h15 à 12h30\nLe Vendredi : de 11h00 à 12h30 de 14h00 à 17h30","latitude":46.5417,"longitude":-0.818151,"website":"https://www.mairiedebourneau.fr/","hasWebsite":true,"hasHoraires":true,"url":"https://lannuaire.service-public.gouv.fr/pays-de-la-loire/vendee/bc4cf962-cf9c-4b9a-a8d4-396fc8376bca"}
{"nom":"Bournezeau","nomNormalise":"bournezeau","typeCollectivite":"Commune","region":"Pays de la Loire","departement":"Vendée","departementCode":"85","adresse":{"street":"2 place de la Mairie","postalCode":"85480","city":"Bournezeau","country":"France"},"contacts":{"email":"mairie@bournezeau.fr","telephone":"0251407129"},"horaires":"Du Lundi au Mardi : de 09h00 à 12h00 de 15h00 à 18h00\nDu Mercredi au Jeudi : de 09h00 à 12h00\nLe Vendredi : de 09h00 à 12h00 de 15h00 à 19h00","latitude":46.6358,"longitude":-1.17083,"website":"https://www.bournezeau.fr/","hasWebsite":true,"hasHoraires":true,"url":"https://lannuaire.service-public.gouv.fr/pays-de-la-loire/vendee/06e77e57-e788-45fe-86f4-6b3febf0647b"}
{"nom":"Brem-sur-Mer","nomNormalise":"bremsurmer","typeCollectivite":"Commune","region":"Pays de la Loire","departement":"Vendée","departementCode":"85","adresse":{"street":"Place du 18-Juin-1940","postalCode":"85470","city":"Brem-sur-Mer","country":"France"},"contacts":{"email":"mairie@brem-sur-mer.fr","telephone":"0251905516"},"horaires":"Du Lundi au Mercredi : de 09h00 à 12h00 de 13h00 à 17h00\nLe Jeudi : de 09h00 à 12h00\nLe Vendredi : de 09h00 à 12h00 de 13h00 à 17h00","latitude":46.603863,"longitude":-1.8309828,"website":"https://www.brem-sur-mer.fr/","hasWebsite":true,"hasHoraires":true,"url":"https://lannuaire.service-public.gouv.fr/pays-de-la-loire/vendee/b40e7d98-4a59-42f3-bceb-0cd089f2eb7f"}
{"nom":"Bretignolles-sur-Mer","nomNormalise":"bretignollessurmer","typeCollectivite":"Commune","region":"Pays de la Loire","departement":"Vendée","departementCode":"85","adresse":{"street":"6 avenue de la Plage","postalCode":"85470","city":"Brétignolles-sur-Mer","country":"France"},"contacts":{"email":"mairie@bretignollessurmer.fr","telephone":"0251224600"},"horaires":"Du Lundi au Vendredi : de 09h00 à 12h30 de 14h00 à 17h30","latitude":46.6278,"longitude":-1.86114,"website":"https://www.bretignollessurmer.fr/","hasWebsite":true,"hasHoraires":true,"url":"https://lannuaire.service-public.gouv.fr/pays-de-la-loire/vendee/a48b7513-efe0-4d1c-a30e-36b66ced5706"}
{"nom":"Mairie déléguée - Breuil-Barret","nomNormalise":"mairiedelegueebreuilbarret","typeCollectivite":"Commune","region":"Pays de la Loire","departement":"Vendée","departementCode":"85","adresse":{"street":"Breuil-Barret","postalCode":"85120","city":"Terval","country":"France"},"contacts":{"email":"accueil@terval85.fr","telephone":"0251874756"},"horaires":"Le Mardi : de 13h30 à 18h00\nLe Vendredi : de 09h00 à 12h00","latitude":46.654324,"longitude":-0.684248,"website":"https://www.terval85.fr/","hasWebsite":true,"hasHoraires":true,"url":"https://lannuaire.service-public.gouv.fr/pays-de-la-loire/vendee/896473cf-b794-400f-b661-1bd91f741df3"}
{"nom":"Chaillé-les-Marais","nomNormalise":"chaillelesmarais","typeCollectivite":"Commune","region":"Pays de la Loire","departement":"Vendée","departementCode":"85","adresse":{"street":"43 bis rue du 11-Novembre","postalCode":"85450","city":"Chaillé-les-Marais","country":"France"},"contacts":{"email":"mairie@chaille-les-marais.fr","telephone":"0251567298"},"horaires":"Du Lundi au Vendredi : de 08h30 à 12h00","latitude":46.3962,"longitude":-1.02177,"website":"https://chaille-les-marais.fr/","hasWebsite":true,"hasHoraires":true,"url":"https://lannuaire.service-public.gouv.fr/pays-de-la-loire/vendee/56edd5ce-8d77-42c3-88a6-c7c4d0541c9e"}
{"nom":"Mairie déléguée - Chaillé-sous-les-Ormeaux","nomNormalise":"mairiedelegueechaillesouslesormeaux","typeCollectivite":"Commune","region":"Pays de la Loire","departement":"Vendée","departementCode":"85","adresse":{"street":"Chaillé-sous-les-Ormeaux","postalCode":"85310","city":"Rives-de-l'Yon","country":"France"},"contacts":{"email":"accueil@rivesdelyon.fr","telephone":"0259569060"},"horaires":"Le Lundi : de 09h00 à 12h30\nLe Mardi : de 14h00 à 17h30\nLe Mercredi : de 09h00 à 12h30 de 14h00 à 17h30\nLe Jeudi : de 14h00 à 17h30\nLe Vendredi : de 09h00 à 12h30","latitude":46.58432,"longitude":1.365681,"website":"https://www.rivesdelyon.fr/","hasWebsite":true,"hasHoraires":true,"url":"https://lannuaire.service-public.gouv.fr/pays-de-la-loire/vendee/c4e2a01d-8a0a-412e-a877-f60b2b81d2f6"}
{"nom":"Mairie déléguée - Chaix","nomNormalise":"mairiedelegueechaix","typeCollectivite":"Commune","region":"Pays de la Loire","departement":"Vendée","departementCode":"85","adresse":{"street":"30 route de Fontaines","postalCode":"85200","city":"Auchay-sur-Vendée","country":"France"},"contacts":{"email":"secretariat@auchaysurvendee.fr","telephone":"0251518203"},"horaires":"Le Lundi : de 09h00 à 12h00\nLe Mercredi : de 09h00 à 12h00","latitude":46.4334,"longitude":-0.85376,"website":"","hasWebsite":false,"hasHoraires":true,"url":"https://lannuaire.service-public.gouv.fr/pays-de-la-loire/vendee/3db0c2ce-334c-4367-b307-41fe7012634c"}
{"nom":"Challans","nomNormalise":"challans","typeCollectivite":"Commune","region":"Pays de la Loire","departement":"Vendée","departementCode":"85","adresse":{"street":"1 boulevard Lucien-Dodin","postalCode":"85300","city":"Challans","country":"France"},"contacts":{"email":"mairie@challans.fr","telephone":"0251497979"},"horaires":"Du Lundi au Vendredi : de 08h45 à 12h30 de 13h45 à 17h45\nLe Samedi : de 09h00 à 12h00\n\nAccueil ouvert uniquement pour l'état civil.","latitude":46.84481,"longitude":-1.8798033,"website":"https://www.challans.fr/","hasWebsite":true,"hasHoraires":true,"url":"https://lannuaire.service-public.gouv.fr/pays-de-la-loire/vendee/57ab9715-d3ea-4b8e-9fd7-21695d8e9b1c"}
{"nom":"Mairie déléguée - Chambretaud","nomNormalise":"mairiedelegueechambretaud","typeCollectivite":"Commune","region":"Pays de la Loire","departement":"Vendée","departementCode":"85","adresse":{"street":"Chambretaud","postalCode":"85500","city":"Chanverrie","country":"France"},"contacts":{"email":"mairie@chanverrie.fr","telephone":"0251915038"},"horaires":"Du Lundi au Jeudi : de 09h00 à 12h30\nLe Vendredi : de 14h00 à 17h30","latitude":46.9207,"longitude":-0.967326,"website":"https://www.chanverrie.fr/","hasWebsite":true,"hasHoraires":true,"url":"https://lannuaire.service-public.gouv.fr/pays-de-la-loire/vendee/3d2e21e7-16ad-498b-9ba8-2585d078a795"}
{"nom":"Champagné-les-Marais","nomNormalise":"champagnelesmarais","typeCollectivite":"Commune","region":"Pays de la Loire","departement":"Vendée","departementCode":"85","adresse":{"street":"6 place Georges-Clemenceau","postalCode":"85450","city":"Champagné-les-Marais","country":"France"},"contacts":{"email":"commune@champagnelesmarais.com","telephone":"0251566110"},"horaires":"Du Lundi au Vendredi : de 09h00 à 12h00\nLe Samedi : de 09h00 à 11h30","latitude":46.38076,"longitude":-1.123615,"website":"https://champagne-les-marais.com/","hasWebsite":true,"hasHoraires":true,"url":"https://lannuaire.service-public.gouv.fr/pays-de-la-loire/vendee/2ef48f35-3802-45d4-974a-72c2ba4bbb38"}
{"nom":"Chantonnay","nomNormalise":"chantonnay","typeCollectivite":"Commune","region":"Pays de la Loire","departement":"Vendée","departementCode":"85","adresse":{"street":"Place de l'Hôtel-de-Ville","postalCode":"85111","city":"Chantonnay Cedex","country":"France"},"contacts":{"email":"accueil@ville-chantonnay.fr","telephone":"0251943036"},"horaires":"Du Lundi au Vendredi : de 08h30 à 12h30 de 13h30 à 17h30\nLe Samedi : de 09h30 à 12h00\n\nAccueil ouvert uniquement pour l'état civil, fermé le samedi, du 17 juillet au 14 août.","latitude":46.686638,"longitude":-1.0501226,"website":"http://www.ville-chantonnay.fr/","hasWebsite":true,"hasHoraires":true,"url":"https://lannuaire.service-public.gouv.fr/pays-de-la-loire/vendee/47081bf1-431a-4fc6-b62e-86690b280405"}
{"nom":"Chanverrie","nomNormalise":"chanverrie","typeCollectivite":"Commune","region":"Pays de la Loire","departement":"Vendée","departementCode":"85","adresse":{"street":"La Verrie","postalCode":"85130","city":"Chanverrie","country":"France"},"contacts":{"email":"mairie@chanverrie.fr","telephone":"0251659612"},"horaires":"Le Lundi : de 09h00 à 12h30 de 14h00 à 17h30\nLe Mardi : de 09h00 à 12h30\nLe Mercredi : de 09h00 à 12h30 de 14h00 à 17h30\nLe Jeudi : de 09h00 à 12h30\nLe Vendredi : de 09h00 à 12h30 de 14h00 à 17h30","latitude":46.9623,"longitude":-0.996532,"website":"http://www.chanverrie.fr/","hasWebsite":true,"hasHoraires":true,"url":"https://lannuaire.service-public.gouv.fr/pays-de-la-loire/vendee/97dfefde-6ae1-4921-aeea-998a5d2ff05d"}
{"nom":"Chasnais","nomNormalise":"chasnais","typeCollectivite":"Commune","region":"Pays de la Loire","departement":"Vendée","departementCode":"85","adresse":{"street":"11 rue du Maréchal-de-Lattre-de-Tassigny","postalCode":"85400","city":"Chasnais","country":"France"},"contacts":{"email":"mairie-chasnais-85@orange.fr","telephone":"0251977483"},"horaires":"Le Lundi : de 09h30 à 13h00 de 14h00 à 17h00\nLe Mercredi : de 16h00 à 19h00\nLe Jeudi : de 09h30 à 13h00\nLe Vendredi : de 08h30 à 13h00","latitude":46.458183,"longitude":-1.229978,"website":"","hasWebsite":false,"hasHoraires":true,"url":"https://lannuaire.service-public.gouv.fr/pays-de-la-loire/vendee/ddd317ab-ae69-4bb5-8479-f0001cf18fb0"}
{"nom":"Mairie déléguée - Château-d'Olonne","nomNormalise":"mairiedelegueechateaudolonne","typeCollectivite":"Commune","region":"Pays de la Loire","departement":"Vendée","departementCode":"85","adresse":{"street":"Château-d'Olonne","postalCode":"85100","city":"Les Sables-d'Olonne","country":"France"},"contacts":{"email":"contact@lessablesdolonne.fr","telephone":"0251231600"},"horaires":"Du Lundi au Mercredi : de 08h30 à 12h00 de 13h30 à 17h30\nLe Jeudi : de 08h30 à 12h00 de 13h30 à 19h00\nLe Vendredi : de 08h30 à 12h00 de 13h30 à 17h30","latitude":46.504597,"longitude":-1.7390862,"website":"https://www.lessablesdolonne.fr/","hasWebsite":true,"hasHoraires":true,"url":"https://lannuaire.service-public.gouv.fr/pays-de-la-loire/vendee/fd93c725-d140-4bf9-8fd1-face8cfe6086"}
{"nom":"Château-Guibert","nomNormalise":"chateauguibert","typeCollectivite":"Commune","region":"Pays de la Loire","departement":"Vendée","departementCode":"85","adresse":{"street":"6 rue du Jarc","postalCode":"85320","city":"Château-Guibert","country":"France"},"contacts":{"email":"contact@chateau-guibert.fr","telephone":"0251305403"},"horaires":"Le Lundi : de 09h00 à 12h30\nLe Mercredi : de 09h00 à 12h30\nLe Jeudi : de 14h00 à 18h45\n\nOuvert uniquement les semaines paires.\nLe Vendredi : de 09h00 à 12h30\nLe Samedi : de 09h00 à 12h00\n\nOuvert uniquement les semaines impaires.","latitude":46.5809,"longitude":-1.23632,"website":"http://www.chateau-guibert.fr/","hasWebsite":true,"hasHoraires":true,"url":"https://lannuaire.service-public.gouv.fr/pays-de-la-loire/vendee/f0aff4a8-a973-4dfe-9543-25b8707e063f"}
{"nom":"Châteauneuf","nomNormalise":"chateauneuf","typeCollectivite":"Commune","region":"Pays de la Loire","departement":"Vendée","departementCode":"85","adresse":{"street":"5 rue Rivaudeau","postalCode":"85710","city":"Châteauneuf","country":"France"},"contacts":{"email":"secretariat@chateauneuf85.fr","telephone":"0251681904"},"horaires":"Du Lundi au Samedi : de 09h00 à 12h30\n\nAccueil fermé le 1er samedi du mois.\nAccueil ouvert les lundi, mardi, jeudi et vendredi après-midi, uniquement sur rendez-vous.","latitude":46.917618,"longitude":-1.912424,"website":"https://www.chateauneuf85.fr/","hasWebsite":true,"hasHoraires":true,"url":"https://lannuaire.service-public.gouv.fr/pays-de-la-loire/vendee/305c914b-f7d1-46b5-ad23-9864c3814018"}
{"nom":"Chauché","nomNormalise":"chauche","typeCollectivite":"Commune","region":"Pays de la Loire","departement":"Vendée","departementCode":"85","adresse":{"street":"8 rue de la Petite-Maine","postalCode":"85140","city":"Chauché","country":"France"},"contacts":{"email":"mairie@chauche.fr","telephone":"0251418309"},"horaires":"Du Lundi au Vendredi : de 08h30 à 12h30\nLe Samedi : de 09h00 à 12h00\n\nAccueil fermé en juillet-août.","latitude":46.8304,"longitude":-1.26946,"website":"https://www.chauche.fr/","hasWebsite":true,"hasHoraires":true,"url":"https://lannuaire.service-public.gouv.fr/pays-de-la-loire/vendee/93aadd59-e547-4325-a509-27df2cc130c4"}
{"nom":"Chavagnes-en-Paillers","nomNormalise":"chavagnesenpaillers","typeCollectivite":"Commune","region":"Pays de la Loire","departement":"Vendée","departementCode":"85","adresse":{"street":"2 place des Justes","postalCode":"85250","city":"Chavagnes-en-Paillers","country":"France"},"contacts":{"email":"contact@chavagnes-en-paillers.fr","telephone":"0251422106"},"horaires":"Du Lundi au Mercredi : de 09h00 à 12h30 de 15h00 à 17h00\nLe Jeudi : de 09h00 à 12h30\nLe Vendredi : de 09h00 à 12h30 de 15h00 à 17h00\nLe Samedi : de 09h00 à 12h00\n\nUniquement pemanance état civil.","latitude":46.829,"longitude":-1.2690603,"website":"https://www.chavagnes-en-paillers.fr/","hasWebsite":true,"hasHoraires":true,"url":"https://lannuaire.service-public.gouv.fr/pays-de-la-loire/vendee/52566044-aa5e-4d47-83b0-de193de3a5ce"}
{"nom":"Chavagnes-les-Redoux","nomNormalise":"chavagneslesredoux","typeCollectivite":"Commune","region":"Pays de la Loire","departement":"Vendée","departementCode":"85","adresse":{"street":"1 place de la Mairie","postalCode":"85390","city":"Chavagnes-les-Redoux","country":"France"},"contacts":{"email":"accueil@chavagneslesredoux.fr","telephone":"0251924159"},"horaires":"Le Lundi : de 09h30 à 12h00\nLe Mardi : de 09h30 à 12h00 de 13h30 à 18h00\nLe Jeudi : de 09h30 à 12h00\nLe Vendredi : de 09h30 à 12h00 de 13h30 à 18h00","latitude":46.7154,"longitude":-0.920535,"website":"https://www.chavagneslesredoux.fr/","hasWebsite":true,"hasHoraires":true,"url":"https://lannuaire.service-public.gouv.fr/pays-de-la-loire/vendee/1a5e0e37-6192-4d6a-8d27-646b31d8d74b"}
{"nom":"Cheffois","nomNormalise":"cheffois","typeCollectivite":"Commune","region":"Pays de la Loire","departement":"Vendée","departementCode":"85","adresse":{"street":"2 place de la Mairie","postalCode":"85390","city":"Cheffois","country":"France"},"contacts":{"email":"accueil@cheffois.fr","telephone":"0251696402"},"horaires":"Du Lundi au Vendredi : de 13h30 à 16h30","latitude":46.66825,"longitude":-0.790584,"website":"https://cheffois.com/","hasWebsite":true,"hasHoraires":true,"url":"https://lannuaire.service-public.gouv.fr/pays-de-la-loire/vendee/cb34879d-1a1b-476f-9bb3-4911fba0ad14"}
{"nom":"Coëx","nomNormalise":"coex","typeCollectivite":"Commune","region":"Pays de la Loire","departement":"Vendée","departementCode":"85","adresse":{"street":"9 rue Jean-Mermoz","postalCode":"85220","city":"Coëx","country":"France"},"contacts":{"email":"accueil@ville-coex.fr","telephone":"0228103232"},"horaires":"Le Lundi : de 09h00 à 12h00 de 15h00 à 18h00\nLe Mardi : de 09h00 à 12h00\nLe Mercredi : de 09h00 à 12h00 de 15h00 à 18h00\nLe Jeudi : de 09h00 à 12h00\nLe Vendredi : de 09h00 à 12h00 de 15h00 à 18h00","latitude":46.6974,"longitude":-1.7624,"website":"https://ville-coex.fr/","hasWebsite":true,"hasHoraires":true,"url":"https://lannuaire.service-public.gouv.fr/pays-de-la-loire/vendee/cb2c037b-56c8-4616-a2ba-213716661440"}
{"nom":"Commequiers","nomNormalise":"commequiers","typeCollectivite":"Commune","region":"Pays de la Loire","departement":"Vendée","departementCode":"85","adresse":{"street":"Place du 8-Mai","postalCode":"85220","city":"Commequiers","country":"France"},"contacts":{"email":"servicespopulation@commequiers.fr","telephone":"0251548056"},"horaires":"Du Lundi au Samedi : de 09h00 à 12h30\nOuvert uniquement le 1er et 3e samedi du mois.","latitude":46.76166,"longitude":-1.837398,"website":"https://commequiers.fr/","hasWebsite":true,"hasHoraires":true,"url":"https://lannuaire.service-public.gouv.fr/pays-de-la-loire/vendee/a1bf96bb-fbf5-4188-82ef-20234f1ef3dd"}
{"nom":"Corpe","nomNormalise":"corpe","typeCollectivite":"Commune","region":"Pays de la Loire","departement":"Vendée","departementCode":"85","adresse":{"street":"2 rue de Mainclaye","postalCode":"85320","city":"Corpe","country":"France"},"contacts":{"email":"mairie@corpe85.fr","telephone":"0251561083"},"horaires":"Du Lundi au Mardi : de 09h00 à 12h00\nLe Mercredi : de 09h00 à 12h00 de 13h30 à 16h00\nLe Jeudi : de 09h00 à 12h00\nLe Vendredi : de 09h00 à 12h00 de 13h30 à 18h00\nLe Samedi : de 09h00 à 12h00","latitude":46.5092,"longitude":-1.18216,"website":"https://www.intramuros.org/corpe","hasWebsite":true,"hasHoraires":true,"url":"https://lannuaire.service-public.gouv.fr/pays-de-la-loire/vendee/f29ab78f-625b-4c31-bff3-5c5912b6e3ea"}
{"nom":"Cugand-la-Bernadière","nomNormalise":"cugandlabernadiere","typeCollectivite":"Commune","region":"Pays de la Loire","departement":"Vendée","departementCode":"85","adresse":{"street":"7 place Vincent-Ansquer","postalCode":"85610","city":"Cugand","country":"France"},"contacts":{"email":"mairie@cugand.fr","telephone":"0251437070"},"horaires":"Le Lundi : de 09h00 à 12h30 de 14h00 à 17h00\nLe Mardi : de 09h00 à 12h30\nLe Mercredi : de 09h00 à 12h30 de 14h00 à 17h00\nLe Jeudi : de 09h00 à 12h30\nLe Vendredi : de 09h00 à 12h30 de 14h00 à 17h00\nLe Samedi : de 09h00 à 12h30","latitude":47.06542,"longitude":-1.25334,"website":"https://www.cugand.fr/","hasWebsite":true,"hasHoraires":true,"url":"https://lannuaire.service-public.gouv.fr/pays-de-la-loire/vendee/d6c6a1e6-ac6b-4e76-adcc-bc47b7001861"}
{"nom":"Curzon","nomNormalise":"curzon","typeCollectivite":"Commune","region":"Pays de la Loire","departement":"Vendée","departementCode":"85","adresse":{"street":"3 place de la Mairie","postalCode":"85540","city":"Curzon","country":"France"},"contacts":{"email":"mairie@curzon.fr","telephone":"0251308109"},"horaires":"Du Lundi au Mardi : de 08h30 à 12h00 de 13h30 à 17h00\nLe Mercredi : de 08h30 à 12h00\nDu Jeudi au Vendredi : de 08h30 à 12h00 de 13h30 à 17h00","latitude":46.4476,"longitude":-1.30834,"website":"https://curzon.fr/fr/","hasWebsite":true,"hasHoraires":true,"url":"https://lannuaire.service-public.gouv.fr/pays-de-la-loire/vendee/e650884a-ae87-4d4d-ac06-d291fddbb6f6"}
{"nom":"Damvix","nomNormalise":"damvix","typeCollectivite":"Commune","region":"Pays de la Loire","departement":"Vendée","departementCode":"85","adresse":{"street":"17 rue du Centre","postalCode":"85420","city":"Damvix","country":"France"},"contacts":{"email":"mairie@damvix.fr","telephone":"0251871420"},"horaires":"Le Lundi : de 09h00 à 12h00\nLe Mercredi : de 09h00 à 12h00\nLe Jeudi : de 15h00 à 18h00","latitude":46.314827,"longitude":-0.733465,"website":"https://damvix.fr/","hasWebsite":true,"hasHoraires":true,"url":"https://lannuaire.service-public.gouv.fr/pays-de-la-loire/vendee/64517fbf-57f5-4c21-ad57-5850b82704cc"}
{"nom":"Mairie déléguée- Cezais","nomNormalise":"mairiedelegueecezais","typeCollectivite":"Commune","region":"Pays de la Loire","departement":"Vendée","departementCode":"85","adresse":{"street":"Cezais","postalCode":"85410","city":"Rives-du-Fougerais","country":"France"},"contacts":{"email":"secretariat@rivesdufougerais.fr","telephone":"0251008495"},"horaires":"Le Mardi : de 09h00 à 12h30\nLe Vendredi : de 14h00 à 17h30","latitude":46.59084,"longitude":-0.817513,"website":"https://rivesdufougerais.fr/","hasWebsite":true,"hasHoraires":true,"url":"https://lannuaire.service-public.gouv.fr/pays-de-la-loire/vendee/e8a11988-0ae1-46b1-a66b-1cfaabbcf64f"}
{"nom":"Doix-lès-Fontaines","nomNormalise":"doixlesfontaines","typeCollectivite":"Commune","region":"Pays de la Loire","departement":"Vendée","departementCode":"85","adresse":{"street":"5 rue du Prieur-Gusteau","postalCode":"85200","city":"Doix-les-Fontaines","country":"France"},"contacts":{"email":"mairie@doixlesfontaines.com","telephone":"0251504545"},"horaires":"Du Lundi au Mardi : de 09h00 à 12h00 de 14h00 à 17h30\nLe Mercredi : de 09h00 à 12h00\nLe Jeudi : de 14h00 à 17h30\nLe Vendredi : de 09h00 à 12h00","latitude":46.3931,"longitude":-0.805588,"website":"https://doixlesfontaines.com/","hasWebsite":true,"hasHoraires":true,"url":"https://lannuaire.service-public.gouv.fr/pays-de-la-loire/vendee/e331942c-1deb-4e50-9f6c-d8b6da09fab3"}
{"nom":"Dompierre-sur-Yon","nomNormalise":"dompierresuryon","typeCollectivite":"Commune","region":"Pays de la Loire","departement":"Vendée","departementCode":"85","adresse":{"street":"20 rue du Vieux-Bourg","postalCode":"85170","city":"Dompierre-sur-Yon","country":"France"},"contacts":{"email":"mairie@dompierre-sur-yon.fr","telephone":"0251075908"},"horaires":"Le Lundi : de 09h00 à 12h30 de 14h00 à 17h30\nLe Mardi : de 09h00 à 12h30\nDu Mercredi au Vendredi : de 09h00 à 12h30 de 14h00 à 17h30\nLe Samedi : de 10h00 à 12h00\n\nAccueil fermé en juillet-août.","latitude":46.7374,"longitude":-1.38517,"website":"https://www.dompierre-sur-yon.fr/","hasWebsite":true,"hasHoraires":true,"url":"https://lannuaire.service-public.gouv.fr/pays-de-la-loire/vendee/d027b63a-abbc-4601-ab31-c6409c61d2f0"}
{"nom":"Essarts-en-Bocage","nomNormalise":"essartsenbocage","typeCollectivite":"Commune","region":"Pays de la Loire","departement":"Vendée","departementCode":"85","adresse":{"street":"Les Essarts","postalCode":"85140","city":"Essarts-en-Bocage","country":"France"},"contacts":{"email":"mairie-essarts@essartsenbocage.fr","telephone":"0251628326"},"horaires":"Du Lundi au Vendredi : de 09h00 à 12h30 de 13h30 à 17h30\nLe Samedi : de 08h45 à 12h30","latitude":46.7744,"longitude":-1.23051,"website":"https://www.essartsenbocage.fr/","hasWebsite":true,"hasHoraires":true,"url":"https://lannuaire.service-public.gouv.fr/pays-de-la-loire/vendee/ab7589a4-2257-4a31-930f-21920e4af75c"}
{"nom":"Falleron","nomNormalise":"falleron","typeCollectivite":"Commune","region":"Pays de la Loire","departement":"Vendée","departementCode":"85","adresse":{"street":"11 place de la Mairie","postalCode":"85670","city":"Falleron","country":"France"},"contacts":{"email":"accueil@falleron.fr","telephone":"0251355091"},"horaires":"Le Lundi : de 09h00 à 12h00 de 14h00 à 17h30\nLe Mardi : de 14h00 à 17h30\nLe Mercredi : de 09h00 à 12h00 de 14h00 à 17h30\nLe Jeudi : de 14h00 à 18h30\nLe Vendredi : de 09h00 à 12h00 de 14h00 à 16h30\nLe Samedi : de 09h00 à 12h00\n\nSauf en Juillet et Aout.","latitude":46.8817,"longitude":-1.70209,"website":"https://www.falleron.fr/","hasWebsite":true,"hasHoraires":true,"url":"https://lannuaire.service-public.gouv.fr/pays-de-la-loire/vendee/407a40c5-5ca8-42bd-86f4-e1a42c6501c9"}
{"nom":"Faymoreau","nomNormalise":"faymoreau","typeCollectivite":"Commune","region":"Pays de la Loire","departement":"Vendée","departementCode":"85","adresse":{"street":"27 coron des Bas-de-Soie","postalCode":"85240","city":"Faymoreau","country":"France"},"contacts":{"email":"mairie@faymoreau.fr","telephone":"0251004376"},"horaires":"Le Lundi : de 14h00 à 17h00\nLe Vendredi : de 09h00 à 12h00","latitude":46.53809,"longitude":-0.627708,"website":"","hasWebsite":false,"hasHoraires":true,"url":"https://lannuaire.service-public.gouv.fr/pays-de-la-loire/vendee/6a1279f7-9245-4c8e-bf7d-bc521009415c"}
{"nom":"Fontenay-le-Comte","nomNormalise":"fontenaylecomte","typeCollectivite":"Commune","region":"Pays de la Loire","departement":"Vendée","departementCode":"85","adresse":{"street":"4 quai Victor-Hugo","postalCode":"85200","city":"Fontenay-le-Comte","country":"France"},"contacts":{"email":"courrier@ville-fontenaylecomte.fr","telephone":"0251534141"},"horaires":"Du Lundi au Vendredi : de 08h00 à 12h00 de 13h15 à 17h00","latitude":46.4663,"longitude":-0.806473,"website":"https://www.fontenay-le-comte.fr/","hasWebsite":true,"hasHoraires":true,"url":"https://lannuaire.service-public.gouv.fr/pays-de-la-loire/vendee/60d6b7c6-4a9b-4912-98c4-9a881253b264"}
{"nom":"Fougeré","nomNormalise":"fougere","typeCollectivite":"Commune","region":"Pays de la Loire","departement":"Vendée","departementCode":"85","adresse":{"street":"58 rue de la Forêt","postalCode":"85480","city":"Fougeré","country":"France"},"contacts":{"email":"mairie@fougere.fr","telephone":"0251057178"},"horaires":"Le Lundi : de 15h30 à 17h30\nDu Mardi au Vendredi : de 08h30 à 12h30 de 15h30 à 17h30","latitude":46.65923,"longitude":-1.2325397,"website":"https://fougere.fr/","hasWebsite":true,"hasHoraires":true,"url":"https://lannuaire.service-public.gouv.fr/pays-de-la-loire/vendee/b91bc563-e600-45ce-b363-b2424cc52e39"}
{"nom":"Foussais-Payré","nomNormalise":"foussaispayre","typeCollectivite":"Commune","region":"Pays de la Loire","departement":"Vendée","departementCode":"85","adresse":{"street":"3 rue du Prieuré","postalCode":"85240","city":"Foussais-Payré","country":"France"},"contacts":{"email":"contact@foussaispayre.fr","telephone":"0251514123"},"horaires":"Le Lundi : de 08h30 à 12h30\nLe Mardi : de 08h30 à 12h30 de 13h30 à 17h30\nDu Mercredi au Jeudi : de 08h30 à 12h30\nLe Vendredi : de 08h30 à 12h30 de 13h30 à 17h30\n\nAccueil ouvert uniquement le matin en juillet-août.","latitude":46.52877,"longitude":-0.681903,"website":"http://www.foussais-payre.fr/","hasWebsite":true,"hasHoraires":true,"url":"https://lannuaire.service-public.gouv.fr/pays-de-la-loire/vendee/12c0bd58-f65b-48e6-bde7-614d7b1614c9"}
{"nom":"Froidfond","nomNormalise":"froidfond","typeCollectivite":"Commune","region":"Pays de la Loire","departement":"Vendée","departementCode":"85","adresse":{"street":"55 rue de l'Océan","postalCode":"85300","city":"Froidfond","country":"France"},"contacts":{"email":"mairiefroidfond@wanadoo.fr","telephone":"0251355344"},"horaires":"Du Lundi au Vendredi : de 08h30 à 12h00 de 13h30 à 17h00\nLe Samedi : de 09h00 à 12h00","latitude":46.8693,"longitude":-1.75886,"website":"http://www.froidfond.fr/","hasWebsite":true,"hasHoraires":true,"url":"https://lannuaire.service-public.gouv.fr/pays-de-la-loire/vendee/f88820aa-febe-466e-a076-b0507d714d17"}
{"nom":"Givrand","nomNormalise":"givrand","typeCollectivite":"Commune","region":"Pays de la Loire","departement":"Vendée","departementCode":"85","adresse":{"street":"5 rue du Bourg","postalCode":"85800","city":"Givrand","country":"France"},"contacts":{"email":"mairie@givrand.fr","telephone":"0251551331"},"horaires":"Du Lundi au Mercredi : de 09h00 à 12h00 de 14h00 à 17h30\nLe Jeudi : de 09h00 à 12h00\nLe Vendredi : de 09h00 à 12h00 de 14h00 à 17h30","latitude":46.6717,"longitude":-1.88191,"website":"https://www.givrand.fr/","hasWebsite":true,"hasHoraires":true,"url":"https://lannuaire.service-public.gouv.fr/pays-de-la-loire/vendee/30def44d-7c37-46b6-bce9-ceefd03de530"}
{"nom":"Grand'Landes","nomNormalise":"grandlandes","typeCollectivite":"Commune","region":"Pays de la Loire","departement":"Vendée","departementCode":"85","adresse":{"street":"10 rue de la Mairie","postalCode":"85670","city":"Grand'Landes","country":"France"},"contacts":{"email":"mairie@grandlandes.fr","telephone":"0251985186"},"horaires":"Du Lundi au Mardi : de 09h00 à 12h00 de 14h00 à 17h30\nLe Mercredi : de 09h00 à 12h00\nDu Jeudi au Vendredi : de 09h00 à 12h00 de 14h00 à 17h30\nLe Samedi : de 09h00 à 12h00","latitude":46.8202,"longitude":-1.64936,"website":"https://grandlandes.fr/","hasWebsite":true,"hasHoraires":true,"url":"https://lannuaire.service-public.gouv.fr/pays-de-la-loire/vendee/217db158-432b-47cd-be48-28fe891f2997"}
{"nom":"Grosbreuil","nomNormalise":"grosbreuil","typeCollectivite":"Commune","region":"Pays de la Loire","departement":"Vendée","departementCode":"85","adresse":{"street":"2 rue de la Mairie","postalCode":"85440","city":"Grosbreuil","country":"France"},"contacts":{"email":"mairie.grosbreuil@wanadoo.fr","telephone":"0251226975"},"horaires":"Le Lundi : de 09h00 à 12h30\nLe Mercredi : de 09h00 à 12h30\nLe Vendredi : de 09h00 à 12h30\nLe Samedi : de 10h00 à 12h30\n\nAccueil ouvert uniquement le 1er samedi du mois.","latitude":46.539986,"longitude":-1.616027,"website":"http://www.grosbreuil.fr/","hasWebsite":true,"hasHoraires":true,"url":"https://lannuaire.service-public.gouv.fr/pays-de-la-loire/vendee/8a4e647a-768a-4168-8680-fc0d214f18c6"}
{"nom":"Grues","nomNormalise":"grues","typeCollectivite":"Commune","region":"Pays de la Loire","departement":"Vendée","departementCode":"85","adresse":{"street":"23 rue de la République","postalCode":"85580","city":"Grues","country":"France"},"contacts":{"email":"accueil@grues.fr","telephone":"0251272356"},"horaires":"Le Lundi : de 10h00 à 12h00 de 14h00 à 16h00\nDu Mardi au Mercredi : de 10h00 à 12h00\nDu Jeudi au Vendredi : de 10h00 à 12h00 de 14h00 à 16h00","latitude":46.3976,"longitude":-1.30389,"website":"","hasWebsite":false,"hasHoraires":true,"url":"https://lannuaire.service-public.gouv.fr/pays-de-la-loire/vendee/c1b00fe9-9858-4620-bc9a-453625df75e0"}
{"nom":"Jard-sur-Mer","nomNormalise":"jardsurmer","typeCollectivite":"Commune","region":"Pays de la Loire","departement":"Vendée","departementCode":"85","adresse":{"street":"Place de l'Hôtel-de-Ville","postalCode":"85520","city":"Jard-sur-Mer","country":"France"},"contacts":{"email":"mairie@ville-jardsurmer.fr","telephone":"0251334017"},"horaires":"Du Lundi au Mercredi : de 09h00 à 12h30 de 13h45 à 18h00\nLe Jeudi : de 09h00 à 12h30\nLe Vendredi : de 09h00 à 12h30 de 13h45 à 17h00","latitude":46.4167,"longitude":-1.57694,"website":"https://www.ville-jardsurmer.fr/","hasWebsite":true,"hasHoraires":true,"url":"https://lannuaire.service-public.gouv.fr/pays-de-la-loire/vendee/6d884bf4-37a0-4f7c-b1d9-a3eaabc22c1a"}
{"nom":"L'Aiguillon-la-Presqu'île","nomNormalise":"laiguillonlapresquile","typeCollectivite":"Commune","region":"Pays de la Loire","departement":"Vendée","departementCode":"85","adresse":{"street":"L'Aiguillon-sur-Mer","postalCode":"85460","city":"L'Aiguillon-la-Presqu'île","country":"France"},"contacts":{"email":"mairie@laiguillonlapresquile.fr","telephone":"0251971929"},"horaires":"Du Lundi au Samedi : de 08h45 à 12h00\n\nAccueil ouvert uniquement sur rendezvous, le mardi et le jeudi après-midi.","latitude":46.3345,"longitude":-1.30723,"website":"https://www.laiguillonlapresquile.fr/","hasWebsite":true,"hasHoraires":true,"url":"https://lannuaire.service-public.gouv.fr/pays-de-la-loire/vendee/37a12d77-2e84-46df-ac21-0d2f84b3f1bb"}
{"nom":"L'Aiguillon-sur-Vie","nomNormalise":"laiguillonsurvie","typeCollectivite":"Commune","region":"Pays de la Loire","departement":"Vendée","departementCode":"85","adresse":{"street":"20 rue de l'Église","postalCode":"85220","city":"L'Aiguillon-sur-Vie","country":"France"},"contacts":{"email":"accueil@laiguillonsurvie.fr","telephone":"0251228052"},"horaires":"Du Lundi au Vendredi : de 09h00 à 12h00 de 14h00 à 16h00","latitude":46.66994,"longitude":-1.8289129,"website":"http://www.laiguillonsurvie.fr/","hasWebsite":true,"hasHoraires":true,"url":"https://lannuaire.service-public.gouv.fr/pays-de-la-loire/vendee/63b569ea-aa92-4ebd-931e-5d1a5ae2b8e2"}
{"nom":"L'Épine","nomNormalise":"lepine","typeCollectivite":"Commune","region":"Pays de la Loire","departement":"Vendée","departementCode":"85","adresse":{"street":"20 rue de l'Hôtel-de-Ville","postalCode":"85740","city":"L'Épine","country":"France"},"contacts":{"email":"mairie@lepine-iledenoirmoutier.fr","telephone":"0251391117"},"horaires":"Du Lundi au Mardi : de 09h00 à 12h00 de 14h00 à 17h00\nLe Mercredi : de 10h00 à 12h00\nDu Jeudi au Vendredi : de 09h00 à 12h00 de 14h00 à 17h00\nLe Samedi : de 10h00 à 12h00\n\nFermé les samedis de Octobre à Mars.","latitude":46.9792,"longitude":-2.2656,"website":"https://lepine-iledenoirmoutier.fr/","hasWebsite":true,"hasHoraires":true,"url":"https://lannuaire.service-public.gouv.fr/pays-de-la-loire/vendee/4ca0dc1a-bbaf-4619-b12d-836c360103f5"}
{"nom":"L'Herbergement","nomNormalise":"lherbergement","typeCollectivite":"Commune","region":"Pays de la Loire","departement":"Vendée","departementCode":"85","adresse":{"street":"21 place de l'Église","postalCode":"85260","city":"L'Herbergement","country":"France"},"contacts":{"email":"mairie@lherbergement.fr","telephone":"0251428174"},"horaires":"Le Lundi : de 14h30 à 17h30\nDu Mardi au Mercredi : de 09h00 à 12h15 de 14h30 à 17h30\nLe Jeudi : de 09h00 à 12h15\nLe Vendredi : de 09h00 à 12h15 de 14h30 à 17h30\nLe Samedi : de 09h00 à 12h00","latitude":46.8964,"longitude":-1.4245899,"website":"https://www.lherbergement.fr/","hasWebsite":true,"hasHoraires":true,"url":"https://lannuaire.service-public.gouv.fr/pays-de-la-loire/vendee/a0114814-1168-4a03-b15b-9a63256eaf42"}
{"nom":"L'Hermenault","nomNormalise":"lhermenault","typeCollectivite":"Commune","region":"Pays de la Loire","departement":"Vendée","departementCode":"85","adresse":{"street":"13 rue de la Gazellerie","postalCode":"85570","city":"L'Hermenault","country":"France"},"contacts":{"email":"mairie@lhermenault.fr","telephone":"0251001318"},"horaires":"Le Lundi : de 08h30 à 12h30\nLe Mardi : de 08h30 à 12h30 de 14h00 à 16h30\nDu Mercredi au Jeudi : de 08h30 à 12h30\nLe Vendredi : de 08h30 à 12h30 de 14h00 à 16h30","latitude":46.5203,"longitude":-0.900856,"website":"https://www.lhermenault.fr/","hasWebsite":true,"hasHoraires":true,"url":"https://lannuaire.service-public.gouv.fr/pays-de-la-loire/vendee/729d0307-8d84-4b50-a18c-f67777e812fe"}
{"nom":"L'Île-d'Elle","nomNormalise":"liledelle","typeCollectivite":"Commune","region":"Pays de la Loire","departement":"Vendée","departementCode":"85","adresse":{"street":"1 rue de la Mairie","postalCode":"85770","city":"L'Île-d'Elle","country":"France"},"contacts":{"email":"secretariat@mairie-iledelle.fr","telephone":"0251520039"},"horaires":"Le Mardi : de 09h00 à 12h00 de 14h00 à 17h00\nLe Mercredi : de 14h00 à 17h00\nLe Vendredi : de 09h00 à 12h00 de 14h00 à 17h00","latitude":46.3296,"longitude":-0.946985,"website":"https://www.mairie-iledelle.fr/","hasWebsite":true,"hasHoraires":true,"url":"https://lannuaire.service-public.gouv.fr/pays-de-la-loire/vendee/972046f7-842e-445b-879a-fb26cd964dd6"}
{"nom":"L'Île-d'Olonne","nomNormalise":"liledolonne","typeCollectivite":"Commune","region":"Pays de la Loire","departement":"Vendée","departementCode":"85","adresse":{"street":"2 bis rue Georges-Clemenceau","postalCode":"85340","city":"L'Île-d'Olonne","country":"France"},"contacts":{"email":"accueil@mairie-liledolonne.fr","telephone":"0251331172"},"horaires":"Le Lundi : de 09h00 à 12h30 de 13h30 à 17h00\nLe Mardi : de 09h00 à 12h30\nLe Mercredi : de 09h00 à 12h30 de 13h30 à 17h00\nLe Jeudi : de 13h30 à 17h00\nLe Vendredi : de 09h00 à 12h30 de 13h30 à 17h00","latitude":46.561825,"longitude":-1.7806364,"website":"http://www.mairie-liledolonne.fr/","hasWebsite":true,"hasHoraires":true,"url":"https://lannuaire.service-public.gouv.fr/pays-de-la-loire/vendee/e0b46b5c-a0f1-4828-8711-b27207928078"}
{"nom":"L'Île-d'Yeu","nomNormalise":"liledyeu","typeCollectivite":"Commune","region":"Pays de la Loire","departement":"Vendée","departementCode":"85","adresse":{"street":"11 quai de la Mairie","postalCode":"85350","city":"L'Île-d'Yeu","country":"France"},"contacts":{"email":"mairie@ile-yeu.fr","telephone":"0251594545"},"horaires":"Le Lundi : de 09h00 à 12h30 de 14h00 à 17h00\nLe Mardi : de 09h00 à 12h30\nDu Mercredi au Jeudi : de 09h00 à 12h30 de 14h00 à 17h00\nLe Vendredi : de 09h00 à 12h30 de 14h00 à 16h30","latitude":46.7245,"longitude":-2.34838,"website":"http://mairie.ile-yeu.fr/","hasWebsite":true,"hasHoraires":true,"url":"https://lannuaire.service-public.gouv.fr/pays-de-la-loire/vendee/fef2728e-9094-4718-b5a1-68998d92fd8e"}
{"nom":"L'Oie","nomNormalise":"loie","typeCollectivite":"Commune","region":"Pays de la Loire","departement":"Vendée","departementCode":"85","adresse":{"street":"2 place de l'Oie","postalCode":"85140","city":"L'Oie","country":"France"},"contacts":{"email":"mairie@mairie-oie.fr","telephone":"0251660336"},"horaires":"Du Lundi au Vendredi : de 09h00 à 12h30 de 14h00 à 17h00","latitude":46.798088,"longitude":-1.130008,"website":"","hasWebsite":false,"hasHoraires":true,"url":"https://lannuaire.service-public.gouv.fr/pays-de-la-loire/vendee/f655f7af-9450-4b36-97eb-ae1d17692718"}
{"nom":"L'Orbrie","nomNormalise":"lorbrie","typeCollectivite":"Commune","region":"Pays de la Loire","departement":"Vendée","departementCode":"85","adresse":{"street":"21 rue du Docteur-Audé","postalCode":"85200","city":"L'Orbrie","country":"France"},"contacts":{"email":"mairie.lorbrie@orange.fr","telephone":"0251690672"},"horaires":"Le Lundi : de 14h00 à 18h00\nDu Mardi au Jeudi : de 09h00 à 12h00\nLe Vendredi : de 14h00 à 18h00","latitude":46.489807,"longitude":-0.7866657,"website":"http://lorbrie.fr/","hasWebsite":true,"hasHoraires":true,"url":"https://lannuaire.service-public.gouv.fr/pays-de-la-loire/vendee/fa68ed31-b12b-4782-8ac2-78d0b3cfe39e"}
{"nom":"La Barre-de-Monts","nomNormalise":"labarredemonts","typeCollectivite":"Commune","region":"Pays de la Loire","departement":"Vendée","departementCode":"85","adresse":{"street":"34 route de Saint-Jean-de-Monts","postalCode":"85550","city":"La Barre-de-Monts","country":"France"},"contacts":{"email":"mairie@ville-labarredemonts.fr","telephone":"0251685231"},"horaires":"Du Lundi au Mardi : de 08h30 à 12h00 de 14h30 à 17h30\nLe Mercredi : de 09h00 à 12h00\nDu Jeudi au Vendredi : de 08h30 à 12h00 de 14h30 à 17h30","latitude":46.8816,"longitude":-2.1191,"website":"http://www.labarredemonts.fr/","hasWebsite":true,"hasHoraires":true,"url":"https://lannuaire.service-public.gouv.fr/pays-de-la-loire/vendee/de0fa23b-84f3-4108-b4db-82ce4ab2b4af"}
{"nom":"Mairie déléguée - La Bernardière","nomNormalise":"mairiedelegueelabernardiere","typeCollectivite":"Commune","region":"Pays de la Loire","departement":"Vendée","departementCode":"85","adresse":{"street":"La Bernardière","postalCode":"85610","city":"Cugand-la-Bernadière","country":"France"},"contacts":{"email":"contact@labernardiere.fr","telephone":"0251421591"},"horaires":"Du Mardi au Mercredi : de 09h00 à 12h30\nLe Vendredi : de 09h00 à 12h30\nLe Samedi : de 09h00 à 12h00","latitude":47.0499,"longitude":-1.26594,"website":"http://www.labernardiere.fr/","hasWebsite":true,"hasHoraires":true,"url":"https://lannuaire.service-public.gouv.fr/pays-de-la-loire/vendee/9d1502fc-763e-428b-98cf-d60ac6540e08"}
{"nom":"La Boissière-de-Montaigu","nomNormalise":"laboissieredemontaigu","typeCollectivite":"Commune","region":"Pays de la Loire","departement":"Vendée","departementCode":"85","adresse":{"street":"3 rue de Cholet","postalCode":"85600","city":"La Boissière-de-Montaigu","country":"France"},"contacts":{"email":"buxia@boissieredemontaigu.fr","telephone":"0251416108"},"horaires":"Le Lundi : de 09h00 à 12h15 de 15h30 à 17h30\nLe Mardi : de 15h30 à 17h30\nLe Mercredi : de 09h00 à 12h45\nDu Jeudi au Vendredi : de 09h00 à 12h15 de 15h30 à 17h30\nLe Samedi : de 09h00 à 12h00","latitude":46.95054,"longitude":-1.190203,"website":"https://www.boissieredemontaigu.fr/","hasWebsite":true,"hasHoraires":true,"url":"https://lannuaire.service-public.gouv.fr/pays-de-la-loire/vendee/8024f9ca-91d5-4d4f-b89a-2c3fa2903657"}
{"nom":"La Boissière-des-Landes","nomNormalise":"laboissieredeslandes","typeCollectivite":"Commune","region":"Pays de la Loire","departement":"Vendée","departementCode":"85","adresse":{"street":"2 rue de la Fontaine","postalCode":"85430","city":"La Boissière-des-Landes","country":"France"},"contacts":{"email":"accueil@laboissieredeslandes.fr","telephone":"0251987303"},"horaires":"Le Lundi : de 09h00 à 12h30\nLe Mardi : de 09h00 à 12h30 de 14h00 à 17h30\nLe Mercredi : de 09h00 à 12h30\nLe Jeudi : de 09h00 à 12h30 de 14h00 à 17h30\nLe Vendredi : de 09h00 à 12h30 de 14h00 à 17h00\nLe Samedi : de 09h00 à 11h30\n\nUniquement le 1er samedi de chaque mois.","latitude":46.5649,"longitude":-1.46347,"website":"http://www.laboissieredeslandes.fr/","hasWebsite":true,"hasHoraires":true,"url":"https://lannuaire.service-public.gouv.fr/pays-de-la-loire/vendee/740b098f-6a10-416a-8e30-0850dfee5e44"}
{"nom":"La Bretonnière-la-Claye","nomNormalise":"labretonnierelaclaye","typeCollectivite":"Commune","region":"Pays de la Loire","departement":"Vendée","departementCode":"85","adresse":{"street":"1 place de l'Église","postalCode":"85320","city":"La Bretonnière-la-Claye","country":"France"},"contacts":{"email":"mairielabretonnierelaclaye@orange.fr","telephone":"0251977381"},"horaires":"Le Lundi : de 08h30 à 12h30\nLe Mardi : de 08h30 à 12h30 de 14h00 à 19h00\nDu Mercredi au Jeudi : de 08h30 à 12h00","latitude":46.5026,"longitude":-1.22184,"website":"https://labretonnierelaclaye.fr/","hasWebsite":true,"hasHoraires":true,"url":"https://lannuaire.service-public.gouv.fr/pays-de-la-loire/vendee/afc85030-7a74-4f58-b04d-7a0a80a37723"}
{"nom":"La Bruffière","nomNormalise":"labruffiere","typeCollectivite":"Commune","region":"Pays de la Loire","departement":"Vendée","departementCode":"85","adresse":{"street":"1 place Jeanne-d'Arc","postalCode":"85530","city":"La Bruffière","country":"France"},"contacts":{"email":"contact@labruffiere.fr","telephone":"0251464310"},"horaires":"Le Lundi : de 08h30 à 12h00 de 15h30 à 17h30\nLe Mardi : de 08h30 à 12h00\nLe Mercredi : de 08h30 à 12h00 de 15h30 à 17h30\nLe Jeudi : de 08h30 à 12h00\nLe Vendredi : de 08h30 à 12h00 de 15h30 à 17h30\nLe Samedi : de 08h30 à 11h00","latitude":47.0134,"longitude":-1.19706,"website":"https://www.labruffiere.fr/","hasWebsite":true,"hasHoraires":true,"url":"https://lannuaire.service-public.gouv.fr/pays-de-la-loire/vendee/99b588cd-7dd2-41cf-a150-bd505b940b89"}
{"nom":"La Caillère-Saint-Hilaire","nomNormalise":"lacailleresainthilaire","typeCollectivite":"Commune","region":"Pays de la Loire","departement":"Vendée","departementCode":"85","adresse":{"street":"1 rue de la Mairie","postalCode":"85410","city":"La Caillère-Saint-Hilaire","country":"France"},"contacts":{"email":"mairie@lacailleresainthilaire.fr","telephone":"0251515228"},"horaires":"Le Mardi : de 08h30 à 12h30 de 13h30 à 16h30\nDu Mercredi au Vendredi : de 08h30 à 12h30","latitude":46.6184,"longitude":-0.91183,"website":"http://www.lacailleresainthilaire.fr/","hasWebsite":true,"hasHoraires":true,"url":"https://lannuaire.service-public.gouv.fr/pays-de-la-loire/vendee/06d6d331-aa63-463f-885e-976e55d00850"}
{"nom":"La Chaize-Giraud","nomNormalise":"lachaizegiraud","typeCollectivite":"Commune","region":"Pays de la Loire","departement":"Vendée","departementCode":"85","adresse":{"street":"3 rue de la Grotte","postalCode":"85220","city":"La Chaize-Giraud","country":"France"},"contacts":{"email":"accueil@lachaizegiraud.fr","telephone":"0251229637"},"horaires":"Le Lundi : de 14h00 à 18h00\nLe Mercredi : de 08h30 à 12h30\nLe Vendredi : de 08h30 à 12h30","latitude":46.648354,"longitude":-1.818254,"website":"https://www.lachaizegiraud.fr/","hasWebsite":true,"hasHoraires":true,"url":"https://lannuaire.service-public.gouv.fr/pays-de-la-loire/vendee/4509c434-f558-4a1c-8ab5-4e65a8f35327"}
{"nom":"La Chaize-le-Vicomte","nomNormalise":"lachaizelevicomte","typeCollectivite":"Commune","region":"Pays de la Loire","departement":"Vendée","departementCode":"85","adresse":{"street":"4 rue des Noyers","postalCode":"85310","city":"La Chaize-le-Vicomte","country":"France"},"contacts":{"email":"mairie@lachaizelevicomte.com","telephone":"0251057021"},"horaires":"Le Lundi : de 09h00 à 12h30 de 14h00 à 17h30\nLe Mardi : de 09h00 à 12h30\nDu Mercredi au Jeudi : de 09h00 à 12h30 de 14h00 à 17h30\nLe Vendredi : de 09h00 à 12h30 de 14h00 à 17h00\nLe Samedi : de 10h00 à 12h00\n\nAccueil fermé en juillet-août et pendant Noël.","latitude":46.67043,"longitude":-1.299618,"website":"http://www.lachaizelevicomte.fr/","hasWebsite":true,"hasHoraires":true,"url":"https://lannuaire.service-public.gouv.fr/pays-de-la-loire/vendee/5ba784ec-71ef-4ef3-96fd-14678fb47074"}
{"nom":"Mairie déléguée - La Chapelle-Achard","nomNormalise":"mairiedelegueelachapelleachard","typeCollectivite":"Commune","region":"Pays de la Loire","departement":"Vendée","departementCode":"85","adresse":{"street":"La Chapelle-Achard","postalCode":"85150","city":"Les Achards","country":"France"},"contacts":{"email":"contact@lesachards.fr","telephone":"0251386049"},"horaires":"Le Lundi : de 09h00 à 10h30 de 14h00 à 17h30\nLe Jeudi : de 09h00 à 12h30","latitude":46.5881,"longitude":-1.64813,"website":"https://www.lesachards.com/","hasWebsite":true,"hasHoraires":true,"url":"https://lannuaire.service-public.gouv.fr/pays-de-la-loire/vendee/3aaefa65-3a01-4180-97d9-9271df91a5d5"}
{"nom":"Mairie déléguée - La Chapelle-aux-Lys","nomNormalise":"mairiedelegueelachapelleauxlys","typeCollectivite":"Commune","region":"Pays de la Loire","departement":"Vendée","departementCode":"85","adresse":{"street":"La Chapelle-aux-Lys","postalCode":"85120","city":"Terval","country":"France"},"contacts":{"email":"accueilcal@terval85.fr","telephone":"0251696879"},"horaires":"Le Mardi : de 09h00 à 12h30\nLe Vendredi : de 13h30 à 18h00","latitude":46.628838,"longitude":-0.658764,"website":"","hasWebsite":false,"hasHoraires":true,"url":"https://lannuaire.service-public.gouv.fr/pays-de-la-loire/vendee/64601a4f-729a-4222-b7c0-1482881ac2a9"}
{"nom":"La Chapelle-Hermier","nomNormalise":"lachapellehermier","typeCollectivite":"Commune","region":"Pays de la Loire","departement":"Vendée","departementCode":"85","adresse":{"street":"17 ter rue de Lattre-de-Tassigny","postalCode":"85220","city":"La Chapelle-Hermier","country":"France"},"contacts":{"email":"accueilmairie@lachapelle-hermier.fr","telephone":"0251346166"},"horaires":"Le Lundi : de 14h00 à 18h00\nDu Mardi au Vendredi : de 09h00 à 12h30","latitude":46.6833,"longitude":-1.72318,"website":"https://www.lachapellehermier.com/","hasWebsite":true,"hasHoraires":true,"url":"https://lannuaire.service-public.gouv.fr/pays-de-la-loire/vendee/f2d2d233-48c5-461c-a7a3-321b38af85ff"}
{"nom":"La Chapelle-Palluau","nomNormalise":"lachapellepalluau","typeCollectivite":"Commune","region":"Pays de la Loire","departement":"Vendée","departementCode":"85","adresse":{"street":"1 rue de l'École","postalCode":"85670","city":"La Chapelle-Palluau","country":"France"},"contacts":{"email":"secretariat@lachapellepalluau.fr","telephone":"0251985108"},"horaires":"Le Lundi : de 10h00 à 12h00 de 14h00 à 17h30\nDu Mardi au Jeudi : de 09h00 à 12h00 de 14h00 à 17h30\nLe Vendredi : de 09h00 à 12h00 de 14h00 à 16h00\nLe Samedi : de 09h00 à 12h30","latitude":46.784233,"longitude":-1.6213214,"website":"https://lachapellepalluau.fr/fr/","hasWebsite":true,"hasHoraires":true,"url":"https://lannuaire.service-public.gouv.fr/pays-de-la-loire/vendee/7f6b85a3-616b-457f-b223-65002b65ab8f"}
{"nom":"La Chapelle-Thémer","nomNormalise":"lachapellethemer","typeCollectivite":"Commune","region":"Pays de la Loire","departement":"Vendée","departementCode":"85","adresse":{"street":"1 rue de la Mairie","postalCode":"85210","city":"La Chapelle-Thémer","country":"France"},"contacts":{"email":"mairie.chapelle.themer@wanadoo.fr","telephone":"0251276004"},"horaires":"Du Lundi au Mardi : de 10h30 à 12h30\nLe Vendredi : de 16h00 à 18h00\nLe Samedi : de 10h30 à 12h30","latitude":46.5602,"longitude":-0.95206,"website":"","hasWebsite":false,"hasHoraires":true,"url":"https://lannuaire.service-public.gouv.fr/pays-de-la-loire/vendee/65e19773-bddf-4259-8623-2085c3637a1a"}
{"nom":"La Châtaigneraie","nomNormalise":"lachataigneraie","typeCollectivite":"Commune","region":"Pays de la Loire","departement":"Vendée","departementCode":"85","adresse":{"street":"38 rue de la République","postalCode":"85120","city":"La Châtaigneraie","country":"France"},"contacts":{"email":"mairie@la-chataigneraie.fr","telephone":"0251696041"},"horaires":"Du Lundi au Mercredi : de 09h00 à 12h30 de 14h00 à 18h00\nLe Jeudi : de 09h00 à 12h30\nLe Vendredi : de 09h00 à 12h30 de 14h00 à 18h00","latitude":46.6494,"longitude":-0.739831,"website":"http://www.lachataigneraie.eu/","hasWebsite":true,"hasHoraires":true,"url":"https://lannuaire.service-public.gouv.fr/pays-de-la-loire/vendee/90fb9dd9-8f20-44e8-955d-c04e692377b1"}
{"nom":"La Copechagnière","nomNormalise":"lacopechagniere","typeCollectivite":"Commune","region":"Pays de la Loire","departement":"Vendée","departementCode":"85","adresse":{"street":"1 place Jean-Claude-Audureau","postalCode":"85260","city":"La Copechagnière","country":"France"},"contacts":{"email":"mairie@lacopechagniere.fr","telephone":"0251413033"},"horaires":"Le Lundi : de 14h30 à 16h30\nLe Mardi : de 09h30 à 12h15\nLe Mercredi : de 09h30 à 12h15 de 16h00 à 18h00\nLe Jeudi : de 09h30 à 12h15\nLe Vendredi : de 09h30 à 12h15 de 16h00 à 18h00\nLe Samedi : de 10h00 à 12h00","latitude":46.848984,"longitude":-1.347657,"website":"https://lacopechagniere.fr/","hasWebsite":true,"hasHoraires":true,"url":"https://lannuaire.service-public.gouv.fr/pays-de-la-loire/vendee/dedd67fb-e1ec-4682-bb8e-6bd4dd06b1e8"}
{"nom":"La Couture","nomNormalise":"lacouture","typeCollectivite":"Commune","region":"Pays de la Loire","departement":"Vendée","departementCode":"85","adresse":{"street":"2 place de l'Église","postalCode":"85320","city":"La Couture","country":"France"},"contacts":{"email":"mairie.lacouture@wanadoo.fr","telephone":"0251972661"},"horaires":"Du Lundi au Mardi : de 08h30 à 13h00\nLe Vendredi : de 08h30 à 13h00","latitude":46.521065,"longitude":-1.263287,"website":"http://www.mairie-lacouture.fr/","hasWebsite":true,"hasHoraires":true,"url":"https://lannuaire.service-public.gouv.fr/pays-de-la-loire/vendee/df119fe2-ad6a-42c2-9617-9b2e32626547"}
{"nom":"Mairie déléguée - La Faute-sur-Mer","nomNormalise":"mairiedelegueelafautesurmer","typeCollectivite":"Commune","region":"Pays de la Loire","departement":"Vendée","departementCode":"85","adresse":{"street":"La Faute-sur-Mer","postalCode":"85460","city":"L'Aiguillon-la-Presqu'île","country":"France"},"contacts":{"email":"mairie@laiguillonlapresquile.fr","telephone":"0251971929"},"horaires":"Du Lundi au Vendredi : de 09h00 à 12h30","latitude":46.3312,"longitude":-1.32182,"website":"https://www.laiguillonlapresquile.fr/","hasWebsite":true,"hasHoraires":true,"url":"https://lannuaire.service-public.gouv.fr/pays-de-la-loire/vendee/c8616f73-a058-4050-82ee-e430a135b829"}
{"nom":"La Ferrière","nomNormalise":"laferriere","typeCollectivite":"Commune","region":"Pays de la Loire","departement":"Vendée","departementCode":"85","adresse":{"street":"92 rue Nationale","postalCode":"85280","city":"La Ferrière","country":"France"},"contacts":{"email":"mairie@laferriere-vendee.fr","telephone":"0251406169"},"horaires":"Le Lundi : de 09h00 à 12h30 de 14h00 à 17h30\nLe Mardi : de 09h00 à 12h30\nLe Mercredi : de 09h00 à 12h30 de 14h00 à 17h30\nLe Jeudi : de 09h00 à 12h30\nLe Vendredi : de 09h00 à 13h30 de 14h00 à 17h30","latitude":46.7135,"longitude":-1.31272,"website":"https://www.laferriere-vendee.fr/","hasWebsite":true,"hasHoraires":true,"url":"https://lannuaire.service-public.gouv.fr/pays-de-la-loire/vendee/0a4e6d26-5708-4131-ad08-e05a74f1b8bb"}
{"nom":"La Garnache","nomNormalise":"lagarnache","typeCollectivite":"Commune","region":"Pays de la Loire","departement":"Vendée","departementCode":"85","adresse":{"street":"Place de la Mairie","postalCode":"85710","city":"La Garnache","country":"France"},"contacts":{"email":"contact@lagarnache.fr","telephone":"0251931108"},"horaires":"Du Lundi au Vendredi : de 08h45 à 12h15 de 13h45 à 18h00\nLe Samedi : de 09h00 à 12h15","latitude":46.8441,"longitude":-1.88046,"website":"http://www.lagarnache.fr/","hasWebsite":true,"hasHoraires":true,"url":"https://lannuaire.service-public.gouv.fr/pays-de-la-loire/vendee/60eaae82-bef6-42ff-89d9-9df33d528b8f"}
{"nom":"La Gaubretière","nomNormalise":"lagaubretiere","typeCollectivite":"Commune","region":"Pays de la Loire","departement":"Vendée","departementCode":"85","adresse":{"street":"Place Sapinaud","postalCode":"85130","city":"La Gaubretière","country":"France"},"contacts":{"email":"contact@lagaubretiere.fr","telephone":"0251671021"},"horaires":"Le Lundi : de 09h00 à 12h00 de 15h00 à 17h30\nLe Mardi : de 09h00 à 12h00\nLe Mercredi : de 09h00 à 12h00 de 15h00 à 17h30\nLe Jeudi : de 09h00 à 12h00\nLe Vendredi : de 09h00 à 12h00 de 15h00 à 17h30\nLe Samedi : de 09h00 à 12h00\n\nAccueil ouvert les semaines impaires uniquement sauf Juillet et Aout.","latitude":46.94305,"longitude":-1.0649165,"website":"https://www.lagaubretiere.fr/","hasWebsite":true,"hasHoraires":true,"url":"https://lannuaire.service-public.gouv.fr/pays-de-la-loire/vendee/b32c38f7-6c13-435f-b752-78596ed7392a"}
{"nom":"La Genétouze","nomNormalise":"lagenetouze","typeCollectivite":"Commune","region":"Pays de la Loire","departement":"Vendée","departementCode":"85","adresse":{"street":"9 place de la Mairie","postalCode":"85190","city":"La Genétouze","country":"France"},"contacts":{"email":"mairie@lagenetouze.fr","telephone":"0251316565"},"horaires":"Du Lundi au Mardi : de 08h30 à 12h45\nLe Mercredi : de 08h30 à 12h45 de 13h30 à 18h00\nLe Jeudi : de 08h30 à 12h45\nLe Vendredi : de 08h30 à 12h45 de 13h30 à 18h00","latitude":46.729195,"longitude":-1.511116,"website":"http://www.genetouze.com/","hasWebsite":true,"hasHoraires":true,"url":"https://lannuaire.service-public.gouv.fr/pays-de-la-loire/vendee/88c54146-6f28-49af-bf96-a3e44d4c2d4f"}
{"nom":"La Guérinière","nomNormalise":"lagueriniere","typeCollectivite":"Commune","region":"Pays de la Loire","departement":"Vendée","departementCode":"85","adresse":{"street":"2 place René-Ganachaud","postalCode":"85680","city":"La Guérinière","country":"France"},"contacts":{"email":"mairie@la-gueriniere.fr","telephone":"0251398032"},"horaires":"Du Lundi au Mardi : de 08h30 à 12h00 de 13h30 à 17h00\nLe Mercredi : de 08h30 à 12h00\nDu Jeudi au Vendredi : de 08h30 à 12h00 de 13h30 à 17h00","latitude":46.96775,"longitude":-2.233425,"website":"https://la-gueriniere.fr/","hasWebsite":true,"hasHoraires":true,"url":"https://lannuaire.service-public.gouv.fr/pays-de-la-loire/vendee/797c36ef-6f45-4892-81e0-55e8c3a87eb3"}
{"nom":"Mairie déléguée - La Guyonnière","nomNormalise":"mairiedelegueelaguyonniere","typeCollectivite":"Commune","region":"Pays de la Loire","departement":"Vendée","departementCode":"85","adresse":{"street":"La Guyonnière","postalCode":"85600","city":"Montaigu-Vendée","country":"France"},"contacts":{"email":"","telephone":"0251417158"},"horaires":"Du Mardi au Vendredi : de 09h00 à 12h00\nLe Samedi : de 09h00 à 12h00\n\nSeulement semaine impaire.","latitude":46.965714,"longitude":-1.249773,"website":"https://www.montaigu-vendee.com/","hasWebsite":true,"hasHoraires":true,"url":"https://lannuaire.service-public.gouv.fr/pays-de-la-loire/vendee/981e1f4a-2d90-40d9-9021-ef7b9ac2bd1a"}
{"nom":"Lairoux","nomNormalise":"lairoux","typeCollectivite":"Commune","region":"Pays de la Loire","departement":"Vendée","departementCode":"85","adresse":{"street":"Place de la Mairie","postalCode":"85400","city":"Lairoux","country":"France"},"contacts":{"email":"secretariat@lairoux.fr","telephone":"0251561401"},"horaires":"Le Lundi : de 13h30 à 17h30\nLe Mardi : de 14h30 à 19h00\nLe Jeudi : de 14h30 à 19h00\nLe Vendredi : de 09h00 à 12h30","latitude":46.446747,"longitude":-1.2674233,"website":"https://lairoux.fr/","hasWebsite":true,"hasHoraires":true,"url":"https://lannuaire.service-public.gouv.fr/pays-de-la-loire/vendee/c89485a2-e843-4367-a9c0-44cc19c517a0"}
{"nom":"La Jaudonnière","nomNormalise":"lajaudonniere","typeCollectivite":"Commune","region":"Pays de la Loire","departement":"Vendée","departementCode":"85","adresse":{"street":"1 place de la Liberté","postalCode":"85110","city":"La Jaudonnière","country":"France"},"contacts":{"email":"mairie.lajaudonniere@wanadoo.fr","telephone":"0251343009"},"horaires":"Du Lundi au Mardi : de 14h00 à 17h30\nLe Jeudi : de 14h00 à 17h30\nLe Vendredi : de 09h00 à 12h30\nLe Samedi : de 09h00 à 12h00","latitude":46.643017,"longitude":-0.963365,"website":"https://www.lajaudonniere.fr/","hasWebsite":true,"hasHoraires":true,"url":"https://lannuaire.service-public.gouv.fr/pays-de-la-loire/vendee/924a7024-80de-49f4-9770-4abdd3e5e623"}
{"nom":"La Jonchère","nomNormalise":"lajonchere","typeCollectivite":"Commune","region":"Pays de la Loire","departement":"Vendée","departementCode":"85","adresse":{"street":"2 rue du Marchais","postalCode":"85540","city":"La Jonchère","country":"France"},"contacts":{"email":"mairielajonchere@wanadoo.fr","telephone":"0251308407"},"horaires":"Du Lundi au Vendredi : de 09h00 à 12h00","latitude":46.436,"longitude":-1.36907,"website":"","hasWebsite":false,"hasHoraires":true,"url":"https://lannuaire.service-public.gouv.fr/pays-de-la-loire/vendee/ba3a63ff-45d5-4a6d-875d-09cbe2454aa9"}
{"nom":"La Meilleraie-Tillay","nomNormalise":"lameilleraietillay","typeCollectivite":"Commune","region":"Pays de la Loire","departement":"Vendée","departementCode":"85","adresse":{"street":"1 rue de la Prairie","postalCode":"85700","city":"La Meilleraie-Tillay","country":"France"},"contacts":{"email":"mairie@meilleraie-tillay.fr","telephone":"0251658213"},"horaires":"Du Lundi au Vendredi : de 08h30 à 12h30 de 14h00 à 18h00","latitude":46.7414,"longitude":-0.845602,"website":"https://meilleraie-tillay.fr/","hasWebsite":true,"hasHoraires":true,"url":"https://lannuaire.service-public.gouv.fr/pays-de-la-loire/vendee/3e7baeef-7d01-45ac-b293-521bcc1acdff"}
{"nom":"La Merlatière","nomNormalise":"lamerlatiere","typeCollectivite":"Commune","region":"Pays de la Loire","departement":"Vendée","departementCode":"85","adresse":{"street":"2 rue de la Tuilerie","postalCode":"85140","city":"La Merlatière","country":"France"},"contacts":{"email":"contact@la-merlatiere.fr","telephone":"0251405221"},"horaires":"Du Mardi au Mercredi : de 08h30 à 12h00\nLe Jeudi : de 08h30 à 12h00 de 14h00 à 17h00\nLe Vendredi : de 08h30 à 12h00\nLe Samedi : de 10h00 à 12h00\n\nAccueil fermé en juillet-août.","latitude":46.766407,"longitude":-1.3027701,"website":"http://www.la-merlatiere.fr/","hasWebsite":true,"hasHoraires":true,"url":"https://lannuaire.service-public.gouv.fr/pays-de-la-loire/vendee/50101d00-99da-48bc-a7d8-06af11d7a880"}
{"nom":"Landeronde","nomNormalise":"landeronde","typeCollectivite":"Commune","region":"Pays de la Loire","departement":"Vendée","departementCode":"85","adresse":{"street":"2 rue Nicollon-des-Abbayes","postalCode":"85150","city":"Landeronde","country":"France"},"contacts":{"email":"accueil-mairie@landeronde.com","telephone":"0251342248"},"horaires":"Le Lundi : de 09h00 à 12h30\nLe Mardi : de 09h00 à 12h30 de 14h00 à 18h30\nLe Jeudi : de 09h00 à 12h30\nLe Vendredi : de 09h00 à 12h30 de 14h00 à 17h00","latitude":46.659,"longitude":-1.57244,"website":"http://www.landeronde.com/","hasWebsite":true,"hasHoraires":true,"url":"https://lannuaire.service-public.gouv.fr/pays-de-la-loire/vendee/0b3bf489-1481-4402-9ec6-d16b49ab27d8"}
{"nom":"Landevieille","nomNormalise":"landevieille","typeCollectivite":"Commune","region":"Pays de la Loire","departement":"Vendée","departementCode":"85","adresse":{"street":"4 rue du Presbytère","postalCode":"85220","city":"Landevieille","country":"France"},"contacts":{"email":"accueil@landevieille.fr","telephone":"0251224922"},"horaires":"Le Lundi : de 09h00 à 12h00\nLe Mardi : de 14h00 à 18h00\nDu Jeudi au Vendredi : de 14h00 à 18h00","latitude":46.640553,"longitude":-1.8062661,"website":"http://www.landevieille.fr/","hasWebsite":true,"hasHoraires":true,"url":"https://lannuaire.service-public.gouv.fr/pays-de-la-loire/vendee/ecfe0b6a-6b2d-410e-af97-daff96d456f2"}
{"nom":"La Rabatelière","nomNormalise":"larabateliere","typeCollectivite":"Commune","region":"Pays de la Loire","departement":"Vendée","departementCode":"85","adresse":{"street":"3 rue de l'Étang","postalCode":"85250","city":"La Rabatelière","country":"France"},"contacts":{"email":"contact@larabateliere.fr","telephone":"0251422201"},"horaires":"Du Lundi au Vendredi : de 09h00 à 12h30","latitude":46.8606,"longitude":-1.25719,"website":"http://www.larabateliere.fr/","hasWebsite":true,"hasHoraires":true,"url":"https://lannuaire.service-public.gouv.fr/pays-de-la-loire/vendee/d9f285e3-7886-4209-8f77-b66da036304e"}
{"nom":"La Réorthe","nomNormalise":"lareorthe","typeCollectivite":"Commune","region":"Pays de la Loire","departement":"Vendée","departementCode":"85","adresse":{"street":"18 rue du Lay","postalCode":"85210","city":"La Réorthe","country":"France"},"contacts":{"email":"mairie@lareorthe.fr","telephone":"0251278152"},"horaires":"Le Mardi : de 14h00 à 18h00\nLe Mercredi : de 08h30 à 12h30\nLe Jeudi : de 14h00 à 18h00\nLe Vendredi : de 08h30 à 12h30 de 14h00 à 17h00\nLe Samedi : de 09h00 à 12h00\n\nAccueil ouvert uniquement les semaines paires.","latitude":46.6072,"longitude":-1.04854,"website":"http://www.lareorthe.fr/","hasWebsite":true,"hasHoraires":true,"url":"https://lannuaire.service-public.gouv.fr/pays-de-la-loire/vendee/2c04428e-0930-4be7-a149-841c2d439f19"}
{"nom":"La Roche-sur-Yon","nomNormalise":"larochesuryon","typeCollectivite":"Commune","region":"Pays de la Loire","departement":"Vendée","departementCode":"85","adresse":{"street":"Place du Théâtre","postalCode":"85000","city":"La Roche-sur-Yon","country":"France"},"contacts":{"email":"mairie@larochesuryon.fr","telephone":"0251474747"},"horaires":"Du Lundi au Vendredi : de 08h00 à 18h30\nLe Samedi : de 09h00 à 12h00\n\nAccueil fermé le samedi pendant l'été (sauf l'état civil).\nHoraires d'été de 8h à 17h30.","latitude":46.67111,"longitude":-1.429302,"website":"https://www.larochesuryon.fr/","hasWebsite":true,"hasHoraires":true,"url":"https://lannuaire.service-public.gouv.fr/pays-de-la-loire/vendee/6787a97d-a237-49eb-b05e-3aada411e046"}
{"nom":"La Taillée","nomNormalise":"lataillee","typeCollectivite":"Commune","region":"Pays de la Loire","departement":"Vendée","departementCode":"85","adresse":{"street":"61 rue du 8-Mai-1945","postalCode":"85450","city":"La Taillée","country":"France"},"contacts":{"email":"mairie@la-taillee.fr","telephone":"0251525205"},"horaires":"Du Lundi au Mardi : de 09h00 à 12h00\nLe Jeudi : de 09h00 à 12h00\nLe Vendredi : de 09h00 à 12h00 de 14h00 à 17h00","latitude":46.379177,"longitude":-0.929997,"website":"https://www.la-taillee.fr/fr/","hasWebsite":true,"hasHoraires":true,"url":"https://lannuaire.service-public.gouv.fr/pays-de-la-loire/vendee/73a3331f-1d52-4fb2-839d-bec4668effc8"}
{"nom":"La Tranche-sur-Mer","nomNormalise":"latranchesurmer","typeCollectivite":"Commune","region":"Pays de la Loire","departement":"Vendée","departementCode":"85","adresse":{"street":"8 rue de l'Hôtel-de-Ville","postalCode":"85360","city":"La Tranche-sur-Mer","country":"France"},"contacts":{"email":"mairie@latranchesurmer.eu","telephone":"0251303701"},"horaires":"Le Lundi : de 09h30 à 12h30 de 14h30 à 16h30\nLe Mardi : de 09h30 à 12h30 de 14h00 à 17h00\nDu Mercredi au Vendredi : de 09h30 à 12h30 de 14h30 à 16h30\nLe Samedi : de 09h30 à 12h00\n\nAccueil ouvert uniquement de 9h à 12h en juillet-août.","latitude":46.34332,"longitude":-1.4377682,"website":"http://www.latranchesurmer.fr/","hasWebsite":true,"hasHoraires":true,"url":"https://lannuaire.service-public.gouv.fr/pays-de-la-loire/vendee/69004f34-9d2b-4d5f-a160-36c1f2b1b4dc"}
{"nom":"Le Bernard","nomNormalise":"lebernard","typeCollectivite":"Commune","region":"Pays de la Loire","departement":"Vendée","departementCode":"85","adresse":{"street":"2 rue Albert-Deman","postalCode":"85560","city":"Le Bernard","country":"France"},"contacts":{"email":"mairie@lebernard.fr","telephone":"0251333069"},"horaires":"Du Lundi au Vendredi : de 09h00 à 12h30\nAccueil ouvert uniquement sur rendez-vous l'après-midi.","latitude":46.440403,"longitude":-1.4681501,"website":"https://www.lebernard.fr/","hasWebsite":true,"hasHoraires":true,"url":"https://lannuaire.service-public.gouv.fr/pays-de-la-loire/vendee/cf45a2d3-898b-406e-9a07-63ab47e86bd7"}
{"nom":"Le Boupère","nomNormalise":"leboupere","typeCollectivite":"Commune","region":"Pays de la Loire","departement":"Vendée","departementCode":"85","adresse":{"street":"6 rue Henri-Biraud","postalCode":"85510","city":"Le Boupère","country":"France"},"contacts":{"email":"mairie@boupere.fr","telephone":"0251914165"},"horaires":"Le Lundi : de 08h30 à 12h30 de 14h00 à 17h30\nLe Mardi : de 14h00 à 17h30\nLe Mercredi : de 08h30 à 12h30 de 14h00 à 17h30\nLe Jeudi : de 14h00 à 17h30\nLe Vendredi : de 08h30 à 12h30 de 14h00 à 17h30","latitude":46.793278,"longitude":-0.9269382,"website":"https://www.boupere.fr/","hasWebsite":true,"hasHoraires":true,"url":"https://lannuaire.service-public.gouv.fr/pays-de-la-loire/vendee/ded05dc7-04a6-4441-bd4d-65b9e74d6291"}
{"nom":"Le Champ-Saint-Père","nomNormalise":"lechampsaintpere","typeCollectivite":"Commune","region":"Pays de la Loire","departement":"Vendée","departementCode":"85","adresse":{"street":"7 rue de l'Hôtel-de-Ville","postalCode":"85540","city":"Le Champ-Saint-Père","country":"France"},"contacts":{"email":"mairie@champsaintpere.fr","telephone":"0251409324"},"horaires":"Le Lundi : de 14h00 à 17h00\nLe Mardi : de 08h45 à 12h15\nLe Mercredi : de 08h45 à 12h15 de 14h00 à 17h00\nDu Jeudi au Vendredi : de 08h45 à 12h15","latitude":46.5099,"longitude":-1.34403,"website":"https://www.champsaintpere.fr/","hasWebsite":true,"hasHoraires":true,"url":"https://lannuaire.service-public.gouv.fr/pays-de-la-loire/vendee/fbe7d4c9-c043-4869-b40a-9e1e60dcc87d"}
{"nom":"Le Fenouiller","nomNormalise":"lefenouiller","typeCollectivite":"Commune","region":"Pays de la Loire","departement":"Vendée","departementCode":"85","adresse":{"street":"Rue du Centre","postalCode":"85800","city":"Le Fenouiller","country":"France"},"contacts":{"email":"mairie@lefenouiller.fr","telephone":"0251550999"},"horaires":"Le Lundi : de 08h45 à 12h15 de 13h30 à 17h00\nLe Mardi : de 08h45 à 12h15 de 14h30 à 18h00\nDu Mercredi au Jeudi : de 08h45 à 12h15 de 13h30 à 17h00\nLe Vendredi : de 08h45 à 16h30","latitude":46.719585,"longitude":-1.9015323,"website":"http://www.lefenouiller.fr/","hasWebsite":true,"hasHoraires":true,"url":"https://lannuaire.service-public.gouv.fr/pays-de-la-loire/vendee/c082263c-fce5-4605-8d04-dc4a58f92530"}
{"nom":"Le Girouard","nomNormalise":"legirouard","typeCollectivite":"Commune","region":"Pays de la Loire","departement":"Vendée","departementCode":"85","adresse":{"street":"1 rue du Stade","postalCode":"85150","city":"Le Girouard","country":"France"},"contacts":{"email":"mairie@legirouard.fr","telephone":"0251466156"},"horaires":"Du Lundi au Vendredi : de 08h30 à 12h30\nAccueil ouvert l'après-midi le 1er vendredi du mois mois uniquement de 14h à 17h.","latitude":46.568325,"longitude":-1.5998545,"website":"https://www.legirouard.fr/","hasWebsite":true,"hasHoraires":true,"url":"https://lannuaire.service-public.gouv.fr/pays-de-la-loire/vendee/e2e3add0-d8c0-433e-889a-5d9c1b94e4f8"}
{"nom":"Le Givre","nomNormalise":"legivre","typeCollectivite":"Commune","region":"Pays de la Loire","departement":"Vendée","departementCode":"85","adresse":{"street":"9 rue du Centre","postalCode":"85540","city":"Le Givre","country":"France"},"contacts":{"email":"mairie@legivre.fr","telephone":"0251308308"},"horaires":"Du Lundi au Mardi : de 13h30 à 18h00\nLe Mercredi : de 09h00 à 12h00\nDu Jeudi au Vendredi : de 13h30 à 18h00","latitude":46.46243,"longitude":-1.3996539,"website":"","hasWebsite":false,"hasHoraires":true,"url":"https://lannuaire.service-public.gouv.fr/pays-de-la-loire/vendee/89b4aab8-4c7c-4ecf-98c4-0768b8e46561"}
{"nom":"Le Gué-de-Velluire","nomNormalise":"leguedevelluire","typeCollectivite":"Commune","region":"Pays de la Loire","departement":"Vendée","departementCode":"85","adresse":{"street":"27 rue de l'Église","postalCode":"85770","city":"Le Gué-de-Velluire","country":"France"},"contacts":{"email":"mairie@guedevelluire.fr","telephone":"0251525252"},"horaires":"Le Mardi : de 13h30 à 17h30\nDu Jeudi au Vendredi : de 13h30 à 17h30","latitude":46.37265,"longitude":-0.921577,"website":"https://www.guedevelluire.fr/","hasWebsite":true,"hasHoraires":true,"url":"https://lannuaire.service-public.gouv.fr/pays-de-la-loire/vendee/f26e74b9-9e39-4ff5-bf33-8e3812dd4c7f"}
{"nom":"Le Langon","nomNormalise":"lelangon","typeCollectivite":"Commune","region":"Pays de la Loire","departement":"Vendée","departementCode":"85","adresse":{"street":"Place des Anciens-Combattants","postalCode":"85370","city":"Le Langon","country":"France"},"contacts":{"email":"mairie@le-langon.fr","telephone":"0251528184"},"horaires":"Du Mardi au Jeudi : de 08h30 à 12h30\nLe Vendredi : de 14h00 à 17h00\nLe Samedi : de 08h30 à 12h00\n\nAccueil ouvert uniquement les 2e et 4e samedis du mois.","latitude":46.437164,"longitude":-0.952353,"website":"http://www.lelangon85.fr/","hasWebsite":true,"hasHoraires":true,"url":"https://lannuaire.service-public.gouv.fr/pays-de-la-loire/vendee/96148017-21ec-46e3-b2cb-a53f9a3ce287"}
{"nom":"Le Mazeau","nomNormalise":"lemazeau","typeCollectivite":"Commune","region":"Pays de la Loire","departement":"Vendée","departementCode":"85","adresse":{"street":"10 rue Principale","postalCode":"85420","city":"Le Mazeau","country":"France"},"contacts":{"email":"accueil@mairielemazeau.fr","telephone":"0251529114"},"horaires":"Du Lundi au Mardi : de 14h00 à 17h30\nDu Jeudi au Vendredi : de 14h00 à 17h30","latitude":46.33574,"longitude":-0.674601,"website":"https://www.mairielemazeau.fr/","hasWebsite":true,"hasHoraires":true,"url":"https://lannuaire.service-public.gouv.fr/pays-de-la-loire/vendee/a95f46a8-7461-448f-b53d-1c10debc9985"}
{"nom":"Le Perrier","nomNormalise":"leperrier","typeCollectivite":"Commune","region":"Pays de la Loire","departement":"Vendée","departementCode":"85","adresse":{"street":"1 place de la Mairie","postalCode":"85300","city":"Le Perrier","country":"France"},"contacts":{"email":"accueil@mairie-leperrier.fr","telephone":"0251680905"},"horaires":"Du Lundi au Vendredi : de 09h00 à 12h30\nLe Samedi : de 09h00 à 11h45","latitude":46.82042,"longitude":-1.9945507,"website":"https://www.leperrier.fr/","hasWebsite":true,"hasHoraires":true,"url":"https://lannuaire.service-public.gouv.fr/pays-de-la-loire/vendee/959a3379-ad67-4d42-90a3-2288208b7f3f"}
{"nom":"Le Poiré-sur-Vie","nomNormalise":"lepoiresurvie","typeCollectivite":"Commune","region":"Pays de la Loire","departement":"Vendée","departementCode":"85","adresse":{"street":"4 place du Marché","postalCode":"85170","city":"Le Poiré-sur-Vie","country":"France"},"contacts":{"email":"mairie@lepoiresurvie.fr","telephone":"0251318014"},"horaires":"Du Lundi au Mercredi : de 09h00 à 12h30 de 14h00 à 17h30\nLe Jeudi : de 09h00 à 12h30\nLe Vendredi : de 09h00 à 12h30 de 14h00 à 17h30\nLe Samedi : de 09h00 à 12h00","latitude":46.76812,"longitude":-1.509176,"website":"https://www.ville-lepoiresurvie.fr/","hasWebsite":true,"hasHoraires":true,"url":"https://lannuaire.service-public.gouv.fr/pays-de-la-loire/vendee/70c0c381-d7a3-448b-8a23-613ed61fc7e1"}
{"nom":"Les Achards","nomNormalise":"lesachards","typeCollectivite":"Commune","region":"Pays de la Loire","departement":"Vendée","departementCode":"85","adresse":{"street":"Place de l'Hôtel-de-Ville","postalCode":"85150","city":"Les Achards","country":"France"},"contacts":{"email":"contact@lesachards.fr","telephone":"0251386049"},"horaires":"Du Lundi au Mercredi : de 09h00 à 12h30 de 13h30 à 17h30\nLe Jeudi : de 09h00 à 12h30 de 14h00 à 17h30\nLe Vendredi : de 09h00 à 12h30 de 13h30 à 18h30","latitude":46.6175,"longitude":-1.65889,"website":"https://www.lesachards.com/","hasWebsite":true,"hasHoraires":true,"url":"https://lannuaire.service-public.gouv.fr/pays-de-la-loire/vendee/df59e734-b244-4e89-a4f1-c00dfeff57b9"}
{"nom":"Les Brouzils","nomNormalise":"lesbrouzils","typeCollectivite":"Commune","region":"Pays de la Loire","departement":"Vendée","departementCode":"85","adresse":{"street":"1 place Pierre-Monnereau","postalCode":"85260","city":"Les Brouzils","country":"France"},"contacts":{"email":"mairie@les-brouzils.fr","telephone":"0251429104"},"horaires":"Du Lundi au Mercredi : de 08h30 à 12h30\nLe Jeudi : de 08h30 à 12h30 de 14h00 à 18h00\nLe Vendredi : de 08h30 à 12h30 de 14h00 à 17h00\nLe Samedi : de 08h30 à 12h30\n\nAccueil fermé en juillet-août.","latitude":46.8872,"longitude":-1.32131,"website":"https://les-brouzils.com/","hasWebsite":true,"hasHoraires":true,"url":"https://lannuaire.service-public.gouv.fr/pays-de-la-loire/vendee/2bdd22e3-b461-4bee-9f33-0c33a3a8c249"}
{"nom":"Les Epesses","nomNormalise":"lesepesses","typeCollectivite":"Commune","region":"Pays de la Loire","departement":"Vendée","departementCode":"85","adresse":{"street":"2 place Monseigneur-Bonneau","postalCode":"85590","city":"Les Epesses","country":"France"},"contacts":{"email":"mairie@les-epesses.com","telephone":"0251573130"},"horaires":"Du Lundi au Mercredi : de 09h00 à 12h00 de 14h00 à 18h00\nLe Jeudi : de 14h00 à 18h00\nLe Vendredi : de 09h00 à 12h00 de 14h00 à 17h00\nLe Samedi : de 09h30 à 12h00\n\nAccueil fermé le samedi en juillet-août.","latitude":46.88368,"longitude":-0.90005,"website":"http://www.les-epesses.com/","hasWebsite":true,"hasHoraires":true,"url":"https://lannuaire.service-public.gouv.fr/pays-de-la-loire/vendee/e77f05d6-2985-44e4-a31e-e93334a864d8"}
{"nom":"Les Herbiers","nomNormalise":"lesherbiers","typeCollectivite":"Commune","region":"Pays de la Loire","departement":"Vendée","departementCode":"85","adresse":{"street":"6 rue du Tourniquet","postalCode":"85502","city":"Les Herbiers","country":"France"},"contacts":{"email":"mairie@lesherbiers.fr","telephone":"0251910767"},"horaires":"Du Lundi au Vendredi : de 09h00 à 12h00 de 14h00 à 18h00\nLe Samedi : de 08h30 à 12h30","latitude":46.869404,"longitude":-1.0128249,"website":"http://www.lesherbiers.fr/","hasWebsite":true,"hasHoraires":true,"url":"https://lannuaire.service-public.gouv.fr/pays-de-la-loire/vendee/44fb36a8-e14a-4167-ae4f-1c5cca1c6fef"}
{"nom":"Les Landes-Genusson","nomNormalise":"leslandesgenusson","typeCollectivite":"Commune","region":"Pays de la Loire","departement":"Vendée","departementCode":"85","adresse":{"street":"15 rue d'Anjou","postalCode":"85130","city":"Les Landes-Genusson","country":"France"},"contacts":{"email":"accueil@leslandesgenusson.fr","telephone":"0251916277"},"horaires":"Du Lundi au Vendredi : de 10h00 à 12h00","latitude":46.979,"longitude":-1.11249,"website":"https://www.leslandesgenusson.fr/","hasWebsite":true,"hasHoraires":true,"url":"https://lannuaire.service-public.gouv.fr/pays-de-la-loire/vendee/2584c403-544b-4870-84d5-3fc3a7744c0a"}
{"nom":"Les Lucs-sur-Boulogne","nomNormalise":"leslucssurboulogne","typeCollectivite":"Commune","region":"Pays de la Loire","departement":"Vendée","departementCode":"85","adresse":{"street":"164 avenue des Pierres-Noires","postalCode":"85170","city":"Les Lucs-sur-Boulogne","country":"France"},"contacts":{"email":"","telephone":"0251312129"},"horaires":"Du Lundi au Jeudi : de 08h30 à 13h00\nLe Vendredi : de 08h30 à 13h00 de 14h00 à 17h00","latitude":46.8467,"longitude":-1.50284,"website":"https://www.leslucssurboulogne.fr/","hasWebsite":true,"hasHoraires":true,"url":"https://lannuaire.service-public.gouv.fr/pays-de-la-loire/vendee/668d9cc7-9536-441d-91a5-c2724947d743"}
{"nom":"Les Magnils-Reigniers","nomNormalise":"lesmagnilsreigniers","typeCollectivite":"Commune","region":"Pays de la Loire","departement":"Vendée","departementCode":"85","adresse":{"street":"16 rue de l'Église","postalCode":"85400","city":"Les Magnils-Reigniers","country":"France"},"contacts":{"email":"mairie@lesmagnilsreigniers.fr","telephone":"0251977604"},"horaires":"Le Lundi : de 09h00 à 12h30\nLe Mardi : de 09h00 à 12h30 de 13h30 à 18h00\nLe Mercredi : de 13h30 à 17h00\nLe Jeudi : de 09h00 à 12h30\nLe Vendredi : de 09h00 à 12h30 de 13h30 à 17h00","latitude":46.479637,"longitude":-1.218915,"website":"http://www.sudvendeelittoral.fr/","hasWebsite":true,"hasHoraires":true,"url":"https://lannuaire.service-public.gouv.fr/pays-de-la-loire/vendee/e24bed1d-25d1-4240-ac5c-a1c1a6ed024c"}
{"nom":"Les Pineaux","nomNormalise":"lespineaux","typeCollectivite":"Commune","region":"Pays de la Loire","departement":"Vendée","departementCode":"85","adresse":{"street":"14 rue de l'Océan","postalCode":"85320","city":"Les Pineaux","country":"France"},"contacts":{"email":"mairie@lespineaux.fr","telephone":"0251305058"},"horaires":"Du Mardi au Jeudi : de 08h30 à 12h30\nLe Vendredi : de 09h00 à 12h30 de 13h30 à 19h00","latitude":46.59749,"longitude":-1.17875,"website":"https://www.lespineaux.fr/","hasWebsite":true,"hasHoraires":true,"url":"https://lannuaire.service-public.gouv.fr/pays-de-la-loire/vendee/09bc5057-23d2-4465-8beb-71555b67e9eb"}
{"nom":"Les Sables-d'Olonne","nomNormalise":"lessablesdolonne","typeCollectivite":"Commune","region":"Pays de la Loire","departement":"Vendée","departementCode":"85","adresse":{"street":"21 place du Poilu-de-France","postalCode":"85110","city":"Les Sables-d'Olonne","country":"France"},"contacts":{"email":"contact@lessablesdolonne.fr","telephone":"0251231600"},"horaires":"Le Lundi : de 08h30 à 12h00 de 13h30 à 17h30\nLe Mardi : de 08h30 à 12h00 de 13h30 à 19h00\nDu Mercredi au Vendredi : de 08h30 à 12h00 de 13h30 à 17h30","latitude":46.497192,"longitude":-1.784119,"website":"https://www.lessablesdolonne.fr/","hasWebsite":true,"hasHoraires":true,"url":"https://lannuaire.service-public.gouv.fr/pays-de-la-loire/vendee/3d0d9672-b009-4382-848d-d523a336eeb3"}
{"nom":"Le Tablier","nomNormalise":"letablier","typeCollectivite":"Commune","region":"Pays de la Loire","departement":"Vendée","departementCode":"85","adresse":{"street":"20 rue Principale","postalCode":"85310","city":"Le Tablier","country":"France"},"contacts":{"email":"mairie@letablier.fr","telephone":"0251317053"},"horaires":"Le Lundi : de 08h30 à 12h30\nLe Mardi : de 08h30 à 12h30\nLe Jeudi : de 12h00 à 16h00\nLe Vendredi : de 14h00 à 19h00\nUniquement sur rendez-vous","latitude":46.572758,"longitude":-1.341327,"website":"https://www.letablier.fr/","hasWebsite":true,"hasHoraires":true,"url":"https://lannuaire.service-public.gouv.fr/pays-de-la-loire/vendee/60746ce8-339d-47ac-b5b9-d1a0974fc825"}
{"nom":"Liez","nomNormalise":"liez","typeCollectivite":"Commune","region":"Pays de la Loire","departement":"Vendée","departementCode":"85","adresse":{"street":"1 rue de l'Abbé-Migné","postalCode":"85420","city":"Liez","country":"France"},"contacts":{"email":"accueil@mairieliez85.fr","telephone":"0251007615"},"horaires":"Le Lundi : de 09h30 à 12h45 de 14h00 à 17h00\nLe Mardi : de 14h00 à 18h00\nLe Jeudi : de 14h00 à 17h00\nLe Vendredi : de 09h30 à 12h45 de 14h00 à 16h00","latitude":46.3697,"longitude":-0.703115,"website":"","hasWebsite":false,"hasHoraires":true,"url":"https://lannuaire.service-public.gouv.fr/pays-de-la-loire/vendee/6c27e59f-abec-47e5-89ce-0e1ee5624dba"}
{"nom":"Loge-Fougereuse","nomNormalise":"logefougereuse","typeCollectivite":"Commune","region":"Pays de la Loire","departement":"Vendée","departementCode":"85","adresse":{"street":"18 rue de la Goujeonnerie","postalCode":"85120","city":"Loge-Fougereuse","country":"France"},"contacts":{"email":"mairie.logefougereuse@wanadoo.fr","telephone":"0251696613"},"horaires":"Le Lundi : de 09h00 à 13h00\nLe Jeudi : de 14h00 à 17h30","latitude":46.6143,"longitude":-0.692329,"website":"https://logefougereuse.fr/?cn-reloaded=1","hasWebsite":true,"hasHoraires":true,"url":"https://lannuaire.service-public.gouv.fr/pays-de-la-loire/vendee/fa7bd3ca-2c00-4569-9857-3372dcb06885"}
{"nom":"Longèves","nomNormalise":"longeves","typeCollectivite":"Commune","region":"Pays de la Loire","departement":"Vendée","departementCode":"85","adresse":{"street":"5 rue de la Pionnerie","postalCode":"85200","city":"Longèves","country":"France"},"contacts":{"email":"mairie-longeves85@wanadoo.fr","telephone":"0251698913"},"horaires":"Le Lundi : de 13h30 à 17h30\nLe Mercredi : de 09h30 à 12h30 de 13h30 à 17h30\nLe Jeudi : de 13h30 à 17h30\nLe Vendredi : de 13h30 à 17h00","latitude":46.4773,"longitude":-0.843941,"website":"http://www.longeves85.fr/","hasWebsite":true,"hasHoraires":true,"url":"https://lannuaire.service-public.gouv.fr/pays-de-la-loire/vendee/03ee98ca-e0e9-49d2-9a66-88c631c17802"}
{"nom":"Longeville-sur-Mer","nomNormalise":"longevillesurmer","typeCollectivite":"Commune","region":"Pays de la Loire","departement":"Vendée","departementCode":"85","adresse":{"street":"14 rue De-Lattre-de-Tassigny","postalCode":"85560","city":"Longeville-sur-Mer","country":"France"},"contacts":{"email":"mairie@longevillesurmer.fr","telephone":"0251333033"},"horaires":"Le Lundi : de 09h00 à 12h00 de 14h00 à 17h30\nLe Mardi : de 09h00 à 12h00\nDu Mercredi au Vendredi : de 09h00 à 12h00 de 14h00 à 17h30","latitude":46.4241,"longitude":-1.48809,"website":"http://www.mairie-longevillesurmer.fr/","hasWebsite":true,"hasHoraires":true,"url":"https://lannuaire.service-public.gouv.fr/pays-de-la-loire/vendee/069998c4-336d-4734-af38-f4b1ff1cffea"}
{"nom":"Luçon","nomNormalise":"lucon","typeCollectivite":"Commune","region":"Pays de la Loire","departement":"Vendée","departementCode":"85","adresse":{"street":"1 rue de l'Hôtel-de-Ville","postalCode":"85403","city":"Luçon","country":"France"},"contacts":{"email":"contact@lucon.fr","telephone":"0251291919"},"horaires":"Du Lundi au Mardi : de 09h00 à 12h30 de 14h00 à 17h00\nLe Mercredi : de 09h00 à 17h00\nDu Jeudi au Vendredi : de 09h00 à 12h30 de 14h00 à 17h00\nLe Samedi : de 10h00 à 12h00\n\nLe premier samedi du mois : de 10h00 à 12h00 (état-civil uniquement)","latitude":46.45539,"longitude":-1.169902,"website":"https://www.lucon.fr/","hasWebsite":true,"hasHoraires":true,"url":"https://lannuaire.service-public.gouv.fr/pays-de-la-loire/vendee/f2d49c0d-d27b-453f-9bd8-2898a6ac80a8"}
{"nom":"Mairie déléguée - L’Aiguillon-sur-Mer","nomNormalise":"mairiedelegueelaiguillonsurmer","typeCollectivite":"Commune","region":"Pays de la Loire","departement":"Vendée","departementCode":"85","adresse":{"street":"L'Aiguillon-sur-Mer","postalCode":"85460","city":"L'Aiguillon-la-Presqu'île","country":"France"},"contacts":{"email":"mairie@laiguillonlapresquile.fr","telephone":"0251971929"},"horaires":"Du Lundi au Samedi : de 08h45 à 12h00\n\nAccueil ouvert uniquement sur rendezvous, le mardi et le jeudi après-midi.","latitude":46.3345,"longitude":-1.30723,"website":"https://www.laiguillonlapresquile.fr/","hasWebsite":true,"hasHoraires":true,"url":"https://lannuaire.service-public.gouv.fr/pays-de-la-loire/vendee/091a0737-cdd7-4018-a7de-ab6cd59a81e5"}
{"nom":"Maché","nomNormalise":"mache","typeCollectivite":"Commune","region":"Pays de la Loire","departement":"Vendée","departementCode":"85","adresse":{"street":"1 rue du Calvaire","postalCode":"85190","city":"Maché","country":"France"},"contacts":{"email":"contact@mache.fr","telephone":"0251557205"},"horaires":"Du Lundi au Mardi : de 09h30 à 12h30\nLe Mercredi : de 09h00 à 12h00\nDu Jeudi au Vendredi : de 09h30 à 12h30\n\nAccueil ouvert également l'après-midi sur rendez-vous.\nLe Samedi : de 09h30 à 12h00\nAccueil ouvert également l'après-midi sur rendez-vous.","latitude":46.7546,"longitude":-1.69252,"website":"https://www.mache.fr/","hasWebsite":true,"hasHoraires":true,"url":"https://lannuaire.service-public.gouv.fr/pays-de-la-loire/vendee/dcb6b6c4-a431-4303-960e-180907c281a8"}
{"nom":"Maillé","nomNormalise":"maille","typeCollectivite":"Commune","region":"Pays de la Loire","departement":"Vendée","departementCode":"85","adresse":{"street":"3 rue de la Mairie","postalCode":"85420","city":"Maillé","country":"France"},"contacts":{"email":"secretariat@maille85.fr","telephone":"0251870578"},"horaires":"Du Lundi au Vendredi : de 09h00 à 12h30","latitude":46.342,"longitude":-0.791471,"website":"https://ville-maille.fr/","hasWebsite":true,"hasHoraires":true,"url":"https://lannuaire.service-public.gouv.fr/pays-de-la-loire/vendee/31892d52-6904-493a-a8c4-9f711819295d"}
{"nom":"Maillezais","nomNormalise":"maillezais","typeCollectivite":"Commune","region":"Pays de la Loire","departement":"Vendée","departementCode":"85","adresse":{"street":"6 rue de la Trigalle","postalCode":"85420","city":"Maillezais","country":"France"},"contacts":{"email":"accueil@maillezais.fr","telephone":"0251007025"},"horaires":"Du Lundi au Samedi : de 08h30 à 12h00","latitude":46.3731,"longitude":-0.738722,"website":"http://www.maillezais.fr/","hasWebsite":true,"hasHoraires":true,"url":"https://lannuaire.service-public.gouv.fr/pays-de-la-loire/vendee/d1faff55-7c6f-48f2-9923-e1996388f2cd"}
{"nom":"Mallièvre","nomNormalise":"mallievre","typeCollectivite":"Commune","region":"Pays de la Loire","departement":"Vendée","departementCode":"85","adresse":{"street":"13 place des Tisserands","postalCode":"85590","city":"Mallièvre","country":"France"},"contacts":{"email":"mairie@mallievre.fr","telephone":"0251653065"},"horaires":"Du Lundi au Mercredi : de 09h00 à 12h00\nLe Vendredi : de 09h00 à 12h00","latitude":46.910763,"longitude":-0.8644508,"website":"https://www.mallievre.fr/","hasWebsite":true,"hasHoraires":true,"url":"https://lannuaire.service-public.gouv.fr/pays-de-la-loire/vendee/a73c334f-a575-44ed-9cd2-c7f8c28434a2"}
{"nom":"Mareuil-sur-Lay-Dissais","nomNormalise":"mareuilsurlaydissais","typeCollectivite":"Commune","region":"Pays de la Loire","departement":"Vendée","departementCode":"85","adresse":{"street":"17 rue Hervé-de-Mareuil","postalCode":"85320","city":"Mareuil-sur-Lay-Dissais","country":"France"},"contacts":{"email":"mairie@mareuilsurlay.fr","telephone":"0251305105"},"horaires":"Le Lundi : de 13h30 à 17h15\nDu Mardi au Mercredi : de 08h30 à 12h00 de 13h30 à 17h15\nLe Jeudi : de 08h30 à 12h00\nLe Vendredi : de 08h30 à 12h00 de 13h30 à 17h15\nLe Samedi : de 09h00 à 12h00","latitude":46.5381,"longitude":-1.23064,"website":"http://www.mareuilsurlay.fr/","hasWebsite":true,"hasHoraires":true,"url":"https://lannuaire.service-public.gouv.fr/pays-de-la-loire/vendee/219e82c9-c046-4db6-b557-87b0b513f745"}
{"nom":"Marillet","nomNormalise":"marillet","typeCollectivite":"Commune","region":"Pays de la Loire","departement":"Vendée","departementCode":"85","adresse":{"street":"14 rue des Ajoncs","postalCode":"85240","city":"Marillet","country":"France"},"contacts":{"email":"commune.marillet@orange.fr","telephone":"0251004634"},"horaires":"Le Mercredi : de 13h30 à 17h00\nLe Vendredi : de 13h30 à 17h00","latitude":46.56877,"longitude":-0.6338757,"website":"https://village-marillet.fr/","hasWebsite":true,"hasHoraires":true,"url":"https://lannuaire.service-public.gouv.fr/pays-de-la-loire/vendee/934de811-9206-48ad-8cc1-53a9585af230"}
{"nom":"Marsais-Sainte-Radégonde","nomNormalise":"marsaissainteradegonde","typeCollectivite":"Commune","region":"Pays de la Loire","departement":"Vendée","departementCode":"85","adresse":{"street":"79 rue du Moutier","postalCode":"85570","city":"Marsais-Sainte-Radégonde","country":"France"},"contacts":{"email":"mairie-msr85@orange.fr","telephone":"0251001144"},"horaires":"Le Mardi : de 13h30 à 18h00\nLe Vendredi : de 09h00 à 12h30 de 13h30 à 18h00","latitude":46.5271,"longitude":-0.861949,"website":"http://www.marsais-sainte-radegonde.fr/","hasWebsite":true,"hasHoraires":true,"url":"https://lannuaire.service-public.gouv.fr/pays-de-la-loire/vendee/a529a5c0-1ff0-4342-be1c-76ed1f4eefd6"}
{"nom":"Martinet","nomNormalise":"martinet","typeCollectivite":"Commune","region":"Pays de la Loire","departement":"Vendée","departementCode":"85","adresse":{"street":"7 rue du Jaunay","postalCode":"85150","city":"Martinet","country":"France"},"contacts":{"email":"mairie@communedemartinet.fr","telephone":"0251346218"},"horaires":"Le Lundi : de 09h00 à 12h30 de 14h00 à 17h00\nDu Mardi au Vendredi : de 09h00 à 12h30","latitude":46.6766,"longitude":-1.68003,"website":"https://www.communedemartinet.fr/","hasWebsite":true,"hasHoraires":true,"url":"https://lannuaire.service-public.gouv.fr/pays-de-la-loire/vendee/1e132e42-2c54-4d0b-bce6-830e30e30d89"}
{"nom":"Menomblet","nomNormalise":"menomblet","typeCollectivite":"Commune","region":"Pays de la Loire","departement":"Vendée","departementCode":"85","adresse":{"street":"9 rue de l'Église","postalCode":"85700","city":"Menomblet","country":"France"},"contacts":{"email":"mairie-menomblet@orange.fr","telephone":"0251517603"},"horaires":"Du Lundi au Vendredi : de 09h00 à 12h00","latitude":46.7319,"longitude":-0.711839,"website":"http://menomblet.fr/","hasWebsite":true,"hasHoraires":true,"url":"https://lannuaire.service-public.gouv.fr/pays-de-la-loire/vendee/a5b6a8bb-32a1-4fb2-bfd3-a03515257b1e"}
{"nom":"Mervent","nomNormalise":"mervent","typeCollectivite":"Commune","region":"Pays de la Loire","departement":"Vendée","departementCode":"85","adresse":{"street":"2 chemin des Douves","postalCode":"85200","city":"Mervent","country":"France"},"contacts":{"email":"mairie@mervent.fr","telephone":"0251002010"},"horaires":"Le Lundi : de 08h30 à 12h00 de 14h00 à 17h30\nLe Mardi : de 08h30 à 12h00\nLe Mercredi : de 08h30 à 12h00 de 14h00 à 17h30\nLe Jeudi : de 08h30 à 12h00\nLe Vendredi : de 08h30 à 12h00 de 14h00 à 17h30\nLe Samedi : de 10h30 à 12h00\n\nPermanence des élus uniquement.","latitude":46.5235,"longitude":-0.756878,"website":"http://www.mervent.fr/","hasWebsite":true,"hasHoraires":true,"url":"https://lannuaire.service-public.gouv.fr/pays-de-la-loire/vendee/91e46547-3121-4625-bda8-1d73e2ba83da"}
{"nom":"Mesnard-la-Barotière","nomNormalise":"mesnardlabarotiere","typeCollectivite":"Commune","region":"Pays de la Loire","departement":"Vendée","departementCode":"85","adresse":{"street":"1 rue de la Mairie","postalCode":"85500","city":"Mesnard-la-Barotière","country":"France"},"contacts":{"email":"mairie@mesnardlabarotiere.fr","telephone":"0251660274"},"horaires":"Du Lundi au Jeudi : de 09h00 à 12h00\nLe Vendredi : de 09h00 à 12h00 de 14h00 à 17h30\nLe Samedi : de 09h00 à 12h00\n\nAccueil ouvert uniquement le 1er et 3e samedi du mois.","latitude":46.8584,"longitude":-1.09878,"website":"https://www.mesnard-la-barotiere.fr/","hasWebsite":true,"hasHoraires":true,"url":"https://lannuaire.service-public.gouv.fr/pays-de-la-loire/vendee/9ca10295-1010-4c6d-b8e0-a10eadf5bd5a"}
{"nom":"Monsireigne","nomNormalise":"monsireigne","typeCollectivite":"Commune","region":"Pays de la Loire","departement":"Vendée","departementCode":"85","adresse":{"street":"10 rue de Rochereau","postalCode":"85110","city":"Monsireigne","country":"France"},"contacts":{"email":"mairie@monsireigne.fr","telephone":"0251664107"},"horaires":"Du Lundi au Vendredi : de 14h00 à 18h00","latitude":46.7439,"longitude":-0.949056,"website":"https://www.monsireigne.fr/","hasWebsite":true,"hasHoraires":true,"url":"https://lannuaire.service-public.gouv.fr/pays-de-la-loire/vendee/95ed6dcc-654f-4a32-9130-7ab82b3b0a67"}
{"nom":"Montaigu-Vendée","nomNormalise":"montaiguvendee","typeCollectivite":"Commune","region":"Pays de la Loire","departement":"Vendée","departementCode":"85","adresse":{"street":"Place de l'Hôtel-de-Ville","postalCode":"85602","city":"Montaigu-Vendée","country":"France"},"contacts":{"email":"mairie@montaigu-vendee.com","telephone":"0251092121"},"horaires":"Du Lundi au Mercredi : de 09h00 à 12h00 de 14h00 à 17h00\nLe Jeudi : de 09h00 à 12h00 de 15h00 à 19h00\nLe Vendredi : de 09h00 à 12h00 de 14h00 à 17h00\nLe Samedi : de 09h00 à 12h00","latitude":46.974346,"longitude":-1.313777,"website":"https://www.montaigu-vendee.com/","hasWebsite":true,"hasHoraires":true,"url":"https://lannuaire.service-public.gouv.fr/pays-de-la-loire/vendee/addbcfe4-21e3-495a-be51-8226e2e41e02"}
{"nom":"Montournais","nomNormalise":"montournais","typeCollectivite":"Commune","region":"Pays de la Loire","departement":"Vendée","departementCode":"85","adresse":{"street":"5 place du Chevalier-Jehan","postalCode":"85700","city":"Montournais","country":"France"},"contacts":{"email":"mairie@montournais.fr","telephone":"0251579306"},"horaires":"Le Lundi : de 10h00 à 12h00 de 14h00 à 18h00\nDu Mardi au Jeudi : de 10h00 à 12h00\nLe Vendredi : de 08h30 à 12h00 de 14h00 à 17h30","latitude":46.7411,"longitude":-0.767124,"website":"https://www.montournais.fr/","hasWebsite":true,"hasHoraires":true,"url":"https://lannuaire.service-public.gouv.fr/pays-de-la-loire/vendee/5db30b11-5233-4076-8103-f8ed51cf9110"}
{"nom":"Montreuil","nomNormalise":"montreuil","typeCollectivite":"Commune","region":"Pays de la Loire","departement":"Vendée","departementCode":"85","adresse":{"street":"44 rue du Cèdre","postalCode":"85200","city":"Montreuil","country":"France"},"contacts":{"email":"mairie@montreuil85.fr","telephone":"0251518037"},"horaires":"Du Lundi au Mardi : de 09h00 à 12h30 de 14h00 à 16h00\nLe Mercredi : de 09h30 à 12h00\nDu Jeudi au Vendredi : de 10h00 à 12h00","latitude":46.4078,"longitude":-0.836371,"website":"","hasWebsite":false,"hasHoraires":true,"url":"https://lannuaire.service-public.gouv.fr/pays-de-la-loire/vendee/3e22ced9-e27f-4be9-adfb-6c89a8ddd764"}
{"nom":"Montréverd","nomNormalise":"montreverd","typeCollectivite":"Commune","region":"Pays de la Loire","departement":"Vendée","departementCode":"85","adresse":{"street":"Saint-André-Treize-Voies","postalCode":"85260","city":"Montréverd","country":"France"},"contacts":{"email":"accueil@montreverd.fr","telephone":"0251428065"},"horaires":"Du Lundi au Jeudi : de 09h00 à 12h00\nLe Vendredi : de 09h00 à 12h00 de 14h00 à 17h30\nLe Samedi : de 09h00 à 12h00","latitude":46.9337,"longitude":-1.41235,"website":"http://www.montreverd.fr/","hasWebsite":true,"hasHoraires":true,"url":"https://lannuaire.service-public.gouv.fr/pays-de-la-loire/vendee/aa2e6576-1c1b-430b-aa8c-cf6c230242cf"}
{"nom":"Moreilles","nomNormalise":"moreilles","typeCollectivite":"Commune","region":"Pays de la Loire","departement":"Vendée","departementCode":"85","adresse":{"street":"3 rue Nationale","postalCode":"85450","city":"Moreilles","country":"France"},"contacts":{"email":"mairie@moreilles.fr","telephone":"0251560773"},"horaires":"Le Lundi : de 14h00 à 17h00\nLe Mardi : de 09h00 à 12h00\nLe Jeudi : de 14h00 à 17h00\nLe Vendredi : de 09h00 à 12h00","latitude":46.42088,"longitude":-1.0844274,"website":"","hasWebsite":false,"hasHoraires":true,"url":"https://lannuaire.service-public.gouv.fr/pays-de-la-loire/vendee/b1b5ba0a-6bfa-42a2-bb87-62619aacc338"}
{"nom":"Mortagne-sur-Sèvre","nomNormalise":"mortagnesursevre","typeCollectivite":"Commune","region":"Pays de la Loire","departement":"Vendée","departementCode":"85","adresse":{"street":"Place de la Mairie","postalCode":"85291","city":"Mortagne-sur-Sèvre","country":"France"},"contacts":{"email":"mairie@mortagnesursevre.fr","telephone":"0251650045"},"horaires":"Le Lundi : de 08h30 à 12h30 de 15h00 à 17h30\nDu Mardi au Vendredi : de 08h30 à 12h30 de 13h45 à 17h30\nLe Samedi : de 09h00 à 10h00\n\nAccueil ouvert uniquement pour l'état civil.","latitude":46.993027,"longitude":-0.9509605,"website":"http://www.mortagnesursevre.fr/","hasWebsite":true,"hasHoraires":true,"url":"https://lannuaire.service-public.gouv.fr/pays-de-la-loire/vendee/a3d54263-ba32-4225-860c-a633f4e98e94"}
{"nom":"Mouchamps","nomNormalise":"mouchamps","typeCollectivite":"Commune","region":"Pays de la Loire","departement":"Vendée","departementCode":"85","adresse":{"street":"11 rue du Commandant-Guilbaud","postalCode":"85640","city":"Mouchamps","country":"France"},"contacts":{"email":"mairie@mouchamps.com","telephone":"0251662101"},"horaires":"Du Lundi au Jeudi : de 09h00 à 12h30\nLe Vendredi : de 09h00 à 12h30 de 14h00 à 16h15\nLe Samedi : de 09h00 à 12h00\n\nAccueil fermé de mi- juillet à mi-août.","latitude":46.77841,"longitude":-1.063445,"website":"https://www.mouchamps.com/","hasWebsite":true,"hasHoraires":true,"url":"https://lannuaire.service-public.gouv.fr/pays-de-la-loire/vendee/c262aaf8-bb50-4aa8-9201-e9f5a4bd6d1c"}
{"nom":"Mouilleron-le-Captif","nomNormalise":"mouilleronlecaptif","typeCollectivite":"Commune","region":"Pays de la Loire","departement":"Vendée","departementCode":"85","adresse":{"street":"8 rue de la Gillonnière","postalCode":"85000","city":"Mouilleron-le-Captif","country":"France"},"contacts":{"email":"contact@mairie-mouilleronlecaptif.fr","telephone":"0251311050"},"horaires":"Le Lundi : de 08h30 à 12h30 de 13h30 à 17h30\nLe Mardi : de 08h30 à 12h30\nLe Mercredi : de 08h30 à 12h30 de 13h30 à 17h30\nLe Jeudi : de 08h30 à 12h30\nLe Vendredi : de 08h30 à 12h30 de 13h30 à 17h30\nLe Samedi : de 09h00 à 12h00","latitude":46.7219,"longitude":-1.45386,"website":"https://www.mairie-mouilleronlecaptif.fr/","hasWebsite":true,"hasHoraires":true,"url":"https://lannuaire.service-public.gouv.fr/pays-de-la-loire/vendee/80e6e527-f31d-42f7-be5f-0cd362375a02"}
{"nom":"Mouilleron-Saint-Germain","nomNormalise":"mouilleronsaintgermain","typeCollectivite":"Commune","region":"Pays de la Loire","departement":"Vendée","departementCode":"85","adresse":{"street":"Mouilleron-en-Pareds","postalCode":"85390","city":"Mouilleron-Saint-Germain","country":"France"},"contacts":{"email":"accueil@mouilleronstgermain.fr","telephone":"0251003034"},"horaires":"Du Lundi au Jeudi : de 09h00 à 12h00\nLe Vendredi : de 09h00 à 12h00 de 15h00 à 18h00","latitude":46.6756,"longitude":-0.848618,"website":"http://www.mouilleronstgermain.com/","hasWebsite":true,"hasHoraires":true,"url":"https://lannuaire.service-public.gouv.fr/pays-de-la-loire/vendee/ef7af775-5c7f-4b65-b9f0-ec8a2bb76739"}
{"nom":"Moutiers-les-Mauxfaits","nomNormalise":"moutierslesmauxfaits","typeCollectivite":"Commune","region":"Pays de la Loire","departement":"Vendée","departementCode":"85","adresse":{"street":"25 avenue Georges-Clemenceau","postalCode":"85540","city":"Moutiers-les-Mauxfaits","country":"France"},"contacts":{"email":"communication@moutiers-les-mauxfaits.fr","telephone":"0251989033"},"horaires":"Le Lundi : de 09h00 à 12h30 de 14h00 à 17h30\nDu Mardi au Jeudi : de 09h00 à 12h30\nLe Vendredi : de 09h00 à 12h30 de 14h00 à 17h30","latitude":46.492596,"longitude":-1.425869,"website":"https://moutiers-les-mauxfaits.fr/","hasWebsite":true,"hasHoraires":true,"url":"https://lannuaire.service-public.gouv.fr/pays-de-la-loire/vendee/8eb114aa-3af5-4af4-9c3a-1f7baa92ed25"}
{"nom":"Moutiers-sur-le-Lay","nomNormalise":"moutierssurlelay","typeCollectivite":"Commune","region":"Pays de la Loire","departement":"Vendée","departementCode":"85","adresse":{"street":"Rue de la Saulnerie","postalCode":"85320","city":"Moutiers-sur-le-Lay","country":"France"},"contacts":{"email":"mairie@moutierssurlelay.fr","telephone":"0251275070"},"horaires":"Le Lundi : de 09h00 à 12h30\nLe Mardi : de 09h00 à 12h30 de 14h30 à 18h00\nLe Mercredi : de 09h00 à 12h15\n\nAccueil ouvert uniquement les semaines impaires.\nLe Jeudi : de 09h00 à 12h30 de 14h30 à 18h00\nLe Vendredi : de 09h00 à 12h30\nLe Samedi : de 09h00 à 12h15\n\nAccueil ouvert uniquement les semaines paires.","latitude":46.555347,"longitude":-1.158542,"website":"https://moutiers-sur-le-lay.fr/","hasWebsite":true,"hasHoraires":true,"url":"https://lannuaire.service-public.gouv.fr/pays-de-la-loire/vendee/6797d4d8-396b-48f0-94b3-36be1198f219"}
{"nom":"Mouzeuil-Saint-Martin","nomNormalise":"mouzeuilsaintmartin","typeCollectivite":"Commune","region":"Pays de la Loire","departement":"Vendée","departementCode":"85","adresse":{"street":"22 rue Louis-Appraillé","postalCode":"85370","city":"Mouzeuil-Saint-Martin","country":"France"},"contacts":{"email":"accueil@mouzeuilsaintmartin.fr","telephone":"0251287396"},"horaires":"Du Lundi au Vendredi : de 08h30 à 12h00","latitude":46.464504,"longitude":-0.977287,"website":"https://www.mouzeuilsaintmartin.fr/","hasWebsite":true,"hasHoraires":true,"url":"https://lannuaire.service-public.gouv.fr/pays-de-la-loire/vendee/302866ef-d889-42db-ac21-bfc27b1a65e0"}
{"nom":"Nalliers","nomNormalise":"nalliers","typeCollectivite":"Commune","region":"Pays de la Loire","departement":"Vendée","departementCode":"85","adresse":{"street":"27 rue Pierre-et-Marie-Curie","postalCode":"85370","city":"Nalliers","country":"France"},"contacts":{"email":"mairie@nalliers.fr","telephone":"0251307034"},"horaires":"Du Lundi au Mardi : de 09h00 à 12h00\nLe Mercredi : de 09h00 à 12h00 de 14h00 à 17h00\nDu Jeudi au Samedi : de 09h00 à 12h00","latitude":46.4706,"longitude":-1.03019,"website":"http://nalliers.fr/","hasWebsite":true,"hasHoraires":true,"url":"https://lannuaire.service-public.gouv.fr/pays-de-la-loire/vendee/bd0bb2b5-ca73-484e-a6aa-9c9f43396f50"}
{"nom":"Nesmy","nomNormalise":"nesmy","typeCollectivite":"Commune","region":"Pays de la Loire","departement":"Vendée","departementCode":"85","adresse":{"street":"Place de l'Église","postalCode":"85310","city":"Nesmy","country":"France"},"contacts":{"email":"contact@mairienesmy.fr","telephone":"0251076264"},"horaires":"Du Lundi au Vendredi : de 09h00 à 12h30\nLe Samedi : de 09h00 à 12h00","latitude":46.592995,"longitude":-1.4023542,"website":"https://www.nesmy.fr/","hasWebsite":true,"hasHoraires":true,"url":"https://lannuaire.service-public.gouv.fr/pays-de-la-loire/vendee/2c21c616-c260-4ff1-8b22-c6ecbf9f7e70"}
{"nom":"Nieul-le-Dolent","nomNormalise":"nieulledolent","typeCollectivite":"Commune","region":"Pays de la Loire","departement":"Vendée","departementCode":"85","adresse":{"street":"13 place du Marché","postalCode":"85430","city":"Nieul-le-Dolent","country":"France"},"contacts":{"email":"mairie@nieul-le-dolent.fr","telephone":"0251079092"},"horaires":"Le Lundi : de 08h30 à 12h00 de 13h30 à 17h00\nDu Mardi au Vendredi : de 08h30 à 12h00","latitude":46.5745,"longitude":-1.50813,"website":"https://www.nieul-le-dolent.fr/","hasWebsite":true,"hasHoraires":true,"url":"https://lannuaire.service-public.gouv.fr/pays-de-la-loire/vendee/74e089d3-3150-4b6d-a781-dfd2ec71bfc8"}
{"nom":"Noirmoutier-en-l'Île","nomNormalise":"noirmoutierenlile","typeCollectivite":"Commune","region":"Pays de la Loire","departement":"Vendée","departementCode":"85","adresse":{"street":"1 place de l'Hôtel-de-Ville","postalCode":"85330","city":"Noirmoutier-en-l'Île","country":"France"},"contacts":{"email":"mairie@ville-noirmoutier.fr","telephone":"0251359999"},"horaires":"Du Lundi au Jeudi : de 08h30 à 12h30 de 14h00 à 17h30\nLe Vendredi : de 08h30 à 12h30 de 14h00 à 17h00\n\nPendant la crise sanitaire téléphoner avant de se déplacer.","latitude":46.9999,"longitude":-2.2438922,"website":"http://www.ville-noirmoutier.fr/","hasWebsite":true,"hasHoraires":true,"url":"https://lannuaire.service-public.gouv.fr/pays-de-la-loire/vendee/cb445476-5a4b-4b92-84d4-cf4340895cb5"}
{"nom":"Notre-Dame-de-Monts","nomNormalise":"notredamedemonts","typeCollectivite":"Commune","region":"Pays de la Loire","departement":"Vendée","departementCode":"85","adresse":{"street":"4 rue de la Barre","postalCode":"85690","city":"Notre-Dame-de-Monts","country":"France"},"contacts":{"email":"mairie@notredamedemonts.fr","telephone":"0251588302"},"horaires":"Du Lundi au Mardi : de 08h30 à 12h30 de 13h30 à 17h30\nLe Mercredi : de 08h30 à 12h30\nDu Jeudi au Vendredi : de 08h30 à 12h30 de 13h30 à 17h30\nLe Samedi : de 10h00 à 12h00","latitude":46.831196,"longitude":-2.13074,"website":"https://villenotredamedemonts.fr/","hasWebsite":true,"hasHoraires":true,"url":"https://lannuaire.service-public.gouv.fr/pays-de-la-loire/vendee/4640dd78-fe05-48cd-91f2-1e12b8f38a95"}
{"nom":"Notre-Dame-de-Riez","nomNormalise":"notredamederiez","typeCollectivite":"Commune","region":"Pays de la Loire","departement":"Vendée","departementCode":"85","adresse":{"street":"2 rue du Ligneron","postalCode":"85270","city":"Notre-Dame-de-Riez","country":"France"},"contacts":{"email":"mairie@notredamederiez.fr","telephone":"0251551415"},"horaires":"Le Lundi : de 09h00 à 12h30\nLe Mardi : de 09h00 à 12h30 de 14h00 à 17h00\nLe Mercredi : de 09h00 à 12h30\nLe Jeudi : de 09h00 à 12h30 de 14h00 à 17h00\nLe Vendredi : de 09h00 à 12h30 de 14h00 à 18h00","latitude":46.7485,"longitude":-1.89721,"website":"https://notredamederiez.fr/","hasWebsite":true,"hasHoraires":true,"url":"https://lannuaire.service-public.gouv.fr/pays-de-la-loire/vendee/b5278306-e3ff-410d-a1bb-5638a6ce846c"}
{"nom":"Mairie déléguée - Olonne-sur-Mer","nomNormalise":"mairiedelegueeolonnesurmer","typeCollectivite":"Commune","region":"Pays de la Loire","departement":"Vendée","departementCode":"85","adresse":{"street":"Rue des Sables","postalCode":"85340","city":"Les Sables-d'Olonne","country":"France"},"contacts":{"email":"contact@lessablesdolonne.fr","telephone":"0251231600"},"horaires":"Du Lundi au Jeudi : de 08h30 à 12h00 de 13h30 à 17h30\nLe Vendredi : de 08h30 à 12h00 de 13h30 à 19h00","latitude":46.533665,"longitude":-1.773719,"website":"https://www.lessablesdolonne.fr/","hasWebsite":true,"hasHoraires":true,"url":"https://lannuaire.service-public.gouv.fr/pays-de-la-loire/vendee/cd385030-63bc-4ad7-9707-0fc01d63b9f5"}
{"nom":"Mairie déléguée - Oulmes","nomNormalise":"mairiedelegueeoulmes","typeCollectivite":"Commune","region":"Pays de la Loire","departement":"Vendée","departementCode":"85","adresse":{"street":"Oulmes","postalCode":"85240","city":"Rives-d'Autise","country":"France"},"contacts":{"email":"accueil-oulmes@rives-autise.fr","telephone":"0251524059"},"horaires":"Du Lundi au Mardi : de 09h00 à 12h30\nDu Jeudi au Vendredi : de 09h00 à 12h30","latitude":46.39892,"longitude":-0.663084,"website":"https://www.rives-autise.fr/","hasWebsite":true,"hasHoraires":true,"url":"https://lannuaire.service-public.gouv.fr/pays-de-la-loire/vendee/d95f409e-f0c1-4898-815c-c25c389b0569"}
{"nom":"Palluau","nomNormalise":"palluau","typeCollectivite":"Commune","region":"Pays de la Loire","departement":"Vendée","departementCode":"85","adresse":{"street":"5 rue De-Lattre-de-Tassigny","postalCode":"85670","city":"Palluau","country":"France"},"contacts":{"email":"mairie@palluau.fr","telephone":"0251985024"},"horaires":"Du Lundi au Mercredi : de 09h00 à 12h00\nLe Jeudi : de 09h00 à 12h00 de 16h00 à 18h00\nLe Vendredi : de 09h00 à 12h00\nLe Samedi : de 10h00 à 12h00\n\nAccueil ouvert les 1er et 3e samedis du mois.","latitude":46.8044,"longitude":-1.61954,"website":"https://palluau.fr/fr/","hasWebsite":true,"hasHoraires":true,"url":"https://lannuaire.service-public.gouv.fr/pays-de-la-loire/vendee/c1ffa24b-51b8-4d9c-959f-79307ceb9b3b"}
{"nom":"Péault","nomNormalise":"peault","typeCollectivite":"Commune","region":"Pays de la Loire","departement":"Vendée","departementCode":"85","adresse":{"street":"1 rue Cavoleau","postalCode":"85320","city":"Péault","country":"France"},"contacts":{"email":"mairie@peault.fr","telephone":"0251977012"},"horaires":"Du Lundi au Mardi : de 13h30 à 15h30\nDu Jeudi au Vendredi : de 13h30 à 15h30\nLe Samedi : de 09h00 à 12h00","latitude":46.501183,"longitude":-1.2218933,"website":"https://peault.fr/","hasWebsite":true,"hasHoraires":true,"url":"https://lannuaire.service-public.gouv.fr/pays-de-la-loire/vendee/42c9c0eb-7de3-443f-91a4-718dd6328096"}
{"nom":"Petosse","nomNormalise":"petosse","typeCollectivite":"Commune","region":"Pays de la Loire","departement":"Vendée","departementCode":"85","adresse":{"street":"239 rue du Chat-Ferré","postalCode":"85570","city":"Petosse","country":"France"},"contacts":{"email":"mairie-petosse@wanadoo.fr","telephone":"0251001411"},"horaires":"Du Lundi au Mercredi : de 09h00 à 12h30\nDu Vendredi au Samedi : de 09h00 à 12h00","latitude":46.4811,"longitude":-0.909953,"website":"","hasWebsite":false,"hasHoraires":true,"url":"https://lannuaire.service-public.gouv.fr/pays-de-la-loire/vendee/91c85523-97fb-43c0-aab1-352f03e70386"}
{"nom":"Pissotte","nomNormalise":"pissotte","typeCollectivite":"Commune","region":"Pays de la Loire","departement":"Vendée","departementCode":"85","adresse":{"street":"1 route de l'Orbrie","postalCode":"85200","city":"Pissotte","country":"France"},"contacts":{"email":"mairie.de.pissotte@wanadoo.fr","telephone":"0251690561"},"horaires":"Du Lundi au Mercredi : de 16h30 à 18h30\nDu Jeudi au Vendredi : de 16h30 à 19h00","latitude":46.496727,"longitude":-0.8080701,"website":"https://www.pissotte.fr/","hasWebsite":true,"hasHoraires":true,"url":"https://lannuaire.service-public.gouv.fr/pays-de-la-loire/vendee/acad39c2-0ef0-4f39-b72e-11e5cf79970e"}
{"nom":"Poiroux","nomNormalise":"poiroux","typeCollectivite":"Commune","region":"Pays de la Loire","departement":"Vendée","departementCode":"85","adresse":{"street":"116 rue du Payré","postalCode":"85440","city":"Poiroux","country":"France"},"contacts":{"email":"mairie.poiroux@wanadoo.fr","telephone":"0251962256"},"horaires":"Le Lundi : de 09h00 à 12h45 de 14h00 à 17h15\nDu Mardi au Jeudi : de 09h00 à 12h45\nLe Vendredi : de 09h00 à 12h45 de 14h00 à 16h00","latitude":46.50522,"longitude":-1.5345207,"website":"http://www.poiroux.fr/","hasWebsite":true,"hasHoraires":true,"url":"https://lannuaire.service-public.gouv.fr/pays-de-la-loire/vendee/e8c429ad-e689-4cd1-bf33-fb0137f5e564"}
{"nom":"Pouillé","nomNormalise":"pouille","typeCollectivite":"Commune","region":"Pays de la Loire","departement":"Vendée","departementCode":"85","adresse":{"street":"51 Route de Fontenay","postalCode":"85570","city":"Pouillé","country":"France"},"contacts":{"email":"mairie@pouille-85.fr","telephone":"0251001128"},"horaires":"Du Lundi au Mardi : de 13h00 à 16h00\nDu Mercredi au Jeudi : de 09h00 à 12h00\nLe Vendredi : de 13h00 à 17h00\nLe Samedi : de 09h00 à 12h00\n\nOuvert uniquement les semaines impaires.","latitude":46.58071,"longitude":-0.9732211,"website":"","hasWebsite":false,"hasHoraires":true,"url":"https://lannuaire.service-public.gouv.fr/pays-de-la-loire/vendee/a5dc2674-1d94-4c34-9f06-3c738dec0d56"}
{"nom":"Pouzauges","nomNormalise":"pouzauges","typeCollectivite":"Commune","region":"Pays de la Loire","departement":"Vendée","departementCode":"85","adresse":{"street":"Place de l'Hôtel-de-Ville","postalCode":"85702","city":"Pouzauges Cedex","country":"France"},"contacts":{"email":"mairie@pouzauges.fr","telephone":"0251570137"},"horaires":"Le Lundi : de 08h30 à 12h30 de 13h30 à 17h30\nLe Mardi : de 08h30 à 12h30 de 14h30 à 17h30\nDu Mercredi au Vendredi : de 08h30 à 12h30 de 13h30 à 17h30\nLe Samedi : de 09h30 à 12h00\n\nAccueil fermé en juillet-août et pendant les vacances de Noël.","latitude":46.783,"longitude":-0.837102,"website":"https://www.pouzauges.fr/","hasWebsite":true,"hasHoraires":true,"url":"https://lannuaire.service-public.gouv.fr/pays-de-la-loire/vendee/90e95813-7d77-4b92-9e5d-6b1a71461d68"}
{"nom":"Puy-de-Serre","nomNormalise":"puydeserre","typeCollectivite":"Commune","region":"Pays de la Loire","departement":"Vendée","departementCode":"85","adresse":{"street":"6 rue du Bois-du-Roc","postalCode":"85240","city":"Puy-de-Serre","country":"France"},"contacts":{"email":"accueil@puydeserre.fr","telephone":"0251004337"},"horaires":"Le Mardi : de 09h00 à 12h00\nDu Jeudi au Samedi : de 09h00 à 12h00","latitude":46.562714,"longitude":-0.6666064,"website":"https://www.puydeserre.fr/","hasWebsite":true,"hasHoraires":true,"url":"https://lannuaire.service-public.gouv.fr/pays-de-la-loire/vendee/d981a12c-9e17-4180-9aac-f079f472f3a5"}
{"nom":"Puyravault","nomNormalise":"puyravault","typeCollectivite":"Commune","region":"Pays de la Loire","departement":"Vendée","departementCode":"85","adresse":{"street":"Impasse de la Mairie","postalCode":"85450","city":"Puyravault","country":"France"},"contacts":{"email":"mairie.puyravault85@wanadoo.fr","telephone":"0251286199"},"horaires":"Le Lundi : de 14h00 à 17h00\nLe Mercredi : de 09h00 à 12h00\nLe Vendredi : de 09h00 à 12h00","latitude":46.379086,"longitude":-1.0808738,"website":"https://puyravault-vendee.fr/","hasWebsite":true,"hasHoraires":true,"url":"https://lannuaire.service-public.gouv.fr/pays-de-la-loire/vendee/41bc4301-c34b-44fd-98cf-f91c3f3a8edd"}
{"nom":"Réaumur","nomNormalise":"reaumur","typeCollectivite":"Commune","region":"Pays de la Loire","departement":"Vendée","departementCode":"85","adresse":{"street":"1 place de l'Église","postalCode":"85700","city":"Réaumur","country":"France"},"contacts":{"email":"mairie@reaumur.fr","telephone":"0251579099"},"horaires":"Du Lundi au Mardi : de 09h30 à 12h00 de 13h30 à 16h30\nLe Mercredi : de 09h30 à 12h00\nLe Jeudi : de 09h30 à 12h00 de 13h30 à 16h30\nLe Vendredi : de 13h30 à 17h00","latitude":46.719936,"longitude":-0.803498,"website":"https://www.reaumur.fr/","hasWebsite":true,"hasHoraires":true,"url":"https://lannuaire.service-public.gouv.fr/pays-de-la-loire/vendee/d03d0c59-3abd-4d8d-b528-ab3c9535f648"}
{"nom":"Rives-d'Autise","nomNormalise":"rivesdautise","typeCollectivite":"Commune","region":"Pays de la Loire","departement":"Vendée","departementCode":"85","adresse":{"street":"Nieul-sur-l'Autise","postalCode":"85240","city":"Rives-d'Autise","country":"France"},"contacts":{"email":"mairie@rives-autise.fr","telephone":"0251524012"},"horaires":"Du Lundi au Mardi : de 14h00 à 17h30\nLe Mercredi : de 09h00 à 12h30\nLe Jeudi : de 14h00 à 17h30\nLe Vendredi : de 13h30 à 16h30","latitude":46.424698,"longitude":-0.6790241,"website":"https://www.rives-autise.fr/","hasWebsite":true,"hasHoraires":true,"url":"https://lannuaire.service-public.gouv.fr/pays-de-la-loire/vendee/a5a01912-a02d-4dfe-bb53-a120ab5aefb5"}
{"nom":"Rives-de-l'Yon","nomNormalise":"rivesdelyon","typeCollectivite":"Commune","region":"Pays de la Loire","departement":"Vendée","departementCode":"85","adresse":{"street":"Saint-Florent-des-Bois","postalCode":"85310","city":"Rives-de-l'Yon","country":"France"},"contacts":{"email":"accueil@rivesdelyon.fr","telephone":"0251319035"},"horaires":"Le Lundi : de 08h45 à 12h30 de 14h00 à 18h30\nDu Mardi au Mercredi : de 14h00 à 17h30\nLe Jeudi : de 08h45 à 12h30\nLe Vendredi : de 14h00 à 17h30","latitude":46.583683,"longitude":-1.3659195,"website":"https://www.rivesdelyon.fr/","hasWebsite":true,"hasHoraires":true,"url":"https://lannuaire.service-public.gouv.fr/pays-de-la-loire/vendee/e1e62dd7-c033-45a9-bb92-414a82f3aa75"}
{"nom":"Rives-du-Fougerais","nomNormalise":"rivesdufougerais","typeCollectivite":"Commune","region":"Pays de la Loire","departement":"Vendée","departementCode":"85","adresse":{"street":"Thouarsais-Bouildroux","postalCode":"85410","city":"Rives-du-Fougerais","country":"France"},"contacts":{"email":"secretariat@rivesdufougerais.fr","telephone":"0251515494"},"horaires":"Du Lundi au Jeudi : de 09h00 à 12h30\nLe Vendredi : de 09h00 à 12h30 de 14h00 à 18h00","latitude":46.6198,"longitude":-0.879188,"website":"https://rivesdufougerais.fr/","hasWebsite":true,"hasHoraires":true,"url":"https://lannuaire.service-public.gouv.fr/pays-de-la-loire/vendee/98ef9923-96b2-4eee-8757-7360f54d59ef"}
{"nom":"Rocheservière","nomNormalise":"rocheserviere","typeCollectivite":"Commune","region":"Pays de la Loire","departement":"Vendée","departementCode":"85","adresse":{"street":"Place de la Mairie","postalCode":"85620","city":"Rocheservière","country":"France"},"contacts":{"email":"mairie@rocheserviere.fr","telephone":"0251949035"},"horaires":"Le Lundi : de 09h00 à 12h30 de 14h00 à 17h30\nLe Mardi : de 09h00 à 12h30\nLe Mercredi : de 09h00 à 12h30 de 14h00 à 17h30\nLe Jeudi : de 09h00 à 12h30\nLe Vendredi : de 09h00 à 12h30 de 14h00 à 17h30\nLe Samedi : de 09h00 à 12h00","latitude":46.9362,"longitude":-1.51345,"website":"https://www.rocheserviere.fr/","hasWebsite":true,"hasHoraires":true,"url":"https://lannuaire.service-public.gouv.fr/pays-de-la-loire/vendee/5a9dd441-33f1-4de7-ace7-af5774db47b3"}
{"nom":"Rochetrejoux","nomNormalise":"rochetrejoux","typeCollectivite":"Commune","region":"Pays de la Loire","departement":"Vendée","departementCode":"85","adresse":{"street":"4 rue du Tigre","postalCode":"85510","city":"Rochetrejoux","country":"France"},"contacts":{"email":"mairie@rochetrejoux.fr","telephone":"0251914524"},"horaires":"Du Lundi au Mardi : de 08h00 à 12h30 de 13h45 à 16h45\nLe Jeudi : de 08h00 à 12h30 de 13h45 à 18h00\nLe Vendredi : de 08h00 à 12h30 de 13h45 à 16h45","latitude":46.7891,"longitude":-1.00135,"website":"https://rochetrejoux.fr/","hasWebsite":true,"hasHoraires":true,"url":"https://lannuaire.service-public.gouv.fr/pays-de-la-loire/vendee/a78e80ff-88d0-4dca-bb9c-2d8f7b7e968f"}
{"nom":"Rosnay","nomNormalise":"rosnay","typeCollectivite":"Commune","region":"Pays de la Loire","departement":"Vendée","departementCode":"85","adresse":{"street":"17 rue des Rosiers","postalCode":"85320","city":"Rosnay","country":"France"},"contacts":{"email":"contact@rosnay85.fr","telephone":"0251305406"},"horaires":"Le Lundi : de 08h30 à 12h30 de 15h00 à 18h30\nLe Mardi : de 14h00 à 17h00\nLe Mercredi : de 09h00 à 12h30\nLe Vendredi : de 08h30 à 12h30","latitude":46.538807,"longitude":-1.306338,"website":"https://www.intramuros.org/rosnay85","hasWebsite":true,"hasHoraires":true,"url":"https://lannuaire.service-public.gouv.fr/pays-de-la-loire/vendee/cdf2402b-45cf-49c8-aae1-bada952b1099"}
{"nom":"Saint-André-Goule-d'Oie","nomNormalise":"saintandregouledoie","typeCollectivite":"Commune","region":"Pays de la Loire","departement":"Vendée","departementCode":"85","adresse":{"street":"13 rue de la Madone","postalCode":"85250","city":"Saint-André-Goule-d'Oie","country":"France"},"contacts":{"email":"accueil@sago.fr","telephone":"0251426061"},"horaires":"Du Mardi au Vendredi : de 08h30 à 13h00\nLe Samedi : de 09h00 à 12h00","latitude":46.8326,"longitude":-1.18999,"website":"http://www.sago.fr/","hasWebsite":true,"hasHoraires":true,"url":"https://lannuaire.service-public.gouv.fr/pays-de-la-loire/vendee/f75deed4-1260-4b44-8712-c5a14835ec0a"}
{"nom":"Saint-Aubin-des-Ormeaux","nomNormalise":"saintaubindesormeaux","typeCollectivite":"Commune","region":"Pays de la Loire","departement":"Vendée","departementCode":"85","adresse":{"street":"Place Paul-Baudry","postalCode":"85130","city":"Saint-Aubin-des-Ormeaux","country":"France"},"contacts":{"email":"accueil@saintaubindesormeaux.fr","telephone":"0251656249"},"horaires":"Du Lundi au Mardi : de 08h45 à 12h15\nLe Mercredi : de 08h45 à 12h15 de 14h00 à 17h30\nDu Jeudi au Vendredi : de 08h45 à 12h15\nLe Samedi : de 08h45 à 11h45\n\nUn samedi sur deux sur la semaine paire","latitude":46.991844,"longitude":-1.044168,"website":"http://www.saintaubindesormeaux.fr/","hasWebsite":true,"hasHoraires":true,"url":"https://lannuaire.service-public.gouv.fr/pays-de-la-loire/vendee/70a08bdd-5e2d-4691-b4d9-689e85985aa4"}
{"nom":"Saint-Aubin-la-Plaine","nomNormalise":"saintaubinlaplaine","typeCollectivite":"Commune","region":"Pays de la Loire","departement":"Vendée","departementCode":"85","adresse":{"street":"1 rue de la Mairie","postalCode":"85210","city":"Saint-Aubin-la-Plaine","country":"France"},"contacts":{"email":"secretariat@saintaubinlaplaine.fr","telephone":"0251273517"},"horaires":"Le Lundi : de 14h00 à 18h00\nDu Mardi au Jeudi : de 09h00 à 12h30 de 14h00 à 18h00\nLe Vendredi : de 09h00 à 12h30","latitude":46.5063,"longitude":-1.0571,"website":"https://saintaubinlaplaine.fr/","hasWebsite":true,"hasHoraires":true,"url":"https://lannuaire.service-public.gouv.fr/pays-de-la-loire/vendee/8b26e0c6-f199-46ea-901a-8544292b8e02"}
{"nom":"Saint-Avaugourd-des-Landes","nomNormalise":"saintavaugourddeslandes","typeCollectivite":"Commune","region":"Pays de la Loire","departement":"Vendée","departementCode":"85","adresse":{"street":"16 rue Évariste-Febvre","postalCode":"85540","city":"Saint-Avaugourd-des-Landes","country":"France"},"contacts":{"email":"mairie@saint-avaugourd-des-landes.fr","telephone":"0251989411"},"horaires":"Le Lundi : de 09h00 à 12h00 de 14h00 à 18h00\nDu Mardi au Mercredi : de 09h00 à 12h00\nLe Jeudi : de 09h00 à 12h00 de 14h00 à 18h00\nLe Vendredi : de 09h00 à 12h00 de 14h00 à 15h30","latitude":46.5126,"longitude":-1.48592,"website":"https://www.saint-avaugourd-des-landes.fr/","hasWebsite":true,"hasHoraires":true,"url":"https://lannuaire.service-public.gouv.fr/pays-de-la-loire/vendee/76071845-a63b-4bf1-af17-33b0082ce1a5"}
{"nom":"Saint-Benoist-sur-Mer","nomNormalise":"saintbenoistsurmer","typeCollectivite":"Commune","region":"Pays de la Loire","departement":"Vendée","departementCode":"85","adresse":{"street":"2 place de la Mairie","postalCode":"85540","city":"Saint-Benoist-sur-Mer","country":"France"},"contacts":{"email":"mairie-saint-benoist-sur-mer@wanadoo.fr","telephone":"0251308456"},"horaires":"Du Lundi au Mardi : de 09h00 à 13h00\nLe Jeudi : de 09h00 à 13h00\nLe Vendredi : de 09h00 à 13h00 de 14h00 à 16h00","latitude":46.4241,"longitude":-1.35298,"website":"http://www.saintbenoistsurmer.fr/","hasWebsite":true,"hasHoraires":true,"url":"https://lannuaire.service-public.gouv.fr/pays-de-la-loire/vendee/57032544-5bda-4bfa-853d-9f256b67027e"}
{"nom":"Saint-Christophe-du-Ligneron","nomNormalise":"saintchristopheduligneron","typeCollectivite":"Commune","region":"Pays de la Loire","departement":"Vendée","departementCode":"85","adresse":{"street":"6 place de la Mairie","postalCode":"85670","city":"Saint-Christophe-du-Ligneron","country":"France"},"contacts":{"email":"contact@mairie-scdl.fr","telephone":"0251933023"},"horaires":"Le Lundi : de 09h00 à 12h30 de 13h30 à 17h30\nLe Mardi : de 09h00 à 12h30\nLe Mercredi : de 09h00 à 12h30 de 13h30 à 17h30\nLe Jeudi : de 09h00 à 12h30\nLe Vendredi : de 09h00 à 12h30 de 13h30 à 17h30\nLe Samedi : de 10h00 à 12h00\n\nAccueil ouvert uniquement le 1er et 3e samedi du mois.","latitude":46.822163,"longitude":-1.762134,"website":"http://www.saint-christophe-du-ligneron.fr/","hasWebsite":true,"hasHoraires":true,"url":"https://lannuaire.service-public.gouv.fr/pays-de-la-loire/vendee/84efea72-8437-433f-8a0f-ae95c94b9686"}
{"nom":"Saint-Cyr-des-Gâts","nomNormalise":"saintcyrdesgats","typeCollectivite":"Commune","region":"Pays de la Loire","departement":"Vendée","departementCode":"85","adresse":{"street":"6 rue de la Huguenoterie","postalCode":"85410","city":"Saint-Cyr-des-Gâts","country":"France"},"contacts":{"email":"contact@st-cyr-des-gats.fr","telephone":"0251001302"},"horaires":"Le Lundi : de 15h00 à 19h00\nLe Mardi : de 09h00 à 12h00\nLe Jeudi : de 14h00 à 17h00\nLe Vendredi : de 09h00 à 12h00","latitude":46.5697,"longitude":-0.882561,"website":"","hasWebsite":false,"hasHoraires":true,"url":"https://lannuaire.service-public.gouv.fr/pays-de-la-loire/vendee/e050b689-e244-4468-bff2-986e6f21839a"}
{"nom":"Saint-Cyr-en-Talmondais","nomNormalise":"saintcyrentalmondais","typeCollectivite":"Commune","region":"Pays de la Loire","departement":"Vendée","departementCode":"85","adresse":{"street":"3 rue de la Tillauderie","postalCode":"85540","city":"Saint-Cyr-en-Talmondais","country":"France"},"contacts":{"email":"mairie@stcyrentalmondais.fr","telephone":"0251308282"},"horaires":"Du Lundi au Mardi : de 09h00 à 12h00\nDu Jeudi au Vendredi : de 09h00 à 12h00","latitude":46.45893,"longitude":-1.3370899,"website":"","hasWebsite":false,"hasHoraires":true,"url":"https://lannuaire.service-public.gouv.fr/pays-de-la-loire/vendee/0434a8de-d844-48d7-8ca8-3a345257bafc"}
{"nom":"Saint-Denis-du-Payré","nomNormalise":"saintdenisdupayre","typeCollectivite":"Commune","region":"Pays de la Loire","departement":"Vendée","departementCode":"85","adresse":{"street":"Place du 8-Mai","postalCode":"85580","city":"Saint-Denis-du-Payré","country":"France"},"contacts":{"email":"accueil@stdenispayre.fr","telephone":"0251272028"},"horaires":"Du Lundi au Jeudi : de 09h00 à 12h30\nDu Lundi au Vendredi : de 09h00 à 12h30 de 13h30 à 16h00","latitude":46.4066,"longitude":-1.2675399,"website":"http://www.cc-sudvendeelittoral.fr/","hasWebsite":true,"hasHoraires":true,"url":"https://lannuaire.service-public.gouv.fr/pays-de-la-loire/vendee/dae916ee-5cc4-4b05-850e-12057431c2ea"}
{"nom":"Saint-Denis-la-Chevasse","nomNormalise":"saintdenislachevasse","typeCollectivite":"Commune","region":"Pays de la Loire","departement":"Vendée","departementCode":"85","adresse":{"street":"6 rue Abbé-Pierre-Arnaud","postalCode":"85170","city":"Saint-Denis-la-Chevasse","country":"France"},"contacts":{"email":"contact@saintdenislachevasse.fr","telephone":"0251414848"},"horaires":"Du Lundi au Vendredi : de 09h00 à 14h00\nLe Samedi : de 09h15 à 12h00\n\nAccueil ouvert uniquement le 1er et 3e samedi du mois et fermé en juillet-août.","latitude":46.821735,"longitude":-1.3582406,"website":"https://www.saintdenislachevasse.fr/","hasWebsite":true,"hasHoraires":true,"url":"https://lannuaire.service-public.gouv.fr/pays-de-la-loire/vendee/0ede9304-f449-4aa8-926b-c7e42c28f16d"}
{"nom":"Sainte-Cécile","nomNormalise":"saintececile","typeCollectivite":"Commune","region":"Pays de la Loire","departement":"Vendée","departementCode":"85","adresse":{"street":"1 place de la Mairie","postalCode":"85110","city":"Sainte-Cécile","country":"France"},"contacts":{"email":"mairie@saintececile85.fr","telephone":"0251402407"},"horaires":"Du Lundi au Jeudi : de 09h00 à 12h30\nLe Vendredi : de 09h00 à 12h30 de 14h00 à 18h00\nLe Samedi : de 09h00 à 12h30\n\nAccueil ouvert uniquement les semaines paires.","latitude":46.6879,"longitude":-1.13109,"website":"https://saintececile85.fr/","hasWebsite":true,"hasHoraires":true,"url":"https://lannuaire.service-public.gouv.fr/pays-de-la-loire/vendee/6ed9b26d-096c-4892-8717-c3b0b3193f2b"}
{"nom":"Sainte-Flaive-des-Loups","nomNormalise":"sainteflaivedesloups","typeCollectivite":"Commune","region":"Pays de la Loire","departement":"Vendée","departementCode":"85","adresse":{"street":"11 rue de la Mairie","postalCode":"85150","city":"Sainte-Flaive-des-Loups","country":"France"},"contacts":{"email":"mairie@steflaivedesloups.fr","telephone":"0251340255"},"horaires":"Du Lundi au Jeudi : de 09h00 à 12h30\nLe Vendredi : de 09h00 à 12h30 de 14h00 à 17h30","latitude":46.6102,"longitude":-1.57728,"website":"https://steflaivedesloups.com/","hasWebsite":true,"hasHoraires":true,"url":"https://lannuaire.service-public.gouv.fr/pays-de-la-loire/vendee/e2760c6d-fc81-47ab-95e6-7b561bd47ae4"}
{"nom":"Sainte-Florence","nomNormalise":"sainteflorence","typeCollectivite":"Commune","region":"Pays de la Loire","departement":"Vendée","departementCode":"85","adresse":{"street":"6 rue Gaston-Chaissac","postalCode":"85140","city":"Sainte-Florence","country":"France"},"contacts":{"email":"mairie@sainteflorence.fr","telephone":"0251660101"},"horaires":"Le Lundi : de 09h00 à 12h00 de 14h00 à 17h00\nLe Mardi : de 09h00 à 12h00\nLe Mercredi : de 09h00 à 12h00 de 14h00 à 17h00\nLe Jeudi : de 09h00 à 12h00\nLe Vendredi : de 09h00 à 12h00 de 14h00 à 17h00","latitude":46.79688,"longitude":-1.152113,"website":"","hasWebsite":false,"hasHoraires":true,"url":"https://lannuaire.service-public.gouv.fr/pays-de-la-loire/vendee/d05916e1-9f34-4df6-b646-f96a3383b656"}
{"nom":"Sainte-Foy","nomNormalise":"saintefoy","typeCollectivite":"Commune","region":"Pays de la Loire","departement":"Vendée","departementCode":"85","adresse":{"street":"1 allée de la Mairie","postalCode":"85150","city":"Sainte-Foy","country":"France"},"contacts":{"email":"mairie@saintefoy85.fr","telephone":"0251964756"},"horaires":"Le Lundi : de 08h30 à 12h00\nLe Mardi : de 08h30 à 12h00\nLe Mercredi : de 08h30 à 12h00\nLe Jeudi : de 08h30 à 12h00 de 14h00 à 17h30\nLe Vendredi : de 08h30 à 12h00 de 14h00 à 17h30\nLe Samedi : de 08h30 à 12h00\n\nLes trois premiers samedis du mois","latitude":46.5456,"longitude":-1.67172,"website":"https://www.saintefoy85.fr/","hasWebsite":true,"hasHoraires":true,"url":"https://lannuaire.service-public.gouv.fr/pays-de-la-loire/vendee/87928dfa-2527-494f-bcd6-64c45ebfe1b2"}
{"nom":"Sainte-Gemme-la-Plaine","nomNormalise":"saintegemmelaplaine","typeCollectivite":"Commune","region":"Pays de la Loire","departement":"Vendée","departementCode":"85","adresse":{"street":"3 rue de la Mairie","postalCode":"85400","city":"Sainte-Gemme-la-Plaine","country":"France"},"contacts":{"email":"accueil@saintegemmelaplaine.fr","telephone":"0251270201"},"horaires":"Du Lundi au Vendredi : de 09h00 à 12h00\nLe Samedi : de 10h00 à 12h00","latitude":46.4813,"longitude":-1.11354,"website":"https://www.saintegemmelaplaine.fr/","hasWebsite":true,"hasHoraires":true,"url":"https://lannuaire.service-public.gouv.fr/pays-de-la-loire/vendee/c79c4ecd-9b5e-4ea5-a47d-788665bb6f22"}
{"nom":"Sainte-Pexine","nomNormalise":"saintepexine","typeCollectivite":"Commune","region":"Pays de la Loire","departement":"Vendée","departementCode":"85","adresse":{"street":"4 rue du Pont","postalCode":"85320","city":"Sainte-Pexine","country":"France"},"contacts":{"email":"mairie-sainte-pexine@wanadoo.fr","telephone":"0251275000"},"horaires":"Le Lundi : de 14h00 à 18h00\nLe Mardi : de 14h00 à 17h30\nLe Mercredi : de 09h00 à 12h30\nLe Vendredi : de 14h00 à 17h00","latitude":46.561672,"longitude":-1.1389908,"website":"","hasWebsite":false,"hasHoraires":true,"url":"https://lannuaire.service-public.gouv.fr/pays-de-la-loire/vendee/d5a4d98a-b8ba-4c90-8951-b9d50a9620ea"}
{"nom":"Sainte-Radégonde-des-Noyers","nomNormalise":"sainteradegondedesnoyers","typeCollectivite":"Commune","region":"Pays de la Loire","departement":"Vendée","departementCode":"85","adresse":{"street":"1 place de la Mairie","postalCode":"85450","city":"Sainte-Radégonde-des-Noyers","country":"France"},"contacts":{"email":"mairie-ste-radegondaise@wanadoo.fr","telephone":"0251286012"},"horaires":"Le Lundi : de 08h00 à 12h00 de 13h30 à 16h00\nDu Mardi au Mercredi : de 08h00 à 12h00\nLe Jeudi : de 08h00 à 12h00 de 13h30 à 16h00\nLe Vendredi : de 08h00 à 12h00","latitude":46.37715,"longitude":-1.059104,"website":"https://sainteradegondedesnoyers.fr/","hasWebsite":true,"hasHoraires":true,"url":"https://lannuaire.service-public.gouv.fr/pays-de-la-loire/vendee/f5b25540-2a5a-496d-8acc-01b0763acf42"}
{"nom":"Saint-Étienne-de-Brillouet","nomNormalise":"saintetiennedebrillouet","typeCollectivite":"Commune","region":"Pays de la Loire","departement":"Vendée","departementCode":"85","adresse":{"street":"48 rue de la Mairie","postalCode":"85210","city":"Saint-Étienne-de-Brillouet","country":"France"},"contacts":{"email":"mairie.saintetiennedebrillouet@orange.fr","telephone":"0251276291"},"horaires":"Du Lundi au Mardi : de 09h00 à 13h00\nDu Jeudi au Vendredi : de 09h00 à 13h00","latitude":46.525,"longitude":-0.99843,"website":"","hasWebsite":false,"hasHoraires":true,"url":"https://lannuaire.service-public.gouv.fr/pays-de-la-loire/vendee/70bc1a5b-4441-40b3-b822-55791ec2ca2a"}
{"nom":"Saint-Étienne-du-Bois","nomNormalise":"saintetiennedubois","typeCollectivite":"Commune","region":"Pays de la Loire","departement":"Vendée","departementCode":"85","adresse":{"street":"2 place de l'Église","postalCode":"85670","city":"Saint-Étienne-du-Bois","country":"France"},"contacts":{"email":"mairie@stetiennedubois85.fr","telephone":"0251345211"},"horaires":"Du Lundi au Mardi : de 09h00 à 12h30 de 14h00 à 17h30\nDu Mercredi au Vendredi : de 09h00 à 12h30\nLe Samedi : de 09h00 à 12h00","latitude":46.8304,"longitude":-1.59568,"website":"https://www.stetiennedubois85.fr/","hasWebsite":true,"hasHoraires":true,"url":"https://lannuaire.service-public.gouv.fr/pays-de-la-loire/vendee/8558ea85-bd31-4fc2-b1b0-aab396f309c2"}
{"nom":"Saint-Fulgent","nomNormalise":"saintfulgent","typeCollectivite":"Commune","region":"Pays de la Loire","departement":"Vendée","departementCode":"85","adresse":{"street":"20 rue Nationale","postalCode":"85250","city":"Saint-Fulgent","country":"France"},"contacts":{"email":"mairie@saint-fulgent.fr","telephone":"0251426226"},"horaires":"Le Lundi : de 09h00 à 12h30 de 14h00 à 18h00\nDu Mardi au Mercredi : de 09h00 à 12h30 de 14h00 à 17h30\nLe Jeudi : de 09h00 à 13h00\nLe Vendredi : de 09h00 à 12h30 de 14h00 à 17h00\nLe Samedi : de 08h45 à 12h00","latitude":46.851036,"longitude":-1.1757088,"website":"https://www.saint-fulgent.fr/","hasWebsite":true,"hasHoraires":true,"url":"https://lannuaire.service-public.gouv.fr/pays-de-la-loire/vendee/15e7d381-cd0e-4647-b7cc-10b45053da09"}
{"nom":"Mairie déléguée - Saint-Georges-de-Montaigu","nomNormalise":"mairiedelegueesaintgeorgesdemontaigu","typeCollectivite":"Commune","region":"Pays de la Loire","departement":"Vendée","departementCode":"85","adresse":{"street":"Saint-Georges-de-Montaigu","postalCode":"85600","city":"Montaigu-Vendée","country":"France"},"contacts":{"email":"mairie@montaigu-vendee.com","telephone":"0251489494"},"horaires":"Le Lundi : de 09h00 à 12h00\nDu Mercredi au Samedi : de 09h00 à 12h00\n\nSamedi uniquement semaine paire.","latitude":46.94763,"longitude":-1.296215,"website":"https://www.montaigu-vendee.com/","hasWebsite":true,"hasHoraires":true,"url":"https://lannuaire.service-public.gouv.fr/pays-de-la-loire/vendee/e52e3205-ff34-4781-a311-127689ad9145"}
{"nom":"Saint-Georges-de-Pointindoux","nomNormalise":"saintgeorgesdepointindoux","typeCollectivite":"Commune","region":"Pays de la Loire","departement":"Vendée","departementCode":"85","adresse":{"street":"10 rue de l'Auzance","postalCode":"85150","city":"Saint-Georges-de-Pointindoux","country":"France"},"contacts":{"email":"mairie@saintgeorgesdepointindoux.fr","telephone":"0251386056"},"horaires":"Le Lundi : de 08h00 à 12h30\nDu Mardi au Vendredi : de 08h30 à 12h30","latitude":46.6438,"longitude":-1.6217499,"website":"","hasWebsite":false,"hasHoraires":true,"url":"https://lannuaire.service-public.gouv.fr/pays-de-la-loire/vendee/4e6345e4-b041-4258-ac23-729bfdafa4ef"}
{"nom":"Saint-Germain-de-Prinçay","nomNormalise":"saintgermaindeprincay","typeCollectivite":"Commune","region":"Pays de la Loire","departement":"Vendée","departementCode":"85","adresse":{"street":"Place de la Mairie","postalCode":"85110","city":"Saint-Germain-de-Prinçay","country":"France"},"contacts":{"email":"mairie@stgermaindeprincay.fr","telephone":"0251404382"},"horaires":"Le Lundi : de 09h00 à 12h30 de 14h00 à 17h30\nLe Mardi : de 09h00 à 12h30\nLe Mercredi : de 09h00 à 12h30 de 14h00 à 17h30\nLe Jeudi : de 09h00 à 12h30\nLe Vendredi : de 09h00 à 12h30 de 14h00 à 17h30\nLe Samedi : de 09h00 à 12h00\n\nAccueil ouvert uniquement les semaines paires et fermé en juillet-août.","latitude":46.7061,"longitude":-1.0302,"website":"http://stgermaindeprincay.fr/","hasWebsite":true,"hasHoraires":true,"url":"https://lannuaire.service-public.gouv.fr/pays-de-la-loire/vendee/09c6c960-d315-49db-8a4f-5f0b90a06572"}
{"nom":"Saint-Gervais","nomNormalise":"saintgervais","typeCollectivite":"Commune","region":"Pays de la Loire","departement":"Vendée","departementCode":"85","adresse":{"street":"66 rue du Villebon","postalCode":"85230","city":"Saint-Gervais","country":"France"},"contacts":{"email":"mairie@saintgervais-vendee.fr","telephone":"0251687314"},"horaires":"Du Lundi au Vendredi : de 09h00 à 12h00\nLe Samedi : de 09h00 à 12h00\n\nSauf en juillet/août.","latitude":46.902,"longitude":-1.99803,"website":"https://saintgervais-vendee.fr/","hasWebsite":true,"hasHoraires":true,"url":"https://lannuaire.service-public.gouv.fr/pays-de-la-loire/vendee/7b21b99c-be86-4ae7-b669-51e52fd077b5"}
{"nom":"Saint-Gilles-Croix-de-Vie","nomNormalise":"saintgillescroixdevie","typeCollectivite":"Commune","region":"Pays de la Loire","departement":"Vendée","departementCode":"85","adresse":{"street":"86 quai de la République","postalCode":"85800","city":"Saint-Gilles-Croix-de-Vie","country":"France"},"contacts":{"email":"info@saintgillescroixdevie.fr","telephone":"0251557979"},"horaires":"Du Lundi au Jeudi : de 08h45 à 12h30 de 13h30 à 17h30\nLe Vendredi : de 08h45 à 12h30 de 13h30 à 16h30","latitude":46.697548,"longitude":-1.9447744,"website":"https://www.saintgillescroixdevie.fr/","hasWebsite":true,"hasHoraires":true,"url":"https://lannuaire.service-public.gouv.fr/pays-de-la-loire/vendee/ae290931-6458-44a5-9eb9-0af422e30164"}
{"nom":"Mairie déléguée - Saint-Hilaire-de-Loulay","nomNormalise":"mairiedelegueesainthilairedeloulay","typeCollectivite":"Commune","region":"Pays de la Loire","departement":"Vendée","departementCode":"85","adresse":{"street":"Saint-Hilaire-de-Loulay","postalCode":"85600","city":"Montaigu-Vendée","country":"France"},"contacts":{"email":"mairie@montaigu-vendee.com","telephone":"0251489292"},"horaires":"Du Lundi au Mercredi : de 09h00 à 12h00\nDu Vendredi au Samedi : de 09h00 à 12h00\n\nLe samedi uniquement semaine paire.","latitude":47.003986,"longitude":-1.3321825,"website":"https://www.montaigu-vendee.com/","hasWebsite":true,"hasHoraires":true,"url":"https://lannuaire.service-public.gouv.fr/pays-de-la-loire/vendee/f25282f5-fe29-4392-b869-77d8f53b2ff3"}
{"nom":"Saint-Hilaire-de-Riez","nomNormalise":"sainthilairederiez","typeCollectivite":"Commune","region":"Pays de la Loire","departement":"Vendée","departementCode":"85","adresse":{"street":"Place de l'Église","postalCode":"85270","city":"Saint-Hilaire-de-Riez","country":"France"},"contacts":{"email":"secretariatgeneral@sainthilairederiez.fr","telephone":"0251599400"},"horaires":"Le Lundi : de 09h00 à 12h30 de 13h45 à 16h30\nDu Mardi au Vendredi : de 09h00 à 12h30 de 13h45 à 17h15\nLe Samedi : de 09h00 à 12h00\n\nAccueil ouvert le samedi pour l'état civil uniquement, service technique et urbanisme ouverts du lundi au vendredi de 14h à 17h15, pendant la crise sanitaire accueil ouvert sur rendez-vous uniquement.","latitude":46.720413,"longitude":-1.945849,"website":"http://www.sainthilairederiez.fr/","hasWebsite":true,"hasHoraires":true,"url":"https://lannuaire.service-public.gouv.fr/pays-de-la-loire/vendee/0b4d00ee-c28a-48a3-a318-0ebcc38272a0"}
{"nom":"Saint-Hilaire-des-Loges","nomNormalise":"sainthilairedesloges","typeCollectivite":"Commune","region":"Pays de la Loire","departement":"Vendée","departementCode":"85","adresse":{"street":"1 rue Charles-Fradin","postalCode":"85240","city":"Saint-Hilaire-des-Loges","country":"France"},"contacts":{"email":"contact@st-hilaire-des-loges.fr","telephone":"0251521023"},"horaires":"Du Lundi au Mardi : de 09h00 à 12h30 de 13h30 à 17h00\nLe Mercredi : de 09h00 à 12h30\nDu Jeudi au Vendredi : de 09h00 à 12h30 de 13h30 à 17h00","latitude":46.4713,"longitude":-0.665042,"website":"http://www.st-hilaire-des-loges.fr/","hasWebsite":true,"hasHoraires":true,"url":"https://lannuaire.service-public.gouv.fr/pays-de-la-loire/vendee/a92b6929-af05-4305-a19a-a439c9659f7e"}
{"nom":"Saint-Hilaire-de-Voust","nomNormalise":"sainthilairedevoust","typeCollectivite":"Commune","region":"Pays de la Loire","departement":"Vendée","departementCode":"85","adresse":{"street":"21 rue de la Mairie","postalCode":"85120","city":"Saint-Hilaire-de-Voust","country":"France"},"contacts":{"email":"accueil@sthilairedevoust.fr","telephone":"0251004013"},"horaires":"Le Lundi : de 13h30 à 17h00\nLe Mercredi : de 09h00 à 12h30\nLe Vendredi : de 09h00 à 12h30","latitude":46.5877,"longitude":-0.645119,"website":"https://sthilairedevoust.fr/","hasWebsite":true,"hasHoraires":true,"url":"https://lannuaire.service-public.gouv.fr/pays-de-la-loire/vendee/350200e2-a040-46b4-b584-836ca91d3d65"}
{"nom":"Saint-Hilaire-la-Forêt","nomNormalise":"sainthilairelaforet","typeCollectivite":"Commune","region":"Pays de la Loire","departement":"Vendée","departementCode":"85","adresse":{"street":"6 rue Georges-Clemenceau","postalCode":"85440","city":"Saint-Hilaire-la-Forêt","country":"France"},"contacts":{"email":"mairiedesthilairelaforet@orange.fr","telephone":"0251333228"},"horaires":"Le Lundi : de 09h00 à 12h00 de 13h30 à 17h00\nDu Mardi au Mercredi : de 09h00 à 12h00\nLe Jeudi : de 09h00 à 12h00 de 13h30 à 17h00\nLe Vendredi : de 09h00 à 12h00","latitude":46.447,"longitude":-1.52686,"website":"https://sainthilairelaforet.fr/","hasWebsite":true,"hasHoraires":true,"url":"https://lannuaire.service-public.gouv.fr/pays-de-la-loire/vendee/1da3ffbf-e6ee-4104-9f24-44d272725dc3"}
{"nom":"Saint-Hilaire-le-Vouhis","nomNormalise":"sainthilairelevouhis","typeCollectivite":"Commune","region":"Pays de la Loire","departement":"Vendée","departementCode":"85","adresse":{"street":"1 place de la Mairie","postalCode":"85480","city":"Saint-Hilaire-le-Vouhis","country":"France"},"contacts":{"email":"mairie@sthilaire-levouhis.fr","telephone":"0251468493"},"horaires":"Du Lundi au Mardi : de 08h30 à 12h30\nDu Jeudi au Vendredi : de 08h30 à 12h30\nLe Samedi : de 08h30 à 12h00","latitude":46.6879,"longitude":-1.13109,"website":"https://sthilaire-levouhis.fr/","hasWebsite":true,"hasHoraires":true,"url":"https://lannuaire.service-public.gouv.fr/pays-de-la-loire/vendee/3580c87b-a712-4af2-ac3f-8d490406510c"}
{"nom":"Mairie Saint-Jean-d'Hermine","nomNormalise":"mairiesaintjeandhermine","typeCollectivite":"Commune","region":"Pays de la Loire","departement":"Vendée","departementCode":"85","adresse":{"street":"22 route de Nantes","postalCode":"85210","city":"Saint-Jean-d'Hermine","country":"France"},"contacts":{"email":"contact@saintjeandhermine.fr","telephone":"0251978949"},"horaires":"Du Lundi au Mardi : de 09h00 à 12h30 de 13h30 à 17h00\nDu Mercredi au Jeudi : de 09h00 à 12h30\nLe Vendredi : de 09h00 à 12h30 de 13h30 à 17h00\nLe Samedi : de 10h00 à 12h00","latitude":46.556374,"longitude":-1.0611933,"website":"https://www.saintjeandhermine.fr/","hasWebsite":true,"hasHoraires":true,"url":"https://lannuaire.service-public.gouv.fr/pays-de-la-loire/vendee/f58383d8-9abd-467c-ae6b-5dad8b10d9f4"}
{"nom":"Mairie déléguée - Saint-Jean-de-Beugné","nomNormalise":"mairiedelegueesaintjeandebeugne","typeCollectivite":"Commune","region":"Pays de la Loire","departement":"Vendée","departementCode":"85","adresse":{"street":"Saint-Jean-de-Beugné","postalCode":"85210","city":"Saint-Jean-d'Hermine","country":"France"},"contacts":{"email":"mairiestjeandebeugne@wanadoo.fr","telephone":"0251273736"},"horaires":"Du Lundi au Mardi : de 09h00 à 12h00 de 13h30 à 17h00\nLe Mercredi : de 09h00 à 12h00\nLe Jeudi : de 09h00 à 12h00 de 14h30 à 19h00\nLe Vendredi : de 09h00 à 12h00","latitude":46.521587,"longitude":-1.0871019,"website":"http://www.saintjeandebeugne.fr/","hasWebsite":true,"hasHoraires":true,"url":"https://lannuaire.service-public.gouv.fr/pays-de-la-loire/vendee/7bf3de16-15eb-47f7-8f03-5cac6006362e"}
{"nom":"Saint-Jean-de-Monts","nomNormalise":"saintjeandemonts","typeCollectivite":"Commune","region":"Pays de la Loire","departement":"Vendée","departementCode":"85","adresse":{"street":"18 rue de la Plage","postalCode":"85160","city":"Saint-Jean-de-Monts","country":"France"},"contacts":{"email":"mairie@mairie-saintjeandemonts.fr","telephone":"0251599700"},"horaires":"Du Lundi au Vendredi : de 09h00 à 12h30 de 14h00 à 17h30\nLe Samedi : de 09h00 à 12h00","latitude":46.79154,"longitude":-2.064368,"website":"https://www.saintjeandemonts.fr/","hasWebsite":true,"hasHoraires":true,"url":"https://lannuaire.service-public.gouv.fr/pays-de-la-loire/vendee/88fc8b68-e104-4163-b9f3-6e6d7f2aa28d"}
{"nom":"Saint-Juire-Champgillon","nomNormalise":"saintjuirechampgillon","typeCollectivite":"Commune","region":"Pays de la Loire","departement":"Vendée","departementCode":"85","adresse":{"street":"3 place de la Mairie","postalCode":"85210","city":"Saint-Juire-Champgillon","country":"France"},"contacts":{"email":"mairie-st-juire-champgillon@orange.fr","telephone":"0251278204"},"horaires":"Le Mardi : de 14h00 à 17h30\nLe Vendredi : de 13h30 à 18h00\nLe Samedi : de 09h30 à 12h00\n\nAccueil ouvert les 1ers et 3e samedis du mois.","latitude":46.578,"longitude":-1.02625,"website":"","hasWebsite":false,"hasHoraires":true,"url":"https://lannuaire.service-public.gouv.fr/pays-de-la-loire/vendee/6fb6910b-1ab2-4771-aebc-7f2e12a82e9e"}
{"nom":"Saint-Julien-des-Landes","nomNormalise":"saintjuliendeslandes","typeCollectivite":"Commune","region":"Pays de la Loire","departement":"Vendée","departementCode":"85","adresse":{"street":"4 place Simone-Veil","postalCode":"85150","city":"Saint-Julien-des-Landes","country":"France"},"contacts":{"email":"mairie@stjuliendeslandes.fr","telephone":"0251466215"},"horaires":"Du Lundi au Vendredi : de 08h30 à 12h30\nAccueil le mercredi après-midi sur rendez-vous pour l'état civil et l'urbanisme.","latitude":46.638977,"longitude":-1.7152876,"website":"https://www.stjuliendeslandes.fr/","hasWebsite":true,"hasHoraires":true,"url":"https://lannuaire.service-public.gouv.fr/pays-de-la-loire/vendee/c1a91238-b1a8-4096-a907-4d094de21196"}
{"nom":"Saint-Laurent-de-la-Salle","nomNormalise":"saintlaurentdelasalle","typeCollectivite":"Commune","region":"Pays de la Loire","departement":"Vendée","departementCode":"85","adresse":{"street":"7 Grand'rue","postalCode":"85410","city":"Saint-Laurent-de-la-Salle","country":"France"},"contacts":{"email":"contact@mairiedesaintlaurentdelasalle.fr","telephone":"0251001201"},"horaires":"Du Lundi au Mardi : de 15h00 à 18h00\nLe Jeudi : de 10h00 à 12h00 de 15h00 à 19h00\nLe Vendredi : de 15h00 à 17h00","latitude":46.567886,"longitude":-0.9160699,"website":"https://mairiedesaintlaurentdelasalle.fr/","hasWebsite":true,"hasHoraires":true,"url":"https://lannuaire.service-public.gouv.fr/pays-de-la-loire/vendee/441608ec-c224-4e48-bead-af573adef6da"}
{"nom":"Saint-Laurent-sur-Sèvre","nomNormalise":"saintlaurentsursevre","typeCollectivite":"Commune","region":"Pays de la Loire","departement":"Vendée","departementCode":"85","adresse":{"street":"Place de la Mairie","postalCode":"85290","city":"Saint-Laurent-sur-Sèvre","country":"France"},"contacts":{"email":"mairie@saintlaurentsursevre.fr","telephone":"0251678144"},"horaires":"Le Lundi : de 14h00 à 17h30\nDu Mardi au Vendredi : de 09h00 à 12h30\nLe Samedi : de 09h00 à 12h00","latitude":46.959,"longitude":-0.886477,"website":"http://www.saintlaurentsursevre.fr/","hasWebsite":true,"hasHoraires":true,"url":"https://lannuaire.service-public.gouv.fr/pays-de-la-loire/vendee/eab9870f-323a-4a0d-8149-3dd5bdfabcab"}
{"nom":"Saint-Maixent-sur-Vie","nomNormalise":"saintmaixentsurvie","typeCollectivite":"Commune","region":"Pays de la Loire","departement":"Vendée","departementCode":"85","adresse":{"street":"Place de l'Église","postalCode":"85220","city":"Saint-Maixent-sur-Vie","country":"France"},"contacts":{"email":"mairie@stmaixentsurvie.fr","telephone":"0251552783"},"horaires":"Du Lundi au Mardi : de 09h00 à 12h30\nLe Mercredi : de 14h00 à 17h15\nLe Jeudi : de 09h00 à 12h30\nLe Vendredi : de 13h30 à 18h30","latitude":46.74,"longitude":-1.82183,"website":"https://www.stmaixentsurvie.fr/","hasWebsite":true,"hasHoraires":true,"url":"https://lannuaire.service-public.gouv.fr/pays-de-la-loire/vendee/690db429-5dd0-4d71-b852-40448f2f06fe"}
{"nom":"Saint-Malô-du-Bois","nomNormalise":"saintmalodubois","typeCollectivite":"Commune","region":"Pays de la Loire","departement":"Vendée","departementCode":"85","adresse":{"street":"Place du Souvenir","postalCode":"85590","city":"Saint-Malô-du-Bois","country":"France"},"contacts":{"email":"mairie@saintmalodubois.com","telephone":"0251923332"},"horaires":"Le Lundi : de 14h00 à 18h00\nDu Mercredi au Vendredi : de 14h00 à 18h00\nLe Samedi : de 09h00 à 12h00","latitude":46.929276,"longitude":-0.900137,"website":"https://saintmalodubois.com/","hasWebsite":true,"hasHoraires":true,"url":"https://lannuaire.service-public.gouv.fr/pays-de-la-loire/vendee/5a696c4c-3c4b-4e01-88db-5edf6f5a1708"}
{"nom":"Saint-Mars-la-Réorthe","nomNormalise":"saintmarslareorthe","typeCollectivite":"Commune","region":"Pays de la Loire","departement":"Vendée","departementCode":"85","adresse":{"street":"Place Charles-Gaschignard","postalCode":"85590","city":"Saint-Mars-la-Réorthe","country":"France"},"contacts":{"email":"mairie-smlr@wanadoo.fr","telephone":"0251573376"},"horaires":"Du Lundi au Jeudi : de 09h00 à 13h00\nLe Vendredi : de 09h00 à 13h00 de 14h00 à 17h30","latitude":46.8625,"longitude":-0.926027,"website":"http://www.saintmarslareorthe.fr/","hasWebsite":true,"hasHoraires":true,"url":"https://lannuaire.service-public.gouv.fr/pays-de-la-loire/vendee/af118fa5-25bd-4a71-9924-98624e18fc33"}
{"nom":"Saint-Martin-de-Fraigneau","nomNormalise":"saintmartindefraigneau","typeCollectivite":"Commune","region":"Pays de la Loire","departement":"Vendée","departementCode":"85","adresse":{"street":"25 rue des Platanes","postalCode":"85200","city":"Saint-Martin-de-Fraigneau","country":"France"},"contacts":{"email":"","telephone":"0251530691"},"horaires":"Du Lundi au Mardi : de 13h30 à 17h30\nDu Jeudi au Vendredi : de 13h30 à 17h30","latitude":46.43485,"longitude":-0.74543,"website":"https://stmartindefraigneau.fr/","hasWebsite":true,"hasHoraires":true,"url":"https://lannuaire.service-public.gouv.fr/pays-de-la-loire/vendee/898f7e77-06a5-42f9-adde-ffaa4bc48d10"}
{"nom":"Saint-Martin-des-Fontaines","nomNormalise":"saintmartindesfontaines","typeCollectivite":"Commune","region":"Pays de la Loire","departement":"Vendée","departementCode":"85","adresse":{"street":"28 rue de la Mairie","postalCode":"85570","city":"Saint-Martin-des-Fontaines","country":"France"},"contacts":{"email":"secretariat@saint-martin-des-fontaines.fr","telephone":"0251001074"},"horaires":"Du Lundi au Mardi : de 14h00 à 17h30\nLe Jeudi : de 14h00 à 17h30\nLe Vendredi : de 13h45 à 17h15\n\nFermé le dernier vendredi de chaque mois","latitude":46.542526,"longitude":-0.90288,"website":"https://www.saint-martin-des-fontaines.fr/","hasWebsite":true,"hasHoraires":true,"url":"https://lannuaire.service-public.gouv.fr/pays-de-la-loire/vendee/4a0bf1d8-08a1-49f9-ab88-a6064c7e99c9"}
{"nom":"Saint-Martin-des-Noyers","nomNormalise":"saintmartindesnoyers","typeCollectivite":"Commune","region":"Pays de la Loire","departement":"Vendée","departementCode":"85","adresse":{"street":"28 rue de l'Église","postalCode":"85140","city":"Saint-Martin-des-Noyers","country":"France"},"contacts":{"email":"mairie@saintmartindesnoyers.fr","telephone":"0251078260"},"horaires":"Le Lundi : de 13h30 à 17h30\nLe Mardi : de 09h00 à 12h30 de 14h00 à 18h30\nLe Mercredi : de 09h00 à 12h30\nLe Jeudi : de 09h00 à 12h30 de 14h00 à 17h00\nLe Vendredi : de 13h30 à 18h00","latitude":46.72186,"longitude":-1.178186,"website":"https://www.saintmartindesnoyers.fr/","hasWebsite":true,"hasHoraires":true,"url":"https://lannuaire.service-public.gouv.fr/pays-de-la-loire/vendee/d307d64b-6f76-4405-8794-734aae946fdb"}
{"nom":"Saint-Martin-des-Tilleuls","nomNormalise":"saintmartindestilleuls","typeCollectivite":"Commune","region":"Pays de la Loire","departement":"Vendée","departementCode":"85","adresse":{"street":"1 rue des Glycines","postalCode":"85130","city":"Saint-Martin-des-Tilleuls","country":"France"},"contacts":{"email":"mairie@st-martin-des-tilleuls.fr","telephone":"0251656127"},"horaires":"Du Mardi au Vendredi : de 09h00 à 12h15\nLe Samedi : de 09h00 à 12h15\n\nAccueil ouvert les semaines paires uniquement.","latitude":46.9722,"longitude":-1.04896,"website":"https://www.st-martin-des-tilleuls.fr/","hasWebsite":true,"hasHoraires":true,"url":"https://lannuaire.service-public.gouv.fr/pays-de-la-loire/vendee/8494f0a6-42ea-4dbc-afbe-1e780a6195e5"}
{"nom":"Saint-Martin-Lars-en-Sainte-Hermine","nomNormalise":"saintmartinlarsensaintehermine","typeCollectivite":"Commune","region":"Pays de la Loire","departement":"Vendée","departementCode":"85","adresse":{"street":"13 rue de la Mairie","postalCode":"85210","city":"Saint-Martin-Lars-en-Ste-Hermine","country":"France"},"contacts":{"email":"mairie.stmartinlars85@wanadoo.fr","telephone":"0251278033"},"horaires":"Du Lundi au Mardi : de 16h00 à 17h30\nDu Jeudi au Vendredi : de 16h00 à 17h30\nLe Samedi : de 10h30 à 12h00","latitude":46.5897,"longitude":-0.984222,"website":"http://www.saintmartinlars.com/","hasWebsite":true,"hasHoraires":true,"url":"https://lannuaire.service-public.gouv.fr/pays-de-la-loire/vendee/f3445a66-5570-43e4-b1c8-11006a44912b"}
{"nom":"Saint-Mathurin","nomNormalise":"saintmathurin","typeCollectivite":"Commune","region":"Pays de la Loire","departement":"Vendée","departementCode":"85","adresse":{"street":"Place de la Mairie","postalCode":"85150","city":"Saint-Mathurin","country":"France"},"contacts":{"email":"mairie@saint-mathurin.com","telephone":"0251227808"},"horaires":"Le Lundi : de 08h30 à 12h30 de 14h00 à 18h00\nLe Mardi : de 08h30 à 12h30\nLe Jeudi : de 08h30 à 12h30 de 14h00 à 18h00\nLe Vendredi : de 08h30 à 12h30","latitude":46.5456,"longitude":-1.67172,"website":"https://www.saintmathurin.com/","hasWebsite":true,"hasHoraires":true,"url":"https://lannuaire.service-public.gouv.fr/pays-de-la-loire/vendee/6f6a0f1e-edcb-4df8-b611-cb0130664291"}
{"nom":"Saint-Maurice-des-Noues","nomNormalise":"saintmauricedesnoues","typeCollectivite":"Commune","region":"Pays de la Loire","departement":"Vendée","departementCode":"85","adresse":{"street":"11 rue de la Mairie","postalCode":"85120","city":"Saint-Maurice-des-Noues","country":"France"},"contacts":{"email":"secretariat@stmauricedesnoues.fr","telephone":"0251008116"},"horaires":"Du Mardi au Mercredi : de 14h00 à 18h00\nDu Jeudi au Vendredi : de 09h00 à 12h30","latitude":46.6034,"longitude":-0.720025,"website":"","hasWebsite":false,"hasHoraires":true,"url":"https://lannuaire.service-public.gouv.fr/pays-de-la-loire/vendee/43896cd5-4455-4181-acb4-d33d37cfda49"}
{"nom":"Saint-Maurice-le-Girard","nomNormalise":"saintmauricelegirard","typeCollectivite":"Commune","region":"Pays de la Loire","departement":"Vendée","departementCode":"85","adresse":{"street":"14 rue Bellevue","postalCode":"85390","city":"Saint-Maurice-le-Girard","country":"France"},"contacts":{"email":"mairie@smgd85.fr","telephone":"0251527860"},"horaires":"Le Lundi : de 09h00 à 12h30\nLe Mercredi : de 09h00 à 12h30 de 14h00 à 17h30\nLe Vendredi : de 14h00 à 17h30","latitude":46.6393,"longitude":-0.799005,"website":"","hasWebsite":false,"hasHoraires":true,"url":"https://lannuaire.service-public.gouv.fr/pays-de-la-loire/vendee/197e28cc-4213-4e78-a88c-9f84d8548185"}
{"nom":"Saint-Mesmin","nomNormalise":"saintmesmin","typeCollectivite":"Commune","region":"Pays de la Loire","departement":"Vendée","departementCode":"85","adresse":{"street":"2 place de l'Église","postalCode":"85700","city":"Saint-Mesmin","country":"France"},"contacts":{"email":"accueil@saintmesmin.com","telephone":"0251919730"},"horaires":"Le Lundi : de 08h00 à 12h00 de 14h00 à 18h30\nLe Mardi : de 08h00 à 12h30\nLe Mercredi : de 08h00 à 12h00 de 14h00 à 18h00\nLe Jeudi : de 08h00 à 12h30\nLe Vendredi : de 08h00 à 12h00 de 14h00 à 17h00","latitude":46.792942,"longitude":-0.7328418,"website":"https://www.saintmesmin.fr/","hasWebsite":true,"hasHoraires":true,"url":"https://lannuaire.service-public.gouv.fr/pays-de-la-loire/vendee/7697507f-5f02-4a32-935d-71936143c6ee"}
{"nom":"Saint-Michel-en-l'Herm","nomNormalise":"saintmichelenlherm","typeCollectivite":"Commune","region":"Pays de la Loire","departement":"Vendée","departementCode":"85","adresse":{"street":"4 rue Paul-Berjonneau","postalCode":"85580","city":"Saint-Michel-en-l'Herm","country":"France"},"contacts":{"email":"mairie@stmichelherm.fr","telephone":"0251302203"},"horaires":"Du Lundi au Vendredi : de 09h00 à 12h30\nLe Samedi : de 09h00 à 12h00\n\nFermé en juillet-août.","latitude":46.3527,"longitude":-1.25215,"website":"https://saintmichelenlherm.fr/","hasWebsite":true,"hasHoraires":true,"url":"https://lannuaire.service-public.gouv.fr/pays-de-la-loire/vendee/fee614b4-cbd7-40af-a8e3-7d7bcc689995"}
{"nom":"Saint-Michel-le-Cloucq","nomNormalise":"saintmichellecloucq","typeCollectivite":"Commune","region":"Pays de la Loire","departement":"Vendée","departementCode":"85","adresse":{"street":"Place de la Mairie","postalCode":"85200","city":"Saint-Michel-le-Cloucq","country":"France"},"contacts":{"email":"mairie@saintmichellecloucq.fr","telephone":"0251692632"},"horaires":"Le Lundi : de 09h00 à 11h30 de 13h30 à 17h30\nLe Mardi : de 13h30 à 17h30\nLe Jeudi : de 13h30 à 17h30\nLe Vendredi : de 09h00 à 11h30 de 13h30 à 17h00","latitude":46.483852,"longitude":-0.7511249,"website":"https://www.saintmichellecloucq.fr/","hasWebsite":true,"hasHoraires":true,"url":"https://lannuaire.service-public.gouv.fr/pays-de-la-loire/vendee/4820e77b-009d-4725-86ea-b2a984b7476a"}
{"nom":"Saint-Paul-en-Pareds","nomNormalise":"saintpaulenpareds","typeCollectivite":"Commune","region":"Pays de la Loire","departement":"Vendée","departementCode":"85","adresse":{"street":"42 rue de l'Église","postalCode":"85500","city":"Saint-Paul-en-Pareds","country":"France"},"contacts":{"email":"mairie@saintpaulenpareds.fr","telephone":"0251920320"},"horaires":"Du Lundi au Vendredi : de 09h00 à 12h30","latitude":46.8239,"longitude":-0.98776,"website":"https://www.saintpaulenpareds.com/","hasWebsite":true,"hasHoraires":true,"url":"https://lannuaire.service-public.gouv.fr/pays-de-la-loire/vendee/b85ffae4-eca8-42cc-b202-da794d6585ec"}
{"nom":"Saint-Paul-Mont-Penit","nomNormalise":"saintpaulmontpenit","typeCollectivite":"Commune","region":"Pays de la Loire","departement":"Vendée","departementCode":"85","adresse":{"street":"2 rue des Châtaigniers","postalCode":"85670","city":"Saint-Paul-Mont-Penit","country":"France"},"contacts":{"email":"accueil@saintpaulmontpenit.fr","telephone":"0251985173"},"horaires":"Du Lundi au Vendredi : de 09h00 à 12h00 de 14h00 à 17h00","latitude":46.79815,"longitude":-1.660512,"website":"https://www.saintpaulmontpenit.fr/","hasWebsite":true,"hasHoraires":true,"url":"https://lannuaire.service-public.gouv.fr/pays-de-la-loire/vendee/aa9f741e-becc-4ffb-82da-01adf4402d4e"}
{"nom":"Saint-Philbert-de-Bouaine","nomNormalise":"saintphilbertdebouaine","typeCollectivite":"Commune","region":"Pays de la Loire","departement":"Vendée","departementCode":"85","adresse":{"street":"10 rue de la Mairie","postalCode":"85660","city":"Saint-Philbert-de-Bouaine","country":"France"},"contacts":{"email":"mairie@saintphilbertdebouaine.fr","telephone":"0251419117"},"horaires":"Le Lundi : de 14h30 à 17h30\nLe Mardi : de 08h45 à 12h30\nLe Mercredi : de 08h45 à 12h30 de 14h30 à 17h30\nLe Jeudi : de 08h45 à 12h30\nLe Vendredi : de 14h30 à 17h30\nLe Samedi : de 09h00 à 12h00\n\nEn période d'été et lors des fêtes de fin d'année, certaines permanences du samedi ne sont pas assurées.","latitude":46.9822,"longitude":-1.52467,"website":"https://www.saintphilbertdebouaine.fr/","hasWebsite":true,"hasHoraires":true,"url":"https://lannuaire.service-public.gouv.fr/pays-de-la-loire/vendee/e8ae5431-048b-4db3-99c4-5dcec751c45d"}
{"nom":"Saint-Pierre-du-Chemin","nomNormalise":"saintpierreduchemin","typeCollectivite":"Commune","region":"Pays de la Loire","departement":"Vendée","departementCode":"85","adresse":{"street":"1 rue des Comtes-d'Asnières","postalCode":"85120","city":"Saint-Pierre-du-Chemin","country":"France"},"contacts":{"email":"mairie@saintpierreduchemin.fr","telephone":"0251517163"},"horaires":"Le Lundi : de 09h00 à 12h30 de 14h30 à 17h30\nLe Mardi : de 09h00 à 12h30\nLe Mercredi : de 09h00 à 12h30 de 14h30 à 17h30\nDu Jeudi au Vendredi : de 09h00 à 12h30","latitude":46.69646,"longitude":-0.699712,"website":"https://saintpierreduchemin.fr/","hasWebsite":true,"hasHoraires":true,"url":"https://lannuaire.service-public.gouv.fr/pays-de-la-loire/vendee/be8c84e0-b84b-4fc0-b652-b3352c2498bc"}
{"nom":"Saint-Pierre-le-Vieux","nomNormalise":"saintpierrelevieux","typeCollectivite":"Commune","region":"Pays de la Loire","departement":"Vendée","departementCode":"85","adresse":{"street":"2 le Bourg","postalCode":"85420","city":"Saint-Pierre-le-Vieux","country":"France"},"contacts":{"email":"contact@mairiesaintpierrelevieux.fr","telephone":"0251007012"},"horaires":"Du Lundi au Vendredi : de 09h00 à 12h00","latitude":46.38661,"longitude":-0.749747,"website":"https://saintpierrelevieux.fr/","hasWebsite":true,"hasHoraires":true,"url":"https://lannuaire.service-public.gouv.fr/pays-de-la-loire/vendee/6be9bad3-75af-4b75-94ac-7ac6bb4e0b3e"}
{"nom":"Saint-Prouant","nomNormalise":"saintprouant","typeCollectivite":"Commune","region":"Pays de la Loire","departement":"Vendée","departementCode":"85","adresse":{"street":"1 rue Georges-Clemenceau","postalCode":"85110","city":"Saint-Prouant","country":"France"},"contacts":{"email":"mairie@saintprouant.fr","telephone":"0251664060"},"horaires":"Le Lundi : de 09h00 à 12h30 de 15h00 à 18h00\nDu Mardi au Mercredi : de 09h00 à 12h30\nLe Vendredi : de 09h00 à 12h30 de 15h00 à 18h00","latitude":46.759083,"longitude":-0.9580735,"website":"http://www.saintprouant.fr/","hasWebsite":true,"hasHoraires":true,"url":"https://lannuaire.service-public.gouv.fr/pays-de-la-loire/vendee/abafa88d-9ef1-44ea-ab8a-3f51990c99ce"}
{"nom":"Saint-Révérend","nomNormalise":"saintreverend","typeCollectivite":"Commune","region":"Pays de la Loire","departement":"Vendée","departementCode":"85","adresse":{"street":"Rue du Maréchal-de-Lattre-de-Tassigny","postalCode":"85220","city":"Saint-Révérend","country":"France"},"contacts":{"email":"accueil@mairie-saintreverend.fr","telephone":"0251546111"},"horaires":"Du Lundi au Jeudi : de 08h30 à 12h30\nLe Vendredi : de 14h00 à 17h30","latitude":46.7029,"longitude":-1.82773,"website":"http://www.mairie-saintreverend.fr/","hasWebsite":true,"hasHoraires":true,"url":"https://lannuaire.service-public.gouv.fr/pays-de-la-loire/vendee/d23280e3-3c5b-4b35-8e7d-73ee6a083437"}
{"nom":"Saint-Sigismond","nomNormalise":"saintsigismond","typeCollectivite":"Commune","region":"Pays de la Loire","departement":"Vendée","departementCode":"85","adresse":{"street":"1 rue de la Mairie","postalCode":"85420","city":"Saint-Sigismond","country":"France"},"contacts":{"email":"contactmairie@saint-sigismond85.fr","telephone":"0251529482"},"horaires":"Le Lundi : de 13h30 à 17h00\nLe Mercredi : de 09h00 à 12h30\nLe Vendredi : de 13h30 à 17h00","latitude":46.3499,"longitude":-0.687906,"website":"https://stsimin.com/","hasWebsite":true,"hasHoraires":true,"url":"https://lannuaire.service-public.gouv.fr/pays-de-la-loire/vendee/f5855091-a4ce-4f7e-90ce-a849f4f2c904"}
{"nom":"Mairie déléguée - Saint-Sulpice-en-Pareds","nomNormalise":"mairiedelegueesaintsulpiceenpareds","typeCollectivite":"Commune","region":"Pays de la Loire","departement":"Vendée","departementCode":"85","adresse":{"street":"Saint-Sulpice-en-Pareds","postalCode":"85410","city":"Rives-du-Fougerais","country":"France"},"contacts":{"email":"secretariat@rivesdufougerais.fr","telephone":"0251008212"},"horaires":"Le Lundi : de 14h00 à 17h30\nLe Jeudi : de 09h00 à 12h30","latitude":46.5891,"longitude":-0.819922,"website":"https://rivesdufougerais.fr/","hasWebsite":true,"hasHoraires":true,"url":"https://lannuaire.service-public.gouv.fr/pays-de-la-loire/vendee/c823a8ac-b938-47cd-8f09-dd0f48aa38ba"}
{"nom":"Saint-Urbain","nomNormalise":"sainturbain","typeCollectivite":"Commune","region":"Pays de la Loire","departement":"Vendée","departementCode":"85","adresse":{"street":"22 rue de l'Église","postalCode":"85230","city":"Saint-Urbain","country":"France"},"contacts":{"email":"contact@sainturbain.fr","telephone":"0251687334"},"horaires":"Du Lundi au Jeudi : de 09h00 à 12h30\nLe Vendredi : de 09h00 à 12h30 de 13h45 à 17h00\nLe Samedi : de 09h00 à 12h00\n\nAccueil fermé le 1er samedi du mois.","latitude":46.875923,"longitude":-2.0079894,"website":"http://www.sainturbain.fr/","hasWebsite":true,"hasHoraires":true,"url":"https://lannuaire.service-public.gouv.fr/pays-de-la-loire/vendee/af921b0c-a4e7-4eb8-8f86-a36c5c815aae"}
{"nom":"Saint-Valérien","nomNormalise":"saintvalerien","typeCollectivite":"Commune","region":"Pays de la Loire","departement":"Vendée","departementCode":"85","adresse":{"street":"23 rue de la Mairie","postalCode":"85570","city":"Saint-Valérien","country":"France"},"contacts":{"email":"mairie.stvalerien85@orange.fr","telephone":"0251001167"},"horaires":"Le Mardi : de 09h00 à 12h00 de 14h00 à 18h00\nLe Jeudi : de 09h00 à 12h00 de 14h00 à 18h00","latitude":46.5275,"longitude":-0.940724,"website":"https://saintvalerien85.fr/","hasWebsite":true,"hasHoraires":true,"url":"https://lannuaire.service-public.gouv.fr/pays-de-la-loire/vendee/b371baf2-306a-4ae6-bcb3-8dce6e18e3e5"}
{"nom":"Saint-Vincent-Sterlanges","nomNormalise":"saintvincentsterlanges","typeCollectivite":"Commune","region":"Pays de la Loire","departement":"Vendée","departementCode":"85","adresse":{"street":"37 rue Nationale","postalCode":"85110","city":"Saint-Vincent-Sterlanges","country":"France"},"contacts":{"email":"accueil.mairie@sterlanges.fr","telephone":"0251402171"},"horaires":"Du Lundi au Mardi : de 08h15 à 12h30 de 13h30 à 18h00\nDu Jeudi au Vendredi : de 08h15 à 12h30 de 13h30 à 18h00","latitude":46.7391,"longitude":-1.08508,"website":"https://www.sterlanges.fr/","hasWebsite":true,"hasHoraires":true,"url":"https://lannuaire.service-public.gouv.fr/pays-de-la-loire/vendee/4c2856c9-d65e-45b4-bcb6-a27179627275"}
{"nom":"Saint-Vincent-sur-Graon","nomNormalise":"saintvincentsurgraon","typeCollectivite":"Commune","region":"Pays de la Loire","departement":"Vendée","departementCode":"85","adresse":{"street":"3 place de l'Église","postalCode":"85540","city":"Saint-Vincent-sur-Graon","country":"France"},"contacts":{"email":"mairie@saintvincentsurgraon.com","telephone":"0251989089"},"horaires":"Le Lundi : de 09h00 à 12h30\nLe Mardi : de 09h00 à 12h30 de 14h00 à 17h30\nLe Mercredi : de 09h00 à 12h30\nLe Jeudi : de 09h00 à 12h30 de 14h00 à 17h30\nLe Vendredi : de 09h00 à 12h30 de 14h00 à 16h00","latitude":46.51609,"longitude":-1.387246,"website":"https://saintvincentsurgraon.com/","hasWebsite":true,"hasHoraires":true,"url":"https://lannuaire.service-public.gouv.fr/pays-de-la-loire/vendee/ad4e6483-8557-4339-adf1-4828504fd5ee"}
{"nom":"Saint-Vincent-sur-Jard","nomNormalise":"saintvincentsurjard","typeCollectivite":"Commune","region":"Pays de la Loire","departement":"Vendée","departementCode":"85","adresse":{"street":"1 place Clément-Neau","postalCode":"85520","city":"Saint-Vincent-sur-Jard","country":"France"},"contacts":{"email":"mairie@saintvincentsurjard.fr","telephone":"0251334117"},"horaires":"Du Lundi au Vendredi : de 09h00 à 12h00 de 14h00 à 17h00","latitude":46.4158,"longitude":-1.54786,"website":"http://www.mairiesaintvincentsurjard.fr/","hasWebsite":true,"hasHoraires":true,"url":"https://lannuaire.service-public.gouv.fr/pays-de-la-loire/vendee/7ad4f304-a986-4391-9baf-11fc06b5e652"}
{"nom":"Sallertaine","nomNormalise":"sallertaine","typeCollectivite":"Commune","region":"Pays de la Loire","departement":"Vendée","departementCode":"85","adresse":{"street":"38 rue de Verdun","postalCode":"85300","city":"Sallertaine","country":"France"},"contacts":{"email":"accueil@sallertaine.fr","telephone":"0251355181"},"horaires":"Du Lundi au Vendredi : de 09h00 à 12h30 de 14h00 à 17h30\nLe Samedi : de 09h00 à 12h30","latitude":46.8605,"longitude":-1.95534,"website":"https://www.sallertaine.fr/","hasWebsite":true,"hasHoraires":true,"url":"https://lannuaire.service-public.gouv.fr/pays-de-la-loire/vendee/b7476f2a-181f-4556-9c72-0cd73258d07d"}
{"nom":"Sérigné","nomNormalise":"serigne","typeCollectivite":"Commune","region":"Pays de la Loire","departement":"Vendée","departementCode":"85","adresse":{"street":"31 rue de Fontenay","postalCode":"85200","city":"Sérigné","country":"France"},"contacts":{"email":"contact@mairiedeserigne.fr","telephone":"0251691825"},"horaires":"Le Lundi : de 09h00 à 12h30 de 13h30 à 16h30\nDu Mardi au Mercredi : de 09h00 à 12h30\nLe Jeudi : de 09h00 à 12h30 de 13h30 à 16h30\nLe Vendredi : de 09h00 à 12h30\nLe Samedi : de 09h00 à 12h00","latitude":46.49984,"longitude":-0.8432072,"website":"http://www.serigne.fr/","hasWebsite":true,"hasHoraires":true,"url":"https://lannuaire.service-public.gouv.fr/pays-de-la-loire/vendee/211bf2d3-539e-4ac4-ab62-361013e5add6"}
{"nom":"Sèvremont","nomNormalise":"sevremont","typeCollectivite":"Commune","region":"Pays de la Loire","departement":"Vendée","departementCode":"85","adresse":{"street":"La Flocellière","postalCode":"85700","city":"Sèvremont","country":"France"},"contacts":{"email":"secretariat.general@sevremont.fr","telephone":"0251572219"},"horaires":"Du Lundi au Vendredi : de 08h45 à 12h15 de 13h45 à 18h00","latitude":46.83272,"longitude":-0.859479,"website":"https://www.sevremont.fr/","hasWebsite":true,"hasHoraires":true,"url":"https://lannuaire.service-public.gouv.fr/pays-de-la-loire/vendee/44a86cce-c2c8-4ca8-9981-9ffd1573a395"}
{"nom":"Sigournais","nomNormalise":"sigournais","typeCollectivite":"Commune","region":"Pays de la Loire","departement":"Vendée","departementCode":"85","adresse":{"street":"2 rue de la Gare","postalCode":"85110","city":"Sigournais","country":"France"},"contacts":{"email":"mairie@sigournais.fr","telephone":"0251404456"},"horaires":"Du Lundi au Mardi : de 14h00 à 18h00\nDu Jeudi au Vendredi : de 14h00 à 18h00","latitude":46.70576,"longitude":-0.9861418,"website":"","hasWebsite":false,"hasHoraires":true,"url":"https://lannuaire.service-public.gouv.fr/pays-de-la-loire/vendee/34fa5154-06ed-4fa3-90da-e0253b9fcfd8"}
{"nom":"Soullans","nomNormalise":"soullans","typeCollectivite":"Commune","region":"Pays de la Loire","departement":"Vendée","departementCode":"85","adresse":{"street":"4 rue de l'Océan","postalCode":"85300","city":"Soullans","country":"France"},"contacts":{"email":"contact@soullans.fr","telephone":"0251680024"},"horaires":"Du Lundi au Mercredi : de 09h00 à 12h15 de 13h30 à 17h30\nLe Vendredi : de 09h00 à 12h15 de 13h30 à 17h30\nLe Samedi : de 09h00 à 12h00","latitude":46.794693,"longitude":-1.9032855,"website":"https://www.soullans.fr/","hasWebsite":true,"hasHoraires":true,"url":"https://lannuaire.service-public.gouv.fr/pays-de-la-loire/vendee/4e8fb907-66a8-4c9e-ade4-e84042ba3fce"}
{"nom":"Tallud-Sainte-Gemme","nomNormalise":"talludsaintegemme","typeCollectivite":"Commune","region":"Pays de la Loire","departement":"Vendée","departementCode":"85","adresse":{"street":"1 rue Réaumur","postalCode":"85390","city":"Tallud-Sainte-Gemme","country":"France"},"contacts":{"email":"contact@tallud-sainte-gemme.fr","telephone":"0251003478"},"horaires":"Le Lundi : de 09h00 à 12h00 de 16h30 à 19h00\nDu Mardi au Jeudi : de 09h00 à 12h00","latitude":46.6902,"longitude":-0.880073,"website":"http://www.tallud-sainte-gemme.fr/","hasWebsite":true,"hasHoraires":true,"url":"https://lannuaire.service-public.gouv.fr/pays-de-la-loire/vendee/ac6275df-7bd8-42bb-9b90-76f203989c2d"}
{"nom":"Talmont-Saint-Hilaire","nomNormalise":"talmontsainthilaire","typeCollectivite":"Commune","region":"Pays de la Loire","departement":"Vendée","departementCode":"85","adresse":{"street":"3 rue de l'Hôtel-de-Ville","postalCode":"85440","city":"Talmont-Saint-Hilaire","country":"France"},"contacts":{"email":"accueil@talmontsainthilaire.fr","telephone":"0251906042"},"horaires":"Du Lundi au Vendredi : de 09h00 à 12h00 de 14h00 à 17h00","latitude":46.4664,"longitude":-1.61825,"website":"https://talmont-saint-hilaire.fr/","hasWebsite":true,"hasHoraires":true,"url":"https://lannuaire.service-public.gouv.fr/pays-de-la-loire/vendee/fd03176a-11a5-49dd-bf8f-73d49e527a51"}
{"nom":"Terval","nomNormalise":"terval","typeCollectivite":"Commune","region":"Pays de la Loire","departement":"Vendée","departementCode":"85","adresse":{"street":"1 rue Augustin-de-Hargues","postalCode":"85120","city":"Terval","country":"France"},"contacts":{"email":"dgs@terval85.fr","telephone":"0251696879"},"horaires":"Le Lundi : de 13h30 à 18h00\nLe Mardi : de 09h00 à 12h30 de 13h30 à 18h00\nLe Mercredi : de 09h00 à 12h00\nLe Jeudi : de 09h00 à 12h30\nLe Vendredi : de 09h00 à 12h30 de 13h30 à 18h00","latitude":46.6611,"longitude":-0.734016,"website":"https://www.terval85.fr/","hasWebsite":true,"hasHoraires":true,"url":"https://lannuaire.service-public.gouv.fr/pays-de-la-loire/vendee/752f9e03-98a9-4852-b6af-58d7f34efc26"}
{"nom":"Thiré","nomNormalise":"thire","typeCollectivite":"Commune","region":"Pays de la Loire","departement":"Vendée","departementCode":"85","adresse":{"street":"32 rue de la Mairie","postalCode":"85210","city":"Thiré","country":"France"},"contacts":{"email":"commune.de.thire@wanadoo.fr","telephone":"0251276565"},"horaires":"Du Lundi au Mardi : de 10h00 à 12h30\n\nL'après midi uniquement sur rendez-vous de 15h à 17h30\nDu Jeudi au Vendredi : de 15h00 à 17h30\n\nFermé le matin ,uniquement sur rendez-vous de 10h à 12h30","latitude":46.548256,"longitude":-1.0067545,"website":"","hasWebsite":false,"hasHoraires":true,"url":"https://lannuaire.service-public.gouv.fr/pays-de-la-loire/vendee/798d3df8-466f-43d7-8bdb-ae6fc26506ad"}
{"nom":"Thorigny","nomNormalise":"thorigny","typeCollectivite":"Commune","region":"Pays de la Loire","departement":"Vendée","departementCode":"85","adresse":{"street":"1 place de l'Église","postalCode":"85480","city":"Thorigny","country":"France"},"contacts":{"email":"mairie.accueil@thorigny-vendee.fr","telephone":"0251072364"},"horaires":"Le Lundi : de 08h30 à 12h30 de 13h30 à 17h30\nLe Mardi : de 08h30 à 12h30 de 14h00 à 17h30\nDu Mercredi au Vendredi : de 08h30 à 12h30 de 13h30 à 17h30","latitude":46.61211,"longitude":-1.2407792,"website":"https://mairie-thorigny.fr/","hasWebsite":true,"hasHoraires":true,"url":"https://lannuaire.service-public.gouv.fr/pays-de-la-loire/vendee/39c91709-53ee-4f01-bf12-52563faa9eb0"}
{"nom":"Tiffauges","nomNormalise":"tiffauges","typeCollectivite":"Commune","region":"Pays de la Loire","departement":"Vendée","departementCode":"85","adresse":{"street":"5 place Gilles-de-Rais","postalCode":"85130","city":"Tiffauges","country":"France"},"contacts":{"email":"contact@tiffauges.fr","telephone":"0251657225"},"horaires":"Le Lundi : de 09h00 à 12h00\nDu Mercredi au Samedi : de 09h00 à 12h00","latitude":47.0076,"longitude":-1.10974,"website":"http://www.tiffauges.fr/","hasWebsite":true,"hasHoraires":true,"url":"https://lannuaire.service-public.gouv.fr/pays-de-la-loire/vendee/1c738d90-795a-405f-bdf3-2114a9d18a06"}
{"nom":"Treize-Septiers","nomNormalise":"treizeseptiers","typeCollectivite":"Commune","region":"Pays de la Loire","departement":"Vendée","departementCode":"85","adresse":{"street":"16 rue de la Roche-Saint-André","postalCode":"85600","city":"Treize-Septiers","country":"France"},"contacts":{"email":"mairie@treize-septiers.fr","telephone":"0251417207"},"horaires":"Du Lundi au Jeudi : de 09h00 à 12h30 de 16h00 à 18h00\nLe Vendredi : de 09h00 à 12h30 de 14h00 à 17h00\nLe Samedi : de 09h00 à 12h00","latitude":46.9872,"longitude":-1.23268,"website":"http://www.treize-septiers.fr/","hasWebsite":true,"hasHoraires":true,"url":"https://lannuaire.service-public.gouv.fr/pays-de-la-loire/vendee/e4b9f6cd-be5b-4104-abbe-0c57c9e21079"}
{"nom":"Treize-Vents","nomNormalise":"treizevents","typeCollectivite":"Commune","region":"Pays de la Loire","departement":"Vendée","departementCode":"85","adresse":{"street":"Rue Rémy-René-Bazin","postalCode":"85590","city":"Treize-Vents","country":"France"},"contacts":{"email":"mairie@treize-vents.fr","telephone":"0251653234"},"horaires":"Le Lundi : de 09h00 à 12h30\nLe Mercredi : de 09h00 à 12h30\nLe Vendredi : de 09h00 à 12h30\nLe Samedi : de 09h00 à 12h00\n\nAccueil fermé le samedi en juillet-août.","latitude":46.9208,"longitude":-0.847728,"website":"http://www.treize-vents.fr/","hasWebsite":true,"hasHoraires":true,"url":"https://lannuaire.service-public.gouv.fr/pays-de-la-loire/vendee/71a615a7-e0be-434b-a9fe-93f24888b26b"}
{"nom":"Triaize","nomNormalise":"triaize","typeCollectivite":"Commune","region":"Pays de la Loire","departement":"Vendée","departementCode":"85","adresse":{"street":"1 place Georges-Clemenceau","postalCode":"85580","city":"Triaize","country":"France"},"contacts":{"email":"accueil@triaize.fr","telephone":"0251561153"},"horaires":"Du Lundi au Jeudi : de 09h00 à 12h00\nLe Vendredi : de 09h00 à 12h00 de 17h30 à 19h00","latitude":46.393585,"longitude":-1.2010658,"website":"http://www.cc-sudvendeelittoral.fr/","hasWebsite":true,"hasHoraires":true,"url":"https://lannuaire.service-public.gouv.fr/pays-de-la-loire/vendee/5d9a112b-7875-4c65-ab07-35f5dcf35923"}
{"nom":"Vairé","nomNormalise":"vaire","typeCollectivite":"Commune","region":"Pays de la Loire","departement":"Vendée","departementCode":"85","adresse":{"street":"Rue Georges-Clemenceau","postalCode":"85150","city":"Vairé","country":"France"},"contacts":{"email":"mairie85@vaire.fr","telephone":"0251337105"},"horaires":"Du Lundi au Mardi : de 08h30 à 12h30\nLe Jeudi : de 09h30 à 12h30\nLe Vendredi : de 08h30 à 12h30","latitude":46.60487,"longitude":-1.759735,"website":"https://vaire.fr/","hasWebsite":true,"hasHoraires":true,"url":"https://lannuaire.service-public.gouv.fr/pays-de-la-loire/vendee/884b2c15-c606-4048-9cb7-80e70b86b44d"}
{"nom":"Mairie déléguée - Velluire","nomNormalise":"mairiedelegueevelluire","typeCollectivite":"Commune","region":"Pays de la Loire","departement":"Vendée","departementCode":"85","adresse":{"street":"Velluire","postalCode":"85770","city":"Les Velluire-sur-Vendée","country":"France"},"contacts":{"email":"mairie@les-velluire-sur-vendee.fr","telephone":"0251523121"},"horaires":"Du Lundi au Mardi : de 14h30 à 18h00\nLe Vendredi : de 14h30 à 18h00","latitude":46.40521,"longitude":-0.893812,"website":"https://les-velluire-sur-vendee.fr/","hasWebsite":true,"hasHoraires":true,"url":"https://lannuaire.service-public.gouv.fr/pays-de-la-loire/vendee/2cc3a502-f25a-4744-9f10-ffd969b0afb6"}
{"nom":"Velluire-sur-Vendée","nomNormalise":"velluiresurvendee","typeCollectivite":"Commune","region":"Pays de la Loire","departement":"Vendée","departementCode":"85","adresse":{"street":"Poiré-sur-Velluire","postalCode":"85770","city":"Les Velluire-sur-Vendée","country":"France"},"contacts":{"email":"mairie@les-velluire-sur-vendee.fr","telephone":"0251523121"},"horaires":"Le Lundi : de 09h00 à 17h00\nDu Mardi au Mercredi : de 09h00 à 17h00\nLe Jeudi : de 09h00 à 13h00\nLe Vendredi : de 09h00 à 17h00","latitude":46.411312,"longitude":-0.8955281,"website":"https://les-velluire-sur-vendee.fr/","hasWebsite":true,"hasHoraires":true,"url":"https://lannuaire.service-public.gouv.fr/pays-de-la-loire/vendee/86411812-f7b1-409a-a68d-55d687ed4ad1"}
{"nom":"Venansault","nomNormalise":"venansault","typeCollectivite":"Commune","region":"Pays de la Loire","departement":"Vendée","departementCode":"85","adresse":{"street":"Place de la Prépoise","postalCode":"85190","city":"Venansault","country":"France"},"contacts":{"email":"mairie@venansault.com","telephone":"0251073784"},"horaires":"Le Lundi : de 14h00 à 17h30\nDu Mardi au Vendredi : de 09h00 à 12h30 de 14h00 à 17h30\nLe Samedi : de 09h00 à 12h00","latitude":46.685287,"longitude":-1.5140069,"website":"https://www.venansault.com/","hasWebsite":true,"hasHoraires":true,"url":"https://lannuaire.service-public.gouv.fr/pays-de-la-loire/vendee/c4231d29-12e6-46ed-8708-b0631efeef7f"}
{"nom":"Vendrennes","nomNormalise":"vendrennes","typeCollectivite":"Commune","region":"Pays de la Loire","departement":"Vendée","departementCode":"85","adresse":{"street":"8 bis route de l'Océan","postalCode":"85250","city":"Vendrennes","country":"France"},"contacts":{"email":"accueil@vendrennes.fr","telephone":"0251660822"},"horaires":"Du Lundi au Jeudi : de 09h00 à 12h00\nLe Vendredi : de 09h00 à 12h00 de 14h00 à 18h00\n\nAccueil ouvert les vendredis après-midi en semaines impaires.\nLe Samedi : de 09h00 à 12h00\n\nAccueil ouvert les samedis en semaines paires.","latitude":46.826843,"longitude":-1.124989,"website":"https://www.vendrennes.com/","hasWebsite":true,"hasHoraires":true,"url":"https://lannuaire.service-public.gouv.fr/pays-de-la-loire/vendee/e4d09ee1-2977-4c68-9c4f-6fbd291dcde7"}
{"nom":"Vix","nomNormalise":"vix","typeCollectivite":"Commune","region":"Pays de la Loire","departement":"Vendée","departementCode":"85","adresse":{"street":"71 rue Georges-Clemenceau","postalCode":"85770","city":"Vix","country":"France"},"contacts":{"email":"contact-mairie@vix.fr","telephone":"0251006224"},"horaires":"Du Lundi au Mardi : de 14h00 à 17h00\nLe Jeudi : de 14h00 à 17h00\nLe Vendredi : de 09h00 à 12h00","latitude":46.361668,"longitude":-0.8557498,"website":"https://www.vix.fr/","hasWebsite":true,"hasHoraires":true,"url":"https://lannuaire.service-public.gouv.fr/pays-de-la-loire/vendee/091ef02f-c3f8-4746-bf5d-654533552490"}
{"nom":"Vouillé-les-Marais","nomNormalise":"vouillelesmarais","typeCollectivite":"Commune","region":"Pays de la Loire","departement":"Vendée","departementCode":"85","adresse":{"street":"Place de la Mairie","postalCode":"85450","city":"Vouillé-les-Marais","country":"France"},"contacts":{"email":"accueil@vouillelesmarais.fr","telephone":"0251525504"},"horaires":"Du Lundi au Mardi : de 09h00 à 12h30\nDu Jeudi au Vendredi : de 09h00 à 12h30\nLe Samedi : de 09h00 à 12h00\n\nAccueil fermé le 1er samedi du mois.","latitude":46.387688,"longitude":-0.96265,"website":"https://www.vouillelesmarais.com/","hasWebsite":true,"hasHoraires":true,"url":"https://lannuaire.service-public.gouv.fr/pays-de-la-loire/vendee/e3741f06-72c1-4d26-8a7a-ae6095f139ea"}
{"nom":"Vouvant","nomNormalise":"vouvant","typeCollectivite":"Commune","region":"Pays de la Loire","departement":"Vendée","departementCode":"85","adresse":{"street":"10 place de l'Église","postalCode":"85120","city":"Vouvant","country":"France"},"contacts":{"email":"mairie.vouvant@wanadoo.fr","telephone":"0251008021"},"horaires":"Le Mardi : de 08h30 à 12h00 de 14h00 à 17h00\nLe Mercredi : de 08h30 à 12h00\nLe Jeudi : de 08h30 à 12h00 de 14h00 à 17h00\nLe Vendredi : de 08h30 à 12h00\nLe Samedi : de 10h00 à 12h00","latitude":46.572105,"longitude":-0.7698629,"website":"https://www.vouvant-vendee.fr/","hasWebsite":true,"hasHoraires":true,"url":"https://lannuaire.service-public.gouv.fr/pays-de-la-loire/vendee/2f9998f5-00e8-44f5-bfb3-9189a461636c"}
{"nom":"Xanton-Chassenon","nomNormalise":"xantonchassenon","typeCollectivite":"Commune","region":"Pays de la Loire","departement":"Vendée","departementCode":"85","adresse":{"street":"Place de la Mairie","postalCode":"85240","city":"Xanton-Chassenon","country":"France"},"contacts":{"email":"mairie.xanton@wanadoo.fr","telephone":"0251521146"},"horaires":"Le Lundi : de 07h45 à 12h30 de 13h45 à 19h15\nDu Mardi au Mercredi : de 14h00 à 18h30\nDu Jeudi au Vendredi : de 07h45 à 12h30","latitude":46.4536,"longitude":-0.693967,"website":"http://www.xantonchassenon.fr/","hasWebsite":true,"hasHoraires":true,"url":"https://lannuaire.service-public.gouv.fr/pays-de-la-loire/vendee/e5e2bc78-9098-473a-916a-f03c2e9abdab"}
