{"nom":"Adriers","nomNormalise":"adriers","typeCollectivite":"Commune","region":"Nouvelle-Aquitaine","departement":"Vienne","departementCode":"86","adresse":{"street":"41 rue Principale","postalCode":"86430","city":"Adriers","country":"France"},"contacts":{"email":"contact@adriers.fr","telephone":"0549487306"},"horaires":"Du Lundi au Mardi : de 09h00 à 12h30 de 14h00 à 17h00\nLe Mercredi : de 09h00 à 12h30\nDu Jeudi au Vendredi : de 09h00 à 12h30 de 14h00 à 17h00","latitude":46.2577,"longitude":0.798539,"website":"https://www.adriers.fr/","hasWebsite":true,"hasHoraires":true,"url":"https://lannuaire.service-public.gouv.fr/nouvelle-aquitaine/vienne/edd85f4c-5d39-48a0-aca0-2d95fbfc9876"}
{"nom":"Amberre","nomNormalise":"amberre","typeCollectivite":"Commune","region":"Nouvelle-Aquitaine","departement":"Vienne","departementCode":"86","adresse":{"street":"1 Place du 11-Novembre-1918","postalCode":"86110","city":"Amberre","country":"France"},"contacts":{"email":"contact@amberre.fr","telephone":"0549505340"},"horaires":"Du Lundi au Mardi : de 08h30 à 12h00\nLe Mercredi : de 08h30 à 12h00 de 13h30 à 18h00\nLe Jeudi : de 08h30 à 12h00\nLe Vendredi : de 08h30 à 12h00 de 13h30 à 16h00","latitude":46.766327,"longitude":0.165028,"website":"https://www.amberre.fr/","hasWebsite":true,"hasHoraires":true,"url":"https://lannuaire.service-public.gouv.fr/nouvelle-aquitaine/vienne/47302415-9187-4906-9a22-964d120735bc"}
{"nom":"Anché","nomNormalise":"anche","typeCollectivite":"Commune","region":"Nouvelle-Aquitaine","departement":"Vienne","departementCode":"86","adresse":{"street":"1 place Odile-Bibaud","postalCode":"86700","city":"Anché","country":"France"},"contacts":{"email":"mairie@anche86.fr","telephone":"0549424277"},"horaires":"Le Lundi : de 09h00 à 12h00 de 15h00 à 18h00\nLe Mercredi : de 09h00 à 11h00 de 15h00 à 18h00\nLe Vendredi : de 09h00 à 12h00\n\nUniquement les après-midi pendant les périodes de vacances scolaires.","latitude":46.343475,"longitude":0.266555,"website":"http://www.anche.fr/","hasWebsite":true,"hasHoraires":true,"url":"https://lannuaire.service-public.gouv.fr/nouvelle-aquitaine/vienne/da79cf29-cca5-44a6-9e51-9111921b90ab"}
{"nom":"Angles-sur-l Anglin","nomNormalise":"anglessurlanglin","typeCollectivite":"Commune","region":"Nouvelle-Aquitaine","departement":"Vienne","departementCode":"86","adresse":{"street":"18 rue Saint-Jean","postalCode":"86260","city":"Angles-sur-l'Anglin","country":"France"},"contacts":{"email":"contact@angles-sur-langlin.fr","telephone":"0549486120"},"horaires":"Du Lundi au Vendredi : de 09h00 à 12h00\n\nPendant la crise sanitaire accueil ouvert le mardi et le jeudi de 9h à 12h.\nPendant la crise sanitaire accueil ouvert le mardi et le jeudi de 9h à 12h.","latitude":46.6959,"longitude":0.883372,"website":"https://anglessuranglin.com/","hasWebsite":true,"hasHoraires":true,"url":"https://lannuaire.service-public.gouv.fr/nouvelle-aquitaine/vienne/e1e972a7-f0e0-47e9-b4a3-10522d04c40f"}
{"nom":"Angliers","nomNormalise":"angliers","typeCollectivite":"Commune","region":"Nouvelle-Aquitaine","departement":"Vienne","departementCode":"86","adresse":{"street":"8 allée Aubert-de-Tourny","postalCode":"86330","city":"Angliers","country":"France"},"contacts":{"email":"contact@angliers86.fr","telephone":"0549981910"},"horaires":"Le Lundi : de 13h30 à 17h00\nDu Mardi au Mercredi : de 09h00 à 12h00 de 13h30 à 17h00\nLe Jeudi : de 09h00 à 12h00\nLe Vendredi : de 09h00 à 12h00 de 13h30 à 16h30","latitude":46.94715,"longitude":0.118937,"website":"https://www.angliers86.fr/","hasWebsite":true,"hasHoraires":true,"url":"https://lannuaire.service-public.gouv.fr/nouvelle-aquitaine/vienne/7c1935ea-7a78-4099-b8d7-11b50b3ada28"}
{"nom":"Antigny","nomNormalise":"antigny","typeCollectivite":"Commune","region":"Nouvelle-Aquitaine","departement":"Vienne","departementCode":"86","adresse":{"street":"42 place de la Mairie","postalCode":"86310","city":"Antigny","country":"France"},"contacts":{"email":"mairie@antigny86.fr","telephone":"0549480449"},"horaires":"Le Lundi : de 08h15 à 12h30 de 13h30 à 17h00\nLe Mardi : de 08h15 à 12h30\nLe Mercredi : de 08h15 à 12h30 de 13h30 à 17h00\nLe Jeudi : de 08h15 à 12h30\nLe Vendredi : de 08h15 à 12h15","latitude":46.536324,"longitude":0.854146,"website":"https://www.antigny86.fr/","hasWebsite":true,"hasHoraires":true,"url":"https://lannuaire.service-public.gouv.fr/nouvelle-aquitaine/vienne/4cdf0195-b977-4a28-97ca-ef0d7da7d999"}
{"nom":"Antran","nomNormalise":"antran","typeCollectivite":"Commune","region":"Nouvelle-Aquitaine","departement":"Vienne","departementCode":"86","adresse":{"street":"2 Place de l'Église","postalCode":"86100","city":"Antran","country":"France"},"contacts":{"email":"contact@antran.fr","telephone":"0549026447"},"horaires":"Le Lundi : de 13h30 à 18h30\nLe Mardi : de 13h30 à 17h30\nLe Mercredi : de 09h00 à 12h00\nLe Jeudi : de 13h30 à 17h30\nLe Vendredi : de 09h00 à 12h00 de 13h30 à 17h30\nLe Samedi : de 09h00 à 12h00","latitude":46.91419,"longitude":0.56578,"website":"https://www.antran.fr/","hasWebsite":true,"hasHoraires":true,"url":"https://lannuaire.service-public.gouv.fr/nouvelle-aquitaine/vienne/9d08fa54-f783-4d1b-adf1-9f8c75326906"}
{"nom":"Arçay","nomNormalise":"arcay","typeCollectivite":"Commune","region":"Nouvelle-Aquitaine","departement":"Vienne","departementCode":"86","adresse":{"street":"Route de Chasseigne","postalCode":"86200","city":"Arçay","country":"France"},"contacts":{"email":"contact@arcay86.fr","telephone":"0549981808"},"horaires":"Du Lundi au Vendredi : de 09h00 à 12h00","latitude":46.96917,"longitude":0.01365,"website":"https://www.arcay-vienne.fr/","hasWebsite":true,"hasHoraires":true,"url":"https://lannuaire.service-public.gouv.fr/nouvelle-aquitaine/vienne/78be55f5-aa98-4f90-a194-92105cca289a"}
{"nom":"Archigny","nomNormalise":"archigny","typeCollectivite":"Commune","region":"Nouvelle-Aquitaine","departement":"Vienne","departementCode":"86","adresse":{"street":"38 rue Roger-Furgé","postalCode":"86210","city":"Archigny","country":"France"},"contacts":{"email":"contact@mairie-archigny.fr","telephone":"0549853126"},"horaires":"Du Mardi au Mercredi : de 09h00 à 12h00 de 14h00 à 17h30\nLe Jeudi : de 09h00 à 12h00\nLe Vendredi : de 09h00 à 12h00 de 14h00 à 17h00","latitude":46.673218,"longitude":0.653285,"website":"https://mairie-archigny.fr/","hasWebsite":true,"hasHoraires":true,"url":"https://lannuaire.service-public.gouv.fr/nouvelle-aquitaine/vienne/34bfedbc-0b4b-4811-bb37-7d8f2554a06e"}
{"nom":"Aslonnes","nomNormalise":"aslonnes","typeCollectivite":"Commune","region":"Nouvelle-Aquitaine","departement":"Vienne","departementCode":"86","adresse":{"street":"Place de la Mairie","postalCode":"86340","city":"Aslonnes","country":"France"},"contacts":{"email":"contact@aslonnes.fr","telephone":"0549425207"},"horaires":"Le Lundi : de 09h00 à 12h00 de 13h00 à 17h30\nLe Mardi : de 13h00 à 17h30\nLe Mercredi : de 09h00 à 12h00 de 13h00 à 17h30\nLe Jeudi : de 13h00 à 17h30\nLe Vendredi : de 13h00 à 16h00","latitude":46.443157,"longitude":0.3336495,"website":"https://aslonnes.fr/","hasWebsite":true,"hasHoraires":true,"url":"https://lannuaire.service-public.gouv.fr/nouvelle-aquitaine/vienne/e0523092-2a9c-4928-992a-4346800b84f4"}
{"nom":"Asnières-sur-Blour","nomNormalise":"asnieressurblour","typeCollectivite":"Commune","region":"Nouvelle-Aquitaine","departement":"Vienne","departementCode":"86","adresse":{"street":"8 route de la Maraîchère","postalCode":"86430","city":"Asnières-sur-Blour","country":"France"},"contacts":{"email":"contact@asnieres-sur-blour.fr","telephone":"0549487417"},"horaires":"Le Lundi : de 08h00 à 12h00 de 13h30 à 17h30\nLe Jeudi : de 08h00 à 12h00 de 13h30 à 17h30","latitude":46.163532,"longitude":0.79932,"website":"","hasWebsite":false,"hasHoraires":true,"url":"https://lannuaire.service-public.gouv.fr/nouvelle-aquitaine/vienne/119dfabe-e146-416c-96b2-2e572bec4457"}
{"nom":"Asnois","nomNormalise":"asnois","typeCollectivite":"Commune","region":"Nouvelle-Aquitaine","departement":"Vienne","departementCode":"86","adresse":{"street":"6 route de Civray","postalCode":"86250","city":"Asnois","country":"France"},"contacts":{"email":"contact@asnois.fr","telephone":"0549875143"},"horaires":"Du Lundi au Mardi : de 13h30 à 17h15\nDu Jeudi au Vendredi : de 13h30 à 17h15","latitude":46.078857,"longitude":0.3716312,"website":"","hasWebsite":false,"hasHoraires":true,"url":"https://lannuaire.service-public.gouv.fr/nouvelle-aquitaine/vienne/3190b90f-a959-4ba3-a1a9-94f1cd95ab65"}
{"nom":"Aulnay","nomNormalise":"aulnay","typeCollectivite":"Commune","region":"Nouvelle-Aquitaine","departement":"Vienne","departementCode":"86","adresse":{"street":"2 rue de Saint-Clair","postalCode":"86330","city":"Aulnay","country":"France"},"contacts":{"email":"mairieaulnay86@orange.fr","telephone":"0549227513"},"horaires":"Du Lundi au Mardi : de 09h00 à 12h30\nLe Jeudi : de 09h00 à 12h30","latitude":46.904037,"longitude":0.092163,"website":"","hasWebsite":false,"hasHoraires":true,"url":"https://lannuaire.service-public.gouv.fr/nouvelle-aquitaine/vienne/f7ceab4f-91df-4366-b02d-149de01d6b60"}
{"nom":"Availles-en-Châtellerault","nomNormalise":"availlesenchatellerault","typeCollectivite":"Commune","region":"Nouvelle-Aquitaine","departement":"Vienne","departementCode":"86","adresse":{"street":"1 place René-Descartes","postalCode":"86530","city":"Availles-en-Châtellerault","country":"France"},"contacts":{"email":"contact@availlesenchatellerault.fr","telephone":"0549936009"},"horaires":"Du Lundi au Vendredi : de 09h00 à 12h00","latitude":46.7572,"longitude":0.579411,"website":"https://www.availlesenchatellerault.fr/","hasWebsite":true,"hasHoraires":true,"url":"https://lannuaire.service-public.gouv.fr/nouvelle-aquitaine/vienne/87cb8eb7-f4bf-47f6-851a-832596ba8f5e"}
{"nom":"Availles-Limouzine","nomNormalise":"availleslimouzine","typeCollectivite":"Commune","region":"Nouvelle-Aquitaine","departement":"Vienne","departementCode":"86","adresse":{"street":"1 place de la Mairie","postalCode":"86460","city":"Availles-Limouzine","country":"France"},"contacts":{"email":"contact@availles-limouzine.fr","telephone":"0549485016"},"horaires":"Le Lundi : de 08h30 à 12h00 de 13h30 à 17h00\nLe Mardi : de 08h30 à 12h00\nDu Mercredi au Jeudi : de 08h30 à 12h00 de 13h30 à 17h00\nLe Vendredi : de 08h30 à 12h00 de 13h30 à 16h00","latitude":46.122818,"longitude":0.652728,"website":"https://www.availles-limouzine.fr/","hasWebsite":true,"hasHoraires":true,"url":"https://lannuaire.service-public.gouv.fr/nouvelle-aquitaine/vienne/5299768b-4bfb-42c9-ba87-2be40f8f21a1"}
{"nom":"Avanton","nomNormalise":"avanton","typeCollectivite":"Commune","region":"Nouvelle-Aquitaine","departement":"Vienne","departementCode":"86","adresse":{"street":"5 rue de la Poste","postalCode":"86170","city":"Avanton","country":"France"},"contacts":{"email":"contact@avanton.fr","telephone":"0549516346"},"horaires":"Du Lundi au Mardi : de 09h00 à 12h00 de 14h00 à 17h30\nLe Mercredi : de 09h00 à 12h00\nDu Jeudi au Vendredi : de 09h00 à 12h00 de 14h00 à 17h30","latitude":46.662212,"longitude":0.3042283,"website":"https://www.avanton.fr/","hasWebsite":true,"hasHoraires":true,"url":"https://lannuaire.service-public.gouv.fr/nouvelle-aquitaine/vienne/5a287f04-662c-4068-ac60-e06b795e7376"}
{"nom":"Ayron","nomNormalise":"ayron","typeCollectivite":"Commune","region":"Nouvelle-Aquitaine","departement":"Vienne","departementCode":"86","adresse":{"street":"1 route de Poitiers","postalCode":"86190","city":"Ayron","country":"France"},"contacts":{"email":"contact@ayron.fr","telephone":"0549601172"},"horaires":"Du Mardi au Samedi : de 09h00 à 12h00","latitude":46.660137,"longitude":0.076107,"website":"http://www.ayron.fr/","hasWebsite":true,"hasHoraires":true,"url":"https://lannuaire.service-public.gouv.fr/nouvelle-aquitaine/vienne/7040dcde-dc2e-41bf-b2a9-30b88b9386b3"}
{"nom":"Basses","nomNormalise":"basses","typeCollectivite":"Commune","region":"Nouvelle-Aquitaine","departement":"Vienne","departementCode":"86","adresse":{"street":"4 rue Colette-Duval","postalCode":"86200","city":"Basses","country":"France"},"contacts":{"email":"contact@basses86.fr","telephone":"0549981863"},"horaires":"Le Lundi : de 14h00 à 16h45\nLe Vendredi : de 14h00 à 16h45","latitude":47.04128,"longitude":0.119507,"website":"https://www.basses86.fr/","hasWebsite":true,"hasHoraires":true,"url":"https://lannuaire.service-public.gouv.fr/nouvelle-aquitaine/vienne/45842f67-ef2d-415d-9f35-537956095f28"}
{"nom":"Beaumont Saint-Cyr","nomNormalise":"beaumontsaintcyr","typeCollectivite":"Commune","region":"Nouvelle-Aquitaine","departement":"Vienne","departementCode":"86","adresse":{"street":"Beaumont","postalCode":"86490","city":"Beaumont Saint-Cyr","country":"France"},"contacts":{"email":"mairie@beaumontsaintcyr.fr","telephone":"0549855055"},"horaires":"Le Lundi : de 09h00 à 12h15 de 14h30 à 17h30\nLe Mardi : de 14h30 à 17h30\nLe Mercredi : de 09h00 à 12h15\nLe Jeudi : de 14h30 à 19h00\nLe Vendredi : de 09h00 à 12h15 de 14h30 à 17h30","latitude":46.73734,"longitude":0.4301086,"website":"https://beaumontsaintcyr.fr/fr/","hasWebsite":true,"hasHoraires":true,"url":"https://lannuaire.service-public.gouv.fr/nouvelle-aquitaine/vienne/0dd22156-b6df-4078-a7b5-2b5b4435711b"}
{"nom":"Bellefonds","nomNormalise":"bellefonds","typeCollectivite":"Commune","region":"Nouvelle-Aquitaine","departement":"Vienne","departementCode":"86","adresse":{"street":"2 le Bourg","postalCode":"86210","city":"Bellefonds","country":"France"},"contacts":{"email":"contact@bellefonds.fr","telephone":"0549852322"},"horaires":"Du Lundi au Mardi : de 08h00 à 12h30 de 14h00 à 18h00\nDu Jeudi au Vendredi : de 08h00 à 12h30 de 14h00 à 18h00\nLe Samedi : de 09h00 à 12h00\n\nOuvert uniquement les samedis impaires.","latitude":46.647087,"longitude":0.592654,"website":"","hasWebsite":false,"hasHoraires":true,"url":"https://lannuaire.service-public.gouv.fr/nouvelle-aquitaine/vienne/ef0f36b8-141e-464f-85d5-133a5205e408"}
{"nom":"Mairie déléguée - Benassay","nomNormalise":"mairiedelegueebenassay","typeCollectivite":"Commune","region":"Nouvelle-Aquitaine","departement":"Vienne","departementCode":"86","adresse":{"street":"Benassay","postalCode":"86470","city":"Boivre-la-Vallée","country":"France"},"contacts":{"email":"contact@boivrelavallee.fr","telephone":"0549578105"},"horaires":"Le Lundi : de 08h30 à 12h00\nLe Mercredi : de 08h30 à 12h00\nLe Vendredi : de 08h30 à 12h00\nFERMÉE TEMPORAIREMENT Des permanences d'accueil du public seront possibles mais uniquement sur rendez-vous. Par téléphone au 05 49 57 81 05 / courriel : contact@boivrelavallee.fr","latitude":46.55918,"longitude":0.045639,"website":"https://www.boivrelavallee.eu/","hasWebsite":true,"hasHoraires":true,"url":"https://lannuaire.service-public.gouv.fr/nouvelle-aquitaine/vienne/7da31b78-5db8-46bf-a65b-2d8e0ae8cf8a"}
{"nom":"Berrie","nomNormalise":"berrie","typeCollectivite":"Commune","region":"Nouvelle-Aquitaine","departement":"Vienne","departementCode":"86","adresse":{"street":"6 rue du Château","postalCode":"86120","city":"Berrie","country":"France"},"contacts":{"email":"contact@berrie.fr","telephone":"0549229425"},"horaires":"Le Mardi : de 09h00 à 12h00 de 13h30 à 17h30\nLe Vendredi : de 09h00 à 12h00 de 13h30 à 17h30","latitude":47.066513,"longitude":-0.071058,"website":"http://www.berrie.fr/","hasWebsite":true,"hasHoraires":true,"url":"https://lannuaire.service-public.gouv.fr/nouvelle-aquitaine/vienne/bf4c7ddb-ddc7-4283-af50-332c7c291f22"}
{"nom":"Berthegon","nomNormalise":"berthegon","typeCollectivite":"Commune","region":"Nouvelle-Aquitaine","departement":"Vienne","departementCode":"86","adresse":{"street":"4 rue Daniel-de-La-Touche","postalCode":"86420","city":"Berthegon","country":"France"},"contacts":{"email":"contact@berthegon.fr","telephone":"0549228064"},"horaires":"Du Lundi au Mardi : de 09h00 à 12h00 de 14h00 à 17h00\n\nAccueil fermé du 29 juillet au 20 août.\nLe Jeudi : de 09h00 à 12h00 de 14h00 à 17h00\nAccueil fermé du 29 juillet au 20 août.","latitude":46.897587,"longitude":0.262719,"website":"","hasWebsite":false,"hasHoraires":true,"url":"https://lannuaire.service-public.gouv.fr/nouvelle-aquitaine/vienne/c0b4229e-de44-4ae5-83ab-ee5d768fdf19"}
{"nom":"Béruges","nomNormalise":"beruges","typeCollectivite":"Commune","region":"Nouvelle-Aquitaine","departement":"Vienne","departementCode":"86","adresse":{"street":"1 place de l'Église","postalCode":"86190","city":"Béruges","country":"France"},"contacts":{"email":"mairie@beruges.fr","telephone":"0549533254"},"horaires":"Du Lundi au Mardi : de 08h30 à 12h00\nLe Mercredi : de 08h30 à 12h00 de 15h00 à 16h30\nLe Jeudi : de 08h30 à 12h00\nLe Vendredi : de 08h30 à 12h00 de 15h00 à 17h00","latitude":46.56717,"longitude":0.205605,"website":"https://www.beruges.fr/","hasWebsite":true,"hasHoraires":true,"url":"https://lannuaire.service-public.gouv.fr/nouvelle-aquitaine/vienne/021f2dda-a95a-4731-8eb3-8a3eaf894f13"}
{"nom":"Béthines","nomNormalise":"bethines","typeCollectivite":"Commune","region":"Nouvelle-Aquitaine","departement":"Vienne","departementCode":"86","adresse":{"street":"11 rue du Salleron","postalCode":"86310","city":"Béthines","country":"France"},"contacts":{"email":"contact@bethines.fr","telephone":"0549480309"},"horaires":"Du Lundi au Jeudi : de 08h30 à 12h30 de 13h30 à 17h00\nLe Vendredi : de 08h30 à 12h30 de 13h30 à 16h30\n\nAccueil fermé lundi du 1er mai au 31 octobre.","latitude":46.548317,"longitude":0.974435,"website":"","hasWebsite":false,"hasHoraires":true,"url":"https://lannuaire.service-public.gouv.fr/nouvelle-aquitaine/vienne/f395b125-1dc0-4b51-90d6-faf6a9cd8911"}
{"nom":"Beuxes","nomNormalise":"beuxes","typeCollectivite":"Commune","region":"Nouvelle-Aquitaine","departement":"Vienne","departementCode":"86","adresse":{"street":"Place de la Mairie","postalCode":"86120","city":"Beuxes","country":"France"},"contacts":{"email":"contact@beuxes.fr","telephone":"0549987071"},"horaires":"Du Lundi au Mardi : de 13h30 à 18h00\nLe Jeudi : de 13h30 à 18h00","latitude":47.093994,"longitude":0.179687,"website":"","hasWebsite":false,"hasHoraires":true,"url":"https://lannuaire.service-public.gouv.fr/nouvelle-aquitaine/vienne/1bd72c34-4940-4bf2-8683-9789d5257ae0"}
{"nom":"Biard","nomNormalise":"biard","typeCollectivite":"Commune","region":"Nouvelle-Aquitaine","departement":"Vienne","departementCode":"86","adresse":{"street":"21 rue des Écoles","postalCode":"86580","city":"Biard","country":"France"},"contacts":{"email":"info@ville-biard.fr","telephone":"0549376040"},"horaires":"Du Lundi au Vendredi : de 09h00 à 12h00 de 14h00 à 17h00","latitude":46.5772,"longitude":0.30534,"website":"https://www.ville-biard.fr/","hasWebsite":true,"hasHoraires":true,"url":"https://lannuaire.service-public.gouv.fr/nouvelle-aquitaine/vienne/315ac882-d04b-4e4a-bc40-cf8ef2c04768"}
{"nom":"Bignoux","nomNormalise":"bignoux","typeCollectivite":"Commune","region":"Nouvelle-Aquitaine","departement":"Vienne","departementCode":"86","adresse":{"street":"1 rue du Bignolas","postalCode":"86800","city":"Bignoux","country":"France"},"contacts":{"email":"contact@bignoux.fr","telephone":"0549612191"},"horaires":"Le Lundi : de 09h00 à 12h00 de 14h00 à 17h00\nLe Mardi : de 14h00 à 19h00\nDu Mercredi au Vendredi : de 09h00 à 12h00 de 14h00 à 17h00","latitude":46.60154,"longitude":0.4698632,"website":"https://www.bignoux.fr/","hasWebsite":true,"hasHoraires":true,"url":"https://lannuaire.service-public.gouv.fr/nouvelle-aquitaine/vienne/59208a2e-9d29-4554-ad95-a453142721ea"}
{"nom":"Blanzay","nomNormalise":"blanzay","typeCollectivite":"Commune","region":"Nouvelle-Aquitaine","departement":"Vienne","departementCode":"86","adresse":{"street":"18 rue du Cèdre","postalCode":"86400","city":"Blanzay","country":"France"},"contacts":{"email":"contact@blanzay.fr","telephone":"0549870777"},"horaires":"Le Lundi : de 08h30 à 12h45\nLe Mardi : de 08h30 à 12h45 de 14h15 à 17h00\nLe Mercredi : de 08h30 à 12h30\nLe Jeudi : de 08h30 à 12h45\nLe Vendredi : de 08h30 à 12h45 de 13h15 à 16h00","latitude":46.2012,"longitude":0.257155,"website":"","hasWebsite":false,"hasHoraires":true,"url":"https://lannuaire.service-public.gouv.fr/nouvelle-aquitaine/vienne/0f046a41-a839-4202-b9b4-cb77ac32c4cc"}
{"nom":"Mairie déléguée - Blaslay","nomNormalise":"mairiedelegueeblaslay","typeCollectivite":"Commune","region":"Nouvelle-Aquitaine","departement":"Vienne","departementCode":"86","adresse":{"street":"Blaslay","postalCode":"86170","city":"Saint-Martin-la-Pallu","country":"France"},"contacts":{"email":"accueilblaslay@saintmartinlapallu.fr","telephone":"0549541324"},"horaires":"Le Mardi : de 09h00 à 13h00 de 14h00 à 18h00\nLe Vendredi : de 09h00 à 13h00","latitude":46.736095,"longitude":0.244939,"website":"https://www.saintmartinlapallu.fr/","hasWebsite":true,"hasHoraires":true,"url":"https://lannuaire.service-public.gouv.fr/nouvelle-aquitaine/vienne/046b45f3-93b4-4e22-a7d0-6486c0b7a40b"}
{"nom":"Boivre-la-Vallée","nomNormalise":"boivrelavallee","typeCollectivite":"Commune","region":"Nouvelle-Aquitaine","departement":"Vienne","departementCode":"86","adresse":{"street":"2 place de la Mairie","postalCode":"86470","city":"86470","country":"Boivre-la-Vallée"},"contacts":{"email":"contact@boivrelavallee.fr","telephone":"0549578105"},"horaires":"Du Lundi au Mercredi : de 09h00 à 12h30 de 14h00 à 17h30\nLe Jeudi : de 09h00 à 12h30\nLe Vendredi : de 09h00 à 12h30 de 14h00 à 16h30\nLe Samedi : de 08h30 à 12h30\n\nUniquement semaine Impaire.","latitude":46.55846,"longitude":0.0741787,"website":"https://www.boivrelavallee.eu/","hasWebsite":true,"hasHoraires":true,"url":"https://lannuaire.service-public.gouv.fr/nouvelle-aquitaine/vienne/c213c568-7da3-45a5-848a-91867d797358"}
{"nom":"Bonnes","nomNormalise":"bonnes","typeCollectivite":"Commune","region":"Nouvelle-Aquitaine","departement":"Vienne","departementCode":"86","adresse":{"street":"Place Jean-Baptiste-Guiot","postalCode":"86300","city":"Bonnes","country":"France"},"contacts":{"email":"contact@bonnes86.fr","telephone":"0549564017"},"horaires":"Le Lundi : de 09h00 à 12h30\nLe Mardi : de 09h00 à 12h30 de 14h00 à 17h30\nLe Mercredi : de 09h00 à 12h30 de 15h30 à 17h30\nLe Jeudi : de 09h00 à 12h30 de 14h00 à 17h30\nLe Vendredi : de 09h00 à 12h30 de 15h30 à 17h30\nLe Samedi : de 09h00 à 12h00","latitude":46.604706,"longitude":0.596657,"website":"https://www.ville-de-bonnes.fr/","hasWebsite":true,"hasHoraires":true,"url":"https://lannuaire.service-public.gouv.fr/nouvelle-aquitaine/vienne/ae22a12a-6191-48de-92bc-949b928162ef"}
{"nom":"Bonneuil-Matours","nomNormalise":"bonneuilmatours","typeCollectivite":"Commune","region":"Nouvelle-Aquitaine","departement":"Vienne","departementCode":"86","adresse":{"street":"8 rue du 8-Mai-1945","postalCode":"86210","city":"Bonneuil-Matours","country":"France"},"contacts":{"email":"accueil@bonneuil-matours.fr","telephone":"0549852382"},"horaires":"Du Lundi au Mardi : de 09h00 à 12h00 de 14h00 à 17h30\nLe Mercredi : de 09h00 à 12h00\nDu Jeudi au Vendredi : de 09h00 à 12h00 de 14h00 à 17h30\nLe Samedi : de 10h00 à 12h00\n\nSemaine paire.","latitude":46.679825,"longitude":0.570476,"website":"https://www.bonneuil-matours.fr/","hasWebsite":true,"hasHoraires":true,"url":"https://lannuaire.service-public.gouv.fr/nouvelle-aquitaine/vienne/b1756b70-ce24-438f-bcfb-055975470e3e"}
{"nom":"Bouresse","nomNormalise":"bouresse","typeCollectivite":"Commune","region":"Nouvelle-Aquitaine","departement":"Vienne","departementCode":"86","adresse":{"street":"6 rue des Halles","postalCode":"86410","city":"Bouresse","country":"France"},"contacts":{"email":"contact@bouresse.fr","telephone":"0549427310"},"horaires":"Du Lundi au Mardi : de 09h00 à 12h00 de 14h00 à 17h00\nLe Mercredi : de 09h00 à 12h00 de 14h00 à 16h00\nDu Jeudi au Vendredi : de 09h00 à 12h00","latitude":46.36127,"longitude":0.609145,"website":"http://www.commune-bouresse.fr/","hasWebsite":true,"hasHoraires":true,"url":"https://lannuaire.service-public.gouv.fr/nouvelle-aquitaine/vienne/f6ad21b1-c6f7-4b72-8492-6aec70b4867f"}
{"nom":"Bourg-Archambault","nomNormalise":"bourgarchambault","typeCollectivite":"Commune","region":"Nouvelle-Aquitaine","departement":"Vienne","departementCode":"86","adresse":{"street":"11 rue du Lac","postalCode":"86390","city":"Bourg-Archambault","country":"France"},"contacts":{"email":"contact@bourg-archambault.fr","telephone":"0549918106"},"horaires":"Du Lundi au Vendredi : de 08h00 à 13h00","latitude":46.382683,"longitude":1.004218,"website":"","hasWebsite":false,"hasHoraires":true,"url":"https://lannuaire.service-public.gouv.fr/nouvelle-aquitaine/vienne/026b3209-845a-433e-999e-9ed321ed7030"}
{"nom":"Bournand","nomNormalise":"bournand","typeCollectivite":"Commune","region":"Nouvelle-Aquitaine","departement":"Vienne","departementCode":"86","adresse":{"street":"14 rue de la Mairie","postalCode":"86120","city":"Bournand","country":"France"},"contacts":{"email":"bournand.mairie@orange.fr","telephone":"0549987321"},"horaires":"Du Lundi au Mardi : de 14h00 à 17h00\nLe Mercredi : de 09h00 à 12h00\nDu Jeudi au Vendredi : de 14h00 à 17h00\nLe Samedi : de 10h00 à 12h00\n\nPermanence des élus uniquement.","latitude":47.08657,"longitude":0.0779,"website":"https://www.villagebournand.fr/","hasWebsite":true,"hasHoraires":true,"url":"https://lannuaire.service-public.gouv.fr/nouvelle-aquitaine/vienne/d6b56728-2fc3-4c70-a3e3-81d548e786e9"}
{"nom":"Brigueil-le-Chantre","nomNormalise":"brigueillechantre","typeCollectivite":"Commune","region":"Nouvelle-Aquitaine","departement":"Vienne","departementCode":"86","adresse":{"street":"2 rue du Chantre","postalCode":"86290","city":"Brigueil-le-Chantre","country":"France"},"contacts":{"email":"ville@brigueil-le-chantre.fr","telephone":"0549917016"},"horaires":"Du Lundi au Jeudi : de 10h00 à 12h00 de 15h00 à 16h00\nLe Vendredi : de 10h00 à 12h00","latitude":46.393448,"longitude":1.087601,"website":"","hasWebsite":false,"hasHoraires":true,"url":"https://lannuaire.service-public.gouv.fr/nouvelle-aquitaine/vienne/3e93f81e-5a1b-4203-a12e-3a8ad5ae8de7"}
{"nom":"Brion","nomNormalise":"brion","typeCollectivite":"Commune","region":"Nouvelle-Aquitaine","departement":"Vienne","departementCode":"86","adresse":{"street":"1 place de l'Église","postalCode":"86160","city":"Brion","country":"France"},"contacts":{"email":"contact@brion86.fr","telephone":"0549593704"},"horaires":"Du Lundi au Vendredi : de 13h30 à 16h30","latitude":46.356144,"longitude":0.458328,"website":"https://www.brion86.fr/","hasWebsite":true,"hasHoraires":true,"url":"https://lannuaire.service-public.gouv.fr/nouvelle-aquitaine/vienne/701a2bcb-417c-4a61-bcb6-3d8f751b2276"}
{"nom":"Brux","nomNormalise":"brux","typeCollectivite":"Commune","region":"Nouvelle-Aquitaine","departement":"Vienne","departementCode":"86","adresse":{"street":"4 rue de la Mairie","postalCode":"86510","city":"Brux","country":"France"},"contacts":{"email":"contact@brux.fr","telephone":"0972856505"},"horaires":"Du Mardi au Vendredi : de 09h00 à 12h00","latitude":46.235558,"longitude":0.191776,"website":"https://www.brux.fr/","hasWebsite":true,"hasHoraires":true,"url":"https://lannuaire.service-public.gouv.fr/nouvelle-aquitaine/vienne/b8b68dab-f078-46ff-aa8d-6611c9d046a6"}
{"nom":"Buxerolles","nomNormalise":"buxerolles","typeCollectivite":"Commune","region":"Nouvelle-Aquitaine","departement":"Vienne","departementCode":"86","adresse":{"street":"12 rue de l'Hôtel-de-Ville","postalCode":"86180","city":"Buxerolles","country":"France"},"contacts":{"email":"contact@buxerolles.fr","telephone":"0549383849"},"horaires":"Du Lundi au Vendredi : de 08h00 à 12h00 de 13h15 à 17h30","latitude":46.59856,"longitude":0.352332,"website":"http://www.buxerolles.fr/","hasWebsite":true,"hasHoraires":true,"url":"https://lannuaire.service-public.gouv.fr/nouvelle-aquitaine/vienne/0f318594-a891-4657-b44a-fe3e64941a3e"}
{"nom":"Buxeuil","nomNormalise":"buxeuil","typeCollectivite":"Commune","region":"Nouvelle-Aquitaine","departement":"Vienne","departementCode":"86","adresse":{"street":"15 rue de l'Église","postalCode":"37160","city":"Buxeuil","country":"France"},"contacts":{"email":"contact@buxeuil.fr","telephone":"0247597208"},"horaires":"Du Lundi au Vendredi : de 09h00 à 12h00 de 13h30 à 17h00","latitude":46.975132,"longitude":0.6732718,"website":"","hasWebsite":false,"hasHoraires":true,"url":"https://lannuaire.service-public.gouv.fr/nouvelle-aquitaine/vienne/4e43cc59-1f1c-45a4-92bf-492497822a67"}
{"nom":"Ceaux-en-Couhé","nomNormalise":"ceauxencouhe","typeCollectivite":"Commune","region":"Nouvelle-Aquitaine","departement":"Vienne","departementCode":"86","adresse":{"street":"Ceaux-en-Couhé","postalCode":"86700","city":"Valence-en-Poitou","country":"France"},"contacts":{"email":"ceaux-en-couhe@valenceenpoitou.fr","telephone":"0549592708"},"horaires":"Le Lundi : de 09h00 à 12h30\nLe Mardi : de 09h00 à 12h30 de 14h00 à 19h00\nDu Mercredi au Vendredi : de 09h00 à 12h30","latitude":46.3213,"longitude":0.229528,"website":"https://valenceenpoitou.fr/","hasWebsite":true,"hasHoraires":true,"url":"https://lannuaire.service-public.gouv.fr/nouvelle-aquitaine/vienne/9138e342-29ad-4f6d-bd19-eea306be0f93"}
{"nom":"Ceaux-en-Loudun","nomNormalise":"ceauxenloudun","typeCollectivite":"Commune","region":"Nouvelle-Aquitaine","departement":"Vienne","departementCode":"86","adresse":{"street":"1 place de l'Église","postalCode":"86200","city":"Ceaux-en-Loudun","country":"France"},"contacts":{"email":"ceaux-en-loudun@departement86.fr","telephone":"0549225248"},"horaires":"Le Lundi : de 08h00 à 12h00\nLe Mercredi : de 08h00 à 12h00 de 13h30 à 17h30\nLe Jeudi : de 14h00 à 18h00\nLe Vendredi : de 08h00 à 12h00","latitude":47.02583,"longitude":0.24005,"website":"https://ceauxenloudun.fr/","hasWebsite":true,"hasHoraires":true,"url":"https://lannuaire.service-public.gouv.fr/nouvelle-aquitaine/vienne/d7bb4427-0f31-4f18-a663-045bae866d9f"}
{"nom":"Celle-Lévescault","nomNormalise":"cellelevescault","typeCollectivite":"Commune","region":"Nouvelle-Aquitaine","departement":"Vienne","departementCode":"86","adresse":{"street":"2 rue Chincé","postalCode":"86600","city":"Celle-Lévescault","country":"France"},"contacts":{"email":"contact@celle-levescault.fr","telephone":"0549435256"},"horaires":"Du Lundi au Mardi : de 08h30 à 12h00 de 14h00 à 17h30\nLe Mercredi : de 08h30 à 12h00\nLe Vendredi : de 08h30 à 12h00 de 14h00 à 17h30\nLe Samedi : de 08h30 à 12h00","latitude":46.42404,"longitude":0.187338,"website":"https://www.celle-levescault.fr/","hasWebsite":true,"hasHoraires":true,"url":"https://lannuaire.service-public.gouv.fr/nouvelle-aquitaine/vienne/5fce20d3-6d14-4a2c-a5a5-6614bdc7434c"}
{"nom":"Cenon-sur-Vienne","nomNormalise":"cenonsurvienne","typeCollectivite":"Commune","region":"Nouvelle-Aquitaine","departement":"Vienne","departementCode":"86","adresse":{"street":"4 place Michel-Gaudineau","postalCode":"86530","city":"Cenon-sur-Vienne","country":"France"},"contacts":{"email":"contact@cenonsurvienne.fr","telephone":"0549213307"},"horaires":"Du Lundi au Jeudi : de 09h00 à 12h00 de 13h30 à 17h30\nLe Vendredi : de 09h00 à 12h00 de 13h30 à 17h00","latitude":46.773895,"longitude":0.536665,"website":"https://www.cenonsurvienne.fr/","hasWebsite":true,"hasHoraires":true,"url":"https://lannuaire.service-public.gouv.fr/nouvelle-aquitaine/vienne/c80ec55d-5e7c-4fa2-aceb-84056323cc0a"}
{"nom":"Cernay","nomNormalise":"cernay","typeCollectivite":"Commune","region":"Nouvelle-Aquitaine","departement":"Vienne","departementCode":"86","adresse":{"street":"16 bis route de Lencloître","postalCode":"86140","city":"Cernay","country":"France"},"contacts":{"email":"mairie.cernay@wanadoo.fr","telephone":"0549908266"},"horaires":"Du Lundi au Mercredi : de 14h00 à 17h00\nLe Vendredi : de 13h30 à 15h30","latitude":46.830982,"longitude":0.3046799,"website":"https://cernay86.fr/","hasWebsite":true,"hasHoraires":true,"url":"https://lannuaire.service-public.gouv.fr/nouvelle-aquitaine/vienne/0254fbd3-860a-4fc4-98b3-332a4b8ced33"}
{"nom":"Chabournay","nomNormalise":"chabournay","typeCollectivite":"Commune","region":"Nouvelle-Aquitaine","departement":"Vienne","departementCode":"86","adresse":{"street":"10 rue de l'École","postalCode":"86380","city":"Chabournay","country":"France"},"contacts":{"email":"contact@chabournay.fr","telephone":"0549512412"},"horaires":"Le Lundi : de 08h30 à 12h30\nLe Mardi : de 09h00 à 12h30\nLe Mercredi : de 09h30 à 12h00\nLe Jeudi : de 09h00 à 12h30\nLe Vendredi : de 14h00 à 18h00","latitude":46.7146,"longitude":0.255886,"website":"https://www.chabournay.fr/","hasWebsite":true,"hasHoraires":true,"url":"https://lannuaire.service-public.gouv.fr/nouvelle-aquitaine/vienne/ac0ec179-bd55-4c83-b805-6642fffa1a40"}
{"nom":"Chalais","nomNormalise":"chalais","typeCollectivite":"Commune","region":"Nouvelle-Aquitaine","departement":"Vienne","departementCode":"86","adresse":{"street":"Nouzilly","postalCode":"86200","city":"Chalais","country":"France"},"contacts":{"email":"contact@chalais86.fr","telephone":"0549985114"},"horaires":"Du Mardi au Vendredi : de 09h00 à 12h00 de 14h00 à 17h00\n\nPermanence téléphonique uniquement le mercredi de 9h à 12h et le jeudi de 9hà 12h et de 14h à 17h.\nPermanence téléphonique uniquement le mercredi de 9h à 12h et le jeudi de 9hà 12h et de 14h à 17h.","latitude":46.9782,"longitude":0.100027,"website":"http://www.chalet-86.fr/","hasWebsite":true,"hasHoraires":true,"url":"https://lannuaire.service-public.gouv.fr/nouvelle-aquitaine/vienne/e88bfb64-b66d-45c3-9377-237c5263b225"}
{"nom":"Chalandray","nomNormalise":"chalandray","typeCollectivite":"Commune","region":"Nouvelle-Aquitaine","departement":"Vienne","departementCode":"86","adresse":{"street":"40 route de Poitiers","postalCode":"86190","city":"Chalandray","country":"France"},"contacts":{"email":"contact@chalandray.fr","telephone":"0549601406"},"horaires":"Le Lundi : de 08h30 à 12h30 de 13h30 à 17h00\nLe Mardi : de 08h30 à 12h30\nLe Mercredi : de 08h30 à 12h30 de 13h30 à 17h00\nLe Jeudi : de 08h30 à 12h30\nLe Vendredi : de 08h30 à 12h30 de 13h30 à 16h30","latitude":46.661373,"longitude":-0.002957,"website":"https://www.chalandray.fr/","hasWebsite":true,"hasHoraires":true,"url":"https://lannuaire.service-public.gouv.fr/nouvelle-aquitaine/vienne/2547f10c-ba6c-41ff-93e0-9a2c20a87eaf"}
{"nom":"Champagné-le-Sec","nomNormalise":"champagnelesec","typeCollectivite":"Commune","region":"Nouvelle-Aquitaine","departement":"Vienne","departementCode":"86","adresse":{"street":"1 place de la Mairie","postalCode":"86510","city":"Champagné-le-Sec","country":"France"},"contacts":{"email":"contact@champagnelesec.fr","telephone":"0549871534"},"horaires":"Le Mardi : de 09h00 à 12h30 de 13h30 à 17h00","latitude":46.19028,"longitude":0.18947,"website":"https://www.civraisienpoitou.fr/communes/champagne-le-sec","hasWebsite":true,"hasHoraires":true,"url":"https://lannuaire.service-public.gouv.fr/nouvelle-aquitaine/vienne/a03f1199-0acf-433d-bcbb-30ddffd510e4"}
{"nom":"Champagné-Saint-Hilaire","nomNormalise":"champagnesainthilaire","typeCollectivite":"Commune","region":"Nouvelle-Aquitaine","departement":"Vienne","departementCode":"86","adresse":{"street":"1 place de la Mairie","postalCode":"86160","city":"Champagné-Saint-Hilaire","country":"France"},"contacts":{"email":"contact@champagne-saint-hilaire.fr","telephone":"0549373091"},"horaires":"Du Lundi au Jeudi : de 08h45 à 12h00\nLe Vendredi : de 08h45 à 12h00 de 14h00 à 17h00\nLe Samedi : de 09h00 à 12h00","latitude":46.319736,"longitude":0.323631,"website":"https://www.champagne-saint-hilaire.fr/","hasWebsite":true,"hasHoraires":true,"url":"https://lannuaire.service-public.gouv.fr/nouvelle-aquitaine/vienne/6e403078-97ab-4eff-94f2-bb8e19090699"}
{"nom":"Champigny-en-Rochereau","nomNormalise":"champignyenrochereau","typeCollectivite":"Commune","region":"Nouvelle-Aquitaine","departement":"Vienne","departementCode":"86","adresse":{"street":"50 rue de la paix","postalCode":"86170","city":"Champigny-en-Rochereau","country":"France"},"contacts":{"email":"contact@champignyenrochereau.fr","telephone":"0549546120"},"horaires":"Le Lundi : de 08h15 à 12h15 de 14h00 à 18h00\nDu Mardi au Jeudi : de 08h15 à 12h15\nLe Vendredi : de 08h15 à 12h15 de 14h00 à 18h00\nLe Samedi : de 09h00 à 12h00","latitude":46.71039,"longitude":0.154393,"website":"https://www.champignyenrochereau.com/","hasWebsite":true,"hasHoraires":true,"url":"https://lannuaire.service-public.gouv.fr/nouvelle-aquitaine/vienne/0ea65b22-1ea1-485a-b6b1-6d891aedfedd"}
{"nom":"Mairie déléguée - Champigny-en-Rochereau","nomNormalise":"mairiedelegueechampignyenrochereau","typeCollectivite":"Commune","region":"Nouvelle-Aquitaine","departement":"Vienne","departementCode":"86","adresse":{"street":"3 place de la Mairie","postalCode":"86170","city":"Champigny-en-Rochereau","country":"France"},"contacts":{"email":"contact@champignyenrochereau.fr","telephone":"0549546120"},"horaires":"Le Lundi : de 08h15 à 12h15 de 14h00 à 18h00\nDu Mardi au Jeudi : de 08h15 à 12h15\nLe Vendredi : de 08h15 à 12h15 de 14h00 à 18h00\nLe Samedi : de 09h00 à 12h00","latitude":46.71467,"longitude":0.15673,"website":"http://www.champignyenrochereau.com/","hasWebsite":true,"hasHoraires":true,"url":"https://lannuaire.service-public.gouv.fr/nouvelle-aquitaine/vienne/83231d07-2b86-4e96-beb7-a9a3e49a30b0"}
{"nom":"Champniers","nomNormalise":"champniers","typeCollectivite":"Commune","region":"Nouvelle-Aquitaine","departement":"Vienne","departementCode":"86","adresse":{"street":"1 rue Buissonnière","postalCode":"86400","city":"Champniers","country":"France"},"contacts":{"email":"contact@champniers86.fr","telephone":"0549870736"},"horaires":"Le Mardi : de 08h30 à 16h30\nLe Vendredi : de 08h30 à 16h30","latitude":46.2186,"longitude":0.334954,"website":"","hasWebsite":false,"hasHoraires":true,"url":"https://lannuaire.service-public.gouv.fr/nouvelle-aquitaine/vienne/3e267d1a-513f-4aa8-b672-17dbc59c4d0d"}
{"nom":"Mairie déléguée - Charrais","nomNormalise":"mairiedelegueecharrais","typeCollectivite":"Commune","region":"Nouvelle-Aquitaine","departement":"Vienne","departementCode":"86","adresse":{"street":"Charrais","postalCode":"86170","city":"Saint-Martin-la-Pallu","country":"France"},"contacts":{"email":"accueilcharrais@saintmartinlapallu.fr","telephone":"0549512188"},"horaires":"Du Lundi au Mardi : de 14h00 à 18h00\nLe Jeudi : de 14h00 à 18h00\nLe Vendredi : de 09h00 à 12h30","latitude":46.70368,"longitude":0.22117579,"website":"","hasWebsite":false,"hasHoraires":true,"url":"https://lannuaire.service-public.gouv.fr/nouvelle-aquitaine/vienne/59434a4c-67ba-41cd-8d16-7da9a9b51edf"}
{"nom":"Charroux","nomNormalise":"charroux","typeCollectivite":"Commune","region":"Nouvelle-Aquitaine","departement":"Vienne","departementCode":"86","adresse":{"street":"3 place de la Cahue","postalCode":"86250","city":"Charroux","country":"France"},"contacts":{"email":"contact@charroux86.fr","telephone":"0549875033"},"horaires":"Du Lundi au Mardi : de 08h30 à 12h00 de 13h30 à 16h00\nLe Mercredi : de 08h30 à 12h00\nDu Jeudi au Vendredi : de 08h30 à 12h00 de 13h30 à 16h00","latitude":46.1443,"longitude":0.402518,"website":"https://www.charroux86.fr/","hasWebsite":true,"hasHoraires":true,"url":"https://lannuaire.service-public.gouv.fr/nouvelle-aquitaine/vienne/2d650dd7-4bc4-4346-a9c2-51788d406598"}
{"nom":"Chasseneuil-du-Poitou","nomNormalise":"chasseneuildupoitou","typeCollectivite":"Commune","region":"Nouvelle-Aquitaine","departement":"Vienne","departementCode":"86","adresse":{"street":"10 bis rue du 11-Novembre","postalCode":"86360","city":"Chasseneuil-du-Poitou","country":"France"},"contacts":{"email":"contact@chasseneuildupoitou.fr","telephone":"0549527719"},"horaires":"Le Lundi : de 09h00 à 12h15 de 13h30 à 17h30\nLe Mardi : de 09h00 à 12h15 de 13h30 à 19h00\nDu Mercredi au Jeudi : de 09h00 à 12h15 de 13h30 à 17h30\nLe Vendredi : de 09h00 à 12h15 de 13h30 à 17h15","latitude":46.6486,"longitude":0.378024,"website":"https://www.chasseneuildupoitou.fr/","hasWebsite":true,"hasHoraires":true,"url":"https://lannuaire.service-public.gouv.fr/nouvelle-aquitaine/vienne/ba46caee-6f96-4ce0-be6c-35b930cf47e4"}
{"nom":"Chatain","nomNormalise":"chatain","typeCollectivite":"Commune","region":"Nouvelle-Aquitaine","departement":"Vienne","departementCode":"86","adresse":{"street":"3 rue du Centre","postalCode":"86250","city":"Chatain","country":"France"},"contacts":{"email":"contact@chatain86.fr","telephone":"0549875179"},"horaires":"Le Lundi : de 09h00 à 12h15 de 13h00 à 17h00\nLe Mercredi : de 09h00 à 12h15 de 13h00 à 17h00\nLe Jeudi : de 09h00 à 12h00","latitude":46.072533,"longitude":0.432553,"website":"","hasWebsite":false,"hasHoraires":true,"url":"https://lannuaire.service-public.gouv.fr/nouvelle-aquitaine/vienne/c2aad3ad-b60c-4cfa-85b1-304fb1772b23"}
{"nom":"Château-Garnier","nomNormalise":"chateaugarnier","typeCollectivite":"Commune","region":"Nouvelle-Aquitaine","departement":"Vienne","departementCode":"86","adresse":{"street":"Maison des Services de Proximité","postalCode":"86350","city":"Château-Garnier","country":"France"},"contacts":{"email":"contact@chateau-garnier.fr","telephone":"0549878011"},"horaires":"Le Lundi : de 09h00 à 12h15 de 13h30 à 17h00\nLe Mardi : de 09h00 à 12h15\nLe Mercredi : de 09h00 à 12h15 de 13h30 à 17h00\nLe Jeudi : de 09h00 à 12h15\nLe Vendredi : de 09h00 à 12h15\nLe Samedi : de 09h00 à 11h00\n\n1er et 3e samedi de chaque mois","latitude":46.25674,"longitude":0.42457,"website":"http://www.chateau-garnier.fr/","hasWebsite":true,"hasHoraires":true,"url":"https://lannuaire.service-public.gouv.fr/nouvelle-aquitaine/vienne/590c8168-bdb8-4a5c-b837-2cdadce97af5"}
{"nom":"Château-Larcher","nomNormalise":"chateaularcher","typeCollectivite":"Commune","region":"Nouvelle-Aquitaine","departement":"Vienne","departementCode":"86","adresse":{"street":"4 rue de la Mairie","postalCode":"86370","city":"Château-Larcher","country":"France"},"contacts":{"email":"contact@chateau-larcher.fr","telephone":"0549434056"},"horaires":"Le Lundi : de 08h30 à 12h30 de 14h00 à 17h30\nLe Mardi : de 14h00 à 17h30\nDu Mercredi au Jeudi : de 08h30 à 12h30 de 14h00 à 17h30\nLe Vendredi : de 08h30 à 12h30\nLe Samedi : de 10h00 à 12h00\n\nPermanence des élus uniquement.","latitude":46.4258,"longitude":0.26006,"website":"","hasWebsite":false,"hasHoraires":true,"url":"https://lannuaire.service-public.gouv.fr/nouvelle-aquitaine/vienne/b91574c8-add1-4368-8c13-f97279d0e2df"}
{"nom":"Châtellerault","nomNormalise":"chatellerault","typeCollectivite":"Commune","region":"Nouvelle-Aquitaine","departement":"Vienne","departementCode":"86","adresse":{"street":"78 boulevard Blossac","postalCode":"86100","city":"Châtellerault","country":"France"},"contacts":{"email":"webmaster@ville-chatellerault.fr","telephone":"0549202020"},"horaires":"Du Lundi au Jeudi : de 08h00 à 12h30 de 13h30 à 17h30\nLe Vendredi : de 08h00 à 12h30 de 13h30 à 16h00","latitude":46.817734,"longitude":0.5459586,"website":"https://www.ville-chatellerault.fr/","hasWebsite":true,"hasHoraires":true,"url":"https://lannuaire.service-public.gouv.fr/nouvelle-aquitaine/vienne/354eef4d-5177-4964-a42b-852f3cbc43e1"}
{"nom":"Châtillon","nomNormalise":"chatillon","typeCollectivite":"Commune","region":"Nouvelle-Aquitaine","departement":"Vienne","departementCode":"86","adresse":{"street":"Châtillon","postalCode":"86700","city":"Valence-en-Poitou","country":"France"},"contacts":{"email":"chatillon@valenceenpoitou.fr","telephone":"0549591928"},"horaires":"Du Mardi au Vendredi : de 14h00 à 17h30","latitude":46.317863,"longitude":0.199177,"website":"","hasWebsite":false,"hasHoraires":true,"url":"https://lannuaire.service-public.gouv.fr/nouvelle-aquitaine/vienne/5fc4977b-8796-4df1-a3de-18b6b53b6e67"}
{"nom":"Chaunay","nomNormalise":"chaunay","typeCollectivite":"Commune","region":"Nouvelle-Aquitaine","departement":"Vienne","departementCode":"86","adresse":{"street":"41 Grande rue","postalCode":"86510","city":"Chaunay","country":"France"},"contacts":{"email":"contact@chaunay.fr","telephone":"0549592505"},"horaires":"Du Lundi au Vendredi : de 08h30 à 12h30","latitude":46.2068,"longitude":0.163181,"website":"https://www.chaunay.fr/","hasWebsite":true,"hasHoraires":true,"url":"https://lannuaire.service-public.gouv.fr/nouvelle-aquitaine/vienne/dffc97d1-6d85-43bc-bc88-9f26a9bd5305"}
{"nom":"Chauvigny","nomNormalise":"chauvigny","typeCollectivite":"Commune","region":"Nouvelle-Aquitaine","departement":"Vienne","departementCode":"86","adresse":{"street":"1 rue du Moulin-Saint-Léger","postalCode":"86300","city":"Chauvigny","country":"France"},"contacts":{"email":"contact-mairie@chauvigny.fr","telephone":"0549459910"},"horaires":"Du Lundi au Vendredi : de 08h30 à 12h30 de 13h30 à 17h30","latitude":46.569946,"longitude":0.643966,"website":"https://www.chauvigny.fr/","hasWebsite":true,"hasHoraires":true,"url":"https://lannuaire.service-public.gouv.fr/nouvelle-aquitaine/vienne/d0e76160-c53c-4cd5-9b75-7307df1844d1"}
{"nom":"Mairie déléguée - Cheneché","nomNormalise":"mairiedelegueecheneche","typeCollectivite":"Commune","region":"Nouvelle-Aquitaine","departement":"Vienne","departementCode":"86","adresse":{"street":"Cheneché","postalCode":"86380","city":"Saint-Martin-la-Pallu","country":"France"},"contacts":{"email":"contact@saintmartinlapallu.fr","telephone":"0549512461"},"horaires":"Le Mercredi : de 08h00 à 12h00","latitude":46.73659,"longitude":0.279322,"website":"https://www.saintmartinlapallu.fr/","hasWebsite":true,"hasHoraires":true,"url":"https://lannuaire.service-public.gouv.fr/nouvelle-aquitaine/vienne/916df78a-6c32-4374-baec-ff96c43848df"}
{"nom":"Chenevelles","nomNormalise":"chenevelles","typeCollectivite":"Commune","region":"Nouvelle-Aquitaine","departement":"Vienne","departementCode":"86","adresse":{"street":"1 rue Raymond-d'Argence","postalCode":"86450","city":"Chenevelles","country":"France"},"contacts":{"email":"contact@chenevelles.fr","telephone":"0549853306"},"horaires":"Du Lundi au Mardi : de 13h30 à 17h30\nDu Jeudi au Vendredi : de 13h30 à 17h30","latitude":46.72856,"longitude":0.652845,"website":"","hasWebsite":false,"hasHoraires":true,"url":"https://lannuaire.service-public.gouv.fr/nouvelle-aquitaine/vienne/a72513d5-00cc-46fd-a833-8ba1d9a2a72d"}
{"nom":"Cherves","nomNormalise":"cherves","typeCollectivite":"Commune","region":"Nouvelle-Aquitaine","departement":"Vienne","departementCode":"86","adresse":{"street":"5 rue de la Mairie","postalCode":"86170","city":"Cherves","country":"France"},"contacts":{"email":"contact@cherves.fr","telephone":"0549510682"},"horaires":"Le Lundi : de 09h00 à 12h00 de 14h00 à 17h00\nLe Mardi : de 09h00 à 12h00 de 14h00 à 19h00\nLe Jeudi : de 09h00 à 12h00 de 14h00 à 17h00\nLe Vendredi : de 09h00 à 12h00 de 14h00 à 19h00","latitude":46.7165,"longitude":0.017725,"website":"","hasWebsite":false,"hasHoraires":true,"url":"https://lannuaire.service-public.gouv.fr/nouvelle-aquitaine/vienne/c32896f4-25ef-46e4-9571-180f0191e670"}
{"nom":"Chiré-en-Montreuil","nomNormalise":"chireenmontreuil","typeCollectivite":"Commune","region":"Nouvelle-Aquitaine","departement":"Vienne","departementCode":"86","adresse":{"street":"4 bis place René-le-Cesve","postalCode":"86190","city":"Chiré-en-Montreuil","country":"France"},"contacts":{"email":"contact@chireenmontreuil.fr","telephone":"0549518450"},"horaires":"Le Lundi : de 13h30 à 17h00\nLe Mardi : de 08h30 à 12h30 de 13h30 à 17h00\nLe Mercredi : de 08h30 à 12h30 de 13h30 à 17h00\nLe Jeudi : de 13h30 à 17h00\nLe Vendredi : de 08h30 à 12h30","latitude":46.6389,"longitude":0.12564,"website":"https://www.chireenmontreuil.fr/","hasWebsite":true,"hasHoraires":true,"url":"https://lannuaire.service-public.gouv.fr/nouvelle-aquitaine/vienne/5009a45b-7d4c-4b78-9daa-56dea7a6cf49"}
{"nom":"Chouppes","nomNormalise":"chouppes","typeCollectivite":"Commune","region":"Nouvelle-Aquitaine","departement":"Vienne","departementCode":"86","adresse":{"street":"31 bis Grand'rue","postalCode":"86110","city":"Chouppes","country":"France"},"contacts":{"email":"contact@chouppes.fr","telephone":"0549504338"},"horaires":"Le Lundi : de 09h30 à 12h30 de 13h30 à 16h30\nLe Mardi : de 09h30 à 12h30\nLe Jeudi : de 09h30 à 12h30 de 13h30 à 16h30\nLe Vendredi : de 09h30 à 12h30","latitude":46.8119,"longitude":0.165161,"website":"https://www.chouppes.fr/","hasWebsite":true,"hasHoraires":true,"url":"https://lannuaire.service-public.gouv.fr/nouvelle-aquitaine/vienne/26d2a678-20cd-476a-9fff-aa5592e4b980"}
{"nom":"Cissé","nomNormalise":"cisse","typeCollectivite":"Commune","region":"Nouvelle-Aquitaine","departement":"Vienne","departementCode":"86","adresse":{"street":"2 rue du Plat-d'Étain","postalCode":"86170","city":"Cissé","country":"France"},"contacts":{"email":"contact@cisse.fr","telephone":"0549544026"},"horaires":"Du Lundi au Mardi : de 09h00 à 12h00 de 13h30 à 17h30\nLe Mercredi : de 09h00 à 12h00 de 13h30 à 18h00\nLe Vendredi : de 09h00 à 17h00","latitude":46.6443,"longitude":0.226691,"website":"https://www.cisse.fr/","hasWebsite":true,"hasHoraires":true,"url":"https://lannuaire.service-public.gouv.fr/nouvelle-aquitaine/vienne/2646bf81-c236-4dec-a573-a03b01fe2392"}
{"nom":"Civaux","nomNormalise":"civaux","typeCollectivite":"Commune","region":"Nouvelle-Aquitaine","departement":"Vienne","departementCode":"86","adresse":{"street":"2 place de Gomelange","postalCode":"86320","city":"Civaux","country":"France"},"contacts":{"email":"contact@civaux.fr","telephone":"0549484508"},"horaires":"Du Lundi au Vendredi : de 13h30 à 17h30","latitude":46.4448,"longitude":0.664949,"website":"https://www.ville-civaux.fr/","hasWebsite":true,"hasHoraires":true,"url":"https://lannuaire.service-public.gouv.fr/nouvelle-aquitaine/vienne/270446c0-fdcf-441d-a154-bbbb17d23d7a"}
{"nom":"Civray","nomNormalise":"civray","typeCollectivite":"Commune","region":"Nouvelle-Aquitaine","departement":"Vienne","departementCode":"86","adresse":{"street":"12 place du Général-de-Gaulle","postalCode":"86400","city":"Civray","country":"France"},"contacts":{"email":"contact@civray.fr","telephone":"0549870049"},"horaires":"Du Lundi au Mercredi : de 08h30 à 12h30 de 13h30 à 17h30\nLe Jeudi : de 08h30 à 12h30\nLe Vendredi : de 08h30 à 12h30 de 13h30 à 17h30","latitude":46.148693,"longitude":0.295063,"website":"https://www.civray.fr/","hasWebsite":true,"hasHoraires":true,"url":"https://lannuaire.service-public.gouv.fr/nouvelle-aquitaine/vienne/63b065a1-d087-4de7-9be5-fa659035c7f1"}
{"nom":"Cloué","nomNormalise":"cloue","typeCollectivite":"Commune","region":"Nouvelle-Aquitaine","departement":"Vienne","departementCode":"86","adresse":{"street":"1 Grand'rue","postalCode":"86600","city":"Cloué","country":"France"},"contacts":{"email":"contact@cloue86.fr","telephone":"0549433736"},"horaires":"Le Lundi : de 08h30 à 12h00\nLe Mercredi : de 08h30 à 12h00 de 13h30 à 17h00\nLe Vendredi : de 08h30 à 12h00 de 13h30 à 17h00","latitude":46.44153,"longitude":0.1627979,"website":"","hasWebsite":false,"hasHoraires":true,"url":"https://lannuaire.service-public.gouv.fr/nouvelle-aquitaine/vienne/7205cbe1-c761-46fd-baf9-577b4cefd771"}
{"nom":"Colombiers","nomNormalise":"colombiers","typeCollectivite":"Commune","region":"Nouvelle-Aquitaine","departement":"Vienne","departementCode":"86","adresse":{"street":"2 place de Manderen","postalCode":"86490","city":"Colombiers","country":"France"},"contacts":{"email":"mairie@colombiers86.fr","telephone":"0549900225"},"horaires":"Le Lundi : de 09h00 à 12h00 de 14h00 à 17h00\nLe Mardi : de 09h00 à 12h00\nDu Mercredi au Vendredi : de 09h00 à 12h00 de 14h00 à 17h00","latitude":46.77216,"longitude":0.4254475,"website":"http://www.colombiers86.fr/","hasWebsite":true,"hasHoraires":true,"url":"https://lannuaire.service-public.gouv.fr/nouvelle-aquitaine/vienne/ddfd38c7-7b9c-4fac-99f0-9cf08a394f36"}
{"nom":"Mairie déléguée - Couhé","nomNormalise":"mairiedelegueecouhe","typeCollectivite":"Commune","region":"Nouvelle-Aquitaine","departement":"Vienne","departementCode":"86","adresse":{"street":"Couhé","postalCode":"86700","city":"Valence-en-Poitou","country":"France"},"contacts":{"email":"couhe@valenceenpoitou.fr","telephone":"0549374420"},"horaires":"Le Lundi : de 09h00 à 12h00 de 14h00 à 18h00\nLe Mardi : de 09h00 à 12h00 de 14h00 à 17h30\nLe Mercredi : de 09h00 à 12h00\nLe Jeudi : de 09h00 à 12h00 de 14h00 à 17h30\nLe Vendredi : de 09h00 à 12h00 de 14h00 à 18h00","latitude":46.298817,"longitude":0.180856,"website":"https://www.valenceenpoitou.fr/","hasWebsite":true,"hasHoraires":true,"url":"https://lannuaire.service-public.gouv.fr/nouvelle-aquitaine/vienne/22207a37-c31c-4e7c-a5f5-a5a33f1e9c4a"}
{"nom":"Coulombiers","nomNormalise":"coulombiers","typeCollectivite":"Commune","region":"Nouvelle-Aquitaine","departement":"Vienne","departementCode":"86","adresse":{"street":"30 route Nationale","postalCode":"86600","city":"Coulombiers","country":"France"},"contacts":{"email":"contact@coulombiers.fr","telephone":"0549609025"},"horaires":"Du Lundi au Mardi : de 09h00 à 12h00\nLe Mercredi : de 09h00 à 12h00 de 14h00 à 18h00\nLe Vendredi : de 09h00 à 12h00 de 14h00 à 16h00","latitude":46.484856,"longitude":0.185041,"website":"https://www.coulombiers.fr/","hasWebsite":true,"hasHoraires":true,"url":"https://lannuaire.service-public.gouv.fr/nouvelle-aquitaine/vienne/78110cc8-a4a8-4fda-a91a-284b6bbd4d66"}
{"nom":"Coulonges-les-Hérolles","nomNormalise":"coulongeslesherolles","typeCollectivite":"Commune","region":"Nouvelle-Aquitaine","departement":"Vienne","departementCode":"86","adresse":{"street":"3 place Sully","postalCode":"86290","city":"Coulonges-les-Hérolles","country":"France"},"contacts":{"email":"contact@coulongeslesherolles.fr","telephone":"0549917708"},"horaires":"Le Lundi : de 08h30 à 12h00\nDu Mardi au Vendredi : de 08h00 à 12h00","latitude":46.401436,"longitude":1.153647,"website":"https://www.poitou-brenne.fr/coulonges/","hasWebsite":true,"hasHoraires":true,"url":"https://lannuaire.service-public.gouv.fr/nouvelle-aquitaine/vienne/760cfedf-9803-4e6a-9bd7-296833f1188e"}
{"nom":"Coussay","nomNormalise":"coussay","typeCollectivite":"Commune","region":"Nouvelle-Aquitaine","departement":"Vienne","departementCode":"86","adresse":{"street":"3 place du 11-Novembre-1918","postalCode":"86110","city":"Coussay","country":"France"},"contacts":{"email":"mairie.coussay@orange.fr","telephone":"0549505528"},"horaires":"Le Lundi : de 09h00 à 12h00 de 16h00 à 18h00\nLe Mercredi : de 08h30 à 12h30\nLe Jeudi : de 09h00 à 12h00 de 16h00 à 18h00\nLe Vendredi : de 08h30 à 12h30","latitude":46.809082,"longitude":0.74227,"website":"https://coussay.fr/","hasWebsite":true,"hasHoraires":true,"url":"https://lannuaire.service-public.gouv.fr/nouvelle-aquitaine/vienne/3f6d540a-bbd1-4c11-a607-6cb34827b063"}
{"nom":"Coussay-les-Bois","nomNormalise":"coussaylesbois","typeCollectivite":"Commune","region":"Nouvelle-Aquitaine","departement":"Vienne","departementCode":"86","adresse":{"street":"7 rue de l'Église","postalCode":"86270","city":"Coussay-les-Bois","country":"France"},"contacts":{"email":"contact@coussay-les-bois.fr","telephone":"0549862354"},"horaires":"Le Lundi : de 14h00 à 17h00\nLe Mardi : de 09h00 à 12h00 de 14h00 à 17h30\nLe Mercredi : de 09h00 à 12h00\nLe Jeudi : de 09h00 à 12h00 de 14h00 à 17h30\nLe Vendredi : de 09h00 à 12h00 de 14h00 à 16h30","latitude":46.80811,"longitude":0.742868,"website":"https://www.coussay-les-bois.fr/","hasWebsite":true,"hasHoraires":true,"url":"https://lannuaire.service-public.gouv.fr/nouvelle-aquitaine/vienne/deb8077b-d269-44db-bf96-d3b0fa9d1bdd"}
{"nom":"Craon","nomNormalise":"craon","typeCollectivite":"Commune","region":"Nouvelle-Aquitaine","departement":"Vienne","departementCode":"86","adresse":{"street":"1 place Saint-Michel","postalCode":"86110","city":"Craon","country":"France"},"contacts":{"email":"contact@craon.fr","telephone":"0549600335"},"horaires":"Le Lundi : de 13h30 à 16h30\nLe Mardi : de 09h00 à 12h30 de 13h30 à 17h00\nLe Mercredi : de 09h00 à 12h00\nLe Jeudi : de 09h00 à 12h30 de 13h30 à 17h00\nLe Vendredi : de 09h00 à 12h00","latitude":46.772804,"longitude":0.024056,"website":"","hasWebsite":false,"hasHoraires":true,"url":"https://lannuaire.service-public.gouv.fr/nouvelle-aquitaine/vienne/760a010e-9c23-4752-8a1b-5f84b3900430"}
{"nom":"Croutelle","nomNormalise":"croutelle","typeCollectivite":"Commune","region":"Nouvelle-Aquitaine","departement":"Vienne","departementCode":"86","adresse":{"street":"33 Grand'Rue","postalCode":"86240","city":"Croutelle","country":"France"},"contacts":{"email":"contact@croutelle.fr","telephone":"0549530609"},"horaires":"Du Lundi au Vendredi : de 09h00 à 12h00 de 14h00 à 17h00","latitude":46.5371,"longitude":0.28749,"website":"https://www.croutelle.fr/","hasWebsite":true,"hasHoraires":true,"url":"https://lannuaire.service-public.gouv.fr/nouvelle-aquitaine/vienne/0e83d6b2-a110-40dc-b030-852f973c4a55"}
{"nom":"Cuhon","nomNormalise":"cuhon","typeCollectivite":"Commune","region":"Nouvelle-Aquitaine","departement":"Vienne","departementCode":"86","adresse":{"street":"1 place de la Mairie","postalCode":"86110","city":"Cuhon","country":"France"},"contacts":{"email":"contact@cuhon.fr","telephone":"0549600104"},"horaires":"Le Lundi : de 08h30 à 12h00 de 13h30 à 16h30\nLe Mardi : de 13h30 à 16h30\nLe Jeudi : de 08h30 à 12h00\nLe Vendredi : de 08h30 à 12h00 de 13h30 à 16h30","latitude":46.7601,"longitude":0.097506,"website":"https://www.mairie-cuhon.com/","hasWebsite":true,"hasHoraires":true,"url":"https://lannuaire.service-public.gouv.fr/nouvelle-aquitaine/vienne/80bc43c0-f2e6-4db6-8b48-67960f353ef6"}
{"nom":"Curçay-sur-Dive","nomNormalise":"curcaysurdive","typeCollectivite":"Commune","region":"Nouvelle-Aquitaine","departement":"Vienne","departementCode":"86","adresse":{"street":"6 place d'Aumetz","postalCode":"86120","city":"Curçay-sur-Dive","country":"France"},"contacts":{"email":"contact@curcaysurdive.fr","telephone":"0549985604"},"horaires":"Le Lundi : de 09h00 à 12h30 de 13h30 à 16h30\nLe Mardi : de 13h30 à 16h30\nLe Jeudi : de 09h00 à 12h30 de 13h30 à 16h30\nLe Vendredi : de 09h00 à 12h30","latitude":47.012127,"longitude":-0.0562282,"website":"","hasWebsite":false,"hasHoraires":true,"url":"https://lannuaire.service-public.gouv.fr/nouvelle-aquitaine/vienne/6b43c2a1-81bb-465b-b5df-37aae6424801"}
{"nom":"Curzay-sur-Vonne","nomNormalise":"curzaysurvonne","typeCollectivite":"Commune","region":"Nouvelle-Aquitaine","departement":"Vienne","departementCode":"86","adresse":{"street":"Place de l'Église","postalCode":"86600","city":"Curzay-sur-Vonne","country":"France"},"contacts":{"email":"contact@curzay-sur-vonne.fr","telephone":"0549535164"},"horaires":"Du Mardi au Samedi : de 09h00 à 12h00","latitude":46.49015,"longitude":0.0439399,"website":"https://mairiedecurzay-sur-vonne.fr/","hasWebsite":true,"hasHoraires":true,"url":"https://lannuaire.service-public.gouv.fr/nouvelle-aquitaine/vienne/81b8014c-5678-4e28-856a-89be35661239"}
{"nom":"Dangé-Saint-Romain","nomNormalise":"dangesaintromain","typeCollectivite":"Commune","region":"Nouvelle-Aquitaine","departement":"Vienne","departementCode":"86","adresse":{"street":"5 place de la Promenade","postalCode":"86220","city":"Dangé-Saint-Romain","country":"France"},"contacts":{"email":"contact@dangesaintromain.fr","telephone":"0549864001"},"horaires":"Le Lundi : de 09h00 à 12h00 de 14h00 à 17h00\nLe Mardi : de 09h00 à 12h00 de 15h00 à 17h00\nLe Mercredi : de 09h00 à 12h00\nDu Jeudi au Vendredi : de 09h00 à 12h00 de 14h00 à 17h00\nLe Samedi : de 09h00 à 12h00","latitude":46.93682,"longitude":0.6063396,"website":"https://www.dangesaintromain.fr/","hasWebsite":true,"hasHoraires":true,"url":"https://lannuaire.service-public.gouv.fr/nouvelle-aquitaine/vienne/c9c0ed62-59cf-4ff9-97b9-291f20534200"}
{"nom":"Dercé","nomNormalise":"derce","typeCollectivite":"Commune","region":"Nouvelle-Aquitaine","departement":"Vienne","departementCode":"86","adresse":{"street":"4 la Croix-Margaut","postalCode":"86420","city":"Dercé","country":"France"},"contacts":{"email":"contact@derce.fr","telephone":"0549228010"},"horaires":"Le Mardi : de 14h00 à 17h30\nLe Vendredi : de 09h00 à 12h30","latitude":46.941284,"longitude":0.218003,"website":"","hasWebsite":false,"hasHoraires":true,"url":"https://lannuaire.service-public.gouv.fr/nouvelle-aquitaine/vienne/5cb0a783-5e39-445d-b92a-bc9a8829d7e8"}
{"nom":"Dienné","nomNormalise":"dienne","typeCollectivite":"Commune","region":"Nouvelle-Aquitaine","departement":"Vienne","departementCode":"86","adresse":{"street":"4 route de Verrières","postalCode":"86410","city":"Dienné","country":"France"},"contacts":{"email":"contact@dienne86.fr","telephone":"0549426051"},"horaires":"Du Lundi au Mardi : de 08h30 à 12h30 de 14h00 à 18h00\nLe Jeudi : de 08h30 à 12h30 de 14h00 à 18h00\nLe Vendredi : de 14h00 à 18h00\nLe Samedi : de 09h00 à 12h00","latitude":46.44132,"longitude":0.5480696,"website":"https://lapagelocale.fr/86410-dienne","hasWebsite":true,"hasHoraires":true,"url":"https://lannuaire.service-public.gouv.fr/nouvelle-aquitaine/vienne/6217d1dc-670b-4df4-9ebf-c66e56cd1b13"}
{"nom":"Dissay","nomNormalise":"dissay","typeCollectivite":"Commune","region":"Nouvelle-Aquitaine","departement":"Vienne","departementCode":"86","adresse":{"street":"240 rue de l'Église","postalCode":"86130","city":"Dissay","country":"France"},"contacts":{"email":"accueil@dissay.fr","telephone":"0549523456"},"horaires":"Le Lundi : de 09h00 à 12h30 de 13h30 à 17h30\nLe Mardi : de 09h00 à 12h30\nLe Mercredi : de 09h00 à 12h30 de 13h30 à 17h30\nLe Jeudi : de 09h00 à 12h30 de 13h30 à 19h00\nLe Vendredi : de 09h00 à 12h30 de 13h30 à 17h30","latitude":46.702087,"longitude":0.4319404,"website":"https://www.dissay.fr/","hasWebsite":true,"hasHoraires":true,"url":"https://lannuaire.service-public.gouv.fr/nouvelle-aquitaine/vienne/d82e3772-150f-4f64-a912-e07e28a50345"}
{"nom":"Doussay","nomNormalise":"doussay","typeCollectivite":"Commune","region":"Nouvelle-Aquitaine","departement":"Vienne","departementCode":"86","adresse":{"street":"1 rue de la Mairie","postalCode":"86140","city":"Doussay","country":"France"},"contacts":{"email":"contact@doussay.fr","telephone":"0549907304"},"horaires":"Le Lundi : de 09h00 à 12h00\nLe Mardi : de 09h00 à 12h00 de 14h00 à 17h00\nLe Mercredi : de 09h00 à 12h00\nLe Jeudi : de 09h00 à 12h00 de 14h00 à 17h00\nLe Vendredi : de 09h00 à 12h00","latitude":46.84336,"longitude":0.2745614,"website":"https://lapagelocale.fr/86140-doussay","hasWebsite":true,"hasHoraires":true,"url":"https://lannuaire.service-public.gouv.fr/nouvelle-aquitaine/vienne/bab4d120-1959-4040-828a-b8cdfb38aac6"}
{"nom":"Fleix","nomNormalise":"fleix","typeCollectivite":"Commune","region":"Nouvelle-Aquitaine","departement":"Vienne","departementCode":"86","adresse":{"street":"2 rue de l'École","postalCode":"86300","city":"Fleix","country":"France"},"contacts":{"email":"contact@fleix86.fr","telephone":"0961431735"},"horaires":"Du Lundi au Jeudi : de 08h00 à 12h30 de 13h00 à 17h15","latitude":46.553696,"longitude":0.74565,"website":"","hasWebsite":false,"hasHoraires":true,"url":"https://lannuaire.service-public.gouv.fr/nouvelle-aquitaine/vienne/e39e3b43-066e-4029-8339-550403e589fc"}
{"nom":"Fleuré","nomNormalise":"fleure","typeCollectivite":"Commune","region":"Nouvelle-Aquitaine","departement":"Vienne","departementCode":"86","adresse":{"street":"22 Bis Route de Poitiers","postalCode":"86340","city":"Fleuré","country":"France"},"contacts":{"email":"contact@fleure86.fr","telephone":"0549426015"},"horaires":"Du Lundi au Mardi : de 14h00 à 17h00\nLe Mercredi : de 09h00 à 12h00 de 14h00 à 17h00\nDu Jeudi au Vendredi : de 14h00 à 17h00","latitude":46.47942,"longitude":0.5182034,"website":"https://fleure86.fr/fr/","hasWebsite":true,"hasHoraires":true,"url":"https://lannuaire.service-public.gouv.fr/nouvelle-aquitaine/vienne/bfed936e-b50e-4b89-8885-d24586c76eb0"}
{"nom":"Fontaine-le-Comte","nomNormalise":"fontainelecomte","typeCollectivite":"Commune","region":"Nouvelle-Aquitaine","departement":"Vienne","departementCode":"86","adresse":{"street":"Esplanade des Citoyens","postalCode":"86240","city":"Fontaine-le-Comte","country":"France"},"contacts":{"email":"contact@fontaine-le-comte.fr","telephone":"0549626705"},"horaires":"Le Lundi : de 09h00 à 12h30 de 14h30 à 17h30\nLe Mardi : de 09h00 à 12h30 de 13h30 à 17h30\nLe Mercredi : de 09h00 à 12h30 de 13h30 à 18h00\nLe Jeudi : de 09h00 à 12h30 de 13h30 à 17h30\nLe Vendredi : de 09h00 à 12h30 de 13h30 à 16h15","latitude":46.5257,"longitude":0.261799,"website":"https://fontaine-le-comte.fr/","hasWebsite":true,"hasHoraires":true,"url":"https://lannuaire.service-public.gouv.fr/nouvelle-aquitaine/vienne/66d90f6f-9d29-4218-8edf-0e45feb92012"}
{"nom":"Frozes","nomNormalise":"frozes","typeCollectivite":"Commune","region":"Nouvelle-Aquitaine","departement":"Vienne","departementCode":"86","adresse":{"street":"4 place de la Croix","postalCode":"86190","city":"Frozes","country":"France"},"contacts":{"email":"contact@frozes.fr","telephone":"0549518414"},"horaires":"Le Lundi : de 09h00 à 12h30 de 14h00 à 17h00\nLe Mardi : de 09h00 à 12h30 de 14h00 à 18h00\nLe Mercredi : de 09h00 à 12h00 de 14h00 à 18h00\nDu Jeudi au Vendredi : de 09h00 à 12h30 de 14h00 à 17h00","latitude":46.6761,"longitude":0.174722,"website":"http://www.mairiefrozes.fr/","hasWebsite":true,"hasHoraires":true,"url":"https://lannuaire.service-public.gouv.fr/nouvelle-aquitaine/vienne/2e7143fa-6b6b-4d25-b6b1-37ac610f94a6"}
{"nom":"Gençay","nomNormalise":"gencay","typeCollectivite":"Commune","region":"Nouvelle-Aquitaine","departement":"Vienne","departementCode":"86","adresse":{"street":"1 Place de la Mairie","postalCode":"86160","city":"Gençay","country":"France"},"contacts":{"email":"mairie@gencay.fr","telephone":"0549593136"},"horaires":"Le Lundi : de 08h00 à 12h00\nDu Mardi au Vendredi : de 08h00 à 12h00 de 13h00 à 17h00","latitude":46.374382,"longitude":0.403508,"website":"http://www.gencay.fr/","hasWebsite":true,"hasHoraires":true,"url":"https://lannuaire.service-public.gouv.fr/nouvelle-aquitaine/vienne/e0fd6329-fb9a-4267-a959-5ea32dbabd0f"}
{"nom":"Genouillé","nomNormalise":"genouille","typeCollectivite":"Commune","region":"Nouvelle-Aquitaine","departement":"Vienne","departementCode":"86","adresse":{"street":"5 route de Civray","postalCode":"86250","city":"Genouillé","country":"France"},"contacts":{"email":"contact@genouille86.fr","telephone":"0549871071"},"horaires":"Le Lundi : de 08h00 à 12h30\nLe Mardi : de 08h00 à 12h30 de 14h00 à 17h15\nLe Mercredi : de 08h00 à 12h30\nLe Jeudi : de 08h30 à 12h30 de 14h00 à 17h15\nLe Vendredi : de 08h00 à 12h30","latitude":46.107803,"longitude":0.33468,"website":"https://www.genouille86.fr/","hasWebsite":true,"hasHoraires":true,"url":"https://lannuaire.service-public.gouv.fr/nouvelle-aquitaine/vienne/d727fcd2-170d-41c8-aeac-7021d845f3de"}
{"nom":"Gizay","nomNormalise":"gizay","typeCollectivite":"Commune","region":"Nouvelle-Aquitaine","departement":"Vienne","departementCode":"86","adresse":{"street":"1 route de Nieuil","postalCode":"86340","city":"Gizay","country":"France"},"contacts":{"email":"","telephone":"0549425645"},"horaires":"Du Lundi au Mardi : de 08h30 à 12h30\nLe Mercredi : de 09h00 à 12h00\nLe Jeudi : de 08h30 à 12h30\nLe Vendredi : de 09h00 à 12h00","latitude":46.440834,"longitude":0.424745,"website":"https://www.gizay.fr/","hasWebsite":true,"hasHoraires":true,"url":"https://lannuaire.service-public.gouv.fr/nouvelle-aquitaine/vienne/6e27f220-913a-42d8-82a0-5a4a16fe8abb"}
{"nom":"Glénouze","nomNormalise":"glenouze","typeCollectivite":"Commune","region":"Nouvelle-Aquitaine","departement":"Vienne","departementCode":"86","adresse":{"street":"1 Place de l'Église","postalCode":"86200","city":"Glénouze","country":"France"},"contacts":{"email":"contact@glenouze86.fr","telephone":"0549985433"},"horaires":"Le Lundi : de 09h15 à 12h00\nLe Jeudi : de 14h00 à 17h00","latitude":46.99488,"longitude":-0.009917,"website":"","hasWebsite":false,"hasHoraires":true,"url":"https://lannuaire.service-public.gouv.fr/nouvelle-aquitaine/vienne/eb9f99f6-0615-4326-8c7a-e7bdb859567f"}
{"nom":"Gouex","nomNormalise":"gouex","typeCollectivite":"Commune","region":"Nouvelle-Aquitaine","departement":"Vienne","departementCode":"86","adresse":{"street":"3 rue de la Mairie","postalCode":"86320","city":"Gouex","country":"France"},"contacts":{"email":"contact@gouex.fr","telephone":"0549484614"},"horaires":"Du Lundi au Vendredi : de 08h30 à 12h00","latitude":46.3665,"longitude":0.690489,"website":"http://www.gouex.fr/","hasWebsite":true,"hasHoraires":true,"url":"https://lannuaire.service-public.gouv.fr/nouvelle-aquitaine/vienne/c7c86a8a-ebd3-4aac-a5b8-b3d5014ce392"}
{"nom":"Guesnes","nomNormalise":"guesnes","typeCollectivite":"Commune","region":"Nouvelle-Aquitaine","departement":"Vienne","departementCode":"86","adresse":{"street":"2 rue de la Mairie","postalCode":"86420","city":"Guesnes","country":"France"},"contacts":{"email":"contact@guesnes86.fr","telephone":"0549228053"},"horaires":"Le Lundi : de 09h00 à 12h30 de 13h30 à 17h30\nLe Jeudi : de 09h00 à 12h30 de 13h30 à 17h30","latitude":46.9176,"longitude":0.162845,"website":"","hasWebsite":false,"hasHoraires":true,"url":"https://lannuaire.service-public.gouv.fr/nouvelle-aquitaine/vienne/122a6906-8f8f-45e1-b2ed-dd2412b2bd40"}
{"nom":"Haims","nomNormalise":"haims","typeCollectivite":"Commune","region":"Nouvelle-Aquitaine","departement":"Vienne","departementCode":"86","adresse":{"street":"1 place de la Mairie","postalCode":"86310","city":"Haims","country":"France"},"contacts":{"email":"contact@haims.fr","telephone":"0549911377"},"horaires":"Du Lundi au Jeudi : de 08h30 à 12h00\nLe Vendredi : de 08h30 à 12h30","latitude":46.47942,"longitude":0.5182034,"website":"","hasWebsite":false,"hasHoraires":true,"url":"https://lannuaire.service-public.gouv.fr/nouvelle-aquitaine/vienne/9fbb745d-c858-40cd-bff7-53100c2a9229"}
{"nom":"Ingrandes-sur-Vienne","nomNormalise":"ingrandessurvienne","typeCollectivite":"Commune","region":"Nouvelle-Aquitaine","departement":"Vienne","departementCode":"86","adresse":{"street":"9 rue de la Gare","postalCode":"86220","city":"Ingrandes-sur-Vienne","country":"France"},"contacts":{"email":"contact@ingrandes-sur-vienne.fr","telephone":"0549026444"},"horaires":"Le Lundi : de 13h30 à 17h30\nLe Mardi : de 09h00 à 12h00 de 13h30 à 17h30\nLe Mercredi : de 13h30 à 17h30\nLe Jeudi : de 09h00 à 12h00 de 13h30 à 17h30\nLe Vendredi : de 09h00 à 12h00 de 13h30 à 16h30","latitude":46.8758,"longitude":0.567397,"website":"","hasWebsite":false,"hasHoraires":true,"url":"https://lannuaire.service-public.gouv.fr/nouvelle-aquitaine/vienne/b378edeb-931b-4151-ad53-a35ba558b256"}
{"nom":"Iteuil","nomNormalise":"iteuil","typeCollectivite":"Commune","region":"Nouvelle-Aquitaine","departement":"Vienne","departementCode":"86","adresse":{"street":"2 place de la Mairie","postalCode":"86240","city":"Iteuil","country":"France"},"contacts":{"email":"contact@iteuil.fr","telephone":"0549550017"},"horaires":"Du Lundi au Jeudi : de 08h00 à 12h00 de 13h30 à 17h00\nLe Vendredi : de 08h00 à 12h00 de 13h30 à 16h00","latitude":46.4847,"longitude":0.314999,"website":"https://www.iteuil.fr/","hasWebsite":true,"hasHoraires":true,"url":"https://lannuaire.service-public.gouv.fr/nouvelle-aquitaine/vienne/4063e5de-6337-4dc9-8ee8-ea5ffd5781a8"}
{"nom":"Jardres","nomNormalise":"jardres","typeCollectivite":"Commune","region":"Nouvelle-Aquitaine","departement":"Vienne","departementCode":"86","adresse":{"street":"3 rue de la Mairie","postalCode":"86800","city":"Jardres","country":"France"},"contacts":{"email":"contact@jardres.fr","telephone":"0549567056"},"horaires":"Du Lundi au Mardi : de 08h15 à 12h15 de 14h00 à 17h00\nDu Mercredi au Vendredi : de 08h15 à 12h15","latitude":46.568844,"longitude":0.5648211,"website":"https://www.jardres.fr/fr/","hasWebsite":true,"hasHoraires":true,"url":"https://lannuaire.service-public.gouv.fr/nouvelle-aquitaine/vienne/cc741d03-481d-4281-94bd-9016add03736"}
{"nom":"Jaunay-Marigny","nomNormalise":"jaunaymarigny","typeCollectivite":"Commune","region":"Nouvelle-Aquitaine","departement":"Vienne","departementCode":"86","adresse":{"street":"72 ter Grand rue","postalCode":"86130","city":"Jaunay-Marigny","country":"France"},"contacts":{"email":"info@jaunay-marigny.fr","telephone":"0549623700"},"horaires":"Du Lundi au Mercredi : de 08h30 à 12h15 de 13h30 à 17h30\nLe Jeudi : de 08h30 à 12h15 de 13h30 à 19h00\nLe Vendredi : de 08h30 à 12h15 de 13h30 à 16h00","latitude":46.6845,"longitude":0.3747839,"website":"http://www.jaunay-marigny.fr/","hasWebsite":true,"hasHoraires":true,"url":"https://lannuaire.service-public.gouv.fr/nouvelle-aquitaine/vienne/a7ee8523-866e-45eb-a190-2ba325812e8a"}
{"nom":"Jazeneuil","nomNormalise":"jazeneuil","typeCollectivite":"Commune","region":"Nouvelle-Aquitaine","departement":"Vienne","departementCode":"86","adresse":{"street":"10 rue du Vieux-Château","postalCode":"86600","city":"Jazeneuil","country":"France"},"contacts":{"email":"contact@jazeneuil.fr","telephone":"0549890520"},"horaires":"Du Lundi au Jeudi : de 09h00 à 12h00\nLe Vendredi : de 09h00 à 12h00 de 14h00 à 17h00","latitude":46.464993,"longitude":0.068094,"website":"http://www.jazeneuil.fr/","hasWebsite":true,"hasHoraires":true,"url":"https://lannuaire.service-public.gouv.fr/nouvelle-aquitaine/vienne/b5fa7269-7248-4f6a-9057-e5506be074bb"}
{"nom":"Jouhet","nomNormalise":"jouhet","typeCollectivite":"Commune","region":"Nouvelle-Aquitaine","departement":"Vienne","departementCode":"86","adresse":{"street":"2 place du Souvenir","postalCode":"86500","city":"Jouhet","country":"France"},"contacts":{"email":"contact@jouhet.fr","telephone":"0549910532"},"horaires":"Le Lundi : de 08h30 à 12h00 de 13h30 à 17h00\nDu Mardi au Vendredi : de 08h30 à 12h00","latitude":46.492317,"longitude":0.840028,"website":"http://mairiedejouhet.free.fr/","hasWebsite":true,"hasHoraires":true,"url":"https://lannuaire.service-public.gouv.fr/nouvelle-aquitaine/vienne/606a5f16-dd15-416d-ac18-14f8cc4143b8"}
{"nom":"Journet","nomNormalise":"journet","typeCollectivite":"Commune","region":"Nouvelle-Aquitaine","departement":"Vienne","departementCode":"86","adresse":{"street":"3 place Saint-Martin","postalCode":"86290","city":"Journet","country":"France"},"contacts":{"email":"mairie@journet86.fr","telephone":"0549916211"},"horaires":"Le Lundi : de 08h30 à 12h30 de 14h00 à 18h00\nDu Jeudi au Vendredi : de 08h30 à 12h30 de 14h00 à 18h00","latitude":46.4661,"longitude":1.03211,"website":"","hasWebsite":false,"hasHoraires":true,"url":"https://lannuaire.service-public.gouv.fr/nouvelle-aquitaine/vienne/b77afc75-d4bc-48d4-adff-bc84689e67bb"}
{"nom":"Joussé","nomNormalise":"jousse","typeCollectivite":"Commune","region":"Nouvelle-Aquitaine","departement":"Vienne","departementCode":"86","adresse":{"street":"1 place des Tilleuls","postalCode":"86350","city":"Joussé","country":"France"},"contacts":{"email":"contact@jousse86.fr","telephone":"0549878103"},"horaires":"Le Lundi : de 13h30 à 17h30\nDu Jeudi au Vendredi : de 13h30 à 17h30","latitude":46.227306,"longitude":0.47138,"website":"https://www.jousse86.fr/","hasWebsite":true,"hasHoraires":true,"url":"https://lannuaire.service-public.gouv.fr/nouvelle-aquitaine/vienne/6ac48592-3198-4538-a406-38587a22395d"}
{"nom":"La Bussière","nomNormalise":"labussiere","typeCollectivite":"Commune","region":"Nouvelle-Aquitaine","departement":"Vienne","departementCode":"86","adresse":{"street":"6 route Saint-Pierre","postalCode":"86310","city":"La Bussière","country":"France"},"contacts":{"email":"contact@labussiere-vienne.fr","telephone":"0549480361"},"horaires":"Du Lundi au Jeudi : de 10h00 à 12h00 de 15h00 à 16h30\nLe Vendredi : de 10h00 à 12h00","latitude":46.6352,"longitude":0.824329,"website":"http://www.labussiere-vienne.fr/","hasWebsite":true,"hasHoraires":true,"url":"https://lannuaire.service-public.gouv.fr/nouvelle-aquitaine/vienne/892d1a5a-b613-4b24-8ee0-d8d55e06b0e7"}
{"nom":"La Chapelle-Bâton","nomNormalise":"lachapellebaton","typeCollectivite":"Commune","region":"Nouvelle-Aquitaine","departement":"Vienne","departementCode":"86","adresse":{"street":"2 rue Capella","postalCode":"86250","city":"La Chapelle-Bâton","country":"France"},"contacts":{"email":"contact@lachapellebaton.fr","telephone":"0549871158"},"horaires":"Le Lundi : de 10h00 à 12h00 de 15h00 à 18h00\nLe Mercredi : de 09h00 à 12h00\nLe Vendredi : de 10h00 à 12h00 de 15h00 à 18h00","latitude":46.185234,"longitude":0.394915,"website":"https://www.lachapellebaton86.fr/","hasWebsite":true,"hasHoraires":true,"url":"https://lannuaire.service-public.gouv.fr/nouvelle-aquitaine/vienne/0438647d-8133-42ac-a633-c7fd1a252d5e"}
{"nom":"Mairie déléguée - La Chapelle-Montreuil","nomNormalise":"mairiedelegueelachapellemontreuil","typeCollectivite":"Commune","region":"Nouvelle-Aquitaine","departement":"Vienne","departementCode":"86","adresse":{"street":"La Chapelle-Montreuil","postalCode":"86470","city":"Boivre-la-Vallée","country":"France"},"contacts":{"email":"lachapellemontreuil@boivrelavallee.fr","telephone":"0549578318"},"horaires":"Le Lundi : de 13h30 à 17h30\nLe Vendredi : de 09h00 à 12h30","latitude":46.535706,"longitude":0.115113,"website":"https://www.boivrelavallee.eu/","hasWebsite":true,"hasHoraires":true,"url":"https://lannuaire.service-public.gouv.fr/nouvelle-aquitaine/vienne/5ebbdd16-1ed0-4890-bcee-e5780bb4d06b"}
{"nom":"La Chapelle-Moulière","nomNormalise":"lachapellemouliere","typeCollectivite":"Commune","region":"Nouvelle-Aquitaine","departement":"Vienne","departementCode":"86","adresse":{"street":"2 rue de la Mairie","postalCode":"86210","city":"La Chapelle-Moulière","country":"France"},"contacts":{"email":"contact@la-chapelle-mouliere.fr","telephone":"0549566436"},"horaires":"Du Lundi au Mardi : de 08h00 à 12h30 de 13h30 à 18h00\nLe Jeudi : de 08h00 à 12h30 de 13h30 à 18h00\nLe Vendredi : de 08h00 à 12h30 de 13h30 à 17h00","latitude":46.649708,"longitude":0.565182,"website":"https://www.la-chapelle-mouliere.fr/","hasWebsite":true,"hasHoraires":true,"url":"https://lannuaire.service-public.gouv.fr/nouvelle-aquitaine/vienne/746cc611-1fca-4243-82c6-76c3faa21566"}
{"nom":"La Chapelle-Viviers","nomNormalise":"lachapelleviviers","typeCollectivite":"Commune","region":"Nouvelle-Aquitaine","departement":"Vienne","departementCode":"86","adresse":{"street":"2 rue du Vivier","postalCode":"86300","city":"La Chapelle-Viviers","country":"France"},"contacts":{"email":"mairie@la-chapelle-viviers.fr","telephone":"0549569152"},"horaires":"Du Lundi au Jeudi : de 08h30 à 12h30 de 13h30 à 17h30\nLe Vendredi : de 08h30 à 12h30 de 13h30 à 17h00\nsauf distanciel, joignable alors au 07-48-12-99-01","latitude":46.48405,"longitude":0.725066,"website":"https://www.la-chapelle-viviers.fr/","hasWebsite":true,"hasHoraires":true,"url":"https://lannuaire.service-public.gouv.fr/nouvelle-aquitaine/vienne/7462faca-b6c5-445b-a596-df4fec9e1260"}
{"nom":"La Chaussée","nomNormalise":"lachaussee","typeCollectivite":"Commune","region":"Nouvelle-Aquitaine","departement":"Vienne","departementCode":"86","adresse":{"street":"4 rue de Saint-Jean-de-Sauves","postalCode":"86330","city":"La Chaussée","country":"France"},"contacts":{"email":"contact@lachaussee86.com","telephone":"0549227367"},"horaires":"Le Lundi : de 14h00 à 17h00\nLe Mardi : de 10h00 à 12h00 de 14h00 à 17h00\nDu Jeudi au Vendredi : de 10h00 à 12h00 de 14h00 à 17h00","latitude":46.885254,"longitude":0.1107296,"website":"https://www.lachaussee.com/","hasWebsite":true,"hasHoraires":true,"url":"https://lannuaire.service-public.gouv.fr/nouvelle-aquitaine/vienne/efec6538-2535-4899-9bfb-a2f8e0137dc7"}
{"nom":"La Ferrière-Airoux","nomNormalise":"laferriereairoux","typeCollectivite":"Commune","region":"Nouvelle-Aquitaine","departement":"Vienne","departementCode":"86","adresse":{"street":"30 rue Saint-Hilaire","postalCode":"86160","city":"La Ferrière-Airoux","country":"France"},"contacts":{"email":"mairie.laferriereairoux@orange.fr","telephone":"0549593332"},"horaires":"Du Lundi au Mardi : de 14h00 à 17h00\nDu Jeudi au Vendredi : de 14h00 à 17h00","latitude":46.319214,"longitude":0.389759,"website":"","hasWebsite":false,"hasHoraires":true,"url":"https://lannuaire.service-public.gouv.fr/nouvelle-aquitaine/vienne/156ff306-3f23-4411-be66-d64100a21748"}
{"nom":"La Grimaudière","nomNormalise":"lagrimaudiere","typeCollectivite":"Commune","region":"Nouvelle-Aquitaine","departement":"Vienne","departementCode":"86","adresse":{"street":"1 place de l'Église","postalCode":"86330","city":"La Grimaudière","country":"France"},"contacts":{"email":"contact@lagrimaudiere86.fr","telephone":"0549600318"},"horaires":"Le Mardi : de 11h00 à 12h30\nLe Vendredi : de 11h00 à 12h30","latitude":46.80761,"longitude":0.017972,"website":"","hasWebsite":false,"hasHoraires":true,"url":"https://lannuaire.service-public.gouv.fr/nouvelle-aquitaine/vienne/ff29c1bd-0832-438b-8148-73e5d106c3f3"}
{"nom":"La Puye","nomNormalise":"lapuye","typeCollectivite":"Commune","region":"Nouvelle-Aquitaine","departement":"Vienne","departementCode":"86","adresse":{"street":"9 place de la Mairie","postalCode":"86260","city":"La Puye","country":"France"},"contacts":{"email":"mairie@lapuye.fr","telephone":"0549464114"},"horaires":"Du Mardi au Vendredi : de 09h00 à 12h00","latitude":46.642857,"longitude":0.752903,"website":"https://lapuye.fr/","hasWebsite":true,"hasHoraires":true,"url":"https://lannuaire.service-public.gouv.fr/nouvelle-aquitaine/vienne/7d2c8ee7-8ba2-4f5e-84f3-bc3b0ae2d84a"}
{"nom":"La Roche-Posay","nomNormalise":"larocheposay","typeCollectivite":"Commune","region":"Nouvelle-Aquitaine","departement":"Vienne","departementCode":"86","adresse":{"street":"2 place de la République","postalCode":"86270","city":"La Roche-Posay","country":"France"},"contacts":{"email":"mairie@ville-larocheposay.com","telephone":"0549862059"},"horaires":"Du Lundi au Vendredi : de 08h30 à 12h00 de 14h00 à 17h30","latitude":46.78651,"longitude":0.812343,"website":"https://www.larocheposay.com/","hasWebsite":true,"hasHoraires":true,"url":"https://lannuaire.service-public.gouv.fr/nouvelle-aquitaine/vienne/6d9d4e80-8399-4a95-9d4d-f250e85f5492"}
{"nom":"La Roche-Rigault","nomNormalise":"larocherigault","typeCollectivite":"Commune","region":"Nouvelle-Aquitaine","departement":"Vienne","departementCode":"86","adresse":{"street":"1 rue des Charmilles","postalCode":"86200","city":"La Roche-Rigault","country":"France"},"contacts":{"email":"mairie@larocherigault.fr","telephone":"0549981513"},"horaires":"Le Mardi : de 08h30 à 12h30 de 14h00 à 18h00\nLe Mercredi : de 08h30 à 12h00\nLe Jeudi : de 14h00 à 18h00\nLe Vendredi : de 08h30 à 12h30 de 14h00 à 18h00","latitude":46.9683,"longitude":0.179003,"website":"","hasWebsite":false,"hasHoraires":true,"url":"https://lannuaire.service-public.gouv.fr/nouvelle-aquitaine/vienne/60e55053-f449-467d-9c85-0b4b81185c5b"}
{"nom":"Lathus-Saint-Rémy","nomNormalise":"lathussaintremy","typeCollectivite":"Commune","region":"Nouvelle-Aquitaine","departement":"Vienne","departementCode":"86","adresse":{"street":"27 route du Dorat","postalCode":"86390","city":"Lathus-Saint-Rémy","country":"France"},"contacts":{"email":"contact@lathus-saint-remy.fr","telephone":"0549918023"},"horaires":"Le Lundi : de 08h00 à 12h00 de 13h30 à 17h00\nDu Mardi au Jeudi : de 08h00 à 12h00\nLe Vendredi : de 08h00 à 12h00 de 13h30 à 16h00","latitude":46.332,"longitude":0.962256,"website":"https://www.lathus-saint-remy.fr/","hasWebsite":true,"hasHoraires":true,"url":"https://lannuaire.service-public.gouv.fr/nouvelle-aquitaine/vienne/bf3b1577-1491-40cf-9a08-0e7676a16cd6"}
{"nom":"Latillé","nomNormalise":"latille","typeCollectivite":"Commune","region":"Nouvelle-Aquitaine","departement":"Vienne","departementCode":"86","adresse":{"street":"7 rue du Docteur-Roux","postalCode":"86190","city":"Latillé","country":"France"},"contacts":{"email":"contact@latille.fr","telephone":"0549518842"},"horaires":"Le Lundi : de 09h00 à 12h30 de 13h30 à 17h00\nLe Mardi : de 13h30 à 17h00\nLe Mercredi : de 09h00 à 12h30 de 13h30 à 17h00\nLe Jeudi : de 13h30 à 17h00\nLe Vendredi : de 09h00 à 12h30 de 13h30 à 17h00","latitude":46.6173,"longitude":0.077275,"website":"https://www.latille.fr/","hasWebsite":true,"hasHoraires":true,"url":"https://lannuaire.service-public.gouv.fr/nouvelle-aquitaine/vienne/1ceedb28-33cb-4890-915d-12b89fd8f492"}
{"nom":"La Trimouille","nomNormalise":"latrimouille","typeCollectivite":"Commune","region":"Nouvelle-Aquitaine","departement":"Vienne","departementCode":"86","adresse":{"street":"7 place de la Mairie","postalCode":"86290","city":"La Trimouille","country":"France"},"contacts":{"email":"ville@latrimouille.fr","telephone":"0549916014"},"horaires":"Le Lundi : de 08h30 à 12h00 de 13h30 à 18h00\nLe Mardi : de 08h30 à 12h00\nLe Mercredi : de 08h30 à 12h00 de 13h30 à 18h00\nLe Jeudi : de 08h30 à 12h00\nLe Vendredi : de 08h30 à 12h00 de 13h30 à 16h30","latitude":46.466385,"longitude":1.038919,"website":"https://www.poitou-brenne.fr/","hasWebsite":true,"hasHoraires":true,"url":"https://lannuaire.service-public.gouv.fr/nouvelle-aquitaine/vienne/b07410a4-8ec3-40cb-bb24-d17e7a34fcd7"}
{"nom":"Lauthiers","nomNormalise":"lauthiers","typeCollectivite":"Commune","region":"Nouvelle-Aquitaine","departement":"Vienne","departementCode":"86","adresse":{"street":"Le Bourg","postalCode":"86300","city":"Lauthiers","country":"France"},"contacts":{"email":"contact@lauthiers.fr","telephone":"0549469776"},"horaires":"Le Mardi : de 09h00 à 12h30 de 13h30 à 17h30\nLe Vendredi : de 09h00 à 12h30","latitude":46.601154,"longitude":0.7340719,"website":"","hasWebsite":false,"hasHoraires":true,"url":"https://lannuaire.service-public.gouv.fr/nouvelle-aquitaine/vienne/02d72945-e09c-4722-b5db-d1d8a8f5d17c"}
{"nom":"La Villedieu-du-Clain","nomNormalise":"lavilledieuduclain","typeCollectivite":"Commune","region":"Nouvelle-Aquitaine","departement":"Vienne","departementCode":"86","adresse":{"street":"5 place de la Mairie","postalCode":"86340","city":"La Villedieu-du-Clain","country":"France"},"contacts":{"email":"contact@mairie-lavilledieuduclain.fr","telephone":"0549425113"},"horaires":"Le Lundi : de 09h00 à 12h00 de 14h00 à 18h00\nLe Mardi : de 08h30 à 11h30 de 14h00 à 18h00\nDu Mercredi au Jeudi : de 09h00 à 12h00 de 14h00 à 18h00\nLe Vendredi : de 14h00 à 18h00","latitude":46.456,"longitude":0.367513,"website":"","hasWebsite":false,"hasHoraires":true,"url":"https://lannuaire.service-public.gouv.fr/nouvelle-aquitaine/vienne/1f774918-d5e3-47fe-beb3-b7d55428c882"}
{"nom":"Lavoux","nomNormalise":"lavoux","typeCollectivite":"Commune","region":"Nouvelle-Aquitaine","departement":"Vienne","departementCode":"86","adresse":{"street":"Place des Carriers","postalCode":"86800","city":"Lavoux","country":"France"},"contacts":{"email":"contact@lavoux.fr","telephone":"0549566407"},"horaires":"Du Lundi au Mardi : de 08h30 à 12h30\nDu Mercredi au Jeudi : de 08h30 à 12h30 de 13h30 à 18h00\nLe Vendredi : de 08h30 à 12h30","latitude":46.595566,"longitude":0.5300328,"website":"https://www.lavoux.fr/","hasWebsite":true,"hasHoraires":true,"url":"https://lannuaire.service-public.gouv.fr/nouvelle-aquitaine/vienne/58a43109-8db6-41cd-b69b-4cb9f09570bb"}
{"nom":"Leigné-les-Bois","nomNormalise":"leignelesbois","typeCollectivite":"Commune","region":"Nouvelle-Aquitaine","departement":"Vienne","departementCode":"86","adresse":{"street":"1 place de l'Église","postalCode":"86450","city":"Leigné-les-Bois","country":"France"},"contacts":{"email":"contact@leigne-les-bois.fr","telephone":"0549865381"},"horaires":"Du Lundi au Mardi : de 14h00 à 17h00\nDu Mercredi au Vendredi : de 09h00 à 12h00","latitude":46.75924,"longitude":0.706664,"website":"https://www.leigne-les-bois.fr/","hasWebsite":true,"hasHoraires":true,"url":"https://lannuaire.service-public.gouv.fr/nouvelle-aquitaine/vienne/70031135-a96f-442e-8d74-7ffb186490fc"}
{"nom":"Leignes-sur-Fontaine","nomNormalise":"leignessurfontaine","typeCollectivite":"Commune","region":"Nouvelle-Aquitaine","departement":"Vienne","departementCode":"86","adresse":{"street":"10 place de la Mairie","postalCode":"86300","city":"Leignes-sur-Fontaine","country":"France"},"contacts":{"email":"contact@leignes-sur-fontaine.fr","telephone":"0549569010"},"horaires":"Le Lundi : de 08h30 à 12h30 de 13h30 à 17h00\nLe Mardi : de 08h30 à 12h30\nLe Mercredi : de 08h30 à 12h30 de 13h30 à 17h00\nLe Jeudi : de 08h30 à 12h30\nLe Vendredi : de 08h30 à 12h30 de 13h30 à 17h00\nLe Samedi : de 08h30 à 11h30\n\naccueil ouvert 1 samedi sur 2","latitude":46.507477,"longitude":0.775463,"website":"https://www.leignes-sur-fontaine.fr/index.php","hasWebsite":true,"hasHoraires":true,"url":"https://lannuaire.service-public.gouv.fr/nouvelle-aquitaine/vienne/9a1101d8-03fc-4ffa-8feb-024ede9e1cfd"}
{"nom":"Leigné-sur-Usseau","nomNormalise":"leignesurusseau","typeCollectivite":"Commune","region":"Nouvelle-Aquitaine","departement":"Vienne","departementCode":"86","adresse":{"street":"4 route de Vaux","postalCode":"86230","city":"Leigné-sur-Usseau","country":"France"},"contacts":{"email":"mairie.leigneusseau@gmail.com","telephone":"0549860173"},"horaires":"Le Mardi : de 08h30 à 12h30\nLe Vendredi : de 08h30 à 12h30","latitude":46.91275,"longitude":0.472706,"website":"","hasWebsite":false,"hasHoraires":true,"url":"https://lannuaire.service-public.gouv.fr/nouvelle-aquitaine/vienne/6a335015-2b9d-447b-910c-601f6879e11d"}
{"nom":"Lencloître","nomNormalise":"lencloitre","typeCollectivite":"Commune","region":"Nouvelle-Aquitaine","departement":"Vienne","departementCode":"86","adresse":{"street":"1 place du Général-Pierre","postalCode":"86140","city":"Lencloître","country":"France"},"contacts":{"email":"contact@lencloitre.fr","telephone":"0549907554"},"horaires":"Du Lundi au Jeudi : de 09h00 à 12h15 de 13h30 à 17h30\nLe Vendredi : de 09h00 à 12h15 de 13h30 à 16h30","latitude":46.81354,"longitude":0.326997,"website":"https://www.lencloitre.fr/","hasWebsite":true,"hasHoraires":true,"url":"https://lannuaire.service-public.gouv.fr/nouvelle-aquitaine/vienne/0d4a301c-a253-46cb-8e5d-311d8a81e9a6"}
{"nom":"Lésigny","nomNormalise":"lesigny","typeCollectivite":"Commune","region":"Nouvelle-Aquitaine","departement":"Vienne","departementCode":"86","adresse":{"street":"1 square Victor-Girault","postalCode":"86270","city":"Lésigny","country":"France"},"contacts":{"email":"contact@lesigny86.fr","telephone":"0549862315"},"horaires":"Du Lundi au Jeudi : de 13h30 à 18h00\nLe Vendredi : de 09h00 à 12h00 de 13h30 à 17h30","latitude":46.849567,"longitude":0.766298,"website":"https://www.lesigny86.fr/","hasWebsite":true,"hasHoraires":true,"url":"https://lannuaire.service-public.gouv.fr/nouvelle-aquitaine/vienne/cb2aa92f-ff3d-4570-9db8-9db963404db7"}
{"nom":"Les Ormes","nomNormalise":"lesormes","typeCollectivite":"Commune","region":"Nouvelle-Aquitaine","departement":"Vienne","departementCode":"86","adresse":{"street":"11 place de la Mairie","postalCode":"86220","city":"Les Ormes","country":"France"},"contacts":{"email":"contact@lesormes.fr","telephone":"0549856130"},"horaires":"Du Lundi au Jeudi : de 09h00 à 12h15\nLe Vendredi : de 09h00 à 12h15 de 16h00 à 18h00","latitude":46.9737,"longitude":0.60392,"website":"https://www.lesormes.fr/","hasWebsite":true,"hasHoraires":true,"url":"https://lannuaire.service-public.gouv.fr/nouvelle-aquitaine/vienne/7ffa865f-cd55-41c9-be6a-cfe928afc16c"}
{"nom":"Les Trois-Moutiers","nomNormalise":"lestroismoutiers","typeCollectivite":"Commune","region":"Nouvelle-Aquitaine","departement":"Vienne","departementCode":"86","adresse":{"street":"14 avenue Aristide-Gigot","postalCode":"86120","city":"Les Trois-Moutiers","country":"France"},"contacts":{"email":"mairie@3-moutiers.fr","telephone":"0549226390"},"horaires":"Du Lundi au Vendredi : de 09h00 à 12h00 de 14h00 à 16h30","latitude":47.0627,"longitude":0.017014,"website":"https://3-moutiers.fr/","hasWebsite":true,"hasHoraires":true,"url":"https://lannuaire.service-public.gouv.fr/nouvelle-aquitaine/vienne/4ec7b54e-856c-4e2d-90fe-5f3e2ff2e877"}
{"nom":"Leugny","nomNormalise":"leugny","typeCollectivite":"Commune","region":"Nouvelle-Aquitaine","departement":"Vienne","departementCode":"86","adresse":{"street":"7 rue de la Mairie","postalCode":"86220","city":"Leugny","country":"France"},"contacts":{"email":"contact@leugny86.fr","telephone":"0549859067"},"horaires":"Le Lundi : de 14h00 à 17h00\nDu Mardi au Vendredi : de 09h00 à 12h00 de 14h00 à 17h00","latitude":46.9107,"longitude":0.70146,"website":"https://leugny.wixsite.com/mysite","hasWebsite":true,"hasHoraires":true,"url":"https://lannuaire.service-public.gouv.fr/nouvelle-aquitaine/vienne/dcb76927-4120-4539-a43e-61726680e393"}
{"nom":"Le Vigeant","nomNormalise":"levigeant","typeCollectivite":"Commune","region":"Nouvelle-Aquitaine","departement":"Vienne","departementCode":"86","adresse":{"street":"7 place Saint-Georges","postalCode":"86150","city":"Le Vigeant","country":"France"},"contacts":{"email":"contact@le-vigeant.fr","telephone":"0549487655"},"horaires":"Du Lundi au Vendredi : de 09h00 à 12h00","latitude":46.225002,"longitude":0.648683,"website":"https://levigeant.fr/fr/","hasWebsite":true,"hasHoraires":true,"url":"https://lannuaire.service-public.gouv.fr/nouvelle-aquitaine/vienne/5f95994c-98c4-49ae-b939-31b744f24783"}
{"nom":"Lhommaizé","nomNormalise":"lhommaize","typeCollectivite":"Commune","region":"Nouvelle-Aquitaine","departement":"Vienne","departementCode":"86","adresse":{"street":"12 route de Verrières","postalCode":"86410","city":"Lhommaizé","country":"France"},"contacts":{"email":"mairie@lhommaize.fr","telephone":"0549427003"},"horaires":"Du Lundi au Mardi : de 09h00 à 12h00 de 14h00 à 17h00\nLe Mercredi : de 09h00 à 12h00\nDu Jeudi au Vendredi : de 09h00 à 12h00 de 14h00 à 17h00","latitude":46.4323,"longitude":0.595414,"website":"http://www.lhommaize.fr/","hasWebsite":true,"hasHoraires":true,"url":"https://lannuaire.service-public.gouv.fr/nouvelle-aquitaine/vienne/84c8a9d9-a20f-473c-848c-ccc74ee84ed7"}
{"nom":"Liglet","nomNormalise":"liglet","typeCollectivite":"Commune","region":"Nouvelle-Aquitaine","departement":"Vienne","departementCode":"86","adresse":{"street":"1 place de la Mairie","postalCode":"86290","city":"Liglet","country":"France"},"contacts":{"email":"contact@liglet.fr","telephone":"0549916284"},"horaires":"Le Lundi : de 09h00 à 12h30\nLe Mardi : de 09h00 à 17h30\nLe Jeudi : de 09h00 à 17h30\nLe Vendredi : de 09h00 à 12h30","latitude":46.510162,"longitude":1.084215,"website":"http://www.poitou-brenne.fr/","hasWebsite":true,"hasHoraires":true,"url":"https://lannuaire.service-public.gouv.fr/nouvelle-aquitaine/vienne/19eb8135-4a70-4f5a-9b32-b63027bacd0f"}
{"nom":"Ligugé","nomNormalise":"liguge","typeCollectivite":"Commune","region":"Nouvelle-Aquitaine","departement":"Vienne","departementCode":"86","adresse":{"street":"1 place du Révérend-Père-Lambert","postalCode":"86240","city":"Ligugé","country":"France"},"contacts":{"email":"contact@liguge.fr","telephone":"0549552124"},"horaires":"Du Lundi au Mercredi : de 08h30 à 12h00 de 13h45 à 17h30\nLe Jeudi : de 08h30 à 12h00 de 13h45 à 18h00\nLe Vendredi : de 08h30 à 12h00 de 13h45 à 17h00","latitude":46.5175,"longitude":0.330348,"website":"https://www.liguge.fr/","hasWebsite":true,"hasHoraires":true,"url":"https://lannuaire.service-public.gouv.fr/nouvelle-aquitaine/vienne/d5305f22-cfaa-480b-a502-0f12d849189f"}
{"nom":"Linazay","nomNormalise":"linazay","typeCollectivite":"Commune","region":"Nouvelle-Aquitaine","departement":"Vienne","departementCode":"86","adresse":{"street":"5 rue Saint-Hilaire","postalCode":"86400","city":"Linazay","country":"France"},"contacts":{"email":"contact@linazay.fr","telephone":"0549870843"},"horaires":"Le Lundi : de 09h00 à 12h30 de 13h30 à 17h00\nLe Jeudi : de 09h00 à 12h30 de 13h30 à 17h00","latitude":46.16476,"longitude":0.182676,"website":"","hasWebsite":false,"hasHoraires":true,"url":"https://lannuaire.service-public.gouv.fr/nouvelle-aquitaine/vienne/ba37917e-ee2c-467c-9a18-8640111a6365"}
{"nom":"Liniers","nomNormalise":"liniers","typeCollectivite":"Commune","region":"Nouvelle-Aquitaine","departement":"Vienne","departementCode":"86","adresse":{"street":"2 rue des Linarois","postalCode":"86800","city":"Liniers","country":"France"},"contacts":{"email":"contact@liniers.fr","telephone":"0549566412"},"horaires":"Du Lundi au Vendredi : de 08h00 à 12h30\nAccueil possible sur rendez-vous les après-midis.","latitude":46.612328,"longitude":0.5376416,"website":"https://www.liniers.fr/","hasWebsite":true,"hasHoraires":true,"url":"https://lannuaire.service-public.gouv.fr/nouvelle-aquitaine/vienne/6ddf65b4-f612-4304-9857-7578c5d632fd"}
{"nom":"L Isle-Jourdain","nomNormalise":"lislejourdain","typeCollectivite":"Commune","region":"Nouvelle-Aquitaine","departement":"Vienne","departementCode":"86","adresse":{"street":"4 avenue Jean-Augry","postalCode":"86150","city":"L'Isle-Jourdain","country":"France"},"contacts":{"email":"contact@islejourdain86.fr","telephone":"0549487054"},"horaires":"Le Lundi : de 09h30 à 12h00 de 13h00 à 16h00\nLe Mardi : de 08h30 à 12h00 de 13h00 à 16h00\nLe Mercredi : de 08h30 à 12h00\nDu Jeudi au Vendredi : de 08h30 à 12h00 de 13h00 à 16h00","latitude":46.2359,"longitude":0.685438,"website":"https://www.islejourdain86.fr/","hasWebsite":true,"hasHoraires":true,"url":"https://lannuaire.service-public.gouv.fr/nouvelle-aquitaine/vienne/1c308817-af1f-4c4c-bc35-da2d4bf68ff6"}
{"nom":"Lizant","nomNormalise":"lizant","typeCollectivite":"Commune","region":"Nouvelle-Aquitaine","departement":"Vienne","departementCode":"86","adresse":{"street":"1 rue des Écoliers","postalCode":"86400","city":"Lizant","country":"France"},"contacts":{"email":"contact@lizant.fr","telephone":"0549870995"},"horaires":"Du Lundi au Mardi : de 14h00 à 17h00\nDu Jeudi au Vendredi : de 14h00 à 17h00","latitude":46.083168,"longitude":0.2799313,"website":"https://www.lizant.fr/vie-pratique/pages/854-mairie","hasWebsite":true,"hasHoraires":true,"url":"https://lannuaire.service-public.gouv.fr/nouvelle-aquitaine/vienne/33c8273f-a7ec-4cb0-9988-127eda70e980"}
{"nom":"Loudun","nomNormalise":"loudun","typeCollectivite":"Commune","region":"Nouvelle-Aquitaine","departement":"Vienne","departementCode":"86","adresse":{"street":"1 rue Gambetta","postalCode":"86200","city":"Loudun","country":"France"},"contacts":{"email":"mairie@ville-loudun.fr","telephone":"0549981538"},"horaires":"Du Lundi au Jeudi : de 08h30 à 12h00 de 13h30 à 17h15\nLe Vendredi : de 08h30 à 12h00 de 13h30 à 17h00","latitude":47.0098,"longitude":0.081844,"website":"https://ville-loudun.fr/","hasWebsite":true,"hasHoraires":true,"url":"https://lannuaire.service-public.gouv.fr/nouvelle-aquitaine/vienne/d02647fc-df79-4f45-89bf-bb8a0c3f04f0"}
{"nom":"Luchapt","nomNormalise":"luchapt","typeCollectivite":"Commune","region":"Nouvelle-Aquitaine","departement":"Vienne","departementCode":"86","adresse":{"street":"4 Grande-Rue","postalCode":"86430","city":"Luchapt","country":"France"},"contacts":{"email":"contact@luchapt.fr","telephone":"0549487376"},"horaires":"Du Lundi au Jeudi : de 08h45 à 12h30 de 13h30 à 16h00\nLe Vendredi : de 08h45 à 12h30 de 13h30 à 15h00","latitude":46.175964,"longitude":0.780782,"website":"https://luchapt.fr/votre-commune","hasWebsite":true,"hasHoraires":true,"url":"https://lannuaire.service-public.gouv.fr/nouvelle-aquitaine/vienne/04af73a0-f64c-408a-8204-7b7449d3ade2"}
{"nom":"Lusignan","nomNormalise":"lusignan","typeCollectivite":"Commune","region":"Nouvelle-Aquitaine","departement":"Vienne","departementCode":"86","adresse":{"street":"2 place du 8-Mai-1945","postalCode":"86600","city":"Lusignan","country":"France"},"contacts":{"email":"mairie@lusignan.fr","telephone":"0549433148"},"horaires":"Du Lundi au Vendredi : de 08h30 à 12h00 de 14h00 à 17h00\nLe Samedi : de 09h00 à 12h00\n\nAccueil fermé en juillet-août.","latitude":46.435238,"longitude":0.122425,"website":"http://www.lusignan.fr/","hasWebsite":true,"hasHoraires":true,"url":"https://lannuaire.service-public.gouv.fr/nouvelle-aquitaine/vienne/ea6d11f6-c50f-4beb-a7f1-98801f2e7423"}
{"nom":"Lussac-les-Châteaux","nomNormalise":"lussacleschateaux","typeCollectivite":"Commune","region":"Nouvelle-Aquitaine","departement":"Vienne","departementCode":"86","adresse":{"street":"9 route de Montmorillon","postalCode":"86320","city":"Lussac-les-Châteaux","country":"France"},"contacts":{"email":"contact@lussac-les-chateaux.fr","telephone":"0549484033"},"horaires":"Du Lundi au Vendredi : de 09h00 à 12h00 de 14h00 à 17h00\nLe Samedi : de 09h00 à 12h00","latitude":46.4035,"longitude":0.725065,"website":"https://www.lussac-les-chateaux.fr/","hasWebsite":true,"hasHoraires":true,"url":"https://lannuaire.service-public.gouv.fr/nouvelle-aquitaine/vienne/ebac3d37-7377-4d59-848b-5016fc5c7f4b"}
{"nom":"Magné","nomNormalise":"magne","typeCollectivite":"Commune","region":"Nouvelle-Aquitaine","departement":"Vienne","departementCode":"86","adresse":{"street":"11 rue Anatole-de-Briey","postalCode":"86160","city":"Magné","country":"France"},"contacts":{"email":"contact@magne86.fr","telephone":"0549593304"},"horaires":"Le Lundi : de 08h30 à 12h00 de 13h30 à 18h00\nLe Mardi : de 08h30 à 12h00\nDu Jeudi au Vendredi : de 08h30 à 12h00","latitude":46.3572,"longitude":0.39312,"website":"http://www.magne86.fr/","hasWebsite":true,"hasHoraires":true,"url":"https://lannuaire.service-public.gouv.fr/nouvelle-aquitaine/vienne/1a91ae32-1a56-4224-8dc9-99e35509bbb1"}
{"nom":"Maillé","nomNormalise":"maille","typeCollectivite":"Commune","region":"Nouvelle-Aquitaine","departement":"Vienne","departementCode":"86","adresse":{"street":"4 rue de Picard","postalCode":"86190","city":"Maillé","country":"France"},"contacts":{"email":"contact@maille86.fr","telephone":"0549601256"},"horaires":"Le Lundi : de 09h00 à 12h00\nLe Mardi : de 14h00 à 18h30\nLe Jeudi : de 14h00 à 18h30\nLe Vendredi : de 14h00 à 16h30\nLe Samedi : de 09h00 à 12h00","latitude":46.67772,"longitude":0.090555,"website":"","hasWebsite":false,"hasHoraires":true,"url":"https://lannuaire.service-public.gouv.fr/nouvelle-aquitaine/vienne/70e1577c-a441-47ae-b288-95f913d123b4"}
{"nom":"Mairé","nomNormalise":"maire","typeCollectivite":"Commune","region":"Nouvelle-Aquitaine","departement":"Vienne","departementCode":"86","adresse":{"street":"18 place de la Mairie","postalCode":"86270","city":"Mairé","country":"France"},"contacts":{"email":"contact@maire86.fr","telephone":"0549862472"},"horaires":"Du Lundi au Mardi : de 09h00 à 12h00\nLe Jeudi : de 14h00 à 17h30\nLe Vendredi : de 09h00 à 12h00","latitude":46.85854,"longitude":0.7498658,"website":"https://maire86.fr/","hasWebsite":true,"hasHoraires":true,"url":"https://lannuaire.service-public.gouv.fr/nouvelle-aquitaine/vienne/c652bc23-020b-4261-8082-c5a570b8d589"}
{"nom":"Maisonneuve","nomNormalise":"maisonneuve","typeCollectivite":"Commune","region":"Nouvelle-Aquitaine","departement":"Vienne","departementCode":"86","adresse":{"street":"2 Grande-Rue","postalCode":"86170","city":"Maisonneuve","country":"France"},"contacts":{"email":"contact@maisonneuve86.fr","telephone":"0549510783"},"horaires":"Le Lundi : de 13h45 à 17h30\nLe Mardi : de 13h30 à 17h00\nLe Jeudi : de 08h30 à 12h00 de 13h30 à 17h00","latitude":46.722355,"longitude":0.056814,"website":"http://maisonneuve86.free.fr/","hasWebsite":true,"hasHoraires":true,"url":"https://lannuaire.service-public.gouv.fr/nouvelle-aquitaine/vienne/e5025967-4137-42e0-ac2a-00e2e035ada3"}
{"nom":"Marçay","nomNormalise":"marcay","typeCollectivite":"Commune","region":"Nouvelle-Aquitaine","departement":"Vienne","departementCode":"86","adresse":{"street":"12 place de l'Église","postalCode":"86370","city":"Marçay","country":"France"},"contacts":{"email":"contact@marcay.fr","telephone":"0549609563"},"horaires":"Le Lundi : de 08h30 à 12h30 de 14h00 à 17h00\nLe Mardi : de 14h00 à 18h30\nDu Mercredi au Vendredi : de 08h30 à 12h30 de 14h00 à 17h00\nLe Samedi : de 09h30 à 12h00","latitude":46.46285,"longitude":0.23025,"website":"https://www.xn--maray-0ra.fr/","hasWebsite":true,"hasHoraires":true,"url":"https://lannuaire.service-public.gouv.fr/nouvelle-aquitaine/vienne/a3eafce0-dc74-4793-acb5-d77946eaab61"}
{"nom":"Mairie déléguée - Marigny-Brizay","nomNormalise":"mairiedelegueemarignybrizay","typeCollectivite":"Commune","region":"Nouvelle-Aquitaine","departement":"Vienne","departementCode":"86","adresse":{"street":"Marigny-Brizay","postalCode":"86380","city":"Jaunay-Marigny","country":"France"},"contacts":{"email":"info@jaunay-marigny.fr","telephone":"0549520977"},"horaires":"Du Lundi au Vendredi : de 09h00 à 12h00\nLe Samedi : de 09h30 à 12h00\n\nAgence postale ouverte aux horaires d'ouverture de la mairie.","latitude":46.7458,"longitude":0.376935,"website":"http://www.jaunay-marigny.fr/","hasWebsite":true,"hasHoraires":true,"url":"https://lannuaire.service-public.gouv.fr/nouvelle-aquitaine/vienne/f6dff241-278e-49e4-8bee-3b92e49ac359"}
{"nom":"Marigny-Chemereau","nomNormalise":"marignychemereau","typeCollectivite":"Commune","region":"Nouvelle-Aquitaine","departement":"Vienne","departementCode":"86","adresse":{"street":"3 rue du Parc","postalCode":"86370","city":"Marigny-Chemereau","country":"France"},"contacts":{"email":"contact@marigny-chemereau.fr","telephone":"0549434190"},"horaires":"Du Lundi au Mardi : de 08h00 à 12h00 de 13h30 à 16h30\nLe Mercredi : de 09h00 à 12h00 de 13h30 à 17h30\nLe Jeudi : de 08h00 à 12h00 de 13h30 à 16h30\nLe Vendredi : de 08h00 à 12h00","latitude":46.4247,"longitude":0.214129,"website":"https://www.marigny-chemereau.fr/","hasWebsite":true,"hasHoraires":true,"url":"https://lannuaire.service-public.gouv.fr/nouvelle-aquitaine/vienne/a861f2cb-00d0-48d8-bf5c-6c1443ae02ce"}
{"nom":"Marnay","nomNormalise":"marnay","typeCollectivite":"Commune","region":"Nouvelle-Aquitaine","departement":"Vienne","departementCode":"86","adresse":{"street":"2 rue des Écoles","postalCode":"86160","city":"Marnay","country":"France"},"contacts":{"email":"contact@marnay.fr","telephone":"0549594044"},"horaires":"Du Lundi au Vendredi : de 08h30 à 12h00 de 14h00 à 17h30","latitude":46.39585,"longitude":0.341277,"website":"https://www.marnay.fr/","hasWebsite":true,"hasHoraires":true,"url":"https://lannuaire.service-public.gouv.fr/nouvelle-aquitaine/vienne/c8662688-8d24-4409-8610-56839179b745"}
{"nom":"Martaizé","nomNormalise":"martaize","typeCollectivite":"Commune","region":"Nouvelle-Aquitaine","departement":"Vienne","departementCode":"86","adresse":{"street":"10 rue de la Mairie","postalCode":"86330","city":"Martaizé","country":"France"},"contacts":{"email":"contact@martaize.fr","telephone":"0549227332"},"horaires":"Le Lundi : de 13h30 à 17h30\nLe Mardi : de 09h00 à 12h00\nLe Jeudi : de 09h00 à 12h00\nLe Vendredi : de 13h30 à 17h30","latitude":46.91699,"longitude":0.055921,"website":"","hasWebsite":false,"hasHoraires":true,"url":"https://lannuaire.service-public.gouv.fr/nouvelle-aquitaine/vienne/60fa3b7a-90cc-4d1c-bf37-48448c43bdfe"}
{"nom":"Massognes","nomNormalise":"massognes","typeCollectivite":"Commune","region":"Nouvelle-Aquitaine","departement":"Vienne","departementCode":"86","adresse":{"street":"5 rue de la Mairie","postalCode":"86170","city":"Massognes","country":"France"},"contacts":{"email":"contact@massognes.fr","telephone":"0549510062"},"horaires":"Le Lundi : de 10h30 à 12h30\nLe Mercredi : de 08h30 à 12h30 de 14h00 à 17h00\nLe Vendredi : de 14h00 à 17h00","latitude":46.739754,"longitude":0.0615602,"website":"","hasWebsite":false,"hasHoraires":true,"url":"https://lannuaire.service-public.gouv.fr/nouvelle-aquitaine/vienne/fc92fad0-9925-41fb-a60c-581fa03c2dfa"}
{"nom":"Maulay","nomNormalise":"maulay","typeCollectivite":"Commune","region":"Nouvelle-Aquitaine","departement":"Vienne","departementCode":"86","adresse":{"street":"8 rue de la Mairie","postalCode":"86200","city":"Maulay","country":"France"},"contacts":{"email":"communemaulay@orange.fr","telephone":"0549982920"},"horaires":"Le Mardi : de 08h45 à 12h15\nDu Mercredi au Jeudi : de 08h45 à 12h15 de 13h30 à 17h00","latitude":46.97611,"longitude":0.217338,"website":"","hasWebsite":false,"hasHoraires":true,"url":"https://lannuaire.service-public.gouv.fr/nouvelle-aquitaine/vienne/aaf4afc5-e3a0-473e-b6cc-fb58c228fc9c"}
{"nom":"Mauprévoir","nomNormalise":"mauprevoir","typeCollectivite":"Commune","region":"Nouvelle-Aquitaine","departement":"Vienne","departementCode":"86","adresse":{"street":"6 place de la Mairie","postalCode":"86460","city":"Mauprévoir","country":"France"},"contacts":{"email":"contact@mauprevoir.fr","telephone":"0549875212"},"horaires":"Du Lundi au Vendredi : de 09h00 à 12h00 de 13h30 à 17h00","latitude":46.17298,"longitude":0.516859,"website":"https://www.mauprevoir.fr/","hasWebsite":true,"hasHoraires":true,"url":"https://lannuaire.service-public.gouv.fr/nouvelle-aquitaine/vienne/5f86b5eb-baee-41d9-b464-6da2f99ac5a4"}
{"nom":"Mazerolles","nomNormalise":"mazerolles","typeCollectivite":"Commune","region":"Nouvelle-Aquitaine","departement":"Vienne","departementCode":"86","adresse":{"street":"48 route de Bouresse","postalCode":"86320","city":"Mazerolles","country":"France"},"contacts":{"email":"mairie@mazerolles.fr","telephone":"0549484192"},"horaires":"Du Lundi au Vendredi : de 08h30 à 12h30","latitude":46.4052,"longitude":0.690345,"website":"https://mazerolles.fr/fr/","hasWebsite":true,"hasHoraires":true,"url":"https://lannuaire.service-public.gouv.fr/nouvelle-aquitaine/vienne/40e2c173-bbab-4905-b8fe-9ff73e7ce6d6"}
{"nom":"Mazeuil","nomNormalise":"mazeuil","typeCollectivite":"Commune","region":"Nouvelle-Aquitaine","departement":"Vienne","departementCode":"86","adresse":{"street":"1 bis place de l'Église","postalCode":"86110","city":"Mazeuil","country":"France"},"contacts":{"email":"contact@mazeuil.fr","telephone":"0549600011"},"horaires":"Le Lundi : de 09h00 à 12h45 de 14h00 à 17h30\nLe Mercredi : de 14h00 à 17h30\nLe Jeudi : de 09h00 à 12h45 de 14h00 à 17h30","latitude":46.7867,"longitude":0.083131,"website":"","hasWebsite":false,"hasHoraires":true,"url":"https://lannuaire.service-public.gouv.fr/nouvelle-aquitaine/vienne/61a978db-461d-4f85-b555-a52f6f25d4c1"}
{"nom":"Messemé","nomNormalise":"messeme","typeCollectivite":"Commune","region":"Nouvelle-Aquitaine","departement":"Vienne","departementCode":"86","adresse":{"street":"5 rue de l'Église","postalCode":"86200","city":"Messemé","country":"France"},"contacts":{"email":"contact@messeme.fr","telephone":"0549982818"},"horaires":"Le Lundi : de 09h00 à 12h30 de 13h30 à 17h00\nLe Mercredi : de 09h00 à 12h30 de 13h30 à 17h00","latitude":47.010147,"longitude":0.177841,"website":"https://www.messeme.fr/","hasWebsite":true,"hasHoraires":true,"url":"https://lannuaire.service-public.gouv.fr/nouvelle-aquitaine/vienne/77fffffa-d9d4-4c3f-bde9-d442a2d08eb3"}
{"nom":"Mignaloux-Beauvoir","nomNormalise":"mignalouxbeauvoir","typeCollectivite":"Commune","region":"Nouvelle-Aquitaine","departement":"Vienne","departementCode":"86","adresse":{"street":"268 route de la Gare","postalCode":"86550","city":"Mignaloux-Beauvoir","country":"France"},"contacts":{"email":"mairie@ville-mignaloux-beauvoir.fr","telephone":"0549467207"},"horaires":"Du Lundi au Vendredi : de 08h30 à 12h00 de 14h00 à 17h30","latitude":46.5406,"longitude":0.414983,"website":"https://www.ville-mignaloux-beauvoir.fr/","hasWebsite":true,"hasHoraires":true,"url":"https://lannuaire.service-public.gouv.fr/nouvelle-aquitaine/vienne/81cedc73-2493-4964-a12f-bf540d5efdb9"}
{"nom":"Migné-Auxances","nomNormalise":"migneauxances","typeCollectivite":"Commune","region":"Nouvelle-Aquitaine","departement":"Vienne","departementCode":"86","adresse":{"street":"1 rue du 8-Mai-1945","postalCode":"86440","city":"Migné-Auxances","country":"France"},"contacts":{"email":"contact@migne-auxances.fr","telephone":"0549517102"},"horaires":"Du Lundi au Vendredi : de 08h30 à 12h00 de 13h30 à 17h00","latitude":46.6268,"longitude":0.311115,"website":"https://www.migne-auxances.fr/","hasWebsite":true,"hasHoraires":true,"url":"https://lannuaire.service-public.gouv.fr/nouvelle-aquitaine/vienne/0356a92d-686e-4611-b792-47b9a7387d83"}
{"nom":"Millac","nomNormalise":"millac","typeCollectivite":"Commune","region":"Nouvelle-Aquitaine","departement":"Vienne","departementCode":"86","adresse":{"street":"18 rue des Cabanes","postalCode":"86150","city":"Millac","country":"France"},"contacts":{"email":"contact@millac.fr","telephone":"0549487504"},"horaires":"Le Lundi : de 08h30 à 12h00 de 13h30 à 17h00\nLe Mardi : de 08h30 à 12h00\nLe Mercredi : de 08h30 à 12h00 de 13h30 à 17h00\nDu Jeudi au Vendredi : de 08h30 à 12h00","latitude":46.1901,"longitude":0.688584,"website":"https://www.millac.fr/","hasWebsite":true,"hasHoraires":true,"url":"https://lannuaire.service-public.gouv.fr/nouvelle-aquitaine/vienne/0a832418-12ec-45c4-96a0-03eb389033ea"}
{"nom":"Mirebeau","nomNormalise":"mirebeau","typeCollectivite":"Commune","region":"Nouvelle-Aquitaine","departement":"Vienne","departementCode":"86","adresse":{"street":"1 place de la République","postalCode":"86110","city":"Mirebeau","country":"France"},"contacts":{"email":"contact@mirebeau.fr","telephone":"0549504053"},"horaires":"Du Mardi au Vendredi : de 09h00 à 12h15 de 13h30 à 17h15","latitude":46.7862,"longitude":0.181329,"website":"https://www.mirebeau.fr/","hasWebsite":true,"hasHoraires":true,"url":"https://lannuaire.service-public.gouv.fr/nouvelle-aquitaine/vienne/81fd0c2a-0183-4a73-ba51-6b891b6dbce3"}
{"nom":"Moncontour","nomNormalise":"moncontour","typeCollectivite":"Commune","region":"Nouvelle-Aquitaine","departement":"Vienne","departementCode":"86","adresse":{"street":"1 place Louise-Lesage","postalCode":"86330","city":"Moncontour","country":"France"},"contacts":{"email":"contact@moncontour86.fr","telephone":"0549989129"},"horaires":"Du Lundi au Vendredi : de 14h00 à 17h00","latitude":46.881817,"longitude":-0.017102,"website":"http://www.moncontour-de-poitou.fr/","hasWebsite":true,"hasHoraires":true,"url":"https://lannuaire.service-public.gouv.fr/nouvelle-aquitaine/vienne/31c6c595-a405-4331-a66a-58795a981a30"}
{"nom":"Mondion","nomNormalise":"mondion","typeCollectivite":"Commune","region":"Nouvelle-Aquitaine","departement":"Vienne","departementCode":"86","adresse":{"street":"1 rue du Frêne","postalCode":"86230","city":"Mondion","country":"France"},"contacts":{"email":"mairie@mondion86.fr","telephone":"0549860552"},"horaires":"Le Lundi : de 09h00 à 13h00\nLe Jeudi : de 09h00 à 13h00","latitude":46.938244,"longitude":0.485187,"website":"","hasWebsite":false,"hasHoraires":true,"url":"https://lannuaire.service-public.gouv.fr/nouvelle-aquitaine/vienne/a555a307-0ff6-485a-880c-fbd37c9025b9"}
{"nom":"Montamisé","nomNormalise":"montamise","typeCollectivite":"Commune","region":"Nouvelle-Aquitaine","departement":"Vienne","departementCode":"86","adresse":{"street":"11 place de la Mairie","postalCode":"86360","city":"Montamisé","country":"France"},"contacts":{"email":"mairie@montamise.fr","telephone":"0549449019"},"horaires":"Du Lundi au Mercredi : de 09h00 à 12h30 de 14h00 à 18h00\nLe Jeudi : de 13h30 à 18h00\nLe Vendredi : de 09h00 à 12h30 de 14h00 à 18h00\nLe Samedi : de 10h00 à 12h00\n\nAccueil fermé en juillet-août.","latitude":46.620586,"longitude":0.421857,"website":"https://www.montamise.fr/","hasWebsite":true,"hasHoraires":true,"url":"https://lannuaire.service-public.gouv.fr/nouvelle-aquitaine/vienne/65512429-5f0f-4dfe-ac6e-94118abe070b"}
{"nom":"Monthoiron","nomNormalise":"monthoiron","typeCollectivite":"Commune","region":"Nouvelle-Aquitaine","departement":"Vienne","departementCode":"86","adresse":{"street":"6 rue de la Garenne","postalCode":"86210","city":"Monthoiron","country":"France"},"contacts":{"email":"mairie@monthoiron.fr","telephone":"0549936301"},"horaires":"Du Lundi au Vendredi : de 09h00 à 12h00\nLe Samedi : de 09h00 à 12h00\n\npermanence des élus uniquement","latitude":46.7357,"longitude":0.613296,"website":"http://www.monthoiron.fr/","hasWebsite":true,"hasHoraires":true,"url":"https://lannuaire.service-public.gouv.fr/nouvelle-aquitaine/vienne/be5215c1-4751-4bea-9d1d-1ae8eb5e4997"}
{"nom":"Montmorillon","nomNormalise":"montmorillon","typeCollectivite":"Commune","region":"Nouvelle-Aquitaine","departement":"Vienne","departementCode":"86","adresse":{"street":"15 rue du Four","postalCode":"86500","city":"Montmorillon","country":"France"},"contacts":{"email":"accueil@ville-montmorillon.fr","telephone":"0549911399"},"horaires":"Du Lundi au Vendredi : de 08h15 à 12h00 de 13h30 à 17h30","latitude":46.4249,"longitude":0.868048,"website":"https://www.montmorillon.fr/","hasWebsite":true,"hasHoraires":true,"url":"https://lannuaire.service-public.gouv.fr/nouvelle-aquitaine/vienne/977c0d63-2084-4107-a138-2a3ed06fb3bf"}
{"nom":"Mairie déléguée - Montreuil-Bonnin","nomNormalise":"mairiedelegueemontreuilbonnin","typeCollectivite":"Commune","region":"Nouvelle-Aquitaine","departement":"Vienne","departementCode":"86","adresse":{"street":"Montreuil-Bonnin","postalCode":"86470","city":"Boivre-la-Vallée","country":"France"},"contacts":{"email":"contact@boivrelavallee.fr","telephone":"0549578911"},"horaires":"Le Mardi : de 09h00 à 13h00\nLe Mercredi : de 13h30 à 16h00\nLe Vendredi : de 09h00 à 12h30\nFERMÉE TEMPORAIREMENT Des permanences d'accueil du public seront possibles mais uniquement sur rendez-vous. Par téléphone au 05 49 57 81 05 / courriel : contact@boivrelavallee.fr","latitude":46.55035,"longitude":0.140338,"website":"https://www.boivrelavallee.eu/mairies-de-boivre-la-vallee/","hasWebsite":true,"hasHoraires":true,"url":"https://lannuaire.service-public.gouv.fr/nouvelle-aquitaine/vienne/a3ddf5fd-0775-4ab1-92ba-bd50c54b06b6"}
{"nom":"Monts-sur-Guesnes","nomNormalise":"montssurguesnes","typeCollectivite":"Commune","region":"Nouvelle-Aquitaine","departement":"Vienne","departementCode":"86","adresse":{"street":"12 place Frézeau-de-la-Frézellière","postalCode":"86420","city":"Monts-sur-Guesnes","country":"France"},"contacts":{"email":"contact@montssurguesnes.fr","telephone":"0549228270"},"horaires":"Du Lundi au Vendredi : de 09h00 à 12h30","latitude":46.9192,"longitude":0.211009,"website":"https://www.montssurguesnes.fr/","hasWebsite":true,"hasHoraires":true,"url":"https://lannuaire.service-public.gouv.fr/nouvelle-aquitaine/vienne/3e06c98d-9e75-41e9-8ab2-2a2123dff38d"}
{"nom":"Morton","nomNormalise":"morton","typeCollectivite":"Commune","region":"Nouvelle-Aquitaine","departement":"Vienne","departementCode":"86","adresse":{"street":"1 place Jean-Claude-Aubineau","postalCode":"86120","city":"Morton","country":"France"},"contacts":{"email":"mairie.morton@wanadoo.fr","telephone":"0549229694"},"horaires":"Le Lundi : de 08h30 à 12h30\nLe Mardi : de 14h00 à 17h30\nLe Jeudi : de 14h00 à 17h30\nLe Vendredi : de 08h30 à 12h30","latitude":47.1067,"longitude":-0.019667,"website":"","hasWebsite":false,"hasHoraires":true,"url":"https://lannuaire.service-public.gouv.fr/nouvelle-aquitaine/vienne/c6bcca47-0fc6-40ec-9ea5-d5b58687227a"}
{"nom":"Moulismes","nomNormalise":"moulismes","typeCollectivite":"Commune","region":"Nouvelle-Aquitaine","departement":"Vienne","departementCode":"86","adresse":{"street":"27 route Nationale","postalCode":"86500","city":"Moulismes","country":"France"},"contacts":{"email":"contact@moulismes.fr","telephone":"0549919064"},"horaires":"Le Lundi : de 09h00 à 12h00 de 14h00 à 17h30\nLe Mardi : de 09h00 à 12h00\nLe Mercredi : de 09h00 à 12h00 de 14h00 à 17h30\nLe Jeudi : de 09h00 à 12h00\nLe Vendredi : de 09h00 à 12h00 de 14h00 à 16h30","latitude":46.329647,"longitude":0.813063,"website":"https://www.moulismes.com/","hasWebsite":true,"hasHoraires":true,"url":"https://lannuaire.service-public.gouv.fr/nouvelle-aquitaine/vienne/f271ffa2-70f8-45a9-a4d0-81fe7c283c75"}
{"nom":"Moussac-sur-Vienne","nomNormalise":"moussacsurvienne","typeCollectivite":"Commune","region":"Nouvelle-Aquitaine","departement":"Vienne","departementCode":"86","adresse":{"street":"2 place de la Liberté","postalCode":"86150","city":"Moussac-sur-Vienne","country":"France"},"contacts":{"email":"contact@moussac-sur-vienne.fr","telephone":"0549487558"},"horaires":"Le Lundi : de 09h00 à 12h00 de 13h30 à 17h00\nDu Mardi au Mercredi : de 09h00 à 12h30\nLe Jeudi : de 09h00 à 12h00 de 13h30 à 17h00\nLe Vendredi : de 09h00 à 12h30","latitude":46.28154,"longitude":0.686837,"website":"https://www.moussac-sur-vienne.fr/","hasWebsite":true,"hasHoraires":true,"url":"https://lannuaire.service-public.gouv.fr/nouvelle-aquitaine/vienne/1a4da6af-5f12-4e3c-8c3a-baabe261b01d"}
{"nom":"Mouterre-Silly","nomNormalise":"mouterresilly","typeCollectivite":"Commune","region":"Nouvelle-Aquitaine","departement":"Vienne","departementCode":"86","adresse":{"street":"12 rue Saint-Maximin","postalCode":"86200","city":"Mouterre-Silly","country":"France"},"contacts":{"email":"contact@mouterresilly.fr","telephone":"0549980962"},"horaires":"Le Lundi : de 08h00 à 12h00 de 13h00 à 17h00\nDu Mercredi au Jeudi : de 08h00 à 12h00\nLe Vendredi : de 13h00 à 17h00","latitude":46.9743,"longitude":0.047156,"website":"https://www.mouterresilly.fr/","hasWebsite":true,"hasHoraires":true,"url":"https://lannuaire.service-public.gouv.fr/nouvelle-aquitaine/vienne/af09a759-f2f7-45be-83ee-5fbd25f3a7cc"}
{"nom":"Mouterre-sur-Blourde","nomNormalise":"mouterresurblourde","typeCollectivite":"Commune","region":"Nouvelle-Aquitaine","departement":"Vienne","departementCode":"86","adresse":{"street":"4 rue des Lilas","postalCode":"86430","city":"Mouterre-sur-Blourde","country":"France"},"contacts":{"email":"contact@mouterre-sur-blourde.fr","telephone":"0549487602"},"horaires":"Du Lundi au Mardi : de 14h00 à 17h30\nDu Jeudi au Vendredi : de 14h00 à 17h30","latitude":46.202522,"longitude":0.75441,"website":"","hasWebsite":false,"hasHoraires":true,"url":"https://lannuaire.service-public.gouv.fr/nouvelle-aquitaine/vienne/29abc6c8-77d5-4bc0-a2cc-42f6a510d6ff"}
{"nom":"Naintré","nomNormalise":"naintre","typeCollectivite":"Commune","region":"Nouvelle-Aquitaine","departement":"Vienne","departementCode":"86","adresse":{"street":"19 place Gambetta","postalCode":"86530","city":"Naintré","country":"France"},"contacts":{"email":"mairie@naintre.fr","telephone":"0549900365"},"horaires":"Du Lundi au Vendredi : de 08h30 à 12h00 de 13h30 à 17h00","latitude":46.76283,"longitude":0.479534,"website":"https://www.naintre.fr/","hasWebsite":true,"hasHoraires":true,"url":"https://lannuaire.service-public.gouv.fr/nouvelle-aquitaine/vienne/fcdeb51d-7582-4075-b06e-a1f7e1186209"}
{"nom":"Nalliers","nomNormalise":"nalliers","typeCollectivite":"Commune","region":"Nouvelle-Aquitaine","departement":"Vienne","departementCode":"86","adresse":{"street":"5 rue des Écoles","postalCode":"86310","city":"Nalliers","country":"France"},"contacts":{"email":"contact@nalliers86.fr","telephone":"0549480395"},"horaires":"Le Lundi : de 08h00 à 12h00 de 13h15 à 17h15\nDu Jeudi au Vendredi : de 08h00 à 12h00 de 13h15 à 17h00","latitude":46.60186,"longitude":0.866695,"website":"","hasWebsite":false,"hasHoraires":true,"url":"https://lannuaire.service-public.gouv.fr/nouvelle-aquitaine/vienne/c04612ee-7cd4-4c03-8a17-17e9d0f8ea97"}
{"nom":"Nérignac","nomNormalise":"nerignac","typeCollectivite":"Commune","region":"Nouvelle-Aquitaine","departement":"Vienne","departementCode":"86","adresse":{"street":"15 a rue de la Mairie","postalCode":"86150","city":"Nérignac","country":"France"},"contacts":{"email":"contact@nerignac.fr","telephone":"0549484774"},"horaires":"Le Lundi : de 08h00 à 12h30\nLe Mardi : de 08h30 à 12h30 de 13h00 à 17h00\nLe Mercredi : de 08h00 à 12h30\nLe Jeudi : de 08h00 à 12h00\nLe Vendredi : de 08h00 à 12h30","latitude":46.29468,"longitude":0.727205,"website":"","hasWebsite":false,"hasHoraires":true,"url":"https://lannuaire.service-public.gouv.fr/nouvelle-aquitaine/vienne/a24447d6-c781-43d3-a4f7-dc45fd075081"}
{"nom":"Neuville-de-Poitou","nomNormalise":"neuvilledepoitou","typeCollectivite":"Commune","region":"Nouvelle-Aquitaine","departement":"Vienne","departementCode":"86","adresse":{"street":"1 place Joffre","postalCode":"86170","city":"Neuville-de-Poitou","country":"France"},"contacts":{"email":"accueil@neuvilledepoitou.fr","telephone":"0549512044"},"horaires":"Le Lundi : de 13h30 à 17h00\nLe Mardi : de 08h30 à 12h00\nLe Mercredi : de 08h30 à 12h00 de 13h30 à 17h00\nLe Jeudi : de 08h30 à 12h00 de 13h30 à 19h00\nLe Vendredi : de 08h30 à 12h00 de 13h30 à 17h00","latitude":46.68498,"longitude":0.244749,"website":"https://www.neuville-de-poitou.com/","hasWebsite":true,"hasHoraires":true,"url":"https://lannuaire.service-public.gouv.fr/nouvelle-aquitaine/vienne/2f989b04-376e-4ea6-9855-68a2f79bd8e2"}
{"nom":"Nieuil-l Espoir","nomNormalise":"nieuillespoir","typeCollectivite":"Commune","region":"Nouvelle-Aquitaine","departement":"Vienne","departementCode":"86","adresse":{"street":"Place de l'Eglise","postalCode":"86340","city":"Nieuil-l'Espoir","country":"France"},"contacts":{"email":"contact@nieuil-espoir.com","telephone":"0549426504"},"horaires":"Du Lundi au Vendredi : de 09h00 à 12h00 de 14h00 à 18h00","latitude":46.482548,"longitude":0.454305,"website":"http://www.nieuil-espoir.com/","hasWebsite":true,"hasHoraires":true,"url":"https://lannuaire.service-public.gouv.fr/nouvelle-aquitaine/vienne/4d901a28-755c-45d5-b4ee-c7bd4c986b6a"}
{"nom":"Nouaillé-Maupertuis","nomNormalise":"nouaillemaupertuis","typeCollectivite":"Commune","region":"Nouvelle-Aquitaine","departement":"Vienne","departementCode":"86","adresse":{"street":"32-34 rue de l'Abbaye","postalCode":"86340","city":"Nouaillé-Maupertuis","country":"France"},"contacts":{"email":"elus@nouaille.com","telephone":"0549551616"},"horaires":"Le Lundi : de 10h00 à 12h00 de 13h00 à 18h00\nLe Mardi : de 08h00 à 12h00\nLe Mercredi : de 08h00 à 12h00 de 14h00 à 18h00\nLe Jeudi : de 08h00 à 12h00 de 14h00 à 17h00\nLe Vendredi : de 08h00 à 16h00\n\nsans interrupion\nLe Samedi : de 10h00 à 12h00\n\nPermanence des élus uniquement.","latitude":46.510822,"longitude":0.412633,"website":"https://www.nouaille.com/","hasWebsite":true,"hasHoraires":true,"url":"https://lannuaire.service-public.gouv.fr/nouvelle-aquitaine/vienne/591020f8-0851-44d2-873c-0a7fe1d04045"}
{"nom":"Nueil-sous-Faye","nomNormalise":"nueilsousfaye","typeCollectivite":"Commune","region":"Nouvelle-Aquitaine","departement":"Vienne","departementCode":"86","adresse":{"street":"Place Saint-Georges","postalCode":"86200","city":"Nueil-sous-Faye","country":"France"},"contacts":{"email":"contact@nueilsousfaye.fr","telephone":"0549225067"},"horaires":"Le Lundi : de 13h30 à 17h30\nLe Mercredi : de 08h00 à 12h00\nLe Jeudi : de 08h00 à 12h00 de 14h00 à 18h00","latitude":46.979156,"longitude":0.281206,"website":"https://www.appli-intramuros.com/","hasWebsite":true,"hasHoraires":true,"url":"https://lannuaire.service-public.gouv.fr/nouvelle-aquitaine/vienne/0f88ac5f-e717-405a-b5df-ca8497018175"}
{"nom":"Orches","nomNormalise":"orches","typeCollectivite":"Commune","region":"Nouvelle-Aquitaine","departement":"Vienne","departementCode":"86","adresse":{"street":"14 rue des Érables","postalCode":"86230","city":"Orches","country":"France"},"contacts":{"email":"orches.mairie@wanadoo.fr","telephone":"0549907176"},"horaires":"Le Lundi : de 09h30 à 12h15\nDu Mercredi au Vendredi : de 09h30 à 12h15","latitude":46.88256,"longitude":0.319391,"website":"https://www.orches.fr/","hasWebsite":true,"hasHoraires":true,"url":"https://lannuaire.service-public.gouv.fr/nouvelle-aquitaine/vienne/754b51c0-8167-4f36-99d1-1244b65e1f02"}
{"nom":"Ouzilly","nomNormalise":"ouzilly","typeCollectivite":"Commune","region":"Nouvelle-Aquitaine","departement":"Vienne","departementCode":"86","adresse":{"street":"1 place de l'Église","postalCode":"86380","city":"Ouzilly","country":"France"},"contacts":{"email":"ouzilly@orange.fr","telephone":"0549907415"},"horaires":"Du Lundi au Mercredi : de 09h00 à 12h30 de 14h00 à 18h00\nLe Jeudi : de 14h00 à 18h00\nLe Vendredi : de 09h00 à 12h30 de 14h00 à 15h30","latitude":46.775703,"longitude":0.362254,"website":"http://www.ouzilly.fr/","hasWebsite":true,"hasHoraires":true,"url":"https://lannuaire.service-public.gouv.fr/nouvelle-aquitaine/vienne/9b585887-35a7-458e-a22e-709cb91eb48c"}
{"nom":"Oyré","nomNormalise":"oyre","typeCollectivite":"Commune","region":"Nouvelle-Aquitaine","departement":"Vienne","departementCode":"86","adresse":{"street":"11 route de Saint-Sauveur","postalCode":"86220","city":"Oyré Cedex","country":"France"},"contacts":{"email":"contact@oyre.fr","telephone":"0549026018"},"horaires":"Du Lundi au Mardi : de 08h00 à 12h00\nLe Mercredi : de 08h00 à 12h00 de 13h30 à 17h30\nLe Jeudi : de 08h00 à 12h00\nLe Vendredi : de 08h00 à 12h00 de 13h30 à 16h30","latitude":46.8716,"longitude":0.6283149,"website":"https://www.mairie-oyre.fr/","hasWebsite":true,"hasHoraires":true,"url":"https://lannuaire.service-public.gouv.fr/nouvelle-aquitaine/vienne/892a6251-3e35-4221-a1ac-01dda28e1e35"}
{"nom":"Paizay-le-Sec","nomNormalise":"paizaylesec","typeCollectivite":"Commune","region":"Nouvelle-Aquitaine","departement":"Vienne","departementCode":"86","adresse":{"street":"1 rue de la Mairie","postalCode":"86300","city":"Paizay-le-Sec","country":"France"},"contacts":{"email":"contact@paizay-le-sec.fr","telephone":"0549463342"},"horaires":"Le Lundi : de 08h00 à 12h30 de 13h30 à 18h00\nLe Jeudi : de 08h00 à 12h30 de 13h30 à 18h00\nLe Vendredi : de 08h00 à 12h30 de 13h30 à 17h00","latitude":46.577652,"longitude":0.7768577,"website":"","hasWebsite":false,"hasHoraires":true,"url":"https://lannuaire.service-public.gouv.fr/nouvelle-aquitaine/vienne/8fc5109c-f88d-4452-8383-600a722a5ab8"}
{"nom":"Payré","nomNormalise":"payre","typeCollectivite":"Commune","region":"Nouvelle-Aquitaine","departement":"Vienne","departementCode":"86","adresse":{"street":"Valence en Poitou","postalCode":"86700","city":"Payré","country":"France"},"contacts":{"email":"payre@valenceenpoitou.fr","telephone":"0549424213"},"horaires":"Du Mardi au Samedi : de 08h30 à 12h30","latitude":46.340363,"longitude":0.211289,"website":"https://www.valenceenpoitou.fr/vie-municipale/communes-deleguees/642-actu01","hasWebsite":true,"hasHoraires":true,"url":"https://lannuaire.service-public.gouv.fr/nouvelle-aquitaine/vienne/1bcdd7ea-043a-4589-8e35-963db9760485"}
{"nom":"Payroux","nomNormalise":"payroux","typeCollectivite":"Commune","region":"Nouvelle-Aquitaine","departement":"Vienne","departementCode":"86","adresse":{"street":"12 place du Général-de-Gaulle","postalCode":"86350","city":"Payroux","country":"France"},"contacts":{"email":"contact@payroux.fr","telephone":"0549878209"},"horaires":"Du Lundi au Vendredi : de 09h00 à 12h45","latitude":46.2776,"longitude":0.52926,"website":"http://payroux.nouvelles.free.fr/","hasWebsite":true,"hasHoraires":true,"url":"https://lannuaire.service-public.gouv.fr/nouvelle-aquitaine/vienne/0e6f0848-f2e8-4b1d-bc4c-6e8031ec00b2"}
{"nom":"Persac","nomNormalise":"persac","typeCollectivite":"Commune","region":"Nouvelle-Aquitaine","departement":"Vienne","departementCode":"86","adresse":{"street":"3 Grande-Rue","postalCode":"86320","city":"Persac","country":"France"},"contacts":{"email":"contact@persac.fr","telephone":"0549484715"},"horaires":"Du Lundi au Vendredi : de 09h00 à 12h00\nLe Samedi : de 09h30 à 11h30","latitude":46.343292,"longitude":0.704987,"website":"https://persac.fr/","hasWebsite":true,"hasHoraires":true,"url":"https://lannuaire.service-public.gouv.fr/nouvelle-aquitaine/vienne/7b69e978-362e-499f-974a-37545674d11e"}
{"nom":"Pindray","nomNormalise":"pindray","typeCollectivite":"Commune","region":"Nouvelle-Aquitaine","departement":"Vienne","departementCode":"86","adresse":{"street":"2 rue du Lavoir","postalCode":"86500","city":"Pindray","country":"France"},"contacts":{"email":"contact@pindray.fr","telephone":"0549910559"},"horaires":"Du Lundi au Mardi : de 08h00 à 12h30 de 14h00 à 17h30\nLe Mercredi : de 08h00 à 12h30 de 14h00 à 16h00\nLe Jeudi : de 08h00 à 12h30 de 14h00 à 17h30\nLe Vendredi : de 08h00 à 12h30","latitude":46.491055,"longitude":0.810534,"website":"","hasWebsite":false,"hasHoraires":true,"url":"https://lannuaire.service-public.gouv.fr/nouvelle-aquitaine/vienne/9d49d1eb-5aa0-40c1-99f3-770d9ed422bf"}
{"nom":"Plaisance","nomNormalise":"plaisance","typeCollectivite":"Commune","region":"Nouvelle-Aquitaine","departement":"Vienne","departementCode":"86","adresse":{"street":"5 route de Moulismes","postalCode":"86500","city":"Plaisance","country":"France"},"contacts":{"email":"contact@plaisance86.fr","telephone":"0549919002"},"horaires":"Le Lundi : de 09h00 à 12h00 de 14h00 à 17h30\nLe Mardi : de 09h00 à 12h00\nLe Mercredi : de 09h00 à 12h00 de 14h00 à 17h30\nDu Jeudi au Vendredi : de 09h00 à 12h00","latitude":46.333466,"longitude":0.87298,"website":"","hasWebsite":false,"hasHoraires":true,"url":"https://lannuaire.service-public.gouv.fr/nouvelle-aquitaine/vienne/5a023118-5ff5-48e5-9d3d-8c7033d10b72"}
{"nom":"Pleumartin","nomNormalise":"pleumartin","typeCollectivite":"Commune","region":"Nouvelle-Aquitaine","departement":"Vienne","departementCode":"86","adresse":{"street":"2 avenue Jourde","postalCode":"86450","city":"Pleumartin","country":"France"},"contacts":{"email":"contact@pleumartin.fr","telephone":"0549865010"},"horaires":"Du Lundi au Mercredi : de 09h00 à 12h00 de 14h00 à 18h00\nLe Jeudi : de 09h00 à 12h00\nLe Vendredi : de 09h00 à 12h00 de 14h00 à 18h00","latitude":46.736027,"longitude":0.765533,"website":"https://pleumartin.fr/","hasWebsite":true,"hasHoraires":true,"url":"https://lannuaire.service-public.gouv.fr/nouvelle-aquitaine/vienne/dd10aa90-c225-444d-b4dc-ab96412cd739"}
{"nom":"Poitiers","nomNormalise":"poitiers","typeCollectivite":"Commune","region":"Nouvelle-Aquitaine","departement":"Vienne","departementCode":"86","adresse":{"street":"15 place du Maréchal-Leclerc","postalCode":"86000","city":"Poitiers","country":"France"},"contacts":{"email":"contact@poitiers.fr","telephone":"0549523535"},"horaires":"Du Lundi au Vendredi : de 08h30 à 12h30 de 13h30 à 17h30","latitude":46.58021,"longitude":0.3407802,"website":"https://www.poitiers.fr/","hasWebsite":true,"hasHoraires":true,"url":"https://lannuaire.service-public.gouv.fr/nouvelle-aquitaine/vienne/ecac978f-0f18-468c-9231-f7a489ea6441"}
{"nom":"Port-de-Piles","nomNormalise":"portdepiles","typeCollectivite":"Commune","region":"Nouvelle-Aquitaine","departement":"Vienne","departementCode":"86","adresse":{"street":"2 rue de la Mairie","postalCode":"86220","city":"Port-de-Piles","country":"France"},"contacts":{"email":"mairie@port-de-piles.fr","telephone":"0549856307"},"horaires":"Du Lundi au Mardi : de 09h00 à 12h00 de 14h00 à 18h00\nLe Mercredi : de 09h00 à 12h00\nLe Jeudi : de 09h00 à 12h00 de 14h00 à 18h00","latitude":47.0035,"longitude":0.5992,"website":"","hasWebsite":false,"hasHoraires":true,"url":"https://lannuaire.service-public.gouv.fr/nouvelle-aquitaine/vienne/709927b4-35ce-4cb4-ad33-c1229eca40b1"}
{"nom":"Pouançay","nomNormalise":"pouancay","typeCollectivite":"Commune","region":"Nouvelle-Aquitaine","departement":"Vienne","departementCode":"86","adresse":{"street":"6 rue Jeanne-Ogeron","postalCode":"86120","city":"Pouançay","country":"France"},"contacts":{"email":"contact@pouancay.fr","telephone":"0549229598"},"horaires":"Le Lundi : de 08h30 à 12h30 de 13h30 à 17h30\nLe Jeudi : de 08h30 à 12h30 de 13h30 à 17h30","latitude":47.07983,"longitude":-0.072991,"website":"","hasWebsite":false,"hasHoraires":true,"url":"https://lannuaire.service-public.gouv.fr/nouvelle-aquitaine/vienne/6dfb05b3-9938-4be2-93bc-31ffb8729d9f"}
{"nom":"Pouant","nomNormalise":"pouant","typeCollectivite":"Commune","region":"Nouvelle-Aquitaine","departement":"Vienne","departementCode":"86","adresse":{"street":"2 place Jean-Catin","postalCode":"86200","city":"Pouant","country":"France"},"contacts":{"email":"contact@pouant.fr","telephone":"0549225062"},"horaires":"Du Mardi au Mercredi : de 13h30 à 18h00\nLe Vendredi : de 08h00 à 12h30","latitude":47.004734,"longitude":0.271112,"website":"https://www.appli-intramuros.com/","hasWebsite":true,"hasHoraires":true,"url":"https://lannuaire.service-public.gouv.fr/nouvelle-aquitaine/vienne/8f452f9b-52f3-4fc7-97e6-331eef42848f"}
{"nom":"Pouillé","nomNormalise":"pouille","typeCollectivite":"Commune","region":"Nouvelle-Aquitaine","departement":"Vienne","departementCode":"86","adresse":{"street":"Route de Jardres","postalCode":"86800","city":"Pouillé","country":"France"},"contacts":{"email":"contact@pouille86.fr","telephone":"0549568195"},"horaires":"Le Lundi : de 08h30 à 12h00\nLe Mercredi : de 14h00 à 18h30\nLe Vendredi : de 08h30 à 12h00","latitude":46.545166,"longitude":0.575452,"website":"https://www.commune-de-pouille.fr/","hasWebsite":true,"hasHoraires":true,"url":"https://lannuaire.service-public.gouv.fr/nouvelle-aquitaine/vienne/2a959071-335c-40ea-97b8-93475009a718"}
{"nom":"Pressac","nomNormalise":"pressac","typeCollectivite":"Commune","region":"Nouvelle-Aquitaine","departement":"Vienne","departementCode":"86","adresse":{"street":"43 rue du Bois-de-la-Jarte","postalCode":"86460","city":"Pressac","country":"France"},"contacts":{"email":"contact@pressac.fr","telephone":"0549485116"},"horaires":"Du Lundi au Vendredi : de 09h00 à 12h30 de 14h30 à 18h00\nMonsieur le Maire reçoit en Mairie le samedi matin, mais uniquement sur rendez-vous.","latitude":46.11593,"longitude":0.566704,"website":"","hasWebsite":false,"hasHoraires":true,"url":"https://lannuaire.service-public.gouv.fr/nouvelle-aquitaine/vienne/0d1451a2-9750-4490-9638-62769102fe34"}
{"nom":"Prinçay","nomNormalise":"princay","typeCollectivite":"Commune","region":"Nouvelle-Aquitaine","departement":"Vienne","departementCode":"86","adresse":{"street":"1 la Sicotière","postalCode":"86420","city":"Prinçay","country":"France"},"contacts":{"email":"contact@princay.fr","telephone":"0549228023"},"horaires":"Le Mardi : de 09h00 à 12h00 de 13h30 à 17h00\nLe Mercredi : de 09h00 à 12h00\nLe Vendredi : de 09h00 à 12h00 de 13h30 à 17h00","latitude":46.928734,"longitude":0.24497,"website":"","hasWebsite":false,"hasHoraires":true,"url":"https://lannuaire.service-public.gouv.fr/nouvelle-aquitaine/vienne/0d6777c4-f7bf-484a-b5b1-d093930472b1"}
{"nom":"Queaux","nomNormalise":"queaux","typeCollectivite":"Commune","region":"Nouvelle-Aquitaine","departement":"Vienne","departementCode":"86","adresse":{"street":"8 rue de la Mairie","postalCode":"86150","city":"Queaux","country":"France"},"contacts":{"email":"contact@queaux.fr","telephone":"0549484808"},"horaires":"Le Lundi : de 09h00 à 12h00\nLe Mardi : de 09h00 à 12h00 de 14h00 à 17h00\nLe Mercredi : de 09h00 à 12h00\nLe Jeudi : de 09h00 à 12h00 de 14h00 à 17h00\nLe Vendredi : de 09h00 à 12h00","latitude":46.326134,"longitude":0.6669074,"website":"https://www.queaux.fr/","hasWebsite":true,"hasHoraires":true,"url":"https://lannuaire.service-public.gouv.fr/nouvelle-aquitaine/vienne/644e9ceb-62a6-40d3-97c6-545bfa340ceb"}
{"nom":"Quinçay","nomNormalise":"quincay","typeCollectivite":"Commune","region":"Nouvelle-Aquitaine","departement":"Vienne","departementCode":"86","adresse":{"street":"8 rue des Quintus","postalCode":"86190","city":"Quinçay","country":"France"},"contacts":{"email":"accueil@quincay.fr","telephone":"0549604216"},"horaires":"Du Lundi au Mardi : de 08h30 à 12h00 de 13h45 à 17h30\nLe Mercredi : de 08h30 à 12h00\nDu Jeudi au Vendredi : de 08h30 à 12h00 de 13h45 à 17h30\nLe Samedi : de 09h00 à 12h00\n\nAccueil fermé du 10 juillet au 21 août.","latitude":46.6095,"longitude":0.231861,"website":"https://quincay.fr/","hasWebsite":true,"hasHoraires":true,"url":"https://lannuaire.service-public.gouv.fr/nouvelle-aquitaine/vienne/6007b331-2995-4822-8dcb-705970ef3d66"}
{"nom":"Ranton","nomNormalise":"ranton","typeCollectivite":"Commune","region":"Nouvelle-Aquitaine","departement":"Vienne","departementCode":"86","adresse":{"street":"5 rue de la Mairie","postalCode":"86200","city":"Ranton","country":"France"},"contacts":{"email":"contact@ranton.fr","telephone":"0549985437"},"horaires":"Le Mardi : de 08h30 à 12h30\nLe Mercredi : de 08h30 à 13h30\nLe Vendredi : de 13h15 à 17h15","latitude":47.001755,"longitude":-0.031552,"website":"","hasWebsite":false,"hasHoraires":true,"url":"https://lannuaire.service-public.gouv.fr/nouvelle-aquitaine/vienne/e40e067b-0819-4247-8732-9e1d116e841a"}
{"nom":"Raslay","nomNormalise":"raslay","typeCollectivite":"Commune","region":"Nouvelle-Aquitaine","departement":"Vienne","departementCode":"86","adresse":{"street":"2 rue de la Mairie","postalCode":"86120","city":"Raslay","country":"France"},"contacts":{"email":"mairie.raslay@wanadoo.fr","telephone":"0549229378"},"horaires":"Le Mardi : de 13h00 à 17h00\nLe Vendredi : de 09h00 à 12h30 de 14h00 à 17h00","latitude":47.1326,"longitude":0.043933,"website":"","hasWebsite":false,"hasHoraires":true,"url":"https://lannuaire.service-public.gouv.fr/nouvelle-aquitaine/vienne/820e1919-86c7-4061-8861-5a486ccd5e8b"}
{"nom":"Roches-Prémarie-Andillé","nomNormalise":"rochespremarieandille","typeCollectivite":"Commune","region":"Nouvelle-Aquitaine","departement":"Vienne","departementCode":"86","adresse":{"street":"21 route de Poitiers","postalCode":"86340","city":"Roches-Prémarie-Andillé","country":"France"},"contacts":{"email":"contact@rochespremarieandille.fr","telephone":"0549425009"},"horaires":"Du Lundi au Vendredi : de 09h00 à 12h00 de 13h30 à 18h00","latitude":46.4805,"longitude":0.369769,"website":"https://www.rochespremarieandille.fr/","hasWebsite":true,"hasHoraires":true,"url":"https://lannuaire.service-public.gouv.fr/nouvelle-aquitaine/vienne/0170d47a-e2a1-4847-80db-423cb7bb21fd"}
{"nom":"Roiffé","nomNormalise":"roiffe","typeCollectivite":"Commune","region":"Nouvelle-Aquitaine","departement":"Vienne","departementCode":"86","adresse":{"street":"1 Place d'Aumetz","postalCode":"86120","city":"Roiffé","country":"France"},"contacts":{"email":"contact@roiffe.fr","telephone":"0549987617"},"horaires":"Du Lundi au Mercredi : de 09h00 à 12h30 de 14h00 à 17h30\nLe Vendredi : de 09h00 à 12h30","latitude":47.0627,"longitude":0.020935,"website":"","hasWebsite":false,"hasHoraires":true,"url":"https://lannuaire.service-public.gouv.fr/nouvelle-aquitaine/vienne/3339c299-fdc7-41f6-a460-eda215c146f3"}
{"nom":"Romagne","nomNormalise":"romagne","typeCollectivite":"Commune","region":"Nouvelle-Aquitaine","departement":"Vienne","departementCode":"86","adresse":{"street":"9 place du 8-Mai-1945","postalCode":"86700","city":"Romagne","country":"France"},"contacts":{"email":"contact@romagne.fr","telephone":"0549877068"},"horaires":"Du Lundi au Mardi : de 09h00 à 13h00\nLe Mercredi : de 09h00 à 12h00\nLe Jeudi : de 09h00 à 13h00\nLe Vendredi : de 09h00 à 13h00 de 14h00 à 17h00","latitude":46.27092,"longitude":0.301727,"website":"https://www.romagne.fr/","hasWebsite":true,"hasHoraires":true,"url":"https://lannuaire.service-public.gouv.fr/nouvelle-aquitaine/vienne/231ea8c8-91d9-4b01-a004-240164ccdbbd"}
{"nom":"Rouillé","nomNormalise":"rouille","typeCollectivite":"Commune","region":"Nouvelle-Aquitaine","departement":"Vienne","departementCode":"86","adresse":{"street":"8 rue de la Libération","postalCode":"86480","city":"Rouillé","country":"France"},"contacts":{"email":"contact@rouille.fr","telephone":"0549439028"},"horaires":"Le Lundi : de 08h30 à 12h00\nDu Mardi au Mercredi : de 08h30 à 12h00 de 13h00 à 17h00\nLe Jeudi : de 08h30 à 12h00\nLe Vendredi : de 08h30 à 12h00 de 13h00 à 17h00","latitude":46.41815,"longitude":0.041373,"website":"https://www.rouille.fr/","hasWebsite":true,"hasHoraires":true,"url":"https://lannuaire.service-public.gouv.fr/nouvelle-aquitaine/vienne/8b4fd29b-9a3e-43fa-9682-83c01c5cf9ce"}
{"nom":"Saint-Benoît","nomNormalise":"saintbenoit","typeCollectivite":"Commune","region":"Nouvelle-Aquitaine","departement":"Vienne","departementCode":"86","adresse":{"street":"11 rue Paul-Gauvin","postalCode":"86280","city":"Saint-Benoît","country":"France"},"contacts":{"email":"contact@saintbenoit86.fr","telephone":"0549374400"},"horaires":"Du Lundi au Jeudi : de 08h30 à 12h00 de 13h30 à 17h00\nLe Vendredi : de 08h30 à 12h00 de 13h30 à 16h30","latitude":46.54961,"longitude":0.3407343,"website":"https://www.ville-saint-benoit.fr/","hasWebsite":true,"hasHoraires":true,"url":"https://lannuaire.service-public.gouv.fr/nouvelle-aquitaine/vienne/e20f76cb-b53d-4786-bc1a-1549828fe038"}
{"nom":"Saint-Christophe","nomNormalise":"saintchristophe","typeCollectivite":"Commune","region":"Nouvelle-Aquitaine","departement":"Vienne","departementCode":"86","adresse":{"street":"1 place de la Mairie","postalCode":"86230","city":"Saint-Christophe","country":"France"},"contacts":{"email":"contact@saintchristophe86.fr","telephone":"0549860383"},"horaires":"Le Mardi : de 09h00 à 12h00 de 14h00 à 17h00\nLe Vendredi : de 09h00 à 12h00 de 14h00 à 17h00","latitude":46.920536,"longitude":0.371459,"website":"","hasWebsite":false,"hasHoraires":true,"url":"https://lannuaire.service-public.gouv.fr/nouvelle-aquitaine/vienne/5376aff8-f5bc-4545-9d05-0d096495eca4"}
{"nom":"Saint-Clair","nomNormalise":"saintclair","typeCollectivite":"Commune","region":"Nouvelle-Aquitaine","departement":"Vienne","departementCode":"86","adresse":{"street":"Le Bourg","postalCode":"86330","city":"Saint-Clair","country":"France"},"contacts":{"email":"communesaintclair@orange.fr","telephone":"0549227716"},"horaires":"Le Lundi : de 13h00 à 17h15\nLe Jeudi : de 13h00 à 17h15\nLe Vendredi : de 08h00 à 12h30 de 13h00 à 17h15","latitude":46.880695,"longitude":0.063344,"website":"","hasWebsite":false,"hasHoraires":true,"url":"https://lannuaire.service-public.gouv.fr/nouvelle-aquitaine/vienne/e3cc4641-a73a-40c0-ab94-0ff026b1b670"}
{"nom":"Mairie déléguée - Saint-Cyr","nomNormalise":"mairiedelegueesaintcyr","typeCollectivite":"Commune","region":"Nouvelle-Aquitaine","departement":"Vienne","departementCode":"86","adresse":{"street":"Saint-Cyr","postalCode":"86130","city":"Beaumont Saint-Cyr","country":"France"},"contacts":{"email":"mairie@beaumontsaintcyr.fr","telephone":"0549524037"},"horaires":"Le Lundi : de 14h30 à 17h00\nLe Mardi : de 09h00 à 12h15 de 14h30 à 17h30\nLe Mercredi : de 14h30 à 19h00\nLe Vendredi : de 09h00 à 12h15\nLe Samedi : de 09h00 à 12h15","latitude":46.71711,"longitude":0.454018,"website":"https://beaumontsaintcyr.fr/fr/","hasWebsite":true,"hasHoraires":true,"url":"https://lannuaire.service-public.gouv.fr/nouvelle-aquitaine/vienne/5f8c1b62-0fd2-4228-930e-49089714c8f3"}
{"nom":"Sainte-Radegonde","nomNormalise":"sainteradegonde","typeCollectivite":"Commune","region":"Nouvelle-Aquitaine","departement":"Vienne","departementCode":"86","adresse":{"street":"3 route d'Archigny","postalCode":"86300","city":"Sainte-Radegonde","country":"France"},"contacts":{"email":"contact@sainteradegonde86.fr","telephone":"0549463211"},"horaires":"Du Lundi au Mardi : de 09h00 à 12h30 de 13h30 à 16h00\nLe Jeudi : de 09h00 à 12h30 de 13h30 à 16h00","latitude":46.635307,"longitude":0.7005735,"website":"https://mairiesainteradegonde-86.jimdofree.com/","hasWebsite":true,"hasHoraires":true,"url":"https://lannuaire.service-public.gouv.fr/nouvelle-aquitaine/vienne/6abc9ccd-77d1-4ffc-958d-6106bae9e35c"}
{"nom":"Saint-Gaudent","nomNormalise":"saintgaudent","typeCollectivite":"Commune","region":"Nouvelle-Aquitaine","departement":"Vienne","departementCode":"86","adresse":{"street":"1 rue de la Mairie","postalCode":"86400","city":"Saint-Gaudent","country":"France"},"contacts":{"email":"contact@saint-gaudent.fr","telephone":"0549871963"},"horaires":"Du Lundi au Mardi : de 14h30 à 16h30\nDu Jeudi au Vendredi : de 14h30 à 16h30","latitude":46.116245,"longitude":0.288905,"website":"","hasWebsite":false,"hasHoraires":true,"url":"https://lannuaire.service-public.gouv.fr/nouvelle-aquitaine/vienne/d5e47dc5-9ef6-462b-99b6-e5825065a738"}
{"nom":"Saint-Genest-d Ambière","nomNormalise":"saintgenestdambiere","typeCollectivite":"Commune","region":"Nouvelle-Aquitaine","departement":"Vienne","departementCode":"86","adresse":{"street":"Place de la Mairie","postalCode":"86140","city":"Saint-Genest-d'Ambière","country":"France"},"contacts":{"email":"contact@saint-genest-ambiere.fr","telephone":"0549907501"},"horaires":"Du Lundi au Jeudi : de 13h30 à 17h30\nLe Vendredi : de 13h30 à 16h30","latitude":46.812828,"longitude":0.4161471,"website":"http://www.saint-genest-ambiere.fr/","hasWebsite":true,"hasHoraires":true,"url":"https://lannuaire.service-public.gouv.fr/nouvelle-aquitaine/vienne/6de7375c-e753-413a-a244-ee8e7a0adc4f"}
{"nom":"Saint-Georges-lès-Baillargeaux","nomNormalise":"saintgeorgeslesbaillargeaux","typeCollectivite":"Commune","region":"Nouvelle-Aquitaine","departement":"Vienne","departementCode":"86","adresse":{"street":"16 place de la Liberté","postalCode":"86130","city":"Saint-Georges-lès-Baillargeaux","country":"France"},"contacts":{"email":"mairie@saint-georges-les-baillargeaux.fr","telephone":"0549528102"},"horaires":"Du Lundi au Mardi : de 08h30 à 12h00 de 14h00 à 17h30\nLe Mercredi : de 08h30 à 12h00 de 13h30 à 19h00\nLe Jeudi : de 08h30 à 12h00 de 14h00 à 18h30\nLe Vendredi : de 08h30 à 12h00 de 14h00 à 19h00","latitude":46.669735,"longitude":0.399769,"website":"https://www.saint-georges-les-baillargeaux.fr/","hasWebsite":true,"hasHoraires":true,"url":"https://lannuaire.service-public.gouv.fr/nouvelle-aquitaine/vienne/7bff317b-35dd-4d85-86ba-16637324ad56"}
{"nom":"Saint-Germain","nomNormalise":"saintgermain","typeCollectivite":"Commune","region":"Nouvelle-Aquitaine","departement":"Vienne","departementCode":"86","adresse":{"street":"20 rue Léon-Barbarin","postalCode":"86310","city":"Saint-Germain","country":"France"},"contacts":{"email":"contact@saintgermain86.fr","telephone":"0549480080"},"horaires":"Du Lundi au Vendredi : de 08h30 à 12h00","latitude":46.56233,"longitude":0.871992,"website":"https://www.saintgermain86.fr/","hasWebsite":true,"hasHoraires":true,"url":"https://lannuaire.service-public.gouv.fr/nouvelle-aquitaine/vienne/0af09b59-bba5-4c22-b64d-c63b628c25f4"}
{"nom":"Saint-Gervais-les-Trois-Clochers","nomNormalise":"saintgervaislestroisclochers","typeCollectivite":"Commune","region":"Nouvelle-Aquitaine","departement":"Vienne","departementCode":"86","adresse":{"street":"1 avenue Jules-Édouard-Ménard","postalCode":"86230","city":"Saint-Gervais-les-Trois-Clochers","country":"France"},"contacts":{"email":"contact@saintgervaislestroisclochers.fr","telephone":"0549860171"},"horaires":"Le Lundi : de 13h30 à 17h00\nDu Mardi au Jeudi : de 08h30 à 12h00\nLe Vendredi : de 08h30 à 12h00 de 13h30 à 17h00","latitude":46.8977,"longitude":0.406562,"website":"","hasWebsite":false,"hasHoraires":true,"url":"https://lannuaire.service-public.gouv.fr/nouvelle-aquitaine/vienne/72eaf7d7-a127-4ced-9675-3d52326a681b"}
{"nom":"Saint-Jean-de-Sauves","nomNormalise":"saintjeandesauves","typeCollectivite":"Commune","region":"Nouvelle-Aquitaine","departement":"Vienne","departementCode":"86","adresse":{"street":"1 place de la Mairie","postalCode":"86330","city":"Saint-Jean-de-Sauves","country":"France"},"contacts":{"email":"contact@saint-jean-de-sauves.fr","telephone":"0549508092"},"horaires":"Le Lundi : de 13h30 à 17h30\nLe Mardi : de 08h15 à 12h15 de 13h30 à 17h30\nLe Mercredi : de 13h30 à 17h30\nLe Jeudi : de 08h15 à 12h15 de 13h30 à 17h30\nLe Vendredi : de 08h15 à 12h15 de 13h30 à 16h30","latitude":46.8407,"longitude":0.092416,"website":"https://www.saint-jean-de-sauves.fr/","hasWebsite":true,"hasHoraires":true,"url":"https://lannuaire.service-public.gouv.fr/nouvelle-aquitaine/vienne/5b54c260-61a9-4a6b-8944-8bbb1f8e8d46"}
{"nom":"Saint-Julien-l Ars","nomNormalise":"saintjulienlars","typeCollectivite":"Commune","region":"Nouvelle-Aquitaine","departement":"Vienne","departementCode":"86","adresse":{"street":"4 rue de la Poste","postalCode":"86800","city":"Saint-Julien-l'Ars","country":"France"},"contacts":{"email":"mairie@saintjulienlars.fr","telephone":"0549567124"},"horaires":"Du Lundi au Vendredi : de 09h00 à 12h00 de 14h00 à 17h00\nLe Samedi : de 09h00 à 12h00\n\n(sauf juillet-août et vacances scolaires)","latitude":46.55808,"longitude":0.5061712,"website":"https://www.saintjulienlars.fr/","hasWebsite":true,"hasHoraires":true,"url":"https://lannuaire.service-public.gouv.fr/nouvelle-aquitaine/vienne/69bb4fa9-fbf2-4bea-a6c3-891f9a67a327"}
{"nom":"Saint-Laon","nomNormalise":"saintlaon","typeCollectivite":"Commune","region":"Nouvelle-Aquitaine","departement":"Vienne","departementCode":"86","adresse":{"street":"9 rue du Maréchal-Ferrant","postalCode":"86200","city":"Saint-Laon","country":"France"},"contacts":{"email":"contact@saintlaon86.fr","telephone":"0549981200"},"horaires":"Le Mardi : de 14h15 à 17h15\nLe Vendredi : de 09h00 à 12h30","latitude":46.980335,"longitude":-0.017383,"website":"","hasWebsite":false,"hasHoraires":true,"url":"https://lannuaire.service-public.gouv.fr/nouvelle-aquitaine/vienne/94224086-cd93-4290-88cb-3a7dee042992"}
{"nom":"Saint-Laurent-de-Jourdes","nomNormalise":"saintlaurentdejourdes","typeCollectivite":"Commune","region":"Nouvelle-Aquitaine","departement":"Vienne","departementCode":"86","adresse":{"street":"7 Grand'rue","postalCode":"86410","city":"Saint-Laurent-de-Jourdes","country":"France"},"contacts":{"email":"contact@saintlaurentdejourdes.fr","telephone":"0549427124"},"horaires":"Le Mardi : de 09h00 à 12h00 de 14h00 à 17h00\nLe Jeudi : de 09h00 à 12h00 de 14h00 à 17h00\nLe Vendredi : de 09h00 à 12h00","latitude":46.412052,"longitude":0.592155,"website":"https://www.saintlaurentdejourdes.fr/","hasWebsite":true,"hasHoraires":true,"url":"https://lannuaire.service-public.gouv.fr/nouvelle-aquitaine/vienne/854cb599-3628-462b-8fb6-c6fdc81daaba"}
{"nom":"Saint-Léger-de-Montbrillais","nomNormalise":"saintlegerdemontbrillais","typeCollectivite":"Commune","region":"Nouvelle-Aquitaine","departement":"Vienne","departementCode":"86","adresse":{"street":"1 rue des Léodégariens","postalCode":"86120","city":"Saint-Léger-de-Montbrillais","country":"France"},"contacts":{"email":"mairie-stlegerdemontbrillais@wanadoo.fr","telephone":"0549229274"},"horaires":"Le Lundi : de 09h00 à 12h00 de 14h00 à 17h30\nLe Mardi : de 09h00 à 12h00\nLe Jeudi : de 09h00 à 12h00 de 14h00 à 17h30\nLe Vendredi : de 09h00 à 12h00","latitude":47.071854,"longitude":-0.043509,"website":"https://www.saint-leger-de-montbrillais.fr/","hasWebsite":true,"hasHoraires":true,"url":"https://lannuaire.service-public.gouv.fr/nouvelle-aquitaine/vienne/892e0595-9000-4691-b17a-d2fc4c4924ac"}
{"nom":"Saint-Léomer","nomNormalise":"saintleomer","typeCollectivite":"Commune","region":"Nouvelle-Aquitaine","departement":"Vienne","departementCode":"86","adresse":{"street":"24 rue de la Font-Galloux","postalCode":"86290","city":"Saint-Léomer","country":"France"},"contacts":{"email":"contact@saint-leomer.fr","telephone":"0549915237"},"horaires":"Du Lundi au Mardi : de 09h00 à 12h15\nLe Mercredi : de 08h45 à 11h15\nDu Jeudi au Vendredi : de 09h00 à 12h15","latitude":46.43844,"longitude":0.988717,"website":"","hasWebsite":false,"hasHoraires":true,"url":"https://lannuaire.service-public.gouv.fr/nouvelle-aquitaine/vienne/31a658a5-e450-4a40-b533-510c7713567e"}
{"nom":"Mairie déléguée - Saint-Macoux","nomNormalise":"mairiedelegueesaintmacoux","typeCollectivite":"Commune","region":"Nouvelle-Aquitaine","departement":"Vienne","departementCode":"86","adresse":{"street":"Saint-Macoux","postalCode":"86400","city":"Val-de-Comporté","country":"France"},"contacts":{"email":"contact@valdecomporte.fr","telephone":"0549870913"},"horaires":"Du Lundi au Jeudi : de 13h30 à 17h00","latitude":46.118565,"longitude":0.2334999,"website":"https://www.saintmacoux.fr/","hasWebsite":true,"hasHoraires":true,"url":"https://lannuaire.service-public.gouv.fr/nouvelle-aquitaine/vienne/07c24ad9-f03c-44f0-971a-8274ee27fb38"}
{"nom":"Saint-Martin-la-Pallu","nomNormalise":"saintmartinlapallu","typeCollectivite":"Commune","region":"Nouvelle-Aquitaine","departement":"Vienne","departementCode":"86","adresse":{"street":"Vendeuvre-du-Poitou","postalCode":"86380","city":"Saint-Martin-la-Pallu","country":"France"},"contacts":{"email":"contact@saintmartinlapallu.fr","telephone":"0549545960"},"horaires":"Du Lundi au Vendredi : de 09h00 à 12h00 de 14h00 à 18h00\nLe Samedi : de 10h00 à 12h00","latitude":46.737217,"longitude":0.308813,"website":"https://www.saintmartinlapallu.fr/","hasWebsite":true,"hasHoraires":true,"url":"https://lannuaire.service-public.gouv.fr/nouvelle-aquitaine/vienne/6c946794-7bff-4f42-b615-7514cf3a299b"}
{"nom":"Saint-Martin-l Ars","nomNormalise":"saintmartinlars","typeCollectivite":"Commune","region":"Nouvelle-Aquitaine","departement":"Vienne","departementCode":"86","adresse":{"street":"10 rue du Lavoir","postalCode":"86350","city":"Saint-Martin-l'Ars","country":"France"},"contacts":{"email":"contact@saint-martin-lars.fr","telephone":"0549878156"},"horaires":"Du Lundi au Mardi : de 10h00 à 12h00 de 14h00 à 17h00\nLe Mercredi : de 09h00 à 12h00\nLe Jeudi : de 14h00 à 17h00\nLe Vendredi : de 10h00 à 12h00 de 14h00 à 17h00","latitude":46.219475,"longitude":0.530545,"website":"https://www.saint-martin-lars.fr/","hasWebsite":true,"hasHoraires":true,"url":"https://lannuaire.service-public.gouv.fr/nouvelle-aquitaine/vienne/515dc7ef-c7a2-4950-8e05-79ea6f863358"}
{"nom":"Saint-Maurice-la-Clouère","nomNormalise":"saintmauricelaclouere","typeCollectivite":"Commune","region":"Nouvelle-Aquitaine","departement":"Vienne","departementCode":"86","adresse":{"street":"58 rue Principale","postalCode":"86160","city":"Saint-Maurice-la-Clouère","country":"France"},"contacts":{"email":"contact@saintmauricelaclouere.fr","telephone":"0549593165"},"horaires":"Du Lundi au Mardi : de 09h00 à 12h00 de 13h30 à 17h00\nLe Mercredi : de 09h00 à 12h00\nDu Jeudi au Vendredi : de 09h00 à 12h00 de 13h30 à 17h00","latitude":46.378426,"longitude":0.41471,"website":"https://www.saintmauricelaclouere.fr/","hasWebsite":true,"hasHoraires":true,"url":"https://lannuaire.service-public.gouv.fr/nouvelle-aquitaine/vienne/c7f74cd7-7a3d-4302-9d4a-dc9f2e01e5ab"}
{"nom":"Saint-Pierre-de-Maillé","nomNormalise":"saintpierredemaille","typeCollectivite":"Commune","region":"Nouvelle-Aquitaine","departement":"Vienne","departementCode":"86","adresse":{"street":"2 rue du 8-Mai-1945","postalCode":"86260","city":"Saint-Pierre-de-Maillé","country":"France"},"contacts":{"email":"contact@saint-pierre-de-maille.fr","telephone":"0549486019"},"horaires":"Du Lundi au Mardi : de 09h00 à 12h00 de 14h00 à 17h00\nDu Jeudi au Vendredi : de 09h00 à 12h00 de 14h00 à 17h00","latitude":46.678524,"longitude":0.843097,"website":"https://www.saint-pierre-de-maille.fr/","hasWebsite":true,"hasHoraires":true,"url":"https://lannuaire.service-public.gouv.fr/nouvelle-aquitaine/vienne/25b21e2b-24d5-4676-990b-e372aff0d707"}
{"nom":"Saint-Pierre-d Exideuil","nomNormalise":"saintpierredexideuil","typeCollectivite":"Commune","region":"Nouvelle-Aquitaine","departement":"Vienne","departementCode":"86","adresse":{"street":"Route de Chaunay","postalCode":"86400","city":"Saint-Pierre-d'Exideuil","country":"France"},"contacts":{"email":"contact@saintpierredexideuil.fr","telephone":"0549870396"},"horaires":"Le Lundi : de 09h00 à 12h00\nLe Mardi : de 09h00 à 12h00 de 14h00 à 17h30\nLe Mercredi : de 09h00 à 12h00\nDu Jeudi au Vendredi : de 09h00 à 12h00 de 14h00 à 17h30","latitude":46.150204,"longitude":0.270441,"website":"https://www.saintpierredexideuil.fr/","hasWebsite":true,"hasHoraires":true,"url":"https://lannuaire.service-public.gouv.fr/nouvelle-aquitaine/vienne/0b7dc66a-29e5-43c9-a52d-53051ff16e79"}
{"nom":"Saint-Rémy-sur-Creuse","nomNormalise":"saintremysurcreuse","typeCollectivite":"Commune","region":"Nouvelle-Aquitaine","departement":"Vienne","departementCode":"86","adresse":{"street":"1 place André-Chicot","postalCode":"86220","city":"Saint-Rémy-sur-Creuse","country":"France"},"contacts":{"email":"contact@saint-remy-sur-creuse.fr","telephone":"0549859263"},"horaires":"Du Lundi au Vendredi : de 09h00 à 12h00 de 13h30 à 16h30","latitude":46.9536,"longitude":0.693224,"website":"https://www.saint-remy-sur-creuse.fr/","hasWebsite":true,"hasHoraires":true,"url":"https://lannuaire.service-public.gouv.fr/nouvelle-aquitaine/vienne/5db15dff-e4c1-4540-92b7-a4ac4f9a3516"}
{"nom":"Saint-Romain","nomNormalise":"saintromain","typeCollectivite":"Commune","region":"Nouvelle-Aquitaine","departement":"Vienne","departementCode":"86","adresse":{"street":"4 impasse de la Mairie","postalCode":"86250","city":"Saint-Romain","country":"France"},"contacts":{"email":"contact@saintromain86.fr","telephone":"0549872188"},"horaires":"Le Lundi : de 08h30 à 16h30\nLe Jeudi : de 08h30 à 16h30","latitude":46.22258,"longitude":0.3666499,"website":"https://www.saintromain86.fr/","hasWebsite":true,"hasHoraires":true,"url":"https://lannuaire.service-public.gouv.fr/nouvelle-aquitaine/vienne/e4f44265-86be-42bd-9276-6ecebba30f04"}
{"nom":"Saint-Sauvant","nomNormalise":"saintsauvant","typeCollectivite":"Commune","region":"Nouvelle-Aquitaine","departement":"Vienne","departementCode":"86","adresse":{"street":"1 place de la Mairie","postalCode":"86600","city":"Saint-Sauvant","country":"France"},"contacts":{"email":"accueil@saint-sauvant.fr","telephone":"0549597020"},"horaires":"Le Lundi : de 09h00 à 12h00 de 14h00 à 17h00\nDu Mardi au Jeudi : de 14h00 à 17h00\nLe Vendredi : de 09h00 à 12h00 de 14h00 à 17h00","latitude":46.359848,"longitude":0.055348,"website":"http://www.saintsauvant-86.fr/","hasWebsite":true,"hasHoraires":true,"url":"https://lannuaire.service-public.gouv.fr/nouvelle-aquitaine/vienne/e7f3296a-a535-4893-8c48-af114fa26c32"}
{"nom":"Saint-Savin","nomNormalise":"saintsavin","typeCollectivite":"Commune","region":"Nouvelle-Aquitaine","departement":"Vienne","departementCode":"86","adresse":{"street":"2 place de la Libération","postalCode":"86310","city":"Saint-Savin","country":"France"},"contacts":{"email":"contact@saint-savin.fr","telephone":"0549480046"},"horaires":"Du Lundi au Vendredi : de 08h30 à 12h00","latitude":46.5646,"longitude":0.864573,"website":"https://www.saint-savin.fr/","hasWebsite":true,"hasHoraires":true,"url":"https://lannuaire.service-public.gouv.fr/nouvelle-aquitaine/vienne/d236ab5e-6e24-4615-ba18-afb69d5270b6"}
{"nom":"Saint-Secondin","nomNormalise":"saintsecondin","typeCollectivite":"Commune","region":"Nouvelle-Aquitaine","departement":"Vienne","departementCode":"86","adresse":{"street":"7 place de la Mairie","postalCode":"86350","city":"Saint-Secondin","country":"France"},"contacts":{"email":"accueil@saint-secondin.fr","telephone":"0549595118"},"horaires":"Du Lundi au Vendredi : de 09h00 à 12h00","latitude":46.32778,"longitude":0.493487,"website":"https://www.saint-secondin.fr/","hasWebsite":true,"hasHoraires":true,"url":"https://lannuaire.service-public.gouv.fr/nouvelle-aquitaine/vienne/dd326392-1052-4828-98c7-cd91f3574b36"}
{"nom":"Saires","nomNormalise":"saires","typeCollectivite":"Commune","region":"Nouvelle-Aquitaine","departement":"Vienne","departementCode":"86","adresse":{"street":"3 rue René-Monory","postalCode":"86420","city":"Saires","country":"France"},"contacts":{"email":"contact@saires.fr","telephone":"0549228310"},"horaires":"Le Lundi : de 09h00 à 12h30 de 13h15 à 17h15\nLe Jeudi : de 09h00 à 12h30 de 13h15 à 17h15","latitude":46.884953,"longitude":0.243035,"website":"","hasWebsite":false,"hasHoraires":true,"url":"https://lannuaire.service-public.gouv.fr/nouvelle-aquitaine/vienne/b961f606-73a6-473a-bf5e-a446ff3005d2"}
{"nom":"Saix","nomNormalise":"saix","typeCollectivite":"Commune","region":"Nouvelle-Aquitaine","departement":"Vienne","departementCode":"86","adresse":{"street":"1 rue Clotaire-1er","postalCode":"86120","city":"Saix","country":"France"},"contacts":{"email":"contact@saix86.fr","telephone":"0549229253"},"horaires":"Du Lundi au Mardi : de 09h00 à 12h00\nLe Vendredi : de 09h00 à 12h00 de 14h00 à 18h00","latitude":47.136177,"longitude":-3.52,"website":"http://www.saix-86120.fr/","hasWebsite":true,"hasHoraires":true,"url":"https://lannuaire.service-public.gouv.fr/nouvelle-aquitaine/vienne/cbabb5f3-e0fe-4a15-9abe-1bf5cbd7b003"}
{"nom":"Sammarçolles","nomNormalise":"sammarcolles","typeCollectivite":"Commune","region":"Nouvelle-Aquitaine","departement":"Vienne","departementCode":"86","adresse":{"street":"2 rue de l'Église","postalCode":"86200","city":"Sammarçolles","country":"France"},"contacts":{"email":"contact@sammarcolles.fr","telephone":"0549980825"},"horaires":"Le Lundi : de 13h30 à 17h00\nLe Mardi : de 08h30 à 12h00\nLe Jeudi : de 13h30 à 17h00","latitude":47.03386,"longitude":0.146418,"website":"https://www.mairie-sammarcolles.fr/","hasWebsite":true,"hasHoraires":true,"url":"https://lannuaire.service-public.gouv.fr/nouvelle-aquitaine/vienne/87df71f5-2060-40c4-a11d-fefb39cfe9c9"}
{"nom":"Sanxay","nomNormalise":"sanxay","typeCollectivite":"Commune","region":"Nouvelle-Aquitaine","departement":"Vienne","departementCode":"86","adresse":{"street":"Place de la Mairie","postalCode":"86600","city":"Sanxay","country":"France"},"contacts":{"email":"contact@sanxay.fr","telephone":"0549535120"},"horaires":"Du Lundi au Vendredi : de 09h00 à 12h00","latitude":46.4942,"longitude":-0.005556,"website":"https://www.sanxay.fr/","hasWebsite":true,"hasHoraires":true,"url":"https://lannuaire.service-public.gouv.fr/nouvelle-aquitaine/vienne/009f869f-0894-4ed2-a817-7013b77803b6"}
{"nom":"Saulgé","nomNormalise":"saulge","typeCollectivite":"Commune","region":"Nouvelle-Aquitaine","departement":"Vienne","departementCode":"86","adresse":{"street":"1 le Toffé","postalCode":"86500","city":"Saulgé","country":"France"},"contacts":{"email":"contact@saulge.fr","telephone":"0549910579"},"horaires":"Le Lundi : de 08h30 à 12h30 de 14h00 à 18h00\nLe Mardi : de 08h30 à 12h30\nLe Mercredi : de 08h30 à 12h30 de 14h00 à 16h15\nLe Jeudi : de 08h30 à 12h30\nLe Vendredi : de 08h30 à 12h30 de 14h00 à 17h00","latitude":46.378098,"longitude":0.875381,"website":"https://www.saulge.fr/","hasWebsite":true,"hasHoraires":true,"url":"https://lannuaire.service-public.gouv.fr/nouvelle-aquitaine/vienne/03573278-ce33-4b98-9149-42922c157e92"}
{"nom":"Savigné","nomNormalise":"savigne","typeCollectivite":"Commune","region":"Nouvelle-Aquitaine","departement":"Vienne","departementCode":"86","adresse":{"street":"22 route de Limoges","postalCode":"86400","city":"Savigné","country":"France"},"contacts":{"email":"contact@savigne.fr","telephone":"0549870625"},"horaires":"Le Lundi : de 14h00 à 17h00\nDu Mardi au Mercredi : de 09h30 à 12h30 de 14h00 à 17h30\nLe Vendredi : de 09h30 à 12h30 de 14h00 à 17h00","latitude":46.1593,"longitude":0.321369,"website":"https://savigne.fr/","hasWebsite":true,"hasHoraires":true,"url":"https://lannuaire.service-public.gouv.fr/nouvelle-aquitaine/vienne/69bb16ed-0035-482e-9918-c0857087de08"}
{"nom":"Savigny-Lévescault","nomNormalise":"savignylevescault","typeCollectivite":"Commune","region":"Nouvelle-Aquitaine","departement":"Vienne","departementCode":"86","adresse":{"street":"Place de la Mairie","postalCode":"86800","city":"Savigny-Lévescault","country":"France"},"contacts":{"email":"contact@savignylevescault.fr","telephone":"0549565525"},"horaires":"Le Lundi : de 08h30 à 12h00 de 14h00 à 18h00\nLe Mardi : de 08h30 à 12h00\nLe Mercredi : de 08h30 à 11h30\nLe Jeudi : de 08h30 à 12h00\nLe Vendredi : de 08h30 à 12h00 de 14h00 à 18h00","latitude":46.535343,"longitude":0.476894,"website":"https://savigny-levescault.fr/","hasWebsite":true,"hasHoraires":true,"url":"https://lannuaire.service-public.gouv.fr/nouvelle-aquitaine/vienne/d39538e6-f864-4b1d-a48b-8833688babef"}
{"nom":"Savigny-sous-Faye","nomNormalise":"savignysousfaye","typeCollectivite":"Commune","region":"Nouvelle-Aquitaine","departement":"Vienne","departementCode":"86","adresse":{"street":"4 rue du Lavoir","postalCode":"86140","city":"Savigny-sous-Faye","country":"France"},"contacts":{"email":"contact@savigny-sous-faye.fr","telephone":"0549907059"},"horaires":"Le Lundi : de 08h15 à 11h45 de 14h00 à 16h30\nLe Mardi : de 08h15 à 11h45\nLe Vendredi : de 08h15 à 11h45","latitude":46.869846,"longitude":0.284811,"website":"https://www.savigny-sous-faye.fr/","hasWebsite":true,"hasHoraires":true,"url":"https://lannuaire.service-public.gouv.fr/nouvelle-aquitaine/vienne/fdaab463-3654-40c7-bfa6-143ce63d9683"}
{"nom":"Scorbé-Clairvaux","nomNormalise":"scorbeclairvaux","typeCollectivite":"Commune","region":"Nouvelle-Aquitaine","departement":"Vienne","departementCode":"86","adresse":{"street":"1 place de la Mairie","postalCode":"86140","city":"Scorbé-Clairvaux","country":"France"},"contacts":{"email":"contact@scorbe-clairvaux.fr","telephone":"0549938160"},"horaires":"Du Lundi au Mardi : de 09h00 à 12h00 de 14h00 à 17h00\nLe Mercredi : de 14h00 à 18h00\nDu Jeudi au Vendredi : de 09h00 à 12h00 de 14h00 à 17h00","latitude":46.812798,"longitude":0.416162,"website":"https://www.scorbe-clairvaux.fr/","hasWebsite":true,"hasHoraires":true,"url":"https://lannuaire.service-public.gouv.fr/nouvelle-aquitaine/vienne/00a90691-83c0-478a-b9aa-d07f4117b76a"}
{"nom":"Senillé-Saint-Sauveur","nomNormalise":"senillesaintsauveur","typeCollectivite":"Commune","region":"Nouvelle-Aquitaine","departement":"Vienne","departementCode":"86","adresse":{"street":"Saint-Sauveur","postalCode":"86100","city":"Senillé-Saint-Sauveur","country":"France"},"contacts":{"email":"mairie@senille-st-sauveur.fr","telephone":"0549230377"},"horaires":"Du Lundi au Mardi : de 08h30 à 12h00\nDu Jeudi au Vendredi : de 13h30 à 17h30","latitude":46.808445,"longitude":0.623464,"website":"http://www.senille-st-sauveur.fr/","hasWebsite":true,"hasHoraires":true,"url":"https://lannuaire.service-public.gouv.fr/nouvelle-aquitaine/vienne/6e9ebc28-ed63-4c0b-ae7a-4a86283d6c7e"}
{"nom":"Sérigny","nomNormalise":"serigny","typeCollectivite":"Commune","region":"Nouvelle-Aquitaine","departement":"Vienne","departementCode":"86","adresse":{"street":"1 rue de la Mairie","postalCode":"86230","city":"Sérigny","country":"France"},"contacts":{"email":"contact@serigny.fr","telephone":"0549860368"},"horaires":"Le Mardi : de 08h00 à 12h30 de 13h30 à 17h00\nLe Vendredi : de 08h00 à 12h30 de 13h30 à 17h00","latitude":46.905495,"longitude":0.349209,"website":"","hasWebsite":false,"hasHoraires":true,"url":"https://lannuaire.service-public.gouv.fr/nouvelle-aquitaine/vienne/3534d9c4-d416-46dc-8f62-74bf84d85a93"}
{"nom":"Sèvres-Anxaumont","nomNormalise":"sevresanxaumont","typeCollectivite":"Commune","region":"Nouvelle-Aquitaine","departement":"Vienne","departementCode":"86","adresse":{"street":"Place Paul-Dezanneau","postalCode":"86800","city":"Sèvres-Anxaumont","country":"France"},"contacts":{"email":"contact@sevresanxaumont.fr","telephone":"0549565012"},"horaires":"Du Lundi au Mardi : de 08h30 à 12h00 de 13h30 à 17h30\nLe Mercredi : de 08h30 à 12h00\nLe Jeudi : de 08h30 à 12h00 de 14h30 à 17h30\nLe Vendredi : de 08h30 à 12h00 de 13h30 à 17h30","latitude":46.57009,"longitude":0.465095,"website":"http://www.sevresanxaumont.fr/","hasWebsite":true,"hasHoraires":true,"url":"https://lannuaire.service-public.gouv.fr/nouvelle-aquitaine/vienne/abce5403-9f58-4840-b86a-719023ac7e07"}
{"nom":"Sillars","nomNormalise":"sillars","typeCollectivite":"Commune","region":"Nouvelle-Aquitaine","departement":"Vienne","departementCode":"86","adresse":{"street":"1 rue de la Poste","postalCode":"86320","city":"Sillars","country":"France"},"contacts":{"email":"contact@sillars.fr","telephone":"0549484908"},"horaires":"Du Lundi au Vendredi : de 14h00 à 17h30","latitude":46.419865,"longitude":0.768832,"website":"http://www.sillars.fr/","hasWebsite":true,"hasHoraires":true,"url":"https://lannuaire.service-public.gouv.fr/nouvelle-aquitaine/vienne/82e00323-39c0-4d47-89a0-15004f7dbc85"}
{"nom":"Smarves","nomNormalise":"smarves","typeCollectivite":"Commune","region":"Nouvelle-Aquitaine","departement":"Vienne","departementCode":"86","adresse":{"street":"1 Place de la Mairie","postalCode":"86240","city":"Smarves","country":"France"},"contacts":{"email":"accueil@smarves.fr","telephone":"0549885460"},"horaires":"Du Lundi au Vendredi : de 08h15 à 12h00 de 13h30 à 17h30","latitude":46.51104,"longitude":0.350395,"website":"https://smarves.com/","hasWebsite":true,"hasHoraires":true,"url":"https://lannuaire.service-public.gouv.fr/nouvelle-aquitaine/vienne/20c8ff75-2388-470f-84a1-4458e8607561"}
{"nom":"Sommières-du-Clain","nomNormalise":"sommieresduclain","typeCollectivite":"Commune","region":"Nouvelle-Aquitaine","departement":"Vienne","departementCode":"86","adresse":{"street":"2 place de la Mairie","postalCode":"86160","city":"Sommières-du-Clain","country":"France"},"contacts":{"email":"contact@sommieresduclain.fr","telephone":"0549877014"},"horaires":"Le Lundi : de 08h45 à 12h30 de 13h30 à 17h30\nLe Mardi : de 08h45 à 12h30\nDu Mercredi au Jeudi : de 08h45 à 12h30 de 13h30 à 17h30\nLe Vendredi : de 08h45 à 12h30","latitude":46.278683,"longitude":0.359382,"website":"https://sommieresduclain.fr/","hasWebsite":true,"hasHoraires":true,"url":"https://lannuaire.service-public.gouv.fr/nouvelle-aquitaine/vienne/cde3942e-84ec-4362-b116-7d95464a20f0"}
{"nom":"Sossais","nomNormalise":"sossais","typeCollectivite":"Commune","region":"Nouvelle-Aquitaine","departement":"Vienne","departementCode":"86","adresse":{"street":"22 route de Lencloître","postalCode":"86230","city":"Sossay","country":"France"},"contacts":{"email":"contact@sossay.fr","telephone":"0549907361"},"horaires":"Du Lundi au Mardi : de 08h00 à 12h15\nLe Jeudi : de 08h00 à 12h15","latitude":46.8792,"longitude":0.350712,"website":"","hasWebsite":false,"hasHoraires":true,"url":"https://lannuaire.service-public.gouv.fr/nouvelle-aquitaine/vienne/3d7176b2-bfb3-4e73-a8e9-93a5edff1e4e"}
{"nom":"Surin","nomNormalise":"surin","typeCollectivite":"Commune","region":"Nouvelle-Aquitaine","departement":"Vienne","departementCode":"86","adresse":{"street":"8 rue de la Tour","postalCode":"86250","city":"Surin","country":"France"},"contacts":{"email":"contact@surin-vienne.fr","telephone":"0549871052"},"horaires":"Du Lundi au Mardi : de 09h00 à 12h00\nDu Jeudi au Vendredi : de 09h00 à 12h00","latitude":46.07794,"longitude":0.3715049,"website":"","hasWebsite":false,"hasHoraires":true,"url":"https://lannuaire.service-public.gouv.fr/nouvelle-aquitaine/vienne/3c14afd1-26a3-46ce-ba2b-9aa869e03587"}
{"nom":"Tercé","nomNormalise":"terce","typeCollectivite":"Commune","region":"Nouvelle-Aquitaine","departement":"Vienne","departementCode":"86","adresse":{"street":"18 place de l'Église","postalCode":"86800","city":"Tercé","country":"France"},"contacts":{"email":"contact@terce.fr","telephone":"0549568413"},"horaires":"Le Lundi : de 14h00 à 17h30\nLe Mardi : de 08h00 à 12h00\nLe Mercredi : de 09h00 à 12h00 de 14h00 à 17h30\nLe Jeudi : de 08h00 à 12h00\nLe Vendredi : de 09h00 à 12h00 de 14h00 à 17h00","latitude":46.51615,"longitude":0.563985,"website":"https://www.terce.fr/","hasWebsite":true,"hasHoraires":true,"url":"https://lannuaire.service-public.gouv.fr/nouvelle-aquitaine/vienne/783cb1bf-e896-4d1b-be26-b25ccb8b7b08"}
{"nom":"Ternay","nomNormalise":"ternay","typeCollectivite":"Commune","region":"Nouvelle-Aquitaine","departement":"Vienne","departementCode":"86","adresse":{"street":"Rue des Lamberts","postalCode":"86120","city":"Ternay","country":"France"},"contacts":{"email":"contact@ternay86.fr","telephone":"0549229243"},"horaires":"Le Mardi : de 14h00 à 17h00\nLe Jeudi : de 10h00 à 17h00","latitude":47.038986,"longitude":-0.0520734,"website":"","hasWebsite":false,"hasHoraires":true,"url":"https://lannuaire.service-public.gouv.fr/nouvelle-aquitaine/vienne/c9fd3f3e-d3bc-4010-9bf2-16d4d64d9ee2"}
{"nom":"Thollet","nomNormalise":"thollet","typeCollectivite":"Commune","region":"Nouvelle-Aquitaine","departement":"Vienne","departementCode":"86","adresse":{"street":"9 rue de l'Écluse","postalCode":"86290","city":"Thollet","country":"France"},"contacts":{"email":"contact@thollet.fr","telephone":"0549917370"},"horaires":"Le Lundi : de 14h00 à 17h30\nDu Mardi au Vendredi : de 13h30 à 17h30","latitude":46.421406,"longitude":1.122949,"website":"https://www.poitou-brenne.fr/","hasWebsite":true,"hasHoraires":true,"url":"https://lannuaire.service-public.gouv.fr/nouvelle-aquitaine/vienne/95b82448-f253-4a0c-9be1-a24931a49e3c"}
{"nom":"Thurageau","nomNormalise":"thurageau","typeCollectivite":"Commune","region":"Nouvelle-Aquitaine","departement":"Vienne","departementCode":"86","adresse":{"street":"1 place Gérard-Bourguignon","postalCode":"86110","city":"Thurageau","country":"France"},"contacts":{"email":"contact@thurageau.fr","telephone":"0549504314"},"horaires":"Du Lundi au Mardi : de 14h00 à 18h00\nLe Mercredi : de 08h00 à 12h00\nDu Jeudi au Vendredi : de 14h00 à 18h00","latitude":46.768295,"longitude":0.243228,"website":"","hasWebsite":false,"hasHoraires":true,"url":"https://lannuaire.service-public.gouv.fr/nouvelle-aquitaine/vienne/55c89373-74de-4c8a-9b88-73d5b9ec0cc9"}
{"nom":"Thuré","nomNormalise":"thure","typeCollectivite":"Commune","region":"Nouvelle-Aquitaine","departement":"Vienne","departementCode":"86","adresse":{"street":"13 rue Maurice-Bedel","postalCode":"86540","city":"Thuré","country":"France"},"contacts":{"email":"contact@ville-thure.fr","telephone":"0549938619"},"horaires":"Du Lundi au Mardi : de 09h00 à 12h00 de 13h30 à 17h00\nLe Jeudi : de 09h00 à 12h00 de 13h30 à 17h00\nLe Vendredi : de 09h00 à 12h00 de 13h30 à 16h00","latitude":46.8317,"longitude":0.459086,"website":"https://www.thure.fr/","hasWebsite":true,"hasHoraires":true,"url":"https://lannuaire.service-public.gouv.fr/nouvelle-aquitaine/vienne/8dfce492-c376-4939-9b41-e590d3744881"}
{"nom":"Usseau","nomNormalise":"usseau","typeCollectivite":"Commune","region":"Nouvelle-Aquitaine","departement":"Vienne","departementCode":"86","adresse":{"street":"2 place Maurice-Bedel","postalCode":"86230","city":"Usseau","country":"France"},"contacts":{"email":"contact@usseau86.fr","telephone":"0549027224"},"horaires":"Le Lundi : de 13h30 à 17h00\nLe Mercredi : de 08h30 à 12h00\nLe Vendredi : de 13h30 à 17h00","latitude":46.8758,"longitude":0.509192,"website":"http://www.usseau86.fr/","hasWebsite":true,"hasHoraires":true,"url":"https://lannuaire.service-public.gouv.fr/nouvelle-aquitaine/vienne/e2cea5e3-adb5-4615-94cc-62df928096c2"}
{"nom":"Usson-du-Poitou","nomNormalise":"ussondupoitou","typeCollectivite":"Commune","region":"Nouvelle-Aquitaine","departement":"Vienne","departementCode":"86","adresse":{"street":"21 rue du Général-de-Gaulle","postalCode":"86350","city":"Usson-du-Poitou","country":"France"},"contacts":{"email":"contact@mairieussondupoitou.fr","telephone":"0549595017"},"horaires":"Du Lundi au Jeudi : de 08h30 à 12h00\nLe Vendredi : de 08h30 à 12h00 de 14h00 à 17h00","latitude":46.2772,"longitude":0.530188,"website":"https://ussondupoitou.fr/","hasWebsite":true,"hasHoraires":true,"url":"https://lannuaire.service-public.gouv.fr/nouvelle-aquitaine/vienne/7fc024fa-6697-47a6-8802-8a88ddbb2eaa"}
{"nom":"Val-de-Comporté","nomNormalise":"valdecomporte","typeCollectivite":"Commune","region":"Nouvelle-Aquitaine","departement":"Vienne","departementCode":"86","adresse":{"street":"La Croix-Bardon","postalCode":"86400","city":"Val-de-Comporté","country":"France"},"contacts":{"email":"contact@valdecomporte.fr","telephone":"0962628103"},"horaires":"Du Lundi au Mardi : de 08h30 à 12h00 de 13h30 à 17h00\nDu Jeudi au Vendredi : de 08h30 à 12h30\n\nJusqu''au 1er septembre 2021 l'accueil est ouvert les lundis, mardis de 9h à 12h et de 13h30 à 17h30, les jeudis et vendredi de 9h à 12h30.","latitude":46.13313,"longitude":0.243331,"website":"","hasWebsite":false,"hasHoraires":true,"url":"https://lannuaire.service-public.gouv.fr/nouvelle-aquitaine/vienne/d7d747f4-68a0-4408-a20b-8d00ea29f918"}
{"nom":"Valdivienne","nomNormalise":"valdivienne","typeCollectivite":"Commune","region":"Nouvelle-Aquitaine","departement":"Vienne","departementCode":"86","adresse":{"street":"29 route de Lussac","postalCode":"86300","city":"Valdivienne","country":"France"},"contacts":{"email":"mairie@valdivienne.fr","telephone":"0549563026"},"horaires":"Le Lundi : de 14h00 à 16h45\nDu Mardi au Vendredi : de 09h00 à 12h00 de 14h00 à 16h45","latitude":46.509,"longitude":0.635355,"website":"https://www.valdivienne.fr/","hasWebsite":true,"hasHoraires":true,"url":"https://lannuaire.service-public.gouv.fr/nouvelle-aquitaine/vienne/d4dd2a6a-b529-4d6d-9518-d99c4ba68c2b"}
{"nom":"Mairie déléguée - Varennes","nomNormalise":"mairiedelegueevarennes","typeCollectivite":"Commune","region":"Nouvelle-Aquitaine","departement":"Vienne","departementCode":"86","adresse":{"street":"Varennes","postalCode":"86110","city":"Saint-Martin-La-Pallu","country":"France"},"contacts":{"email":"accueilvarennes@saintmartinlapallu.fr","telephone":"0549504464"},"horaires":"Le Lundi : de 09h00 à 12h00\nLe Vendredi : de 14h00 à 18h00","latitude":46.759377,"longitude":0.200391,"website":"https://www.saintmartinlapallu.fr/","hasWebsite":true,"hasHoraires":true,"url":"https://lannuaire.service-public.gouv.fr/nouvelle-aquitaine/vienne/17f66814-2c24-40f4-af53-4b8465ba96a7"}
{"nom":"Vaux","nomNormalise":"vaux","typeCollectivite":"Commune","region":"Nouvelle-Aquitaine","departement":"Vienne","departementCode":"86","adresse":{"street":"Vaux","postalCode":"86700","city":"Valence-en-Poitou","country":"France"},"contacts":{"email":"vaux@valenceenpoitou.fr","telephone":"0549592915"},"horaires":"Le Mardi : de 13h30 à 18h00\nLe Mercredi : de 13h30 à 17h00\nDu Jeudi au Vendredi : de 13h30 à 18h00\nLe Samedi : de 09h00 à 12h00","latitude":46.29754,"longitude":0.221335,"website":"","hasWebsite":false,"hasHoraires":true,"url":"https://lannuaire.service-public.gouv.fr/nouvelle-aquitaine/vienne/2c882d2e-4a40-43ae-9082-21ef4282d44e"}
{"nom":"Vaux-sur-Vienne","nomNormalise":"vauxsurvienne","typeCollectivite":"Commune","region":"Nouvelle-Aquitaine","departement":"Vienne","departementCode":"86","adresse":{"street":"10 rue de la Mairie","postalCode":"86220","city":"Vaux-sur-Vienne","country":"France"},"contacts":{"email":"contact@vauxsurvienne.fr","telephone":"0549864151"},"horaires":"Du Lundi au Mardi : de 14h00 à 18h00\nLe Jeudi : de 14h00 à 18h00\nLe Vendredi : de 13h00 à 17h00","latitude":46.9125,"longitude":0.561877,"website":"https://www.grand-chatellerault.fr/communes/vaux-sur-vienne","hasWebsite":true,"hasHoraires":true,"url":"https://lannuaire.service-public.gouv.fr/nouvelle-aquitaine/vienne/4219be0b-3cfc-469d-8810-26cf3c2ea4e9"}
{"nom":"Vellèches","nomNormalise":"velleches","typeCollectivite":"Commune","region":"Nouvelle-Aquitaine","departement":"Vienne","departementCode":"86","adresse":{"street":"1 rue de l'Étang","postalCode":"86230","city":"Vellèches","country":"France"},"contacts":{"email":"mairie.velleches@wanadoo.fr","telephone":"0549864176"},"horaires":"Le Lundi : de 13h30 à 17h30\nLe Vendredi : de 13h30 à 17h30","latitude":46.94278,"longitude":0.532133,"website":"https://www.commune-mairie.fr/velleches-86230","hasWebsite":true,"hasHoraires":true,"url":"https://lannuaire.service-public.gouv.fr/nouvelle-aquitaine/vienne/ba057ae8-4a10-4bb7-8299-0dc26dd76eaa"}
{"nom":"Vernon","nomNormalise":"vernon","typeCollectivite":"Commune","region":"Nouvelle-Aquitaine","departement":"Vienne","departementCode":"86","adresse":{"street":"2 rue du Château","postalCode":"86340","city":"Vernon","country":"France"},"contacts":{"email":"contact@vernon86.fr","telephone":"0549426153"},"horaires":"Le Lundi : de 09h00 à 12h00 de 15h00 à 17h00\nDu Mardi au Jeudi : de 09h00 à 12h00\nLe Vendredi : de 09h00 à 12h00 de 15h00 à 17h00","latitude":46.4419,"longitude":0.47671,"website":"https://www.vernon86.fr/","hasWebsite":true,"hasHoraires":true,"url":"https://lannuaire.service-public.gouv.fr/nouvelle-aquitaine/vienne/bbdc6e67-1556-41de-9979-474f069505d3"}
{"nom":"Verrières","nomNormalise":"verrieres","typeCollectivite":"Commune","region":"Nouvelle-Aquitaine","departement":"Vienne","departementCode":"86","adresse":{"street":"14 place de la Mairie","postalCode":"86410","city":"Verrières","country":"France"},"contacts":{"email":"contact@verrieres86.fr","telephone":"0549427177"},"horaires":"Le Lundi : de 14h00 à 17h00\nDu Mardi au Mercredi : de 09h00 à 12h00 de 14h00 à 17h00\nLe Jeudi : de 09h00 à 12h00\nLe Vendredi : de 09h00 à 12h00 de 14h00 à 17h00","latitude":46.41247,"longitude":0.5929319,"website":"http://www.verrieres-vienne.fr/","hasWebsite":true,"hasHoraires":true,"url":"https://lannuaire.service-public.gouv.fr/nouvelle-aquitaine/vienne/d58531c8-2ae7-41c8-911a-16ecc8204dcf"}
{"nom":"Verrue","nomNormalise":"verrue","typeCollectivite":"Commune","region":"Nouvelle-Aquitaine","departement":"Vienne","departementCode":"86","adresse":{"street":"5 Grand'rue","postalCode":"86420","city":"Verrue","country":"France"},"contacts":{"email":"contact@verrue86.fr","telephone":"0549504239"},"horaires":"Le Lundi : de 09h00 à 12h30 de 13h30 à 18h00\nLe Mardi : de 09h00 à 12h30 de 13h30 à 17h00\nLe Mercredi : de 09h00 à 12h30 de 13h30 à 16h30\nLe Jeudi : de 09h00 à 12h30 de 13h30 à 17h00\nLe Vendredi : de 09h00 à 13h00","latitude":46.8631,"longitude":0.171155,"website":"","hasWebsite":false,"hasHoraires":true,"url":"https://lannuaire.service-public.gouv.fr/nouvelle-aquitaine/vienne/58632d38-5a79-439c-adde-9c36a1d76cf2"}
{"nom":"Vézières","nomNormalise":"vezieres","typeCollectivite":"Commune","region":"Nouvelle-Aquitaine","departement":"Vienne","departementCode":"86","adresse":{"street":"1 rue de l'Église","postalCode":"86120","city":"Vézières","country":"France"},"contacts":{"email":"contact@vezieres.fr","telephone":"0549986821"},"horaires":"Du Lundi au Mardi : de 09h00 à 12h00\nDu Jeudi au Vendredi : de 09h00 à 12h00","latitude":47.08843,"longitude":0.10041,"website":"https://www.vezieres.fr/","hasWebsite":true,"hasHoraires":true,"url":"https://lannuaire.service-public.gouv.fr/nouvelle-aquitaine/vienne/57e09e90-4f71-43e9-b951-b56dd2b33895"}
{"nom":"Vicq-sur-Gartempe","nomNormalise":"vicqsurgartempe","typeCollectivite":"Commune","region":"Nouvelle-Aquitaine","departement":"Vienne","departementCode":"86","adresse":{"street":"2 rue du Terrier-Sainte-Serenne","postalCode":"86260","city":"Vicq-sur-Gartempe","country":"France"},"contacts":{"email":"contact@vicq-sur-gartempe.fr","telephone":"0549862265"},"horaires":"Du Lundi au Vendredi : de 09h00 à 12h00 de 14h00 à 17h00","latitude":46.721134,"longitude":0.862059,"website":"https://www.vicq-sur-gartempe.fr/","hasWebsite":true,"hasHoraires":true,"url":"https://lannuaire.service-public.gouv.fr/nouvelle-aquitaine/vienne/f74c6457-d02e-4ec5-b55f-5c3ef83897f1"}
{"nom":"Villemort","nomNormalise":"villemort","typeCollectivite":"Commune","region":"Nouvelle-Aquitaine","departement":"Vienne","departementCode":"86","adresse":{"street":"13 rue de l'École","postalCode":"86310","city":"Villemort","country":"France"},"contacts":{"email":"contact@villemort.fr","telephone":"0549481384"},"horaires":"Du Lundi au Mardi : de 14h30 à 17h30\nDu Jeudi au Vendredi : de 14h30 à 17h30","latitude":46.551365,"longitude":0.922317,"website":"","hasWebsite":false,"hasHoraires":true,"url":"https://lannuaire.service-public.gouv.fr/nouvelle-aquitaine/vienne/a122e5fc-f8a1-4abe-b074-22bbafc8c983"}
{"nom":"Villiers","nomNormalise":"villiers","typeCollectivite":"Commune","region":"Nouvelle-Aquitaine","departement":"Vienne","departementCode":"86","adresse":{"street":"10 place de la Mairie","postalCode":"86190","city":"Villiers","country":"France"},"contacts":{"email":"contact@villiers86.fr","telephone":"0549518645"},"horaires":"Du Lundi au Mardi : de 09h00 à 13h00\nDu Jeudi au Vendredi : de 12h45 à 17h00","latitude":46.67634,"longitude":0.176067,"website":"","hasWebsite":false,"hasHoraires":true,"url":"https://lannuaire.service-public.gouv.fr/nouvelle-aquitaine/vienne/2cc1eaca-88b6-4066-8f49-c44a7b589ac4"}
{"nom":"Vivonne","nomNormalise":"vivonne","typeCollectivite":"Commune","region":"Nouvelle-Aquitaine","departement":"Vienne","departementCode":"86","adresse":{"street":"4 avenue de Bordeaux","postalCode":"86370","city":"Vivonne","country":"France"},"contacts":{"email":"contact@vivonne.fr","telephone":"0549434105"},"horaires":"Du Lundi au Jeudi : de 08h00 à 12h00 de 14h00 à 17h30\nLe Vendredi : de 08h00 à 12h00 de 14h00 à 16h30\n\nAccueil ouvert l'après-midi uniquement pour l'état civil.\nLe Samedi : de 09h30 à 11h30\n\nAccueil ouvert uniquement pour l'état civil et fermé en juillet-août.","latitude":46.4239,"longitude":0.255003,"website":"http://www.vivonne.fr/","hasWebsite":true,"hasHoraires":true,"url":"https://lannuaire.service-public.gouv.fr/nouvelle-aquitaine/vienne/ace10940-30ae-45cb-985e-5668c85f8725"}
{"nom":"Vouillé","nomNormalise":"vouille","typeCollectivite":"Commune","region":"Nouvelle-Aquitaine","departement":"Vienne","departementCode":"86","adresse":{"street":"3 place François-Albert","postalCode":"86190","city":"Vouillé","country":"France"},"contacts":{"email":"mairie@vouille86.fr","telephone":"0549542030"},"horaires":"Le Lundi : de 09h00 à 12h00 de 13h30 à 17h30\nLe Mardi : de 09h00 à 12h00\nDu Mercredi au Jeudi : de 09h00 à 12h00 de 13h30 à 17h30\nLe Vendredi : de 09h00 à 12h00 de 13h30 à 17h00\nLe Samedi : de 09h00 à 12h00","latitude":46.639,"longitude":0.16564,"website":"https://vouille86.fr/mairie/","hasWebsite":true,"hasHoraires":true,"url":"https://lannuaire.service-public.gouv.fr/nouvelle-aquitaine/vienne/bd1c23a3-6457-4b9b-b34f-c4b098355497"}
{"nom":"Voulême","nomNormalise":"vouleme","typeCollectivite":"Commune","region":"Nouvelle-Aquitaine","departement":"Vienne","departementCode":"86","adresse":{"street":"Le Bourg","postalCode":"86400","city":"Voulême","country":"France"},"contacts":{"email":"contact@vouleme.fr","telephone":"0549870946"},"horaires":"Le Mardi : de 09h30 à 12h00\nDu Jeudi au Vendredi : de 09h30 à 12h00","latitude":46.099632,"longitude":0.230855,"website":"","hasWebsite":false,"hasHoraires":true,"url":"https://lannuaire.service-public.gouv.fr/nouvelle-aquitaine/vienne/5e6fa86d-180e-409b-9e7d-a6b60509f400"}
{"nom":"Voulon","nomNormalise":"voulon","typeCollectivite":"Commune","region":"Nouvelle-Aquitaine","departement":"Vienne","departementCode":"86","adresse":{"street":"1 place André-Sénécheau","postalCode":"86700","city":"Voulon","country":"France"},"contacts":{"email":"mairie@voulon.fr","telephone":"0549424299"},"horaires":"Du Lundi au Mardi : de 10h00 à 12h00\nDu Jeudi au Samedi : de 10h00 à 12h00","latitude":46.356403,"longitude":0.245087,"website":"https://www.voulon.fr/","hasWebsite":true,"hasHoraires":true,"url":"https://lannuaire.service-public.gouv.fr/nouvelle-aquitaine/vienne/7e12f4f1-4694-49ee-9078-ac609fcb4152"}
{"nom":"Vouneuil-sous-Biard","nomNormalise":"vouneuilsousbiard","typeCollectivite":"Commune","region":"Nouvelle-Aquitaine","departement":"Vienne","departementCode":"86","adresse":{"street":"1 place Moretta","postalCode":"86580","city":"Vouneuil-sous-Biard","country":"France"},"contacts":{"email":"info@vouneuil-sous-biard.com","telephone":"0549361020"},"horaires":"Du Lundi au Vendredi : de 08h30 à 12h00 de 13h30 à 17h30","latitude":46.57324,"longitude":0.271659,"website":"https://vouneuil-sous-biard.fr/","hasWebsite":true,"hasHoraires":true,"url":"https://lannuaire.service-public.gouv.fr/nouvelle-aquitaine/vienne/572e79eb-8ab5-423a-8999-471bd2db4afe"}
{"nom":"Vouneuil-sur-Vienne","nomNormalise":"vouneuilsurvienne","typeCollectivite":"Commune","region":"Nouvelle-Aquitaine","departement":"Vienne","departementCode":"86","adresse":{"street":"34 place de la Libération","postalCode":"86210","city":"Vouneuil-sur-Vienne","country":"France"},"contacts":{"email":"accueil@vouneuilsurvienne.fr","telephone":"0549851148"},"horaires":"Du Lundi au Mardi : de 08h30 à 12h00 de 14h00 à 17h30\nLe Mercredi : de 08h30 à 12h00\nDu Jeudi au Vendredi : de 08h30 à 12h00 de 14h00 à 17h30\nLe Samedi : de 09h00 à 12h00\n\nAccueil fermé en juillet-août.","latitude":46.718067,"longitude":0.5387721,"website":"https://www.vouneuil-sur-vienne.fr/","hasWebsite":true,"hasHoraires":true,"url":"https://lannuaire.service-public.gouv.fr/nouvelle-aquitaine/vienne/e2c522fe-eb80-46f4-9c73-ad703acf158a"}
{"nom":"Vouzailles","nomNormalise":"vouzailles","typeCollectivite":"Commune","region":"Nouvelle-Aquitaine","departement":"Vienne","departementCode":"86","adresse":{"street":"1 route de Mirebeau","postalCode":"86170","city":"Vouzailles","country":"France"},"contacts":{"email":"mairie@vouzailles86.fr","telephone":"0549510829"},"horaires":"Le Lundi : de 09h00 à 12h30 de 13h30 à 17h00\nLe Mardi : de 09h00 à 12h30\nLe Mercredi : de 09h00 à 12h00\nLe Jeudi : de 09h00 à 12h30\nLe Vendredi : de 08h00 à 12h30 de 13h30 à 17h00","latitude":46.709312,"longitude":0.095674,"website":"http://mairie.vouzailles.free.fr/","hasWebsite":true,"hasHoraires":true,"url":"https://lannuaire.service-public.gouv.fr/nouvelle-aquitaine/vienne/ca64e25b-eb57-4c64-9d36-129c6ec0c8bf"}
{"nom":"Yversay","nomNormalise":"yversay","typeCollectivite":"Commune","region":"Nouvelle-Aquitaine","departement":"Vienne","departementCode":"86","adresse":{"street":"1 place de la Mairie","postalCode":"86170","city":"Yversay","country":"France"},"contacts":{"email":"contact@yversay.fr","telephone":"0549511112"},"horaires":"Du Mardi au Vendredi : de 08h00 à 12h00 de 13h30 à 16h00","latitude":46.676823,"longitude":0.216698,"website":"","hasWebsite":false,"hasHoraires":true,"url":"https://lannuaire.service-public.gouv.fr/nouvelle-aquitaine/vienne/bf666a44-2931-4e74-a41d-362faa4ca463"}
