{"nom":"Aixe-sur-Vienne","nomNormalise":"aixesurvienne","typeCollectivite":"Commune","region":"Nouvelle-Aquitaine","departement":"Haute-Vienne","departementCode":"87","adresse":{"street":"44 avenue du Président-Wilson","postalCode":"87700","city":"Aixe-sur-Vienne","country":"France"},"contacts":{"email":"mairie@mairie-aixesurvienne.fr","telephone":"0555707700"},"horaires":"Du Lundi au Jeudi : de 08h30 à 12h30 de 13h30 à 17h30\nLe Vendredi : de 08h30 à 12h30 de 13h30 à 16h30\nLe Samedi : de 09h00 à 12h00\n\n9h00 à 10h30 : sur rendez vous pour la remise des CNI et des passeports de 10h30 à 12h00 : sans rendez-vous, pour les démarches liées à l'État Civil","latitude":45.796673,"longitude":1.136187,"website":"https://www.mairie-aixesurvienne.fr/","hasWebsite":true,"hasHoraires":true,"url":"https://lannuaire.service-public.gouv.fr/nouvelle-aquitaine/haute-vienne/45f227e5-7834-4f15-89c6-429fac2da742"}
{"nom":"Ambazac","nomNormalise":"ambazac","typeCollectivite":"Commune","region":"Nouvelle-Aquitaine","departement":"Haute-Vienne","departementCode":"87","adresse":{"street":"Place de l'Hôtel-de-Ville","postalCode":"87240","city":"Ambazac","country":"France"},"contacts":{"email":"accueil@ambazac.fr","telephone":"0555566145"},"horaires":"Du Lundi au Vendredi : de 08h00 à 12h00 de 13h40 à 17h30\nLe Samedi : de 09h00 à 12h00\n\nAccueil ouvert uniquement pour l'état civil.","latitude":45.95824,"longitude":1.401025,"website":"https://mairie-ambazac.fr/","hasWebsite":true,"hasHoraires":true,"url":"https://lannuaire.service-public.gouv.fr/nouvelle-aquitaine/haute-vienne/25b18e19-9c2e-4d4d-9e46-91b124f49c7a"}
{"nom":"Arnac-la-Poste","nomNormalise":"arnaclaposte","typeCollectivite":"Commune","region":"Nouvelle-Aquitaine","departement":"Haute-Vienne","departementCode":"87","adresse":{"street":"2 place du Champ-de-Foire","postalCode":"87160","city":"Arnac-la-Poste","country":"France"},"contacts":{"email":"mairiearnaclaposte87@orange.fr","telephone":"0555768130"},"horaires":"Du Lundi au Vendredi : de 09h00 à 12h00 de 14h30 à 17h00\nLe Samedi : de 09h00 à 12h00\n\nouvert un samedi sur 2 sauf les samedis, pendant les congés des deux agents où le secrétariat sera fermé. Fermé tous les samedis durant juillet et août.","latitude":46.26591,"longitude":1.374817,"website":"http://mairie-arnaclaposte.com/","hasWebsite":true,"hasHoraires":true,"url":"https://lannuaire.service-public.gouv.fr/nouvelle-aquitaine/haute-vienne/1e5a44f2-8bbb-487b-8e87-4a99dcad298f"}
{"nom":"Augne","nomNormalise":"augne","typeCollectivite":"Commune","region":"Nouvelle-Aquitaine","departement":"Haute-Vienne","departementCode":"87","adresse":{"street":"1395 route de Peyrat","postalCode":"87120","city":"Augne","country":"France"},"contacts":{"email":"mairie.augne@wanadoo.fr","telephone":"0555691622"},"horaires":"Du Lundi au Mardi : de 09h15 à 12h00 de 14h00 à 17h30\nLe Jeudi : de 09h15 à 12h00 de 14h00 à 17h30\nLe Vendredi : de 09h15 à 12h00","latitude":45.78417,"longitude":1.705408,"website":"https://www.augne.fr/","hasWebsite":true,"hasHoraires":true,"url":"https://lannuaire.service-public.gouv.fr/nouvelle-aquitaine/haute-vienne/3346112c-d6ef-42c5-b378-45891c22337b"}
{"nom":"Aureil","nomNormalise":"aureil","typeCollectivite":"Commune","region":"Nouvelle-Aquitaine","departement":"Haute-Vienne","departementCode":"87","adresse":{"street":"49 rue des Écoles","postalCode":"87220","city":"Aureil","country":"France"},"contacts":{"email":"accueil@mairie-aureil.fr","telephone":"0555002811"},"horaires":"Du Lundi au Vendredi : de 14h00 à 18h00\nLe Samedi : de 09h00 à 12h00","latitude":45.806557,"longitude":1.393161,"website":"http://www.mairie-aureil.fr/","hasWebsite":true,"hasHoraires":true,"url":"https://lannuaire.service-public.gouv.fr/nouvelle-aquitaine/haute-vienne/3879c00d-fec9-4e2a-82a0-75f864f69382"}
{"nom":"Azat-le-Ris","nomNormalise":"azatleris","typeCollectivite":"Commune","region":"Nouvelle-Aquitaine","departement":"Haute-Vienne","departementCode":"87","adresse":{"street":"23 rue du Pré-du-Moulin","postalCode":"87360","city":"Azat-le-Ris","country":"France"},"contacts":{"email":"mairie.azat@wanadoo.fr","telephone":"0555682158"},"horaires":"Du Lundi au Jeudi : de 08h30 à 12h30 de 13h30 à 17h30\nLe Vendredi : de 09h00 à 12h00","latitude":46.319286,"longitude":1.058059,"website":"","hasWebsite":false,"hasHoraires":true,"url":"https://lannuaire.service-public.gouv.fr/nouvelle-aquitaine/haute-vienne/025f6d3c-c3bc-46ea-829c-56cbb15d09ba"}
{"nom":"Balledent","nomNormalise":"balledent","typeCollectivite":"Commune","region":"Nouvelle-Aquitaine","departement":"Haute-Vienne","departementCode":"87","adresse":{"street":"16 Grand'rue","postalCode":"87290","city":"Balledent","country":"France"},"contacts":{"email":"mairieballedent@wanadoo.fr","telephone":"0555681151"},"horaires":"Du Lundi au Vendredi : de 08h00 à 12h00","latitude":46.111202,"longitude":1.208922,"website":"","hasWebsite":false,"hasHoraires":true,"url":"https://lannuaire.service-public.gouv.fr/nouvelle-aquitaine/haute-vienne/b8330004-92fc-4943-806c-42ea94c1425c"}
{"nom":"Beaumont-du-Lac","nomNormalise":"beaumontdulac","typeCollectivite":"Commune","region":"Nouvelle-Aquitaine","departement":"Haute-Vienne","departementCode":"87","adresse":{"street":"Le Bourg","postalCode":"87120","city":"Beaumont-du-Lac","country":"France"},"contacts":{"email":"mairie.beaumontdulac@wanadoo.fr","telephone":"0555691562"},"horaires":"Du Lundi au Vendredi : de 09h00 à 12h00 de 14h00 à 17h00","latitude":45.771194,"longitude":1.834568,"website":"","hasWebsite":false,"hasHoraires":true,"url":"https://lannuaire.service-public.gouv.fr/nouvelle-aquitaine/haute-vienne/c7684649-785f-4dd2-a32d-12b25b771488"}
{"nom":"Bellac","nomNormalise":"bellac","typeCollectivite":"Commune","region":"Nouvelle-Aquitaine","departement":"Haute-Vienne","departementCode":"87","adresse":{"street":"14 place de la République","postalCode":"87300","city":"Bellac","country":"France"},"contacts":{"email":"bellac@mairie-bellac.fr","telephone":"0555681061"},"horaires":"Du Lundi au Vendredi : de 08h30 à 12h00 de 13h30 à 17h00\nLe Samedi : de 09h00 à 12h00","latitude":46.12149,"longitude":1.046322,"website":"https://www.bellac.fr/","hasWebsite":true,"hasHoraires":true,"url":"https://lannuaire.service-public.gouv.fr/nouvelle-aquitaine/haute-vienne/05048df5-ab1e-4f43-a455-c8ced1c64459"}
{"nom":"Berneuil","nomNormalise":"berneuil","typeCollectivite":"Commune","region":"Nouvelle-Aquitaine","departement":"Haute-Vienne","departementCode":"87","adresse":{"street":"2 route de Poitiers","postalCode":"87300","city":"Berneuil","country":"France"},"contacts":{"email":"secretariat-mairie@berneuil.fr","telephone":"0555680803"},"horaires":"Du Lundi au Mardi : de 09h00 à 12h00 de 14h00 à 16h30\nLe Mercredi : de 09h00 à 12h00\nDu Jeudi au Vendredi : de 09h00 à 12h00 de 14h00 à 16h30\nLe Samedi : de 10h00 à 12h00","latitude":46.06966,"longitude":1.104687,"website":"http://www.berneuil.fr/","hasWebsite":true,"hasHoraires":true,"url":"https://lannuaire.service-public.gouv.fr/nouvelle-aquitaine/haute-vienne/5b53c7f0-df50-4085-aee9-62f009a5b60d"}
{"nom":"Bersac-sur-Rivalier","nomNormalise":"bersacsurrivalier","typeCollectivite":"Commune","region":"Nouvelle-Aquitaine","departement":"Haute-Vienne","departementCode":"87","adresse":{"street":"1 rue du Commerce","postalCode":"87370","city":"Bersac-sur-Rivalier","country":"France"},"contacts":{"email":"mairiebersac@wanadoo.fr","telephone":"0555714369"},"horaires":"Du Lundi au Samedi : de 08h30 à 12h00\n\nFermé au public tous les après-midi.","latitude":46.080383,"longitude":1.426128,"website":"https://bersacsurrivalier.fr/","hasWebsite":true,"hasHoraires":true,"url":"https://lannuaire.service-public.gouv.fr/nouvelle-aquitaine/haute-vienne/7d709446-d89a-4184-9599-4d00f445b673"}
{"nom":"Bessines-sur-Gartempe","nomNormalise":"bessinessurgartempe","typeCollectivite":"Commune","region":"Nouvelle-Aquitaine","departement":"Haute-Vienne","departementCode":"87","adresse":{"street":"1 place de la Liberté","postalCode":"87250","city":"Bessines-sur-Gartempe","country":"France"},"contacts":{"email":"commune.de.bessines@gmail.com","telephone":"0555760509"},"horaires":"Du Lundi au Vendredi : de 08h30 à 12h00 de 14h00 à 17h30\nLe Samedi : de 09h00 à 12h00","latitude":46.109013,"longitude":1.368669,"website":"http://www.bessines-sur-gartempe-87.fr/","hasWebsite":true,"hasHoraires":true,"url":"https://lannuaire.service-public.gouv.fr/nouvelle-aquitaine/haute-vienne/619b8aa8-3177-4138-85b8-d0ba17a10242"}
{"nom":"Beynac","nomNormalise":"beynac","typeCollectivite":"Commune","region":"Nouvelle-Aquitaine","departement":"Haute-Vienne","departementCode":"87","adresse":{"street":"29 rue de la Croix-des-Combes","postalCode":"87700","city":"Beynac","country":"France"},"contacts":{"email":"beynac87.mairie@gmail.com","telephone":"0555702492"},"horaires":"Du Lundi au Mardi : de 09h00 à 12h00 de 14h00 à 18h00\nLe Mercredi : de 09h00 à 13h00\nLe Jeudi : de 09h00 à 12h00 de 14h00 à 18h00\nLe Vendredi : de 09h00 à 13h00","latitude":45.757355,"longitude":1.168486,"website":"https://www.beynac87.fr/","hasWebsite":true,"hasHoraires":true,"url":"https://lannuaire.service-public.gouv.fr/nouvelle-aquitaine/haute-vienne/df0d9e7a-945b-4aea-83e0-a7348b42237e"}
{"nom":"Blanzac","nomNormalise":"blanzac","typeCollectivite":"Commune","region":"Nouvelle-Aquitaine","departement":"Haute-Vienne","departementCode":"87","adresse":{"street":"5 rue de la Mairie","postalCode":"87300","city":"Blanzac","country":"France"},"contacts":{"email":"mairie.blanzac@gmail.com","telephone":"0555687163"},"horaires":"Du Lundi au Mardi : de 09h00 à 12h00 de 13h30 à 17h30\nLe Mercredi : de 09h00 à 12h00\nLe Vendredi : de 09h00 à 12h00 de 13h30 à 17h30","latitude":46.13369,"longitude":1.113369,"website":"https://blanzac87.fr/fr/","hasWebsite":true,"hasHoraires":true,"url":"https://lannuaire.service-public.gouv.fr/nouvelle-aquitaine/haute-vienne/08c6ff1b-b701-4e13-a923-3f68a023fde9"}
{"nom":"Blond","nomNormalise":"blond","typeCollectivite":"Commune","region":"Nouvelle-Aquitaine","departement":"Haute-Vienne","departementCode":"87","adresse":{"street":"2 rue du 7-Août-1944","postalCode":"87300","city":"Blond","country":"France"},"contacts":{"email":"mairie.blond@gmail.com","telephone":"0555681402"},"horaires":"Du Lundi au Vendredi : de 09h00 à 12h00 de 14h00 à 17h00\nLes samedis sur rendez-vous.","latitude":46.0446,"longitude":1.01977,"website":"https://communedeblond.jimdofree.com/","hasWebsite":true,"hasHoraires":true,"url":"https://lannuaire.service-public.gouv.fr/nouvelle-aquitaine/haute-vienne/8b5a7218-eac2-41a1-a168-3e909f8a3d7c"}
{"nom":"Boisseuil","nomNormalise":"boisseuil","typeCollectivite":"Commune","region":"Nouvelle-Aquitaine","departement":"Haute-Vienne","departementCode":"87","adresse":{"street":"Place de Soneja","postalCode":"87220","city":"Boisseuil","country":"France"},"contacts":{"email":"accueil@mairie-boisseuil87.fr","telephone":"0555069106"},"horaires":"Du Lundi au Vendredi : de 08h30 à 12h00 de 13h30 à 17h30\nLe Samedi : de 08h30 à 12h00\n\nsauf fermeture annuelle pendant la période estivale du 10 juillet au 14 août inclus.\nMonsieur le Maire reçoit sur rendez-vous.","latitude":45.7706,"longitude":1.33053,"website":"http://www.boisseuil87.fr/","hasWebsite":true,"hasHoraires":true,"url":"https://lannuaire.service-public.gouv.fr/nouvelle-aquitaine/haute-vienne/f804ea7f-4836-4cd2-bfff-5da3455d8ecb"}
{"nom":"Bonnac-la-Côte","nomNormalise":"bonnaclacote","typeCollectivite":"Commune","region":"Nouvelle-Aquitaine","departement":"Haute-Vienne","departementCode":"87","adresse":{"street":"10 rue de la Mazelle","postalCode":"87270","city":"Bonnac-la-Côte","country":"France"},"contacts":{"email":"mairie@bonnac-la-cote.fr","telephone":"0555399301"},"horaires":"Du Lundi au Vendredi : de 09h00 à 12h00 de 14h00 à 17h00\nLe Samedi : de 09h00 à 12h00","latitude":45.942223,"longitude":1.28601,"website":"https://www.bonnac-la-cote.fr/","hasWebsite":true,"hasHoraires":true,"url":"https://lannuaire.service-public.gouv.fr/nouvelle-aquitaine/haute-vienne/21abd470-e1c8-4fd7-b42b-31291f3ecdbd"}
{"nom":"Bosmie-l'Aiguille","nomNormalise":"bosmielaiguille","typeCollectivite":"Commune","region":"Nouvelle-Aquitaine","departement":"Haute-Vienne","departementCode":"87","adresse":{"street":"Parc du Boucheron","postalCode":"87110","city":"Bosmie-l'Aiguille","country":"France"},"contacts":{"email":"secretariat@mairie-bosmie.fr","telephone":"0555390049"},"horaires":"Du Lundi au Vendredi : de 09h00 à 12h00 de 13h00 à 18h00\nLe Samedi : de 09h00 à 12h00","latitude":45.768147,"longitude":1.215895,"website":"https://mairie-bosmie.fr/","hasWebsite":true,"hasHoraires":true,"url":"https://lannuaire.service-public.gouv.fr/nouvelle-aquitaine/haute-vienne/29b35441-a19f-427d-bea4-36886be9c149"}
{"nom":"Breuilaufa","nomNormalise":"breuilaufa","typeCollectivite":"Commune","region":"Nouvelle-Aquitaine","departement":"Haute-Vienne","departementCode":"87","adresse":{"street":"30 rue Saint-Jean","postalCode":"87300","city":"Breuilaufa","country":"France"},"contacts":{"email":"mairie.breuilaufa@wanadoo.fr","telephone":"0555533090"},"horaires":"Le Lundi : de 14h00 à 18h00\nLe Mercredi : de 08h00 à 12h00\nLe Vendredi : de 14h00 à 18h00","latitude":46.041775,"longitude":1.105902,"website":"https://www.breuilaufa.fr/","hasWebsite":true,"hasHoraires":true,"url":"https://lannuaire.service-public.gouv.fr/nouvelle-aquitaine/haute-vienne/d67016a0-c388-4220-a33f-703555081755"}
{"nom":"Bujaleuf","nomNormalise":"bujaleuf","typeCollectivite":"Commune","region":"Nouvelle-Aquitaine","departement":"Haute-Vienne","departementCode":"87","adresse":{"street":"Le Château","postalCode":"87460","city":"Bujaleuf","country":"France"},"contacts":{"email":"mairie@bujaleuf.fr","telephone":"0555695004"},"horaires":"Du Lundi au Jeudi : de 09h00 à 12h00 de 13h00 à 17h00\nDu Vendredi au Samedi : de 09h00 à 12h00","latitude":45.794983,"longitude":1.628011,"website":"https://www.bujaleuf.fr/","hasWebsite":true,"hasHoraires":true,"url":"https://lannuaire.service-public.gouv.fr/nouvelle-aquitaine/haute-vienne/b80d51f6-31d1-4043-83b2-bd07b498eca6"}
{"nom":"Burgnac","nomNormalise":"burgnac","typeCollectivite":"Commune","region":"Nouvelle-Aquitaine","departement":"Haute-Vienne","departementCode":"87","adresse":{"street":"33 passage de l'Église","postalCode":"87800","city":"Burgnac","country":"France"},"contacts":{"email":"mairie@burgnac.fr","telephone":"0555581152"},"horaires":"Le Lundi : de 09h00 à 12h00 de 15h00 à 17h00\nLe Mardi : de 09h00 à 12h00 de 15h00 à 18h00\nLe Mercredi : de 09h00 à 12h00\n\nfermé l'après-midi\nLe Jeudi : de 09h00 à 12h00 de 15h00 à 18h00\nLe Vendredi : de 09h00 à 12h00\n\n(et seulement sur rendez-vous l'aprè- midi) En dehors de ces plages horaires, vous pouvez prendre rendez-vous en contactant le secrétariat de la mairie au 05.55.58.11.52.","latitude":45.7252,"longitude":1.15085,"website":"https://www.burgnac.fr/","hasWebsite":true,"hasHoraires":true,"url":"https://lannuaire.service-public.gouv.fr/nouvelle-aquitaine/haute-vienne/11669cf3-6f41-42fe-afb9-0e72f31c498d"}
{"nom":"Bussière-Galant","nomNormalise":"bussieregalant","typeCollectivite":"Commune","region":"Nouvelle-Aquitaine","departement":"Haute-Vienne","departementCode":"87","adresse":{"street":"2 place Charles-de-Gaulle","postalCode":"87230","city":"Bussière-Galant","country":"France"},"contacts":{"email":"mairie@bussiere-galant.fr","telephone":"0555788026"},"horaires":"Du Lundi au Mardi : de 09h00 à 12h00\nLe Mercredi : de 09h00 à 12h00 de 14h00 à 17h00\nLe Jeudi : de 09h00 à 12h00\nLe Vendredi : de 09h00 à 12h00 de 14h00 à 17h00\nLe Samedi : de 09h00 à 12h00\n\nLa mairie est fermée les samedis matins au mois d’août","latitude":45.627018,"longitude":1.036512,"website":"https://bussiere-galant.fr/","hasWebsite":true,"hasHoraires":true,"url":"https://lannuaire.service-public.gouv.fr/nouvelle-aquitaine/haute-vienne/4f24b6ef-53be-4697-bc81-730fc2871553"}
{"nom":"Chaillac-sur-Vienne","nomNormalise":"chaillacsurvienne","typeCollectivite":"Commune","region":"Nouvelle-Aquitaine","departement":"Haute-Vienne","departementCode":"87","adresse":{"street":"1 rue des Mimosas","postalCode":"87200","city":"Chaillac-sur-Vienne","country":"France"},"contacts":{"email":"contact@chaillac-sur-vienne.fr","telephone":"0555021316"},"horaires":"Du Lundi au Vendredi : de 09h00 à 12h00 de 14h00 à 18h00\nLe Samedi : de 10h00 à 12h00","latitude":45.8778,"longitude":0.873466,"website":"https://www.chaillac-sur-vienne.fr/","hasWebsite":true,"hasHoraires":true,"url":"https://lannuaire.service-public.gouv.fr/nouvelle-aquitaine/haute-vienne/f57a6aed-892d-4dad-9e7b-260961d69c2f"}
{"nom":"Châlus","nomNormalise":"chalus","typeCollectivite":"Commune","region":"Nouvelle-Aquitaine","departement":"Haute-Vienne","departementCode":"87","adresse":{"street":"32 avenue François-Mitterrand","postalCode":"87230","city":"Châlus","country":"France"},"contacts":{"email":"secretariat@mairiechalus87.fr","telephone":"0555318888"},"horaires":"Du Lundi au Vendredi : de 09h00 à 12h00 de 13h30 à 16h00\nLe Samedi : de 10h00 à 12h00","latitude":45.6505,"longitude":0.980701,"website":"http://www.chalus87.fr/","hasWebsite":true,"hasHoraires":true,"url":"https://lannuaire.service-public.gouv.fr/nouvelle-aquitaine/haute-vienne/09bb82b7-9580-409f-92f6-bdd4596a6a82"}
{"nom":"Chamboret","nomNormalise":"chamboret","typeCollectivite":"Commune","region":"Nouvelle-Aquitaine","departement":"Haute-Vienne","departementCode":"87","adresse":{"street":"28 avenue du 8-Mai-1945","postalCode":"87140","city":"Chamboret","country":"France"},"contacts":{"email":"mairie.chamboret@wanadoo.fr","telephone":"0555534505"},"horaires":"Le Lundi : de 09h00 à 12h00 de 13h30 à 17h30\nDu Mardi au Samedi : de 09h00 à 12h00","latitude":46.00558,"longitude":1.135915,"website":"https://www.chamboret.fr/","hasWebsite":true,"hasHoraires":true,"url":"https://lannuaire.service-public.gouv.fr/nouvelle-aquitaine/haute-vienne/df336940-087d-423f-b7f4-b0c7c074c556"}
{"nom":"Champagnac-la-Rivière","nomNormalise":"champagnaclariviere","typeCollectivite":"Commune","region":"Nouvelle-Aquitaine","departement":"Haute-Vienne","departementCode":"87","adresse":{"street":"4 place de la Mairie","postalCode":"87150","city":"Champagnac-la-Rivière","country":"France"},"contacts":{"email":"mairie@champagnaclariviere.fr","telephone":"0555781772"},"horaires":"Du Lundi au Mardi : de 08h30 à 12h00 de 13h30 à 17h30\nDu Jeudi au Vendredi : de 08h30 à 12h00 de 13h30 à 17h30\nLe Samedi : de 08h30 à 12h00","latitude":45.709785,"longitude":0.912454,"website":"http://www.champagnaclariviere.fr/","hasWebsite":true,"hasHoraires":true,"url":"https://lannuaire.service-public.gouv.fr/nouvelle-aquitaine/haute-vienne/f120ab9e-011c-4339-b6e6-cdbe2a3d1cbd"}
{"nom":"Champnétery","nomNormalise":"champnetery","typeCollectivite":"Commune","region":"Nouvelle-Aquitaine","departement":"Haute-Vienne","departementCode":"87","adresse":{"street":"Le Bourg","postalCode":"87400","city":"Champnétery","country":"France"},"contacts":{"email":"mairie.champnetery@wanadoo.fr","telephone":"0555560154"},"horaires":"Du Lundi au Mardi : de 08h30 à 12h30 de 13h30 à 17h30\nLe Mercredi : de 08h30 à 12h30\nLe Jeudi : de 13h30 à 17h30\nLe Vendredi : de 08h30 à 12h00","latitude":45.830696,"longitude":1.570229,"website":"https://mairie-champnetery.fr/","hasWebsite":true,"hasHoraires":true,"url":"https://lannuaire.service-public.gouv.fr/nouvelle-aquitaine/haute-vienne/618463ad-e62a-40a3-95f9-95e5601d0575"}
{"nom":"Champsac","nomNormalise":"champsac","typeCollectivite":"Commune","region":"Nouvelle-Aquitaine","departement":"Haute-Vienne","departementCode":"87","adresse":{"street":"1 rue des Fontaines","postalCode":"87230","city":"Champsac","country":"France"},"contacts":{"email":"mairie@champsac.fr","telephone":"0555784333"},"horaires":"Du Lundi au Mardi : de 09h00 à 12h30 de 14h00 à 17h30\nLe Mercredi : de 09h00 à 12h00\nDu Jeudi au Vendredi : de 09h00 à 12h30 de 14h00 à 17h30\nLe Samedi : de 09h00 à 12h00","latitude":45.701065,"longitude":0.956211,"website":"https://www.champsac.fr/","hasWebsite":true,"hasHoraires":true,"url":"https://lannuaire.service-public.gouv.fr/nouvelle-aquitaine/haute-vienne/865e6d21-132e-4919-b94c-28b2531467b6"}
{"nom":"Chaptelat","nomNormalise":"chaptelat","typeCollectivite":"Commune","region":"Nouvelle-Aquitaine","departement":"Haute-Vienne","departementCode":"87","adresse":{"street":"54 rue Saint-Éloi","postalCode":"87270","city":"Chaptelat","country":"France"},"contacts":{"email":"chaptelat.limousin@wanadoo.fr","telephone":"0555399452"},"horaires":"Le Lundi : de 10h00 à 12h00 de 14h00 à 17h30\nLe Mardi : de 14h00 à 17h30\nLe Mercredi : de 10h00 à 12h00 de 14h00 à 18h00\nLe Jeudi : de 14h00 à 17h30\nLe Vendredi : de 10h00 à 12h00 de 14h00 à 16h00\nLe Samedi : de 10h00 à 12h00\nEn dehors des heures d'ouvertures, téléphone de permanence : 06.78.03.33.92","latitude":45.909065,"longitude":1.258829,"website":"http://www.mairie-chaptelat.fr/","hasWebsite":true,"hasHoraires":true,"url":"https://lannuaire.service-public.gouv.fr/nouvelle-aquitaine/haute-vienne/63635346-75ad-4808-9994-184776201fcf"}
{"nom":"Château-Chervix","nomNormalise":"chateauchervix","typeCollectivite":"Commune","region":"Nouvelle-Aquitaine","departement":"Haute-Vienne","departementCode":"87","adresse":{"street":"Le Bourg","postalCode":"87380","city":"Château-Chervix","country":"France"},"contacts":{"email":"mairie.chateau-chervix@wanadoo.fr","telephone":"0555008045"},"horaires":"Du Lundi au Mardi : de 09h00 à 16h00\nLe Mercredi : de 09h00 à 12h00\nDu Jeudi au Vendredi : de 09h00 à 16h00\nLe Samedi : de 09h00 à 12h00","latitude":45.60805,"longitude":1.353797,"website":"","hasWebsite":false,"hasHoraires":true,"url":"https://lannuaire.service-public.gouv.fr/nouvelle-aquitaine/haute-vienne/59995939-5484-4e08-98f2-22f6f2a16d76"}
{"nom":"Châteauneuf-la-Forêt","nomNormalise":"chateauneuflaforet","typeCollectivite":"Commune","region":"Nouvelle-Aquitaine","departement":"Haute-Vienne","departementCode":"87","adresse":{"street":"2 place du 8-Mai-1945","postalCode":"87130","city":"Châteauneuf-la-Forêt","country":"France"},"contacts":{"email":"mairie@chateauneuf-la-foret.fr","telephone":"0555693027"},"horaires":"Du Lundi au Vendredi : de 08h30 à 12h00 de 13h45 à 17h45","latitude":45.712914,"longitude":1.606448,"website":"https://www.chateauneuf-la-foret.fr/","hasWebsite":true,"hasHoraires":true,"url":"https://lannuaire.service-public.gouv.fr/nouvelle-aquitaine/haute-vienne/42ac791c-c2c2-4aa1-9e43-26eaf6689092"}
{"nom":"Châteauponsac","nomNormalise":"chateauponsac","typeCollectivite":"Commune","region":"Nouvelle-Aquitaine","departement":"Haute-Vienne","departementCode":"87","adresse":{"street":"1 place de la République","postalCode":"87290","city":"Châteauponsac","country":"France"},"contacts":{"email":"contact@chateauponsac.fr","telephone":"0555763155"},"horaires":"Le Lundi : de 09h00 à 12h00 de 13h30 à 17h30\nLe Mardi : de 09h00 à 12h00 de 15h30 à 17h30\nLe Mercredi : de 09h00 à 12h00 de 13h30 à 17h30\nLe Jeudi : de 09h00 à 12h00 de 15h30 à 17h30\nLe Vendredi : de 09h00 à 12h00 de 13h30 à 17h30\nLe Samedi : de 09h00 à 12h00","latitude":46.13272,"longitude":1.276572,"website":"https://chateauponsac.fr/fr/","hasWebsite":true,"hasHoraires":true,"url":"https://lannuaire.service-public.gouv.fr/nouvelle-aquitaine/haute-vienne/9a943df8-5586-4ecc-9655-6d2dbdec39fd"}
{"nom":"Cheissoux","nomNormalise":"cheissoux","typeCollectivite":"Commune","region":"Nouvelle-Aquitaine","departement":"Haute-Vienne","departementCode":"87","adresse":{"street":"2 route de Peyrat-le-Château","postalCode":"87460","city":"Cheissoux","country":"France"},"contacts":{"email":"mairiecheissoux@wanadoo.fr","telephone":"0555695054"},"horaires":"Du Lundi au Vendredi : de 08h30 à 12h30\nLe Samedi : de 10h30 à 12h30","latitude":45.83316,"longitude":1.647553,"website":"https://www.cheissoux.fr/","hasWebsite":true,"hasHoraires":true,"url":"https://lannuaire.service-public.gouv.fr/nouvelle-aquitaine/haute-vienne/1ba9ae90-ba70-445b-a17a-ede3b5b27fa5"}
{"nom":"Chéronnac","nomNormalise":"cheronnac","typeCollectivite":"Commune","region":"Nouvelle-Aquitaine","departement":"Haute-Vienne","departementCode":"87","adresse":{"street":"1 place de la Mairie","postalCode":"87600","city":"Chéronnac","country":"France"},"contacts":{"email":"mairie.cheronnac@wanadoo.fr","telephone":"0555486080"},"horaires":"Du Lundi au Mardi : de 08h15 à 12h00 de 13h00 à 15h30\nLe Mercredi : de 08h15 à 12h00\nDu Jeudi au Vendredi : de 08h15 à 12h00 de 13h00 à 15h30\nLe Samedi : de 08h15 à 12h00","latitude":45.75834,"longitude":0.76413,"website":"http://www.cheronnac.fr/","hasWebsite":true,"hasHoraires":true,"url":"https://lannuaire.service-public.gouv.fr/nouvelle-aquitaine/haute-vienne/26f9f889-c838-40a0-90ea-a31bf8aaf504"}
{"nom":"Cieux","nomNormalise":"cieux","typeCollectivite":"Commune","region":"Nouvelle-Aquitaine","departement":"Haute-Vienne","departementCode":"87","adresse":{"street":"6 avenue du Lac","postalCode":"87520","city":"Cieux","country":"France"},"contacts":{"email":"mairie.cieux@wanadoo.fr","telephone":"0555033028"},"horaires":"Du Lundi au Mardi : de 09h00 à 12h00 de 13h30 à 17h30\nDu Mercredi au Jeudi : de 09h00 à 12h00\nLe Vendredi : de 09h00 à 12h00 de 13h30 à 17h30\nLe Samedi : de 09h00 à 12h00","latitude":45.99091,"longitude":1.047285,"website":"https://mairiedecieux.com/fr","hasWebsite":true,"hasHoraires":true,"url":"https://lannuaire.service-public.gouv.fr/nouvelle-aquitaine/haute-vienne/e7a85d37-9668-4d1a-adfe-bcec338a9c77"}
{"nom":"Cognac-la-Forêt","nomNormalise":"cognaclaforet","typeCollectivite":"Commune","region":"Nouvelle-Aquitaine","departement":"Haute-Vienne","departementCode":"87","adresse":{"street":"8 rue Jules-Ferry","postalCode":"87310","city":"Cognac-la-Forêt","country":"France"},"contacts":{"email":"mairiecognaclf@orange.fr","telephone":"0555038167"},"horaires":"Du Lundi au Mardi : de 09h00 à 12h00 de 13h45 à 17h30\nLe Mercredi : de 09h00 à 12h00\nDu Jeudi au Vendredi : de 09h00 à 12h00 de 13h45 à 17h30","latitude":45.831802,"longitude":1.010874,"website":"https://www.cognac-la-foret.fr/","hasWebsite":true,"hasHoraires":true,"url":"https://lannuaire.service-public.gouv.fr/nouvelle-aquitaine/haute-vienne/c8e76d5f-a21d-4313-9d34-830a8facc7b2"}
{"nom":"Compreignac","nomNormalise":"compreignac","typeCollectivite":"Commune","region":"Nouvelle-Aquitaine","departement":"Haute-Vienne","departementCode":"87","adresse":{"street":"4 place du 11-Novembre-1918","postalCode":"87140","city":"Compreignac","country":"France"},"contacts":{"email":"mairie@compreignac87.fr","telephone":"0555710023"},"horaires":"Du Lundi au Mardi : de 09h00 à 12h00 de 14h00 à 17h00\nLe Mercredi : de 14h00 à 17h00\nDu Jeudi au Vendredi : de 09h00 à 12h00 de 14h00 à 17h00\nLe Samedi : de 09h00 à 12h00","latitude":45.991997,"longitude":1.274688,"website":"http://www.compreignac87.fr/","hasWebsite":true,"hasHoraires":true,"url":"https://lannuaire.service-public.gouv.fr/nouvelle-aquitaine/haute-vienne/73c22a10-2497-4846-b392-41c04f70dba6"}
{"nom":"Condat-sur-Vienne","nomNormalise":"condatsurvienne","typeCollectivite":"Commune","region":"Nouvelle-Aquitaine","departement":"Haute-Vienne","departementCode":"87","adresse":{"street":"2 place de la Mairie","postalCode":"87920","city":"Condat-sur-Vienne","country":"France"},"contacts":{"email":"contact@condatsurvienne.fr","telephone":"0555302000"},"horaires":"Du Lundi au Vendredi : de 08h00 à 12h30 de 13h30 à 18h00\n\nLe service des passeports est ouvert uniquement sur rendez-vous.\nLe Samedi : de 09h00 à 12h00\n\nLe service des passeports est fermé le samedi.","latitude":45.792564,"longitude":1.232062,"website":"https://www.condatsurvienne.fr/","hasWebsite":true,"hasHoraires":true,"url":"https://lannuaire.service-public.gouv.fr/nouvelle-aquitaine/haute-vienne/33c7e1a0-bf9b-43f9-9d23-b4c63df05206"}
{"nom":"Coussac-Bonneval","nomNormalise":"coussacbonneval","typeCollectivite":"Commune","region":"Nouvelle-Aquitaine","departement":"Haute-Vienne","departementCode":"87","adresse":{"street":"1 place Daniel-Lamazière","postalCode":"87500","city":"Coussac-Bonneval","country":"France"},"contacts":{"email":"mairie@coussac-bonneval.fr","telephone":"0555752029"},"horaires":"Du Lundi au Vendredi : de 08h30 à 12h00 de 13h30 à 17h00\nLe Samedi : de 10h00 à 12h00\n\nSamedi permanence des élus de 10h à 12h","latitude":45.509666,"longitude":1.326125,"website":"https://www.coussac-bonneval.fr/","hasWebsite":true,"hasHoraires":true,"url":"https://lannuaire.service-public.gouv.fr/nouvelle-aquitaine/haute-vienne/8893213f-dee6-49ee-b2e7-9d4078ce50d2"}
{"nom":"Couzeix","nomNormalise":"couzeix","typeCollectivite":"Commune","region":"Nouvelle-Aquitaine","departement":"Haute-Vienne","departementCode":"87","adresse":{"street":"176 avenue de Limoges","postalCode":"87270","city":"Couzeix","country":"France"},"contacts":{"email":"mairie@couzeix.fr","telephone":"0555393409"},"horaires":"Du Lundi au Vendredi : de 08h30 à 18h30","latitude":45.877354,"longitude":1.238731,"website":"http://www.couzeix.fr/","hasWebsite":true,"hasHoraires":true,"url":"https://lannuaire.service-public.gouv.fr/nouvelle-aquitaine/haute-vienne/34922e8c-f987-46fa-ad03-84b3b9ad49f1"}
{"nom":"Cromac","nomNormalise":"cromac","typeCollectivite":"Commune","region":"Nouvelle-Aquitaine","departement":"Haute-Vienne","departementCode":"87","adresse":{"street":"2 place du 8-Mai-1945","postalCode":"87160","city":"Cromac","country":"France"},"contacts":{"email":"mairie.cromac@wanadoo.fr","telephone":"0555767203"},"horaires":"Du Lundi au Jeudi : de 08h00 à 12h15 de 13h30 à 17h15","latitude":46.342,"longitude":1.299672,"website":"","hasWebsite":false,"hasHoraires":true,"url":"https://lannuaire.service-public.gouv.fr/nouvelle-aquitaine/haute-vienne/bdbe1268-9726-482f-b665-f9ff0efe0d02"}
{"nom":"Cussac","nomNormalise":"cussac","typeCollectivite":"Commune","region":"Nouvelle-Aquitaine","departement":"Haute-Vienne","departementCode":"87","adresse":{"street":"1 place de la Mairie","postalCode":"87150","city":"Cussac","country":"France"},"contacts":{"email":"mairie@cussac87.com","telephone":"0555709435"},"horaires":"Du Lundi au Mardi : de 09h00 à 12h30 de 15h00 à 17h30\nLe Mercredi : de 09h00 à 12h30\nLe Jeudi : de 09h00 à 12h30 de 15h00 à 17h30\nLe Vendredi : de 09h00 à 12h00 de 15h00 à 17h30","latitude":45.644806,"longitude":1.158578,"website":"https://cussac87.com/","hasWebsite":true,"hasHoraires":true,"url":"https://lannuaire.service-public.gouv.fr/nouvelle-aquitaine/haute-vienne/044993e0-06c3-4cde-b218-c3dec41b82f3"}
{"nom":"Mairie déléguée - Darnac","nomNormalise":"mairiedelegueedarnac","typeCollectivite":"Commune","region":"Nouvelle-Aquitaine","departement":"Haute-Vienne","departementCode":"87","adresse":{"street":"Mairie délégué de Darnac","postalCode":"87320","city":"Val-d'Oire-et-Gartempe","country":"France"},"contacts":{"email":"darnac@voeg.fr","telephone":"0555684014"},"horaires":"Du Lundi au Mardi : de 14h30 à 17h00\nLe Jeudi : de 14h30 à 17h00\nLe Vendredi : de 13h30 à 16h00","latitude":46.22317,"longitude":0.958828,"website":"https://val-doire-et-gartempe.fr/fr/","hasWebsite":true,"hasHoraires":true,"url":"https://lannuaire.service-public.gouv.fr/nouvelle-aquitaine/haute-vienne/30b60804-d995-4dbe-aaac-5e01820e3eb0"}
{"nom":"Dinsac","nomNormalise":"dinsac","typeCollectivite":"Commune","region":"Nouvelle-Aquitaine","departement":"Haute-Vienne","departementCode":"87","adresse":{"street":"5 rue de la Mairie","postalCode":"87210","city":"Dinsac","country":"France"},"contacts":{"email":"mairie.dinsac@wanadoo.fr","telephone":"0555606467"},"horaires":"Du Lundi au Vendredi : de 08h00 à 12h00","latitude":46.230843,"longitude":1.119377,"website":"","hasWebsite":false,"hasHoraires":true,"url":"https://lannuaire.service-public.gouv.fr/nouvelle-aquitaine/haute-vienne/fdc5110c-8ad1-4dbc-9fa2-21f6fb65918b"}
{"nom":"Dompierre-les-Églises","nomNormalise":"dompierreleseglises","typeCollectivite":"Commune","region":"Nouvelle-Aquitaine","departement":"Haute-Vienne","departementCode":"87","adresse":{"street":"Le Bourg","postalCode":"87190","city":"Dompierre-les-Églises","country":"France"},"contacts":{"email":"mairie.dompierreleseglises@wanadoo.fr","telephone":"0555685378"},"horaires":"Du Mardi au Samedi : de 08h00 à 12h00\n\nAccueil téléphonique uniquement du mardi au vendredi de 13h30 à 17h30.","latitude":46.2267,"longitude":1.2532,"website":"https://dompierre-les-eglises.fr/fr/","hasWebsite":true,"hasHoraires":true,"url":"https://lannuaire.service-public.gouv.fr/nouvelle-aquitaine/haute-vienne/751fe10c-87f2-4a8b-9eaa-d5b0d2f56727"}
{"nom":"Domps","nomNormalise":"domps","typeCollectivite":"Commune","region":"Nouvelle-Aquitaine","departement":"Haute-Vienne","departementCode":"87","adresse":{"street":"7 rue de la Mairie","postalCode":"87120","city":"Domps","country":"France"},"contacts":{"email":"secretariat@domps87.fr","telephone":"0555696029"},"horaires":"Du Lundi au Vendredi : de 09h00 à 12h00 de 13h00 à 17h00","latitude":45.66237,"longitude":1.710425,"website":"https://domps87.fr/","hasWebsite":true,"hasHoraires":true,"url":"https://lannuaire.service-public.gouv.fr/nouvelle-aquitaine/haute-vienne/b88d705f-956c-40ca-b703-856dfce9c767"}
{"nom":"Dournazac","nomNormalise":"dournazac","typeCollectivite":"Commune","region":"Nouvelle-Aquitaine","departement":"Haute-Vienne","departementCode":"87","adresse":{"street":"1 rue du 11-Novembre-1918","postalCode":"87230","city":"Dournazac","country":"France"},"contacts":{"email":"mairie-dournazac@orange.fr","telephone":"0555784308"},"horaires":"Du Lundi au Samedi : de 09h00 à 12h00\n\nAccueil téléphonique du lundi au vendredi de 9h à 12h et de 14h à 18h.","latitude":45.6251,"longitude":0.916921,"website":"https://dournazac.fr/","hasWebsite":true,"hasHoraires":true,"url":"https://lannuaire.service-public.gouv.fr/nouvelle-aquitaine/haute-vienne/977b2af8-97c0-43c3-9aaa-91bab027d000"}
{"nom":"Droux","nomNormalise":"droux","typeCollectivite":"Commune","region":"Nouvelle-Aquitaine","departement":"Haute-Vienne","departementCode":"87","adresse":{"street":"1 place Jean-Jaurès","postalCode":"87190","city":"Droux","country":"France"},"contacts":{"email":"mairie.droux@wanadoo.fr","telephone":"0555685181"},"horaires":"Du Mardi au Samedi : de 08h30 à 12h00","latitude":46.1588,"longitude":1.1535672,"website":"","hasWebsite":false,"hasHoraires":true,"url":"https://lannuaire.service-public.gouv.fr/nouvelle-aquitaine/haute-vienne/beed11dc-d8d5-4d2e-a7e6-21a27e3dc728"}
{"nom":"Eybouleuf","nomNormalise":"eybouleuf","typeCollectivite":"Commune","region":"Nouvelle-Aquitaine","departement":"Haute-Vienne","departementCode":"87","adresse":{"street":"2 rue de l'Étang","postalCode":"87400","city":"Eybouleuf","country":"France"},"contacts":{"email":"contact@mairie-eybouleuf.fr","telephone":"0555097235"},"horaires":"Du Lundi au Vendredi : de 09h00 à 12h00 de 14h00 à 17h30\n\nFermée le mercredi après-midi.","latitude":45.795013,"longitude":1.474339,"website":"https://www.mairie-eybouleuf.fr/","hasWebsite":true,"hasHoraires":true,"url":"https://lannuaire.service-public.gouv.fr/nouvelle-aquitaine/haute-vienne/ec74ee9f-1fc5-40a0-994d-ec499209c883"}
{"nom":"Eyjeaux","nomNormalise":"eyjeaux","typeCollectivite":"Commune","region":"Nouvelle-Aquitaine","departement":"Haute-Vienne","departementCode":"87","adresse":{"street":"7 place de l'Église","postalCode":"87220","city":"Eyjeaux","country":"France"},"contacts":{"email":"mairie.eyjeaux@orange.fr","telephone":"0555002781"},"horaires":"Du Lundi au Mardi : de 08h30 à 12h30 de 14h00 à 17h30\nLe Mercredi : de 08h30 à 12h30\nDu Jeudi au Vendredi : de 08h30 à 12h30 de 14h00 à 17h30\nLe Samedi : de 08h30 à 12h30","latitude":45.776604,"longitude":1.392956,"website":"http://www.eyjeaux.com/","hasWebsite":true,"hasHoraires":true,"url":"https://lannuaire.service-public.gouv.fr/nouvelle-aquitaine/haute-vienne/306960dc-72c5-4865-89b4-16e6a972952d"}
{"nom":"Eymoutiers","nomNormalise":"eymoutiers","typeCollectivite":"Commune","region":"Nouvelle-Aquitaine","departement":"Haute-Vienne","departementCode":"87","adresse":{"street":"8 rue de la Collégiale","postalCode":"87120","city":"Eymoutiers","country":"France"},"contacts":{"email":"contact@mairie-eymoutiers.fr","telephone":"0555691021"},"horaires":"Du Lundi au Vendredi : de 08h30 à 12h30 de 13h30 à 17h00","latitude":45.738773,"longitude":1.744716,"website":"https://www.mairie-eymoutiers.fr/","hasWebsite":true,"hasHoraires":true,"url":"https://lannuaire.service-public.gouv.fr/nouvelle-aquitaine/haute-vienne/0048ac97-3adb-4cba-81f5-a6e9d99c3906"}
{"nom":"Feytiat","nomNormalise":"feytiat","typeCollectivite":"Commune","region":"Nouvelle-Aquitaine","departement":"Haute-Vienne","departementCode":"87","adresse":{"street":"Place de Leun","postalCode":"87220","city":"Feytiat","country":"France"},"contacts":{"email":"accueil@ville-feytiat.fr","telephone":"0555484300"},"horaires":"Du Lundi au Jeudi : de 08h30 à 12h00 de 13h30 à 18h00\nLe Vendredi : de 08h30 à 12h00 de 13h30 à 17h30\nLe Samedi : de 09h00 à 12h00","latitude":45.809753,"longitude":1.326517,"website":"https://www.ville-feytiat.fr/","hasWebsite":true,"hasHoraires":true,"url":"https://lannuaire.service-public.gouv.fr/nouvelle-aquitaine/haute-vienne/3e8ca8f4-e6df-462d-8edc-4a4778bcb9e0"}
{"nom":"Flavignac","nomNormalise":"flavignac","typeCollectivite":"Commune","region":"Nouvelle-Aquitaine","departement":"Haute-Vienne","departementCode":"87","adresse":{"street":"19 place du 8-Mai-1945","postalCode":"87230","city":"Flavignac","country":"France"},"contacts":{"email":"mairie-flavignac@wanadoo.fr","telephone":"0555391114"},"horaires":"Le Lundi : de 14h00 à 17h00\nDu Mardi au Mercredi : de 09h00 à 12h00 de 14h00 à 17h00\nLe Jeudi : de 14h00 à 17h00\nLe Vendredi : de 09h00 à 12h00 de 14h00 à 17h00\nLe Samedi : de 09h00 à 12h00","latitude":45.704075,"longitude":1.091976,"website":"https://flavignac.fr/","hasWebsite":true,"hasHoraires":true,"url":"https://lannuaire.service-public.gouv.fr/nouvelle-aquitaine/haute-vienne/85ebe913-06a7-4185-8000-da2b6ad7d35a"}
{"nom":"Folles","nomNormalise":"folles","typeCollectivite":"Commune","region":"Nouvelle-Aquitaine","departement":"Haute-Vienne","departementCode":"87","adresse":{"street":"Les Ecoles","postalCode":"87250","city":"Folles","country":"France"},"contacts":{"email":"mairie.folles@orange.fr","telephone":"0555714883"},"horaires":"Du Lundi au Vendredi : de 09h00 à 12h00","latitude":46.114998,"longitude":1.460988,"website":"","hasWebsite":false,"hasHoraires":true,"url":"https://lannuaire.service-public.gouv.fr/nouvelle-aquitaine/haute-vienne/63f2bd88-e10f-4f65-bffa-09ff505b0c5d"}
{"nom":"Fromental","nomNormalise":"fromental","typeCollectivite":"Commune","region":"Nouvelle-Aquitaine","departement":"Haute-Vienne","departementCode":"87","adresse":{"street":"1 avenue Jean-Cacaud","postalCode":"87250","city":"Fromental","country":"France"},"contacts":{"email":"mairiefromental@wanadoo.fr","telephone":"0555760188"},"horaires":"Du Lundi au Vendredi : de 09h00 à 12h00 de 13h30 à 17h00\nLe Samedi : de 09h00 à 12h00","latitude":46.15942,"longitude":1.396645,"website":"http://www.fromental.fr/","hasWebsite":true,"hasHoraires":true,"url":"https://lannuaire.service-public.gouv.fr/nouvelle-aquitaine/haute-vienne/043f828c-0f0d-4a93-96ed-6e86265258d8"}
{"nom":"Gajoubert","nomNormalise":"gajoubert","typeCollectivite":"Commune","region":"Nouvelle-Aquitaine","departement":"Haute-Vienne","departementCode":"87","adresse":{"street":"Le Bourg","postalCode":"87330","city":"Gajoubert","country":"France"},"contacts":{"email":"mairie.gajoubert@wanadoo.fr","telephone":"0555604120"},"horaires":"Du Mardi au Mercredi : de 08h30 à 12h30\nLe Vendredi : de 08h30 à 12h30 de 13h30 à 17h00","latitude":46.11257,"longitude":0.83115,"website":"","hasWebsite":false,"hasHoraires":true,"url":"https://lannuaire.service-public.gouv.fr/nouvelle-aquitaine/haute-vienne/98a2be3d-457b-414c-bd45-668e4a778800"}
{"nom":"Glandon","nomNormalise":"glandon","typeCollectivite":"Commune","region":"Nouvelle-Aquitaine","departement":"Haute-Vienne","departementCode":"87","adresse":{"street":"23 rue de Saint-Yrieix","postalCode":"87500","city":"Glandon","country":"France"},"contacts":{"email":"mairie.glandon@wanadoo.fr","telephone":"0555750807"},"horaires":"Du Lundi au Jeudi : de 08h30 à 12h30 de 13h30 à 17h00\nLe Vendredi : de 08h00 à 12h30 de 13h30 à 17h00","latitude":45.47835,"longitude":1.22744,"website":"https://mairie-glandon.fr/","hasWebsite":true,"hasHoraires":true,"url":"https://lannuaire.service-public.gouv.fr/nouvelle-aquitaine/haute-vienne/42a3b3e6-f770-4159-98b4-b67ef6d52fd0"}
{"nom":"Glanges","nomNormalise":"glanges","typeCollectivite":"Commune","region":"Nouvelle-Aquitaine","departement":"Haute-Vienne","departementCode":"87","adresse":{"street":"8 rue de la Mairie","postalCode":"87380","city":"Glanges","country":"France"},"contacts":{"email":"accueil@glanges.fr","telephone":"0555755201"},"horaires":"Du Lundi au Vendredi : de 09h00 à 12h00 de 14h00 à 17h00\nLe Samedi : de 09h00 à 12h00","latitude":45.670128,"longitude":1.453668,"website":"","hasWebsite":false,"hasHoraires":true,"url":"https://lannuaire.service-public.gouv.fr/nouvelle-aquitaine/haute-vienne/22eb03e2-f118-4b5f-97db-5d8afbca9e77"}
{"nom":"Gorre","nomNormalise":"gorre","typeCollectivite":"Commune","region":"Nouvelle-Aquitaine","departement":"Haute-Vienne","departementCode":"87","adresse":{"street":"1 rue Jules-Ferry","postalCode":"87310","city":"Gorre","country":"France"},"contacts":{"email":"mairie.gorre@wanadoo.fr","telephone":"0555000107"},"horaires":"Du Lundi au Mardi : de 09h00 à 13h00\nLe Mercredi : de 10h00 à 12h00\nDu Jeudi au Vendredi : de 09h00 à 13h00\n\nSamedi matin sur rendez-vous\nautres créneaux sur rendez-vous","latitude":45.74097,"longitude":0.983116,"website":"https://www.mairiedegorre.fr/","hasWebsite":true,"hasHoraires":true,"url":"https://lannuaire.service-public.gouv.fr/nouvelle-aquitaine/haute-vienne/2a522cbc-8933-42c7-9c7d-cf1c67ab7833"}
{"nom":"Isle","nomNormalise":"isle","typeCollectivite":"Commune","region":"Nouvelle-Aquitaine","departement":"Haute-Vienne","departementCode":"87","adresse":{"street":"15 rue Joseph-Cazautets","postalCode":"87170","city":"Isle","country":"France"},"contacts":{"email":"secretariat@ville-isle.fr","telephone":"0555015615"},"horaires":"Le Lundi : de 08h45 à 18h00\nDu Mardi au Jeudi : de 08h45 à 12h15 de 14h00 à 18h00\nLe Vendredi : de 08h45 à 17h00","latitude":45.805573,"longitude":1.223904,"website":"https://www.ville-isle.fr/","hasWebsite":true,"hasHoraires":true,"url":"https://lannuaire.service-public.gouv.fr/nouvelle-aquitaine/haute-vienne/2e201322-30fe-4fb9-93ee-93ee5f5f9ebd"}
{"nom":"Jabreilles-les-Bordes","nomNormalise":"jabreilleslesbordes","typeCollectivite":"Commune","region":"Nouvelle-Aquitaine","departement":"Haute-Vienne","departementCode":"87","adresse":{"street":"Les Bordes","postalCode":"87370","city":"Jabreilles-les-Bordes","country":"France"},"contacts":{"email":"mairie.jabreilles@wanadoo.fr","telephone":"0555398102"},"horaires":"Le Lundi : de 09h30 à 11h30\nDu Mardi au Mercredi : de 09h30 à 11h30 de 14h00 à 17h00\nLe Jeudi : de 09h30 à 11h30\nLe Vendredi : de 09h30 à 11h30 de 14h00 à 17h00\nLe Samedi : de 09h30 à 11h30\n\nAccueil fermé le 1er samedi du mois.","latitude":46.017998,"longitude":1.515875,"website":"https://mairie-de-jabreilles-les-bordes.fr/","hasWebsite":true,"hasHoraires":true,"url":"https://lannuaire.service-public.gouv.fr/nouvelle-aquitaine/haute-vienne/6ed9cdd6-c3b0-4e97-a20d-e095d804a0ef"}
{"nom":"Janailhac","nomNormalise":"janailhac","typeCollectivite":"Commune","region":"Nouvelle-Aquitaine","departement":"Haute-Vienne","departementCode":"87","adresse":{"street":"1 rue du Général-Arbonneau","postalCode":"87800","city":"Janailhac","country":"France"},"contacts":{"email":"mairie.janailhac@orange.fr","telephone":"0555007106"},"horaires":"Du Lundi au Mardi : de 09h00 à 12h00 de 14h00 à 17h30\nDu Jeudi au Vendredi : de 09h00 à 12h00 de 14h00 à 17h30\nLe Samedi : de 09h00 à 12h00","latitude":46.15942,"longitude":1.396645,"website":"http://www.janailhac-mairie.fr/","hasWebsite":true,"hasHoraires":true,"url":"https://lannuaire.service-public.gouv.fr/nouvelle-aquitaine/haute-vienne/053209de-e3a9-4dde-a57a-3d4ae161bac2"}
{"nom":"Javerdat","nomNormalise":"javerdat","typeCollectivite":"Commune","region":"Nouvelle-Aquitaine","departement":"Haute-Vienne","departementCode":"87","adresse":{"street":"1 rue de l'École","postalCode":"87520","city":"Javerdat","country":"France"},"contacts":{"email":"accueil@javerdat.fr","telephone":"0555031056"},"horaires":"Le Lundi : de 09h00 à 12h00\nLe Mardi : de 09h00 à 12h00 de 14h00 à 17h00\nDu Mercredi au Samedi : de 09h00 à 12h00","latitude":45.953747,"longitude":0.986049,"website":"https://www.javerdat.fr/","hasWebsite":true,"hasHoraires":true,"url":"https://lannuaire.service-public.gouv.fr/nouvelle-aquitaine/haute-vienne/77dd9c4b-1d8f-4768-a01b-fc4acd18b474"}
{"nom":"Jouac","nomNormalise":"jouac","typeCollectivite":"Commune","region":"Nouvelle-Aquitaine","departement":"Haute-Vienne","departementCode":"87","adresse":{"street":"14 route de Cromac","postalCode":"87890","city":"Jouac","country":"France"},"contacts":{"email":"mairiejouac@orange.fr","telephone":"0555682240"},"horaires":"Du Lundi au Vendredi : de 09h00 à 12h00 de 14h00 à 17h00","latitude":46.355556,"longitude":1.262834,"website":"","hasWebsite":false,"hasHoraires":true,"url":"https://lannuaire.service-public.gouv.fr/nouvelle-aquitaine/haute-vienne/ed7020a9-b70d-4650-83a2-a96f50130252"}
{"nom":"Jourgnac","nomNormalise":"jourgnac","typeCollectivite":"Commune","region":"Nouvelle-Aquitaine","departement":"Haute-Vienne","departementCode":"87","adresse":{"street":"24 place Thérèse-Menot","postalCode":"87800","city":"Jourgnac","country":"France"},"contacts":{"email":"mairie@jourgnac.fr","telephone":"0555581141"},"horaires":"Du Lundi au Mardi : de 08h30 à 12h00 de 15h00 à 17h00\nDu Jeudi au Vendredi : de 08h30 à 12h00 de 15h00 à 17h00","latitude":45.718914,"longitude":1.213842,"website":"http://www.mairie-jourgnac.fr/","hasWebsite":true,"hasHoraires":true,"url":"https://lannuaire.service-public.gouv.fr/nouvelle-aquitaine/haute-vienne/1c6a0f13-04d8-4dfb-bbfb-88e2b29c9b1b"}
{"nom":"La Bazeuge","nomNormalise":"labazeuge","typeCollectivite":"Commune","region":"Nouvelle-Aquitaine","departement":"Haute-Vienne","departementCode":"87","adresse":{"street":"2 Le Bourg","postalCode":"87210","city":"La Bazeuge","country":"France"},"contacts":{"email":"mairielabazeuge@wanadoo.fr","telephone":"0555607384"},"horaires":"Du Lundi au Vendredi : de 14h00 à 18h00","latitude":46.244476,"longitude":1.096176,"website":"","hasWebsite":false,"hasHoraires":true,"url":"https://lannuaire.service-public.gouv.fr/nouvelle-aquitaine/haute-vienne/3c985ad3-b88a-401d-b6d6-ce70c42a5b01"}
{"nom":"La Chapelle-Montbrandeix","nomNormalise":"lachapellemontbrandeix","typeCollectivite":"Commune","region":"Nouvelle-Aquitaine","departement":"Haute-Vienne","departementCode":"87","adresse":{"street":"Le Bourg","postalCode":"87440","city":"La Chapelle-Montbrandeix","country":"France"},"contacts":{"email":"chapelle-montbrandeix@orange.fr","telephone":"0555787087"},"horaires":"Du Lundi au Vendredi : de 08h30 à 12h30\nLe Samedi : de 09h00 à 12h00\n\nAccueil ouvert uniquement deux samedis par mois, contacter l'accueil avant de se déplacer.","latitude":45.646103,"longitude":0.849164,"website":"","hasWebsite":false,"hasHoraires":true,"url":"https://lannuaire.service-public.gouv.fr/nouvelle-aquitaine/haute-vienne/fd6a909b-459c-40bc-b669-f557105221f9"}
{"nom":"La Croisille-sur-Briance","nomNormalise":"lacroisillesurbriance","typeCollectivite":"Commune","region":"Nouvelle-Aquitaine","departement":"Haute-Vienne","departementCode":"87","adresse":{"street":"22 route du Mont-Gargan","postalCode":"87130","city":"La Croisille-sur-Briance","country":"France"},"contacts":{"email":"mairie.lacroisille@orange.fr","telephone":"0555717055"},"horaires":"Du Lundi au Vendredi : de 08h30 à 12h30 de 13h30 à 17h00","latitude":45.629726,"longitude":1.582369,"website":"http://www.lacroisillesurbriance.fr/","hasWebsite":true,"hasHoraires":true,"url":"https://lannuaire.service-public.gouv.fr/nouvelle-aquitaine/haute-vienne/a5f1d693-0d49-4a63-b67d-a7e4581542e5"}
{"nom":"La Croix-sur-Gartempe","nomNormalise":"lacroixsurgartempe","typeCollectivite":"Commune","region":"Nouvelle-Aquitaine","departement":"Haute-Vienne","departementCode":"87","adresse":{"street":"1 place du 18-Juin-1940","postalCode":"87210","city":"La Croix-sur-Gartempe","country":"France"},"contacts":{"email":"mairie.croix.gartempe@wanadoo.fr","telephone":"0555600120"},"horaires":"Du Lundi au Vendredi : de 14h00 à 17h00","latitude":46.160496,"longitude":0.990069,"website":"","hasWebsite":false,"hasHoraires":true,"url":"https://lannuaire.service-public.gouv.fr/nouvelle-aquitaine/haute-vienne/ecbc6380-ed09-47fa-b835-e69d68f16df4"}
{"nom":"Ladignac-le-Long","nomNormalise":"ladignaclelong","typeCollectivite":"Commune","region":"Nouvelle-Aquitaine","departement":"Haute-Vienne","departementCode":"87","adresse":{"street":"4 place du 14-Juillet","postalCode":"87500","city":"Ladignac-le-Long","country":"France"},"contacts":{"email":"mairie@ladignaclelong.fr","telephone":"0555093002"},"horaires":"Du Lundi au Vendredi : de 08h00 à 12h00\nLe samedi sur rendez-vous pour les demandes urgentes.","latitude":45.58246,"longitude":1.112244,"website":"https://ladignac-le-long.fr/","hasWebsite":true,"hasHoraires":true,"url":"https://lannuaire.service-public.gouv.fr/nouvelle-aquitaine/haute-vienne/e1d86b16-9165-4645-b1e5-453a7d45d2ff"}
{"nom":"La Geneytouse","nomNormalise":"lageneytouse","typeCollectivite":"Commune","region":"Nouvelle-Aquitaine","departement":"Haute-Vienne","departementCode":"87","adresse":{"street":"162 route de Limoges","postalCode":"87400","city":"La Geneytouse","country":"France"},"contacts":{"email":"contact@lageneytouse.fr","telephone":"0555097012"},"horaires":"Le Lundi : de 09h00 à 12h00 de 14h00 à 18h00\nLe Mardi : de 09h00 à 12h00 de 14h00 à 17h30\nLe Mercredi : de 09h00 à 12h00 de 14h00 à 18h00\nLe Jeudi : de 09h00 à 12h00 de 14h00 à 17h30\nLe Vendredi : de 09h00 à 12h00 de 14h00 à 17h00","latitude":45.7876,"longitude":1.469884,"website":"https://lageneytouse.fr/","hasWebsite":true,"hasHoraires":true,"url":"https://lannuaire.service-public.gouv.fr/nouvelle-aquitaine/haute-vienne/131e069b-a22b-489f-bdcd-aa07e866c92b"}
{"nom":"La Jonchère-Saint-Maurice","nomNormalise":"lajoncheresaintmaurice","typeCollectivite":"Commune","region":"Nouvelle-Aquitaine","departement":"Haute-Vienne","departementCode":"87","adresse":{"street":"14 rue de Limoges","postalCode":"87340","city":"La Jonchère-Saint-Maurice","country":"France"},"contacts":{"email":"contact@jonchere-saint-maurice.fr","telephone":"0555398018"},"horaires":"Du Lundi au Mardi : de 09h00 à 12h00 de 13h30 à 17h30\nLe Mercredi : de 09h00 à 12h00\nDu Jeudi au Vendredi : de 09h00 à 12h00 de 13h30 à 17h30\nLe Samedi : de 09h00 à 12h00","latitude":45.999134,"longitude":1.467171,"website":"https://www.jonchere-saint-maurice.fr/","hasWebsite":true,"hasHoraires":true,"url":"https://lannuaire.service-public.gouv.fr/nouvelle-aquitaine/haute-vienne/f41ff187-3509-435b-a95d-c7aa99deca50"}
{"nom":"La Meyze","nomNormalise":"lameyze","typeCollectivite":"Commune","region":"Nouvelle-Aquitaine","departement":"Haute-Vienne","departementCode":"87","adresse":{"street":"1 square de Pittem","postalCode":"87800","city":"La Meyze","country":"France"},"contacts":{"email":"mairie.la.meyze@orange.fr","telephone":"0555007021"},"horaires":"Du Lundi au Mardi : de 08h30 à 12h00 de 13h30 à 17h00\nDu Jeudi au Vendredi : de 08h30 à 12h00 de 13h30 à 17h00\nLe Samedi : de 09h00 à 12h00","latitude":45.6153,"longitude":1.21409,"website":"","hasWebsite":false,"hasHoraires":true,"url":"https://lannuaire.service-public.gouv.fr/nouvelle-aquitaine/haute-vienne/ca390931-0daa-46dd-a42a-1aea3673bb5f"}
{"nom":"La Porcherie","nomNormalise":"laporcherie","typeCollectivite":"Commune","region":"Nouvelle-Aquitaine","departement":"Haute-Vienne","departementCode":"87","adresse":{"street":"25 rue Arsène-d'Arsonval","postalCode":"87380","city":"La Porcherie","country":"France"},"contacts":{"email":"mairie.laporcherie@wanadoo.fr","telephone":"0555718213"},"horaires":"Du Mardi au Vendredi : de 09h00 à 12h15 de 13h15 à 17h00","latitude":45.58099,"longitude":1.5460719,"website":"https://www.commune-la-porcherie.fr/","hasWebsite":true,"hasHoraires":true,"url":"https://lannuaire.service-public.gouv.fr/nouvelle-aquitaine/haute-vienne/67f112d9-5769-4156-be97-34768a144ac7"}
{"nom":"La Roche-l'Abeille","nomNormalise":"larochelabeille","typeCollectivite":"Commune","region":"Nouvelle-Aquitaine","departement":"Haute-Vienne","departementCode":"87","adresse":{"street":"10 place du 11-Novembre-1918","postalCode":"87800","city":"La Roche-l'Abeille","country":"France"},"contacts":{"email":"larochelabeille.mairie@wanadoo.fr","telephone":"0555007121"},"horaires":"Le Lundi : de 08h30 à 12h00 de 13h30 à 17h30\nLe Mardi : de 13h30 à 17h30\nLe Mercredi : de 08h30 à 12h30\nLe Jeudi : de 08h30 à 12h00 de 13h30 à 17h30\nLe Vendredi : de 13h30 à 17h30","latitude":45.597164,"longitude":1.239981,"website":"http://www.larochelabeille.fr/","hasWebsite":true,"hasHoraires":true,"url":"https://lannuaire.service-public.gouv.fr/nouvelle-aquitaine/haute-vienne/553a3e42-a122-4fd4-8a95-897d4d341826"}
{"nom":"Laurière","nomNormalise":"lauriere","typeCollectivite":"Commune","region":"Nouvelle-Aquitaine","departement":"Haute-Vienne","departementCode":"87","adresse":{"street":"3 place du Général-Thoumas","postalCode":"87370","city":"Laurière","country":"France"},"contacts":{"email":"mairie.lauriere@outlook.fr","telephone":"0555714044"},"horaires":"Du Mardi au Samedi : de 09h00 à 12h00","latitude":46.07615,"longitude":1.475758,"website":"http://www.mairiedelauriere.fr/","hasWebsite":true,"hasHoraires":true,"url":"https://lannuaire.service-public.gouv.fr/nouvelle-aquitaine/haute-vienne/9fe0ac3b-5aac-4291-9972-32390ee77e3c"}
{"nom":"Lavignac","nomNormalise":"lavignac","typeCollectivite":"Commune","region":"Nouvelle-Aquitaine","departement":"Haute-Vienne","departementCode":"87","adresse":{"street":"1 le Bourg","postalCode":"87230","city":"Lavignac","country":"France"},"contacts":{"email":"mairie.lavignac@orange.fr","telephone":"0555369436"},"horaires":"Le Lundi : de 13h30 à 17h30\nLe Mercredi : de 13h30 à 17h30\nLe Jeudi : de 13h30 à 17h00","latitude":45.721996,"longitude":1.119194,"website":"https://www.lavignac87.fr/","hasWebsite":true,"hasHoraires":true,"url":"https://lannuaire.service-public.gouv.fr/nouvelle-aquitaine/haute-vienne/9d2a908e-f8b6-4108-954e-941ef29bbbf4"}
{"nom":"Le Buis","nomNormalise":"lebuis","typeCollectivite":"Commune","region":"Nouvelle-Aquitaine","departement":"Haute-Vienne","departementCode":"87","adresse":{"street":"2 impasse des Écoliers","postalCode":"87140","city":"Le Buis","country":"France"},"contacts":{"email":"mairie.lebuis@wanadoo.fr","telephone":"0555534383"},"horaires":"Le Mardi : de 09h00 à 12h00 de 14h00 à 16h30\nDu Mercredi au Jeudi : de 14h00 à 16h30\nLe Vendredi : de 14h00 à 16h00","latitude":46.03572,"longitude":1.202548,"website":"","hasWebsite":false,"hasHoraires":true,"url":"https://lannuaire.service-public.gouv.fr/nouvelle-aquitaine/haute-vienne/07d2bd25-dadd-4501-b717-796b0447639a"}
{"nom":"Le Chalard","nomNormalise":"lechalard","typeCollectivite":"Commune","region":"Nouvelle-Aquitaine","departement":"Haute-Vienne","departementCode":"87","adresse":{"street":"Place de la Mairie","postalCode":"87500","city":"Le Chalard","country":"France"},"contacts":{"email":"mairieduchalard@wanadoo.fr","telephone":"0555093114"},"horaires":"Du Lundi au Vendredi : de 09h00 à 12h00","latitude":45.548546,"longitude":1.1291267,"website":"https://www.lechalard.fr/","hasWebsite":true,"hasHoraires":true,"url":"https://lannuaire.service-public.gouv.fr/nouvelle-aquitaine/haute-vienne/45d10a7c-edea-4e9a-b1aa-f299f8e490ea"}
{"nom":"Le Châtenet-en-Dognon","nomNormalise":"lechatenetendognon","typeCollectivite":"Commune","region":"Nouvelle-Aquitaine","departement":"Haute-Vienne","departementCode":"87","adresse":{"street":"31 Grand rue","postalCode":"87400","city":"Le Châtenet-en-Dognon","country":"France"},"contacts":{"email":"mairie-du-chatenet-en-dognon@orange.fr","telephone":"0555571019"},"horaires":"Du Lundi au Mardi : de 08h00 à 13h00 de 13h30 à 16h15\nLe Jeudi : de 08h00 à 12h00\nLe Vendredi : de 08h00 à 13h00 de 13h30 à 15h45\nLe Samedi : de 08h00 à 12h00\n\n( fermé les semaines paires)\nFermé le mercredi","latitude":45.908176,"longitude":1.507646,"website":"https://lechatenetendognon.fr/","hasWebsite":true,"hasHoraires":true,"url":"https://lannuaire.service-public.gouv.fr/nouvelle-aquitaine/haute-vienne/26e9783f-5f55-4874-ada3-71f9648ee8e2"}
{"nom":"Le Dorat","nomNormalise":"ledorat","typeCollectivite":"Commune","region":"Nouvelle-Aquitaine","departement":"Haute-Vienne","departementCode":"87","adresse":{"street":"11 avenue Louis-Ricoux","postalCode":"87210","city":"Le Dorat","country":"France"},"contacts":{"email":"mairie@ledorat.fr","telephone":"0555607220"},"horaires":"Du Lundi au Vendredi : de 08h30 à 12h00 de 14h00 à 17h30\nLe Samedi : de 08h30 à 12h00","latitude":46.21644,"longitude":1.08643,"website":"https://ledorat.fr/","hasWebsite":true,"hasHoraires":true,"url":"https://lannuaire.service-public.gouv.fr/nouvelle-aquitaine/haute-vienne/339efb35-3e52-402b-ab07-c3a3288e36b6"}
{"nom":"Le Palais-sur-Vienne","nomNormalise":"lepalaissurvienne","typeCollectivite":"Commune","region":"Nouvelle-Aquitaine","departement":"Haute-Vienne","departementCode":"87","adresse":{"street":"20 rue Jules-Ferry","postalCode":"87410","city":"Le Palais-sur-Vienne","country":"France"},"contacts":{"email":"affairesgenerales@lepalaissurvienne.fr","telephone":"0555043400"},"horaires":"Du Lundi au Vendredi : de 08h30 à 12h00 de 13h30 à 17h30\nLe Samedi : de 09h30 à 12h00\n\n(sauf vacances scolaires) Service Etat civil uniquement","latitude":45.865772,"longitude":1.322987,"website":"https://lepalaissurvienne.fr/","hasWebsite":true,"hasHoraires":true,"url":"https://lannuaire.service-public.gouv.fr/nouvelle-aquitaine/haute-vienne/d0e1e2ff-bf2e-4d45-84b5-e43bd6a5c5af"}
{"nom":"Les Billanges","nomNormalise":"lesbillanges","typeCollectivite":"Commune","region":"Nouvelle-Aquitaine","departement":"Haute-Vienne","departementCode":"87","adresse":{"street":"14 rue de l'Église","postalCode":"87340","city":"Les Billanges","country":"France"},"contacts":{"email":"mairiedesbillanges@orange.fr","telephone":"0555565624"},"horaires":"Du Lundi au Mardi : de 08h30 à 12h30 de 13h00 à 17h00\nLe Mercredi : de 08h30 à 12h00\nLe Jeudi : de 08h30 à 12h30 de 13h00 à 17h00\nLe Vendredi : de 08h30 à 12h30 de 13h00 à 16h30","latitude":45.96346,"longitude":1.533669,"website":"https://lesbillanges.fr/","hasWebsite":true,"hasHoraires":true,"url":"https://lannuaire.service-public.gouv.fr/nouvelle-aquitaine/haute-vienne/ed5336c8-4353-4178-8448-2730fe2c6af6"}
{"nom":"Les Cars","nomNormalise":"lescars","typeCollectivite":"Commune","region":"Nouvelle-Aquitaine","departement":"Haute-Vienne","departementCode":"87","adresse":{"street":"1 place de Pérusse","postalCode":"87230","city":"Les Cars","country":"France"},"contacts":{"email":"mairie.les-cars87@wanadoo.fr","telephone":"0555369022"},"horaires":"Du Lundi au Mercredi : de 09h00 à 12h00\nDu Jeudi au Vendredi : de 09h00 à 12h00 de 13h00 à 17h00\nLe Samedi : de 10h00 à 11h30","latitude":45.680035,"longitude":1.072957,"website":"http://www.lescars87.fr/homepage.html","hasWebsite":true,"hasHoraires":true,"url":"https://lannuaire.service-public.gouv.fr/nouvelle-aquitaine/haute-vienne/f9f305c0-01ec-4710-a461-ea5c19a97e93"}
{"nom":"Les Grands-Chézeaux","nomNormalise":"lesgrandschezeaux","typeCollectivite":"Commune","region":"Nouvelle-Aquitaine","departement":"Haute-Vienne","departementCode":"87","adresse":{"street":"14 place de la Fontaine","postalCode":"87160","city":"Les Grands-Chézeaux","country":"France"},"contacts":{"email":"mairie-les-grands-chezeaux@wanadoo.fr","telephone":"0555767325"},"horaires":"Du Lundi au Vendredi : de 09h30 à 12h30 de 13h30 à 16h30","latitude":46.353985,"longitude":1.39225,"website":"","hasWebsite":false,"hasHoraires":true,"url":"https://lannuaire.service-public.gouv.fr/nouvelle-aquitaine/haute-vienne/abd6eb89-a165-46c2-9368-bee8b4ef7643"}
{"nom":"Les Salles-Lavauguyon","nomNormalise":"lessalleslavauguyon","typeCollectivite":"Commune","region":"Nouvelle-Aquitaine","departement":"Haute-Vienne","departementCode":"87","adresse":{"street":"1 rue des Fourbisseurs","postalCode":"87440","city":"Les Salles-Lavauguyon","country":"France"},"contacts":{"email":"mairiedessalleslavauguyon@wanadoo.fr","telephone":"0555003068"},"horaires":"Du Lundi au Vendredi : de 08h30 à 12h30\nLe Samedi : de 09h30 à 11h30\n\nAccueil ouvert uniquement les 2e et 4e samedis du mois.","latitude":45.74408,"longitude":0.694351,"website":"https://commune-les-salles-lavauguyon-97.webself.net/","hasWebsite":true,"hasHoraires":true,"url":"https://lannuaire.service-public.gouv.fr/nouvelle-aquitaine/haute-vienne/1a8b4334-dee4-4205-ab86-e7ba0c8c8673"}
{"nom":"Le Vigen","nomNormalise":"levigen","typeCollectivite":"Commune","region":"Nouvelle-Aquitaine","departement":"Haute-Vienne","departementCode":"87","adresse":{"street":"1 place Adrien-Delor","postalCode":"87110","city":"Le Vigen","country":"France"},"contacts":{"email":"mairie@le-vigen.fr","telephone":"0555005117"},"horaires":"Le Lundi : de 08h30 à 11h30 de 13h30 à 17h30\nDu Mardi au Vendredi : de 08h30 à 12h00 de 13h30 à 17h30","latitude":45.751022,"longitude":1.289098,"website":"https://www.le-vigen.fr/","hasWebsite":true,"hasHoraires":true,"url":"https://lannuaire.service-public.gouv.fr/nouvelle-aquitaine/haute-vienne/7e8ca535-0d12-4b4e-b050-fed8f52989df"}
{"nom":"Limoges","nomNormalise":"limoges","typeCollectivite":"Commune","region":"Nouvelle-Aquitaine","departement":"Haute-Vienne","departementCode":"87","adresse":{"street":"1 square Jacques-Chirac","postalCode":"87000","city":"Limoges","country":"France"},"contacts":{"email":"lemaire@ville-limoges.fr","telephone":"0555456000"},"horaires":"Du Lundi au Vendredi : de 08h30 à 12h30 de 13h30 à 17h00\n\nContacter l'accueil pour obtenir les horaires d'ouverture des différents services.","latitude":45.82661,"longitude":1.260348,"website":"https://www.limoges.fr/","hasWebsite":true,"hasHoraires":true,"url":"https://lannuaire.service-public.gouv.fr/nouvelle-aquitaine/haute-vienne/0acde6de-32e2-421b-a2e6-e62552aa3c09"}
{"nom":"Linards","nomNormalise":"linards","typeCollectivite":"Commune","region":"Nouvelle-Aquitaine","departement":"Haute-Vienne","departementCode":"87","adresse":{"street":"9 rue du Docteur-Touraille","postalCode":"87130","city":"Linards","country":"France"},"contacts":{"email":"mairie.linards@wanadoo.fr","telephone":"0555755115"},"horaires":"Du Lundi au Jeudi : de 08h30 à 12h00 de 13h30 à 17h00\nLe Vendredi : de 08h30 à 12h00 de 13h30 à 16h30\nLe Samedi : de 09h00 à 11h30","latitude":45.69893,"longitude":1.535751,"website":"https://www.mairiedelinards.fr/","hasWebsite":true,"hasHoraires":true,"url":"https://lannuaire.service-public.gouv.fr/nouvelle-aquitaine/haute-vienne/09587069-98a1-4b55-8775-d4972812691f"}
{"nom":"Lussac-les-Églises","nomNormalise":"lussacleseglises","typeCollectivite":"Commune","region":"Nouvelle-Aquitaine","departement":"Haute-Vienne","departementCode":"87","adresse":{"street":"3 avenue François-de-Bourdelle","postalCode":"87360","city":"Lussac-les-Églises","country":"France"},"contacts":{"email":"mairie.lussac.les.eglises@orange.fr","telephone":"0555682110"},"horaires":"Du Lundi au Vendredi : de 09h00 à 12h00 de 15h00 à 17h00","latitude":46.346054,"longitude":1.172636,"website":"https://lussac-les-eglises.fr/fr/","hasWebsite":true,"hasHoraires":true,"url":"https://lannuaire.service-public.gouv.fr/nouvelle-aquitaine/haute-vienne/a8e83a23-48de-457b-ab84-62f8dccb720c"}
{"nom":"Magnac-Bourg","nomNormalise":"magnacbourg","typeCollectivite":"Commune","region":"Nouvelle-Aquitaine","departement":"Haute-Vienne","departementCode":"87","adresse":{"street":"4 route nationale 20","postalCode":"87380","city":"Magnac-Bourg","country":"France"},"contacts":{"email":"mairie.magnac-bourg@wanadoo.fr","telephone":"0555008028"},"horaires":"Du Lundi au Vendredi : de 09h30 à 12h00 de 14h00 à 17h00\nLe Samedi : de 09h30 à 12h00","latitude":45.619667,"longitude":1.428904,"website":"https://www.magnac-bourg.fr/","hasWebsite":true,"hasHoraires":true,"url":"https://lannuaire.service-public.gouv.fr/nouvelle-aquitaine/haute-vienne/bc1b4ce2-2671-4385-ac70-c7e915c5ce74"}
{"nom":"Magnac-Laval","nomNormalise":"magnaclaval","typeCollectivite":"Commune","region":"Nouvelle-Aquitaine","departement":"Haute-Vienne","departementCode":"87","adresse":{"street":"11 place de la République","postalCode":"87190","city":"Magnac-Laval","country":"France"},"contacts":{"email":"mairie.magnaclaval@wanadoo.fr","telephone":"0555685254"},"horaires":"Du Lundi au Jeudi : de 09h00 à 12h00 de 14h00 à 17h00\nLe Vendredi : de 09h00 à 12h00 de 14h00 à 16h00","latitude":46.214645,"longitude":1.166207,"website":"https://www.magnac-laval.fr/fr/","hasWebsite":true,"hasHoraires":true,"url":"https://lannuaire.service-public.gouv.fr/nouvelle-aquitaine/haute-vienne/ad67f0f4-e238-4636-8c9f-c09b1b336ff2"}
{"nom":"Mailhac-sur-Benaize","nomNormalise":"mailhacsurbenaize","typeCollectivite":"Commune","region":"Nouvelle-Aquitaine","departement":"Haute-Vienne","departementCode":"87","adresse":{"street":"14 rue de la Terre-aux-Feuilles","postalCode":"87160","city":"Mailhac-sur-Benaize","country":"France"},"contacts":{"email":"secretariat.mairiemailhac@wanadoo.fr","telephone":"0555767574"},"horaires":"Du Lundi au Vendredi : de 08h30 à 12h30 de 13h30 à 16h30","latitude":46.3218,"longitude":1.32968,"website":"","hasWebsite":false,"hasHoraires":true,"url":"https://lannuaire.service-public.gouv.fr/nouvelle-aquitaine/haute-vienne/3f359d04-f1c8-497c-adbf-92613d4b812d"}
{"nom":"Maisonnais-sur-Tardoire","nomNormalise":"maisonnaissurtardoire","typeCollectivite":"Commune","region":"Nouvelle-Aquitaine","departement":"Haute-Vienne","departementCode":"87","adresse":{"street":"1 place de la mairie","postalCode":"87440","city":"Maisonnais-sur-Tardoire","country":"France"},"contacts":{"email":"mairie.maisonnais.sur.tardoire@wanadoo.fr","telephone":"0555003137"},"horaires":"Du Lundi au Mardi : de 08h30 à 12h00 de 13h30 à 16h00\nLe Mercredi : de 08h30 à 12h00\nLe Jeudi : de 08h30 à 12h00 de 13h30 à 16h00\nLe Vendredi : de 08h30 à 12h00 de 13h30 à 14h45","latitude":45.71168,"longitude":0.689493,"website":"https://maisonnais-sur-tardoire.eu/","hasWebsite":true,"hasHoraires":true,"url":"https://lannuaire.service-public.gouv.fr/nouvelle-aquitaine/haute-vienne/25b726b4-ca68-4c81-b1cf-a07bcf4578ea"}
{"nom":"Marval","nomNormalise":"marval","typeCollectivite":"Commune","region":"Nouvelle-Aquitaine","departement":"Haute-Vienne","departementCode":"87","adresse":{"street":"Le Bourg","postalCode":"87440","city":"Marval","country":"France"},"contacts":{"email":"mairie-marval@wanadoo.fr","telephone":"0555787104"},"horaires":"Du Lundi au Vendredi : de 09h00 à 12h30 de 14h00 à 17h00","latitude":45.62731,"longitude":0.798714,"website":"https://www.mairiedemarval.fr/","hasWebsite":true,"hasHoraires":true,"url":"https://lannuaire.service-public.gouv.fr/nouvelle-aquitaine/haute-vienne/e4089279-eed3-4922-9924-8e5e1becb648"}
{"nom":"Masléon","nomNormalise":"masleon","typeCollectivite":"Commune","region":"Nouvelle-Aquitaine","departement":"Haute-Vienne","departementCode":"87","adresse":{"street":"10 rue de la République","postalCode":"87130","city":"Masléon","country":"France"},"contacts":{"email":"mairiedemasleon@orange.fr","telephone":"0555570210"},"horaires":"Du Lundi au Mardi : de 13h30 à 17h30\nDu Jeudi au Vendredi : de 13h30 à 17h30\nLe Samedi : de 08h00 à 10h00\n\nAccueil ouvert uniquement les semaines paires.","latitude":45.76352,"longitude":1.570325,"website":"https://masleon.fr/","hasWebsite":true,"hasHoraires":true,"url":"https://lannuaire.service-public.gouv.fr/nouvelle-aquitaine/haute-vienne/ee506979-0d7b-49e7-abb6-7c7e03bde783"}
{"nom":"Meilhac","nomNormalise":"meilhac","typeCollectivite":"Commune","region":"Nouvelle-Aquitaine","departement":"Haute-Vienne","departementCode":"87","adresse":{"street":"2 place de l'Église","postalCode":"87800","city":"Meilhac","country":"France"},"contacts":{"email":"mairie.meilhac@wanadoo.fr","telephone":"0555581063"},"horaires":"Le Lundi : de 14h00 à 17h00\nLe Mardi : de 08h00 à 12h00 de 14h00 à 17h00\nLe Jeudi : de 14h00 à 17h00\nLe Vendredi : de 08h00 à 12h00 de 14h00 à 17h00\nLe Samedi : de 09h00 à 12h00\nMonsieur le Maire vous recevra sur rendez-vous. Une permanence est assurée la samedi de 10h30 à 12h et le lundi des semaines paires de 14h30 à 17h30 par Monsieur le Maire ou ses adjoints.","latitude":45.713535,"longitude":1.156518,"website":"https://www.meilhac.fr/","hasWebsite":true,"hasHoraires":true,"url":"https://lannuaire.service-public.gouv.fr/nouvelle-aquitaine/haute-vienne/cff7ed62-37aa-49e0-b9cd-0da02edfe1f1"}
{"nom":"Meuzac","nomNormalise":"meuzac","typeCollectivite":"Commune","region":"Nouvelle-Aquitaine","departement":"Haute-Vienne","departementCode":"87","adresse":{"street":"11 rue du 11-Novembre-1918","postalCode":"87380","city":"Meuzac","country":"France"},"contacts":{"email":"mairiemeuzac87380@gmail.com","telephone":"0555099712"},"horaires":"Du Lundi au Vendredi : de 09h00 à 12h00 de 14h00 à 16h00\nLe Samedi : de 09h00 à 12h00","latitude":45.553745,"longitude":1.441471,"website":"https://www.meuzac.fr/","hasWebsite":true,"hasHoraires":true,"url":"https://lannuaire.service-public.gouv.fr/nouvelle-aquitaine/haute-vienne/65e29f69-634d-4861-abe4-62b96a6ef986"}
{"nom":"Moissannes","nomNormalise":"moissannes","typeCollectivite":"Commune","region":"Nouvelle-Aquitaine","departement":"Haute-Vienne","departementCode":"87","adresse":{"street":"1 rue de la Mondoune","postalCode":"87400","city":"Moissannes","country":"France"},"contacts":{"email":"mairie-de-moissannes@wanadoo.fr","telephone":"0555753206"},"horaires":"Du Lundi au Mardi : de 09h15 à 12h15 de 13h30 à 17h30\nLe Mercredi : de 09h15 à 12h30\n\nAccueil de 9h 15 à 12h 30 et de 13h 30 à 17h 30 les semaines paires, de 8h 30 à 12h 00 les semaines impaires.\nDu Jeudi au Vendredi : de 09h15 à 12h15 de 13h30 à 17h30\nLe Samedi : de 08h30 à 12h00\n\nAccueil ouvert uniquement les semaines impaires.","latitude":45.881947,"longitude":1.556425,"website":"http://moissannes-limousin.fr/","hasWebsite":true,"hasHoraires":true,"url":"https://lannuaire.service-public.gouv.fr/nouvelle-aquitaine/haute-vienne/4c70e604-67fe-4632-9e39-053c7a7eb130"}
{"nom":"Montrol-Sénard","nomNormalise":"montrolsenard","typeCollectivite":"Commune","region":"Nouvelle-Aquitaine","departement":"Haute-Vienne","departementCode":"87","adresse":{"street":"3 route de la Coulée-Verte","postalCode":"87330","city":"Montrol-Sénard","country":"France"},"contacts":{"email":"mairie.montrolsenard@wanadoo.fr","telephone":"0555681206"},"horaires":"Le Lundi : de 09h00 à 12h00\nDu Mardi au Mercredi : de 09h00 à 12h00 de 14h00 à 17h00\nLe Jeudi : de 14h00 à 17h00\nLe vendredi sur rendez-vous.","latitude":46.031967,"longitude":0.959307,"website":"https://montrol-senard.com/","hasWebsite":true,"hasHoraires":true,"url":"https://lannuaire.service-public.gouv.fr/nouvelle-aquitaine/haute-vienne/8813943d-5f12-440a-b2a5-cc6ad16e6caa"}
{"nom":"Mortemart","nomNormalise":"mortemart","typeCollectivite":"Commune","region":"Nouvelle-Aquitaine","departement":"Haute-Vienne","departementCode":"87","adresse":{"street":"1 rue des Augustins","postalCode":"87330","city":"Mortemart","country":"France"},"contacts":{"email":"mairiemortemart@wanadoo.fr","telephone":"0555681211"},"horaires":"Le Mardi : de 13h30 à 17h30\nLe Vendredi : de 13h30 à 16h30","latitude":46.040894,"longitude":0.957382,"website":"https://mortemart.fr/","hasWebsite":true,"hasHoraires":true,"url":"https://lannuaire.service-public.gouv.fr/nouvelle-aquitaine/haute-vienne/7d795fd5-97b3-4506-b434-8439949ebaee"}
{"nom":"Nantiat","nomNormalise":"nantiat","typeCollectivite":"Commune","region":"Nouvelle-Aquitaine","departement":"Haute-Vienne","departementCode":"87","adresse":{"street":"10 rue de l'Hôtel-de-Ville","postalCode":"87140","city":"Nantiat","country":"France"},"contacts":{"email":"commune.nantiat@nantiat.fr","telephone":"0555534243"},"horaires":"Du Lundi au Samedi : de 09h00 à 12h00","latitude":46.009033,"longitude":1.174169,"website":"https://nantiat.com/","hasWebsite":true,"hasHoraires":true,"url":"https://lannuaire.service-public.gouv.fr/nouvelle-aquitaine/haute-vienne/71262381-c4b1-4429-89e1-be15be98becd"}
{"nom":"Nedde","nomNormalise":"nedde","typeCollectivite":"Commune","region":"Nouvelle-Aquitaine","departement":"Haute-Vienne","departementCode":"87","adresse":{"street":"27 place Pierre Thète","postalCode":"87120","city":"Nedde","country":"France"},"contacts":{"email":"mairie.nedde@nedde.fr","telephone":"0555699809"},"horaires":"Du Lundi au Jeudi : de 08h00 à 12h00 de 14h00 à 17h00\nLe Vendredi : de 08h00 à 12h00 de 14h00 à 16h30","latitude":45.71917,"longitude":1.831602,"website":"https://www.nedde.fr/","hasWebsite":true,"hasHoraires":true,"url":"https://lannuaire.service-public.gouv.fr/nouvelle-aquitaine/haute-vienne/7f48b1b3-05bf-4812-a7a6-ca4ac4fd7439"}
{"nom":"Neuvic-Entier","nomNormalise":"neuvicentier","typeCollectivite":"Commune","region":"Nouvelle-Aquitaine","departement":"Haute-Vienne","departementCode":"87","adresse":{"street":"8 rue de la République","postalCode":"87130","city":"Neuvic-Entier","country":"France"},"contacts":{"email":"mairie.neuvic-entier@wanadoo.fr","telephone":"0555693113"},"horaires":"Du Lundi au Vendredi : de 09h00 à 12h00 de 13h30 à 17h30","latitude":45.723484,"longitude":1.61338,"website":"https://neuvic-entier.fr/","hasWebsite":true,"hasHoraires":true,"url":"https://lannuaire.service-public.gouv.fr/nouvelle-aquitaine/haute-vienne/346cf7b2-dc5e-4e0f-8c6f-d55dfce1d24d"}
{"nom":"Nexon","nomNormalise":"nexon","typeCollectivite":"Commune","region":"Nouvelle-Aquitaine","departement":"Haute-Vienne","departementCode":"87","adresse":{"street":"6 place de l'Église","postalCode":"87800","city":"Nexon","country":"France"},"contacts":{"email":"mairie@nexon.fr","telephone":"0555581019"},"horaires":"Du Lundi au Jeudi : de 08h30 à 12h00 de 14h00 à 17h30\nLe Vendredi : de 08h30 à 12h00 de 14h00 à 17h00\nLe Samedi : de 08h30 à 11h30","latitude":45.6754,"longitude":1.18921,"website":"http://www.nexon.fr/","hasWebsite":true,"hasHoraires":true,"url":"https://lannuaire.service-public.gouv.fr/nouvelle-aquitaine/haute-vienne/0bdd148d-10f7-498e-9f40-de1951fe039a"}
{"nom":"Nieul","nomNormalise":"nieul","typeCollectivite":"Commune","region":"Nouvelle-Aquitaine","departement":"Haute-Vienne","departementCode":"87","adresse":{"street":"12 rue du 8-Mai-1945","postalCode":"87510","city":"Nieul","country":"France"},"contacts":{"email":"accueilmairie@nieul87.fr","telephone":"0555758023"},"horaires":"Du Lundi au Samedi : de 09h00 à 12h00","latitude":45.923576,"longitude":1.170965,"website":"http://www.nieul87.fr/","hasWebsite":true,"hasHoraires":true,"url":"https://lannuaire.service-public.gouv.fr/nouvelle-aquitaine/haute-vienne/f2e72a02-8c08-4d20-8339-4790a1fc7df2"}
{"nom":"Nouic","nomNormalise":"nouic","typeCollectivite":"Commune","region":"Nouvelle-Aquitaine","departement":"Haute-Vienne","departementCode":"87","adresse":{"street":"1 place Docteur-Justin-Labuze","postalCode":"87330","city":"Nouic","country":"France"},"contacts":{"email":"mairie@nouic.fr","telephone":"0555683272"},"horaires":"Du Lundi au Vendredi : de 09h00 à 12h00","latitude":46.05987,"longitude":0.919065,"website":"https://www.nouic.fr/","hasWebsite":true,"hasHoraires":true,"url":"https://lannuaire.service-public.gouv.fr/nouvelle-aquitaine/haute-vienne/37ab6607-d04b-4c86-84cb-670d2d2ac85d"}
{"nom":"Oradour-Saint-Genest","nomNormalise":"oradoursaintgenest","typeCollectivite":"Commune","region":"Nouvelle-Aquitaine","departement":"Haute-Vienne","departementCode":"87","adresse":{"street":"13 rue Joseph-Guillemot","postalCode":"87210","city":"Oradour-Saint-Genest","country":"France"},"contacts":{"email":"oradour.st.genest@wanadoo.fr","telephone":"0555607019"},"horaires":"Le Lundi : de 08h30 à 12h00\nLe Mardi : de 08h30 à 12h00 de 13h30 à 16h00\nDu Mercredi au Jeudi : de 08h30 à 12h00\nLe Vendredi : de 08h30 à 12h00 de 13h30 à 16h00","latitude":46.23769,"longitude":1.036674,"website":"","hasWebsite":false,"hasHoraires":true,"url":"https://lannuaire.service-public.gouv.fr/nouvelle-aquitaine/haute-vienne/17f1e644-7bc9-49f2-9819-0fe66f65b236"}
{"nom":"Oradour-sur-Glane","nomNormalise":"oradoursurglane","typeCollectivite":"Commune","region":"Nouvelle-Aquitaine","departement":"Haute-Vienne","departementCode":"87","adresse":{"street":"1 place Charles-de-Gaulle","postalCode":"87520","city":"Oradour-sur-Glane","country":"France"},"contacts":{"email":"accueil@oradour-sur-glane.fr","telephone":"0555031001"},"horaires":"Le Lundi : de 14h00 à 17h00\nDu Mardi au Vendredi : de 09h00 à 12h00 de 14h00 à 17h00\nLe Samedi : de 09h00 à 12h00","latitude":45.93115,"longitude":1.032401,"website":"https://oradour-sur-glane.fr/","hasWebsite":true,"hasHoraires":true,"url":"https://lannuaire.service-public.gouv.fr/nouvelle-aquitaine/haute-vienne/0de06aaa-93ab-4ca2-ad9b-c1ea5c3f49a3"}
{"nom":"Oradour-sur-Vayres","nomNormalise":"oradoursurvayres","typeCollectivite":"Commune","region":"Nouvelle-Aquitaine","departement":"Haute-Vienne","departementCode":"87","adresse":{"street":"26 rue du Général-de-Gaulle","postalCode":"87150","city":"Oradour-sur-Vayres","country":"France"},"contacts":{"email":"villeoradoursurvayres@wanadoo.fr","telephone":"0555319292"},"horaires":"Du Lundi au Mardi : de 08h30 à 12h30 de 13h30 à 17h30\nLe Mercredi : de 09h00 à 12h00\nDu Jeudi au Vendredi : de 08h30 à 12h30 de 13h30 à 17h30","latitude":45.732124,"longitude":0.865003,"website":"https://www.oradour-sur-vayres.fr/","hasWebsite":true,"hasHoraires":true,"url":"https://lannuaire.service-public.gouv.fr/nouvelle-aquitaine/haute-vienne/80f3eacd-8055-45e4-9655-61ef51dfc47f"}
{"nom":"Pageas","nomNormalise":"pageas","typeCollectivite":"Commune","region":"Nouvelle-Aquitaine","departement":"Haute-Vienne","departementCode":"87","adresse":{"street":"4 rue des Écoles","postalCode":"87230","city":"Pageas","country":"France"},"contacts":{"email":"communedepageas@wanadoo.fr","telephone":"0555784186"},"horaires":"Du Lundi au Mardi : de 08h00 à 12h00 de 13h00 à 17h00\nLe Mercredi : de 08h30 à 12h00\nDu Jeudi au Vendredi : de 08h00 à 12h00 de 13h00 à 17h00","latitude":45.678165,"longitude":0.999479,"website":"http://www.pageas.fr/","hasWebsite":true,"hasHoraires":true,"url":"https://lannuaire.service-public.gouv.fr/nouvelle-aquitaine/haute-vienne/813b6c3e-f6e1-4910-8730-ee8cb5019e4b"}
{"nom":"Panazol","nomNormalise":"panazol","typeCollectivite":"Commune","region":"Nouvelle-Aquitaine","departement":"Haute-Vienne","departementCode":"87","adresse":{"street":"Avenue Jean-Monnet","postalCode":"87350","city":"Panazol","country":"France"},"contacts":{"email":"mairie@mairie-panazol.fr","telephone":"0555064770"},"horaires":"Du Lundi au Vendredi : de 08h30 à 12h00 de 13h30 à 17h30\nLe Samedi : de 08h30 à 12h00\n\nAccueil ouvert uniquement pour l'état civil.","latitude":45.83641,"longitude":1.3055675,"website":"http://www.mairie-panazol.fr/","hasWebsite":true,"hasHoraires":true,"url":"https://lannuaire.service-public.gouv.fr/nouvelle-aquitaine/haute-vienne/48dfdd34-39e3-4718-b7c2-b29d4ff1c1d9"}
{"nom":"Pensol","nomNormalise":"pensol","typeCollectivite":"Commune","region":"Nouvelle-Aquitaine","departement":"Haute-Vienne","departementCode":"87","adresse":{"street":"7 route de la Mairie","postalCode":"87440","city":"Pensol","country":"France"},"contacts":{"email":"mairie@pensol.fr","telephone":"0555787106"},"horaires":"Le Lundi : de 08h30 à 12h30\nLe Mercredi : de 08h30 à 12h00 de 13h30 à 17h00\nLe Vendredi : de 08h30 à 12h00 de 13h00 à 16h00","latitude":45.60795,"longitude":0.824804,"website":"","hasWebsite":false,"hasHoraires":true,"url":"https://lannuaire.service-public.gouv.fr/nouvelle-aquitaine/haute-vienne/3ff85978-24a2-4e2b-943b-237a680384c3"}
{"nom":"Peyrat-de-Bellac","nomNormalise":"peyratdebellac","typeCollectivite":"Commune","region":"Nouvelle-Aquitaine","departement":"Haute-Vienne","departementCode":"87","adresse":{"street":"11 rue de la Colline","postalCode":"87300","city":"Peyrat-de-Bellac","country":"France"},"contacts":{"email":"mairie@peyratdebellac.fr","telephone":"0555681108"},"horaires":"Du Lundi au Vendredi : de 08h30 à 12h30 de 13h30 à 17h30\nLe Samedi : de 09h00 à 12h00","latitude":46.136,"longitude":1.03682,"website":"https://peyratdebellac.fr/fr","hasWebsite":true,"hasHoraires":true,"url":"https://lannuaire.service-public.gouv.fr/nouvelle-aquitaine/haute-vienne/242da9a1-8913-4500-b5e5-7d4e4aee6f67"}
{"nom":"Peyrat-le-Château","nomNormalise":"peyratlechateau","typeCollectivite":"Commune","region":"Nouvelle-Aquitaine","departement":"Haute-Vienne","departementCode":"87","adresse":{"street":"Le Bourg","postalCode":"87470","city":"Peyrat-le-Château","country":"France"},"contacts":{"email":"mairie-peyratlechateau87@wanadoo.fr","telephone":"0555694023"},"horaires":"Le Lundi : de 08h30 à 12h00\n\nAccueil ouvert uniquement le 3e lundi de chaque mois.\nDu Mardi au Mercredi : de 08h30 à 12h00 de 14h00 à 17h00\nLe Vendredi : de 08h30 à 12h00 de 14h00 à 15h30\nLe Samedi : de 09h00 à 12h00","latitude":45.8141,"longitude":1.77314,"website":"https://www.peyrat-le-chateau.fr/","hasWebsite":true,"hasHoraires":true,"url":"https://lannuaire.service-public.gouv.fr/nouvelle-aquitaine/haute-vienne/ba1e6c55-f545-4100-b12a-668012afa228"}
{"nom":"Peyrilhac","nomNormalise":"peyrilhac","typeCollectivite":"Commune","region":"Nouvelle-Aquitaine","departement":"Haute-Vienne","departementCode":"87","adresse":{"street":"1 place de la Mairie","postalCode":"87510","city":"Peyrilhac","country":"France"},"contacts":{"email":"secretariat.mairie@peyrilhac.fr","telephone":"0555758415"},"horaires":"Le Lundi : de 09h00 à 12h30 de 14h30 à 18h00\nLe Mardi : de 09h00 à 12h30\nLe Mercredi : de 09h00 à 12h00\nDu Jeudi au Vendredi : de 09h00 à 12h30 de 14h30 à 18h00\nLe Samedi : de 09h00 à 12h00\n\nAccueil fermé en juillet-août.","latitude":45.94963,"longitude":1.134988,"website":"http://www.peyrilhac.fr/","hasWebsite":true,"hasHoraires":true,"url":"https://lannuaire.service-public.gouv.fr/nouvelle-aquitaine/haute-vienne/77472891-6fb0-43b0-87b8-7ecafc784fa7"}
{"nom":"Pierre-Buffière","nomNormalise":"pierrebuffiere","typeCollectivite":"Commune","region":"Nouvelle-Aquitaine","departement":"Haute-Vienne","departementCode":"87","adresse":{"street":"Place de la Libération","postalCode":"87260","city":"Pierre-Buffière","country":"France"},"contacts":{"email":"mairie.pierrebuffiere@wanadoo.fr","telephone":"0555006007"},"horaires":"Du Lundi au Jeudi : de 08h30 à 12h00 de 14h00 à 17h00\nDu Vendredi au Samedi : de 08h30 à 12h00","latitude":45.6951,"longitude":1.35822,"website":"https://www.pierre-buffiere.com/","hasWebsite":true,"hasHoraires":true,"url":"https://lannuaire.service-public.gouv.fr/nouvelle-aquitaine/haute-vienne/d6b9dc8a-15f7-4bda-b913-0cd8ec23c8f1"}
{"nom":"Rancon","nomNormalise":"rancon","typeCollectivite":"Commune","region":"Nouvelle-Aquitaine","departement":"Haute-Vienne","departementCode":"87","adresse":{"street":"4 place de la Mairie","postalCode":"87290","city":"Rancon","country":"France"},"contacts":{"email":"mairie.rancon@wanadoo.fr","telephone":"0555681515"},"horaires":"Du Lundi au Vendredi : de 09h00 à 12h30","latitude":46.1315,"longitude":1.18242,"website":"","hasWebsite":false,"hasHoraires":true,"url":"https://lannuaire.service-public.gouv.fr/nouvelle-aquitaine/haute-vienne/66906491-bd0c-4082-8984-8ab48f461405"}
{"nom":"Razès","nomNormalise":"razes","typeCollectivite":"Commune","region":"Nouvelle-Aquitaine","departement":"Haute-Vienne","departementCode":"87","adresse":{"street":"1 square Edgar-Cruveilher","postalCode":"87640","city":"Razès","country":"France"},"contacts":{"email":"mairie.razes@wanadoo.fr","telephone":"0555389100"},"horaires":"Du Lundi au Mardi : de 08h15 à 12h00 de 13h30 à 17h30\nLe Mercredi : de 08h15 à 12h00\nDu Jeudi au Vendredi : de 08h15 à 12h00 de 13h30 à 17h30\nLe Samedi : de 08h15 à 12h00","latitude":46.03656,"longitude":1.345025,"website":"http://www.razes.fr/","hasWebsite":true,"hasHoraires":true,"url":"https://lannuaire.service-public.gouv.fr/nouvelle-aquitaine/haute-vienne/9ae6b261-7897-4a85-a6bb-6b0758c443cc"}
{"nom":"Rempnat","nomNormalise":"rempnat","typeCollectivite":"Commune","region":"Nouvelle-Aquitaine","departement":"Haute-Vienne","departementCode":"87","adresse":{"street":"Le Bourg","postalCode":"87120","city":"Rempnat","country":"France"},"contacts":{"email":"mairie.rempnat@wanadoo.fr","telephone":"0555699854"},"horaires":"Le Mardi : de 08h45 à 12h30 de 13h00 à 16h00\nDu Jeudi au Vendredi : de 08h45 à 12h30 de 13h00 à 16h00","latitude":45.686825,"longitude":1.88905,"website":"","hasWebsite":false,"hasHoraires":true,"url":"https://lannuaire.service-public.gouv.fr/nouvelle-aquitaine/haute-vienne/3a37db00-36f8-42ea-a21e-e2c3aa04b4ee"}
{"nom":"Rilhac-Lastours","nomNormalise":"rilhaclastours","typeCollectivite":"Commune","region":"Nouvelle-Aquitaine","departement":"Haute-Vienne","departementCode":"87","adresse":{"street":"4 rue Gouffier-de-Lastours","postalCode":"87800","city":"Rilhac-Lastours","country":"France"},"contacts":{"email":"rilhac-lastours87@orange.fr","telephone":"0555581235"},"horaires":"Le Mardi : de 09h00 à 12h00 de 14h00 à 18h00\nLe Mercredi : de 09h00 à 12h00\nDu Jeudi au Vendredi : de 09h00 à 12h00 de 14h00 à 18h00\nLe Samedi : de 09h00 à 12h00","latitude":45.648823,"longitude":1.120057,"website":"http://rilhac-lastours.fr/","hasWebsite":true,"hasHoraires":true,"url":"https://lannuaire.service-public.gouv.fr/nouvelle-aquitaine/haute-vienne/3d748756-14f6-4e8e-b044-f0fd06834acf"}
{"nom":"Rilhac-Rancon","nomNormalise":"rilhacrancon","typeCollectivite":"Commune","region":"Nouvelle-Aquitaine","departement":"Haute-Vienne","departementCode":"87","adresse":{"street":"2 rue du Peyrou","postalCode":"87570","city":"Rilhac-Rancon","country":"France"},"contacts":{"email":"accueil@rilhac-rancon.fr","telephone":"0555367010"},"horaires":"Du Lundi au Vendredi : de 08h30 à 12h00 de 13h30 à 17h30\nLe Samedi : de 09h00 à 12h00\n\nPermanence des élus avec ou sans rendez-vous de 10h30 à 12h.","latitude":45.901363,"longitude":1.316584,"website":"https://rilhac-rancon.fr/","hasWebsite":true,"hasHoraires":true,"url":"https://lannuaire.service-public.gouv.fr/nouvelle-aquitaine/haute-vienne/720b1b17-806f-4b41-857e-648abf4e3cc6"}
{"nom":"Rochechouart","nomNormalise":"rochechouart","typeCollectivite":"Commune","region":"Nouvelle-Aquitaine","departement":"Haute-Vienne","departementCode":"87","adresse":{"street":"Place du Château","postalCode":"87600","city":"Rochechouart","country":"France"},"contacts":{"email":"mairie@rochechouart.com","telephone":"0555430080"},"horaires":"Du Lundi au Vendredi : de 08h45 à 12h30 de 14h00 à 17h30\nLe Samedi : de 09h00 à 12h00\n\nAccueil ouvert uniquement pour l'état civil.","latitude":45.8219,"longitude":0.819934,"website":"https://www.rochechouart.com/","hasWebsite":true,"hasHoraires":true,"url":"https://lannuaire.service-public.gouv.fr/nouvelle-aquitaine/haute-vienne/6d8fd1ae-d741-4076-b86a-349a8bde6e41"}
{"nom":"Royères","nomNormalise":"royeres","typeCollectivite":"Commune","region":"Nouvelle-Aquitaine","departement":"Haute-Vienne","departementCode":"87","adresse":{"street":"2 place de la Mairie","postalCode":"87400","city":"Royères","country":"France"},"contacts":{"email":"mairiederoyeres@orange.fr","telephone":"0555560063"},"horaires":"Du Lundi au Vendredi : de 09h00 à 12h00\n\nFermeture au public les après-midi\nLe Samedi : de 10h00 à 12h00\n\nPermanence élus","latitude":45.848217,"longitude":1.429203,"website":"http://www.royeres87.fr/","hasWebsite":true,"hasHoraires":true,"url":"https://lannuaire.service-public.gouv.fr/nouvelle-aquitaine/haute-vienne/6e97bccd-702e-4f4e-bdda-ddc762d17864"}
{"nom":"Roziers-Saint-Georges","nomNormalise":"rozierssaintgeorges","typeCollectivite":"Commune","region":"Nouvelle-Aquitaine","departement":"Haute-Vienne","departementCode":"87","adresse":{"street":"Le Bourg","postalCode":"87130","city":"Roziers-Saint-Georges","country":"France"},"contacts":{"email":"mairiederoziersstgeorges@wanadoo.fr","telephone":"0555570239"},"horaires":"Du Lundi au Mardi : de 09h00 à 12h00 de 13h00 à 17h00\nLe Vendredi : de 09h00 à 13h00","latitude":45.75011,"longitude":1.548789,"website":"","hasWebsite":false,"hasHoraires":true,"url":"https://lannuaire.service-public.gouv.fr/nouvelle-aquitaine/haute-vienne/07417c3b-2fdd-469d-9c1b-d5408be9d309"}
{"nom":"Saillat-sur-Vienne","nomNormalise":"saillatsurvienne","typeCollectivite":"Commune","region":"Nouvelle-Aquitaine","departement":"Haute-Vienne","departementCode":"87","adresse":{"street":"1 place de la Mairie","postalCode":"87720","city":"Saillat-sur-Vienne","country":"France"},"contacts":{"email":"mairie@saillat.fr","telephone":"0555034182"},"horaires":"Le Lundi : de 09h00 à 12h00\nDu Mardi au Vendredi : de 08h30 à 12h00 de 13h30 à 18h00\nLe Samedi : de 09h00 à 12h00","latitude":45.873013,"longitude":0.818121,"website":"","hasWebsite":false,"hasHoraires":true,"url":"https://lannuaire.service-public.gouv.fr/nouvelle-aquitaine/haute-vienne/9ce09d50-5ad4-4243-aef0-b8ace2f4864e"}
{"nom":"Saint-Amand-le-Petit","nomNormalise":"saintamandlepetit","typeCollectivite":"Commune","region":"Nouvelle-Aquitaine","departement":"Haute-Vienne","departementCode":"87","adresse":{"street":"Le Bourg","postalCode":"87120","city":"Saint-Amand-le-Petit","country":"France"},"contacts":{"email":"mairie.stamandlepetit@wanadoo.fr","telephone":"0555691531"},"horaires":"Du Lundi au Mardi : de 09h00 à 12h00\nLe Mercredi : de 08h00 à 11h00\nDu Jeudi au Vendredi : de 09h00 à 12h00","latitude":45.7756,"longitude":1.75071,"website":"","hasWebsite":false,"hasHoraires":true,"url":"https://lannuaire.service-public.gouv.fr/nouvelle-aquitaine/haute-vienne/7514c175-74f7-4d2b-8c43-97315272c2c8"}
{"nom":"Saint-Amand-Magnazeix","nomNormalise":"saintamandmagnazeix","typeCollectivite":"Commune","region":"Nouvelle-Aquitaine","departement":"Haute-Vienne","departementCode":"87","adresse":{"street":"10 le Bourg","postalCode":"87290","city":"Saint-Amand-Magnazeix","country":"France"},"contacts":{"email":"mairie.st.amand.magnx@orange.fr","telephone":"0555760087"},"horaires":"Du Lundi au Mardi : de 09h00 à 12h30 de 13h30 à 16h45\nLe Mercredi : de 09h00 à 12h00\nDu Jeudi au Vendredi : de 09h00 à 12h30 de 13h30 à 16h45","latitude":46.17388,"longitude":1.354833,"website":"http://www.saint-amand-magnazeix.fr/","hasWebsite":true,"hasHoraires":true,"url":"https://lannuaire.service-public.gouv.fr/nouvelle-aquitaine/haute-vienne/30021f5d-def4-45a5-88ef-f8e6ab8c580f"}
{"nom":"Saint-Auvent","nomNormalise":"saintauvent","typeCollectivite":"Commune","region":"Nouvelle-Aquitaine","departement":"Haute-Vienne","departementCode":"87","adresse":{"street":"2 place de l'Église","postalCode":"87310","city":"Saint-Auvent","country":"France"},"contacts":{"email":"mairie.de.saint-auvent@wanadoo.fr","telephone":"0555000082"},"horaires":"Du Lundi au Vendredi : de 08h30 à 12h30 de 14h30 à 17h30","latitude":45.804726,"longitude":0.931905,"website":"https://saint-auvent.fr/","hasWebsite":true,"hasHoraires":true,"url":"https://lannuaire.service-public.gouv.fr/nouvelle-aquitaine/haute-vienne/91ebb2e6-c284-434d-a942-a22abce47b46"}
{"nom":"Mairie déléguée - Saint-Barbant","nomNormalise":"mairiedelegueesaintbarbant","typeCollectivite":"Commune","region":"Nouvelle-Aquitaine","departement":"Haute-Vienne","departementCode":"87","adresse":{"street":"Saint-Barbant","postalCode":"87330","city":"Val-d'Oire-et-Gartempe","country":"France"},"contacts":{"email":"stbarbant@voeg.fr","telephone":"0555683214"},"horaires":"Du Lundi au Jeudi : de 08h00 à 12h00","latitude":46.171967,"longitude":0.849294,"website":"https://val-doire-et-gartempe.fr/","hasWebsite":true,"hasHoraires":true,"url":"https://lannuaire.service-public.gouv.fr/nouvelle-aquitaine/haute-vienne/49bd8497-5c00-4314-96cb-2b1e879d0847"}
{"nom":"Saint-Bazile","nomNormalise":"saintbazile","typeCollectivite":"Commune","region":"Nouvelle-Aquitaine","departement":"Haute-Vienne","departementCode":"87","adresse":{"street":"7 rue de l'Étang","postalCode":"87150","city":"Saint-Bazile","country":"France"},"contacts":{"email":"mairie@saintbazile87.fr","telephone":"0555782220"},"horaires":"Le Lundi : de 13h30 à 16h30\nLe Mardi : de 08h45 à 12h30 de 13h15 à 16h30\nLe Jeudi : de 08h45 à 12h30 de 13h15 à 16h30\nSamedi matin : sur rendez-vous","latitude":45.732216,"longitude":0.8276,"website":"","hasWebsite":false,"hasHoraires":true,"url":"https://lannuaire.service-public.gouv.fr/nouvelle-aquitaine/haute-vienne/2c84f954-5baf-47eb-a80b-65db4a598834"}
{"nom":"Saint-Bonnet-Briance","nomNormalise":"saintbonnetbriance","typeCollectivite":"Commune","region":"Nouvelle-Aquitaine","departement":"Haute-Vienne","departementCode":"87","adresse":{"street":"Le Bourg","postalCode":"87260","city":"Saint-Bonnet-Briance","country":"France"},"contacts":{"email":"contact@saint-bonnet-briance.fr","telephone":"0555755016"},"horaires":"Du Mardi au Vendredi : de 08h30 à 12h00 de 13h00 à 16h30\nLe Samedi : de 08h00 à 12h00","latitude":45.70799,"longitude":1.475057,"website":"https://www.saint-bonnet-briance.fr/","hasWebsite":true,"hasHoraires":true,"url":"https://lannuaire.service-public.gouv.fr/nouvelle-aquitaine/haute-vienne/ea1f83a8-bdec-4bac-a4b6-1879a637f2fa"}
{"nom":"Saint-Bonnet-de-Bellac","nomNormalise":"saintbonnetdebellac","typeCollectivite":"Commune","region":"Nouvelle-Aquitaine","departement":"Haute-Vienne","departementCode":"87","adresse":{"street":"12 route Nationale","postalCode":"87300","city":"Saint-Bonnet-de-Bellac","country":"France"},"contacts":{"email":"mairiesaintbonnetdebellac@gmail.com","telephone":"0555600203"},"horaires":"Du Lundi au Vendredi : de 09h00 à 12h00","latitude":46.16914,"longitude":0.953225,"website":"https://www.mairie-saint-bonnet-de-bellac.com/","hasWebsite":true,"hasHoraires":true,"url":"https://lannuaire.service-public.gouv.fr/nouvelle-aquitaine/haute-vienne/bf38d023-6bc7-4feb-8a71-358c8b5a7346"}
{"nom":"Saint-Brice-sur-Vienne","nomNormalise":"saintbricesurvienne","typeCollectivite":"Commune","region":"Nouvelle-Aquitaine","departement":"Haute-Vienne","departementCode":"87","adresse":{"street":"1 place Maisondieu","postalCode":"87200","city":"Saint-Brice-sur-Vienne","country":"France"},"contacts":{"email":"mairie@stbrice87.fr","telephone":"0555021813"},"horaires":"Du Lundi au Mercredi : de 08h30 à 12h00 de 13h30 à 17h30\nLe Jeudi : de 08h30 à 12h00\nLe Vendredi : de 09h00 à 12h00 de 14h00 à 17h00\nLe Samedi : de 09h00 à 12h00","latitude":45.879772,"longitude":0.95314,"website":"https://www.stbrice87.fr/","hasWebsite":true,"hasHoraires":true,"url":"https://lannuaire.service-public.gouv.fr/nouvelle-aquitaine/haute-vienne/c5ca8516-2969-48cb-b7d1-31093083ce56"}
{"nom":"Saint-Cyr","nomNormalise":"saintcyr","typeCollectivite":"Commune","region":"Nouvelle-Aquitaine","departement":"Haute-Vienne","departementCode":"87","adresse":{"street":"8 rue de la Liberté","postalCode":"87310","city":"Saint-Cyr","country":"France"},"contacts":{"email":"mairie.stcyr87310@gmail.com","telephone":"0555000058"},"horaires":"Du Lundi au Mardi : de 09h00 à 12h30 de 13h30 à 16h30\nDu Jeudi au Vendredi : de 09h00 à 12h30 de 13h30 à 16h30\nM. le Maire reçoit sur rendez-vous les jours ouvrables ainsi que le samedi matin","latitude":45.800335,"longitude":0.958568,"website":"","hasWebsite":false,"hasHoraires":true,"url":"https://lannuaire.service-public.gouv.fr/nouvelle-aquitaine/haute-vienne/8172ac99-cec8-4d7d-b23c-a14d609c76b4"}
{"nom":"Saint-Denis-des-Murs","nomNormalise":"saintdenisdesmurs","typeCollectivite":"Commune","region":"Nouvelle-Aquitaine","departement":"Haute-Vienne","departementCode":"87","adresse":{"street":"24 le Bourg","postalCode":"87400","city":"Saint-Denis-des-Murs","country":"France"},"contacts":{"email":"saintdenisdesmurs@orange.fr","telephone":"0555570059"},"horaires":"Du Lundi au Mardi : de 09h00 à 12h00 de 14h00 à 17h00\nDu Jeudi au Vendredi : de 09h00 à 12h00 de 14h00 à 17h00\nLe Samedi : de 09h00 à 12h00","latitude":45.786102,"longitude":1.545141,"website":"https://saintdenisdesmurs.fr/","hasWebsite":true,"hasHoraires":true,"url":"https://lannuaire.service-public.gouv.fr/nouvelle-aquitaine/haute-vienne/e16d72f5-3d4c-4f1d-84ae-cd8e52ebcbd5"}
{"nom":"Sainte-Anne-Saint-Priest","nomNormalise":"sainteannesaintpriest","typeCollectivite":"Commune","region":"Nouvelle-Aquitaine","departement":"Haute-Vienne","departementCode":"87","adresse":{"street":"Le Bourg","postalCode":"87120","city":"Sainte-Anne-Saint-Priest","country":"France"},"contacts":{"email":"mairie.sainte.anne.saint.priest@wanadoo.fr","telephone":"0555691678"},"horaires":"Du Lundi au Mardi : de 12h30 à 17h30\nDu Jeudi au Vendredi : de 12h30 à 17h30","latitude":45.704758,"longitude":1.684654,"website":"","hasWebsite":false,"hasHoraires":true,"url":"https://lannuaire.service-public.gouv.fr/nouvelle-aquitaine/haute-vienne/9a376b2a-791a-4f3b-9f6c-ac53a87fd1c0"}
{"nom":"Sainte-Marie-de-Vaux","nomNormalise":"saintemariedevaux","typeCollectivite":"Commune","region":"Nouvelle-Aquitaine","departement":"Haute-Vienne","departementCode":"87","adresse":{"street":"Mairie","postalCode":"87420","city":"Sainte-Marie-de-Vaux","country":"France"},"contacts":{"email":"commune.saintemariedevaux@wanadoo.fr","telephone":"0555038235"},"horaires":"Du Lundi au Mardi : de 14h00 à 18h00\nLe Jeudi : de 14h00 à 18h00\nLe Samedi : de 09h00 à 12h00","latitude":45.865925,"longitude":1.046876,"website":"","hasWebsite":false,"hasHoraires":true,"url":"https://lannuaire.service-public.gouv.fr/nouvelle-aquitaine/haute-vienne/29727d1b-f6a0-4251-bcb2-34ff8f1a8c46"}
{"nom":"Saint-Gence","nomNormalise":"saintgence","typeCollectivite":"Commune","region":"Nouvelle-Aquitaine","departement":"Haute-Vienne","departementCode":"87","adresse":{"street":"4 place de l'Église","postalCode":"87510","city":"Saint-Gence","country":"France"},"contacts":{"email":"secretariat@saint-gence.fr","telephone":"0555758605"},"horaires":"Du Lundi au Mardi : de 09h00 à 12h00 de 13h30 à 18h00\nLe Mercredi : de 09h00 à 12h00\nDu Jeudi au Vendredi : de 09h00 à 12h00 de 13h30 à 18h00\nLe Samedi : de 09h00 à 12h00","latitude":45.921562,"longitude":1.136755,"website":"http://www.saint-gence.fr/","hasWebsite":true,"hasHoraires":true,"url":"https://lannuaire.service-public.gouv.fr/nouvelle-aquitaine/haute-vienne/abd2a042-b68c-4d85-be65-9e08bce1bc74"}
{"nom":"Saint-Genest-sur-Roselle","nomNormalise":"saintgenestsurroselle","typeCollectivite":"Commune","region":"Nouvelle-Aquitaine","departement":"Haute-Vienne","departementCode":"87","adresse":{"street":"5 rue du 19-Mars-1962","postalCode":"87260","city":"Saint-Genest-sur-Roselle","country":"France"},"contacts":{"email":"mairiestgenest@wanadoo.fr","telephone":"0555755303"},"horaires":"Du Lundi au Mercredi : de 14h00 à 18h00\nLe Vendredi : de 14h00 à 18h00","latitude":45.702995,"longitude":1.425934,"website":"","hasWebsite":false,"hasHoraires":true,"url":"https://lannuaire.service-public.gouv.fr/nouvelle-aquitaine/haute-vienne/9b75b93d-5e41-4ec5-a82f-57f0c3b17f78"}
{"nom":"Saint-Georges-les-Landes","nomNormalise":"saintgeorgesleslandes","typeCollectivite":"Commune","region":"Nouvelle-Aquitaine","departement":"Haute-Vienne","departementCode":"87","adresse":{"street":"26 rue du Poète","postalCode":"87160","city":"Saint-Georges-les-Landes","country":"France"},"contacts":{"email":"mairies.sgll@wanadoo.fr","telephone":"0555767556"},"horaires":"Du Lundi au Mercredi : de 08h30 à 12h15 de 13h30 à 17h30\nLe Jeudi : de 08h30 à 12h30\nLe Vendredi : de 08h30 à 12h15 de 13h30 à 17h30","latitude":46.34464,"longitude":1.338352,"website":"http://www.saint-georges-les-landes.fr/","hasWebsite":true,"hasHoraires":true,"url":"https://lannuaire.service-public.gouv.fr/nouvelle-aquitaine/haute-vienne/0c90a057-b690-468a-bfe3-0912d4cd3df9"}
{"nom":"Saint-Germain-les-Belles","nomNormalise":"saintgermainlesbelles","typeCollectivite":"Commune","region":"Nouvelle-Aquitaine","departement":"Haute-Vienne","departementCode":"87","adresse":{"street":"1 place de l'Église","postalCode":"87380","city":"Saint-Germain-les-Belles","country":"France"},"contacts":{"email":"mairiedesaintgermainlesbelles@wanadoo.fr","telephone":"0555718009"},"horaires":"Du Lundi au Vendredi : de 09h00 à 12h00 de 14h00 à 16h00\nLe Samedi : de 09h00 à 12h00","latitude":45.614166,"longitude":1.495634,"website":"https://saint-germain-les-belles.fr/","hasWebsite":true,"hasHoraires":true,"url":"https://lannuaire.service-public.gouv.fr/nouvelle-aquitaine/haute-vienne/de897cfa-88b3-43f1-beb4-2c2913420c7b"}
{"nom":"Saint Gilles les Forets","nomNormalise":"saintgilleslesforets","typeCollectivite":"Commune","region":"Nouvelle-Aquitaine","departement":"Haute-Vienne","departementCode":"87","adresse":{"street":"Le Bourg","postalCode":"87130","city":"Saint-Gilles-les-Forêts","country":"France"},"contacts":{"email":"mairie.saintgilleslesforets@orange.fr","telephone":"0555696255"},"horaires":"Le Lundi : de 13h30 à 16h30\nLe Mardi : de 13h00 à 17h00\n\nUniquement sur rendez-vous\nLe Jeudi : de 13h00 à 16h15\nLe Vendredi : de 09h00 à 13h30","latitude":45.62884,"longitude":1.66421,"website":"http://www.cc-briance-combade.com/","hasWebsite":true,"hasHoraires":true,"url":"https://lannuaire.service-public.gouv.fr/nouvelle-aquitaine/haute-vienne/854c89d7-4d00-44d9-b2ad-a86bab897419"}
{"nom":"Saint-Hilaire-Bonneval","nomNormalise":"sainthilairebonneval","typeCollectivite":"Commune","region":"Nouvelle-Aquitaine","departement":"Haute-Vienne","departementCode":"87","adresse":{"street":"Le Bourg","postalCode":"87260","city":"Saint-Hilaire-Bonneval","country":"France"},"contacts":{"email":"mairiesainthilairebonneval@orange.fr","telephone":"0555006165"},"horaires":"Du Lundi au Vendredi : de 13h30 à 17h30\nLe Samedi : de 09h00 à 12h00","latitude":45.71863,"longitude":1.376276,"website":"","hasWebsite":false,"hasHoraires":true,"url":"https://lannuaire.service-public.gouv.fr/nouvelle-aquitaine/haute-vienne/66db9c43-f055-4bae-8a1b-6e967546c665"}
{"nom":"Saint-Hilaire-la-Treille","nomNormalise":"sainthilairelatreille","typeCollectivite":"Commune","region":"Nouvelle-Aquitaine","departement":"Haute-Vienne","departementCode":"87","adresse":{"street":"1 rue des Rochers","postalCode":"87190","city":"Saint-Hilaire-la-Treille","country":"France"},"contacts":{"email":"mairie.saint.hilaire.la.treille@wanadoo.fr","telephone":"0555768233"},"horaires":"Le Mardi : de 08h00 à 12h00 de 13h30 à 17h00\nLe Mercredi : de 08h00 à 12h00\nDu Jeudi au Vendredi : de 08h00 à 12h00 de 13h30 à 17h00\nLe Samedi : de 08h00 à 12h00","latitude":46.251637,"longitude":1.317373,"website":"https://www.saint-hilaire-la-treille.fr/","hasWebsite":true,"hasHoraires":true,"url":"https://lannuaire.service-public.gouv.fr/nouvelle-aquitaine/haute-vienne/73aecb33-c31d-4fd4-89ef-a163664bed7a"}
{"nom":"Saint-Hilaire-les-Places","nomNormalise":"sainthilairelesplaces","typeCollectivite":"Commune","region":"Nouvelle-Aquitaine","departement":"Haute-Vienne","departementCode":"87","adresse":{"street":"5 rue des Places","postalCode":"87800","city":"Saint-Hilaire-les-Places","country":"France"},"contacts":{"email":"mairie-saint.hilaire@wanadoo.fr","telephone":"0555581208"},"horaires":"Du Lundi au Samedi : de 09h00 à 12h00","latitude":45.644806,"longitude":1.158578,"website":"https://sainthilairelesplaces.fr/","hasWebsite":true,"hasHoraires":true,"url":"https://lannuaire.service-public.gouv.fr/nouvelle-aquitaine/haute-vienne/4fb86bf3-245b-48ce-bf59-e3ea34f46881"}
{"nom":"Saint-Jean-Ligoure","nomNormalise":"saintjeanligoure","typeCollectivite":"Commune","region":"Nouvelle-Aquitaine","departement":"Haute-Vienne","departementCode":"87","adresse":{"street":"Avenue des Tilleuls","postalCode":"87260","city":"Saint-Jean-Ligoure","country":"France"},"contacts":{"email":"mairiesaintjeanligoure@orange.fr","telephone":"0555006183"},"horaires":"Du Lundi au Mardi : de 15h00 à 18h00\nLe Jeudi : de 15h00 à 18h00\nDu Vendredi au Samedi : de 09h00 à 12h00\n\nPermanence du Maire et Adjoints : Samedi de 9h à 12h","latitude":45.689793,"longitude":1.310435,"website":"https://www.saintjeanligoure.fr/","hasWebsite":true,"hasHoraires":true,"url":"https://lannuaire.service-public.gouv.fr/nouvelle-aquitaine/haute-vienne/b4e74b92-5fb6-48b4-bdfc-27f82c33c2e4"}
{"nom":"Saint-Jouvent","nomNormalise":"saintjouvent","typeCollectivite":"Commune","region":"Nouvelle-Aquitaine","departement":"Haute-Vienne","departementCode":"87","adresse":{"street":"30 rue des Écoles","postalCode":"87510","city":"Saint-Jouvent","country":"France"},"contacts":{"email":"contact@saintjouvent.com","telephone":"0555758101"},"horaires":"Le Lundi : de 08h45 à 12h00 de 14h00 à 18h00\nLe Mardi : de 08h45 à 12h00\nLe Mercredi : de 08h45 à 12h00 de 14h00 à 18h00\nLe Jeudi : de 08h45 à 12h00\nLe Vendredi : de 08h45 à 12h00 de 14h00 à 18h00\nLe 1er et 3ème samedi de chaque mois de 09h00 à 12h00, les autres sur rendez-vous.","latitude":45.95723,"longitude":1.202398,"website":"https://saintjouvent.com/","hasWebsite":true,"hasHoraires":true,"url":"https://lannuaire.service-public.gouv.fr/nouvelle-aquitaine/haute-vienne/bc1fc6b0-31a3-4a26-80f6-eb6b22823224"}
{"nom":"Saint-Julien-le-Petit","nomNormalise":"saintjulienlepetit","typeCollectivite":"Commune","region":"Nouvelle-Aquitaine","departement":"Haute-Vienne","departementCode":"87","adresse":{"street":"3 route du lavoir","postalCode":"87460","city":"Saint-Julien-le-Petit","country":"France"},"contacts":{"email":"communication.sjlp@orange.fr","telephone":"0555694156"},"horaires":"Du Lundi au Vendredi : de 14h00 à 18h00","latitude":45.822746,"longitude":1.705068,"website":"","hasWebsite":false,"hasHoraires":true,"url":"https://lannuaire.service-public.gouv.fr/nouvelle-aquitaine/haute-vienne/6159c124-eef7-4f6e-9ead-66b4f0b7327a"}
{"nom":"Saint-Junien","nomNormalise":"saintjunien","typeCollectivite":"Commune","region":"Nouvelle-Aquitaine","departement":"Haute-Vienne","departementCode":"87","adresse":{"street":"2 place Auguste-Roche","postalCode":"87200","city":"Saint-Junien Cedex","country":"France"},"contacts":{"email":"contact@saint-junien.fr","telephone":"0555430680"},"horaires":"Du Lundi au Vendredi : de 08h30 à 12h00 de 13h30 à 17h30\nLe Samedi : de 08h45 à 11h45\n\nLe 3e samedi du mois.","latitude":45.88715,"longitude":0.901112,"website":"https://www.saint-junien.fr/","hasWebsite":true,"hasHoraires":true,"url":"https://lannuaire.service-public.gouv.fr/nouvelle-aquitaine/haute-vienne/f520ea75-a336-4892-a19e-d5c2e6ca21b5"}
{"nom":"Saint-Junien-les-Combes","nomNormalise":"saintjunienlescombes","typeCollectivite":"Commune","region":"Nouvelle-Aquitaine","departement":"Haute-Vienne","departementCode":"87","adresse":{"street":"1 rue du 8-Mai-1945","postalCode":"87300","city":"Saint-Junien-les-Combes","country":"France"},"contacts":{"email":"mairie.junien@orange.fr","telephone":"0555681353"},"horaires":"Le Lundi : de 09h00 à 12h00\nDu Mercredi au Vendredi : de 09h00 à 12h00","latitude":46.086433,"longitude":1.12285,"website":"https://st-junien-les-combes.fr/","hasWebsite":true,"hasHoraires":true,"url":"https://lannuaire.service-public.gouv.fr/nouvelle-aquitaine/haute-vienne/1122b39a-b935-4d49-bced-60213a2416c0"}
{"nom":"Saint-Just-le-Martel","nomNormalise":"saintjustlemartel","typeCollectivite":"Commune","region":"Nouvelle-Aquitaine","departement":"Haute-Vienne","departementCode":"87","adresse":{"street":"Rue de la Mairie","postalCode":"87590","city":"Saint-Just-le-Martel","country":"France"},"contacts":{"email":"mairie@saintjustlemartel.fr","telephone":"0555092019"},"horaires":"Du Lundi au Vendredi : de 08h30 à 12h00 de 15h00 à 17h00\nLe Samedi : de 09h00 à 12h00\n\nAccueil fermé le samedi pendant les vacances scolaires.","latitude":45.8635,"longitude":1.38491,"website":"https://saintjustlemartel.fr/","hasWebsite":true,"hasHoraires":true,"url":"https://lannuaire.service-public.gouv.fr/nouvelle-aquitaine/haute-vienne/60113867-757c-4087-912e-dbb3f754de4b"}
{"nom":"Saint-Laurent-les-Églises","nomNormalise":"saintlaurentleseglises","typeCollectivite":"Commune","region":"Nouvelle-Aquitaine","departement":"Haute-Vienne","departementCode":"87","adresse":{"street":"9 route de la Jonchère","postalCode":"87240","city":"Saint-Laurent-les-Églises","country":"France"},"contacts":{"email":"mairie@saintlaurentleseglises.fr","telephone":"0555565613"},"horaires":"Du Lundi au Vendredi : de 08h30 à 12h00 de 14h00 à 17h00\nLe Samedi : de 08h30 à 12h00\nEn dehors des horaires d'ouverture de la mairie et en cas d'urgence vous pouvez contacter le Maire au 06 73 95 72 20","latitude":45.723484,"longitude":1.61338,"website":"http://www.saintlaurentleseglises.fr/","hasWebsite":true,"hasHoraires":true,"url":"https://lannuaire.service-public.gouv.fr/nouvelle-aquitaine/haute-vienne/626ef857-f7fe-4bb5-9168-8c1bacaf158e"}
{"nom":"Saint-Laurent-sur-Gorre","nomNormalise":"saintlaurentsurgorre","typeCollectivite":"Commune","region":"Nouvelle-Aquitaine","departement":"Haute-Vienne","departementCode":"87","adresse":{"street":"3 place de la Mairie","postalCode":"87310","city":"Saint-Laurent-sur-Gorre","country":"France"},"contacts":{"email":"mairie.stlaurent.gorre@wanadoo.fr","telephone":"0555000021"},"horaires":"Du Lundi au Vendredi : de 09h00 à 12h30 de 13h30 à 17h00\nLe samedi sur rendez vous","latitude":45.76942,"longitude":0.95829,"website":"https://www.saint-laurent-gorre.fr/","hasWebsite":true,"hasHoraires":true,"url":"https://lannuaire.service-public.gouv.fr/nouvelle-aquitaine/haute-vienne/94575406-64da-44e8-bc70-59417e3746e5"}
{"nom":"Saint-Léger-la-Montagne","nomNormalise":"saintlegerlamontagne","typeCollectivite":"Commune","region":"Nouvelle-Aquitaine","departement":"Haute-Vienne","departementCode":"87","adresse":{"street":"9 rue de la Fontaine","postalCode":"87340","city":"Saint-Léger-la-Montagne","country":"France"},"contacts":{"email":"contact@saintlegerlamontagne.fr","telephone":"0555398083"},"horaires":"Le Lundi : de 08h30 à 12h00 de 13h30 à 17h00\nDu Mardi au Mercredi : de 08h30 à 12h00\nLe Jeudi : de 08h30 à 12h00 de 13h30 à 17h00\nLe Vendredi : de 13h30 à 17h00\nLe Samedi : de 08h30 à 12h00","latitude":46.029102,"longitude":1.418408,"website":"https://www.saintlegerlamontagne.fr/","hasWebsite":true,"hasHoraires":true,"url":"https://lannuaire.service-public.gouv.fr/nouvelle-aquitaine/haute-vienne/0d60b621-f020-4651-bdd4-3423a04f9dde"}
{"nom":"Saint-Léger-Magnazeix","nomNormalise":"saintlegermagnazeix","typeCollectivite":"Commune","region":"Nouvelle-Aquitaine","departement":"Haute-Vienne","departementCode":"87","adresse":{"street":"8 avenue du Clocher","postalCode":"87190","city":"Saint-Léger-Magnazeix","country":"France"},"contacts":{"email":"mairiestleger@orange.fr","telephone":"0555682039"},"horaires":"Du Lundi au Mardi : de 09h00 à 12h00 de 14h00 à 17h00\nLe Mercredi : de 09h00 à 12h00\nDu Jeudi au Vendredi : de 09h00 à 12h00 de 14h00 à 17h00\nLe Samedi : de 09h00 à 12h00","latitude":46.28771,"longitude":1.246901,"website":"http://stlegermagnazeix.com/","hasWebsite":true,"hasHoraires":true,"url":"https://lannuaire.service-public.gouv.fr/nouvelle-aquitaine/haute-vienne/dbee96f3-a5e0-48bb-a153-d1a5546d904d"}
{"nom":"Saint-Léonard-de-Noblat","nomNormalise":"saintleonarddenoblat","typeCollectivite":"Commune","region":"Nouvelle-Aquitaine","departement":"Haute-Vienne","departementCode":"87","adresse":{"street":"Place du 14-Juillet","postalCode":"87400","city":"Saint-Léonard-de-Noblat","country":"France"},"contacts":{"email":"accueil@ville-saint-leonard.fr","telephone":"0555560013"},"horaires":"Du Lundi au Vendredi : de 09h00 à 12h00 de 14h00 à 17h00\nLe Samedi : de 09h00 à 12h00\n\nAccueil ouvert uniquement pour l'état civil.","latitude":45.83666,"longitude":1.48627,"website":"https://www.ville-saint-leonard.fr/","hasWebsite":true,"hasHoraires":true,"url":"https://lannuaire.service-public.gouv.fr/nouvelle-aquitaine/haute-vienne/4bc054c8-34b4-4192-b022-34e4520aa25c"}
{"nom":"Saint-Martial-sur-Isop","nomNormalise":"saintmartialsurisop","typeCollectivite":"Commune","region":"Nouvelle-Aquitaine","departement":"Haute-Vienne","departementCode":"87","adresse":{"street":"12 le Bourg","postalCode":"87330","city":"Saint-Martial-sur-Isop","country":"France"},"contacts":{"email":"mairiestmartials.isop@orange.fr","telephone":"0555683048"},"horaires":"Du Lundi au Mardi : de 08h30 à 17h30\nLe Jeudi : de 08h30 à 17h30\nLe Vendredi : de 08h30 à 16h30","latitude":46.16835,"longitude":0.849287,"website":"https://www.saintmartialsurisop.fr/","hasWebsite":true,"hasHoraires":true,"url":"https://lannuaire.service-public.gouv.fr/nouvelle-aquitaine/haute-vienne/40092add-8b6f-45a5-9c4f-2ffaf9dffb6d"}
{"nom":"Saint-Martin-de-Jussac","nomNormalise":"saintmartindejussac","typeCollectivite":"Commune","region":"Nouvelle-Aquitaine","departement":"Haute-Vienne","departementCode":"87","adresse":{"street":"1 place de la Mairie","postalCode":"87200","city":"Saint-Martin-de-Jussac","country":"France"},"contacts":{"email":"commune.saintmartindejussac@wanadoo.fr","telephone":"0555021815"},"horaires":"Le Lundi : de 09h00 à 11h30\nLe Mardi : de 09h00 à 12h00\nLe Jeudi : de 09h00 à 11h30\nLe Vendredi : de 09h00 à 12h00\nLe Samedi : de 09h00 à 12h00\nmercredi : fermé au public","latitude":45.876762,"longitude":0.941154,"website":"https://www.st-martin-de-jussac.fr/","hasWebsite":true,"hasHoraires":true,"url":"https://lannuaire.service-public.gouv.fr/nouvelle-aquitaine/haute-vienne/3708f70b-1618-43dc-8590-806e81ddae89"}
{"nom":"Saint-Martin-le-Mault","nomNormalise":"saintmartinlemault","typeCollectivite":"Commune","region":"Nouvelle-Aquitaine","departement":"Haute-Vienne","departementCode":"87","adresse":{"street":"7 Grande-rue","postalCode":"87360","city":"Saint-Martin-le-Mault","country":"France"},"contacts":{"email":"mairie.smlm@wanadoo.fr","telephone":"0555682053"},"horaires":"Le Lundi : de 13h30 à 17h00\nLe Mardi : de 13h30 à 16h30\nLe Mercredi : de 08h30 à 12h00\nLe Jeudi : de 13h30 à 17h00\nLe Vendredi : de 08h30 à 12h00\nLe Samedi : de 09h00 à 12h00","latitude":46.362686,"longitude":1.214984,"website":"","hasWebsite":false,"hasHoraires":true,"url":"https://lannuaire.service-public.gouv.fr/nouvelle-aquitaine/haute-vienne/6622fa2d-97aa-4d26-9a3b-161432f91829"}
{"nom":"Saint-Martin-le-Vieux","nomNormalise":"saintmartinlevieux","typeCollectivite":"Commune","region":"Nouvelle-Aquitaine","departement":"Haute-Vienne","departementCode":"87","adresse":{"street":"1 place de la Mairie","postalCode":"87700","city":"Saint-Martin-le-Vieux","country":"France"},"contacts":{"email":"mairie@stmartinlevieux.fr","telephone":"0555391085"},"horaires":"Du Lundi au Mardi : de 08h30 à 12h00 de 13h30 à 17h00\nLe Mercredi : de 08h30 à 12h00\nLe Jeudi : de 08h30 à 12h00 de 13h30 à 17h00\nLe Vendredi : de 08h30 à 12h00\nLe Samedi : de 09h00 à 12h00\n\nPermanence des élus de 11h à 12h.","latitude":45.74596,"longitude":1.118963,"website":"https://www.saintmartinlevieux.com/","hasWebsite":true,"hasHoraires":true,"url":"https://lannuaire.service-public.gouv.fr/nouvelle-aquitaine/haute-vienne/09e2c4dc-21a2-4f35-8ccc-3cff0e43ca53"}
{"nom":"Saint-Martin-Terressus","nomNormalise":"saintmartinterressus","typeCollectivite":"Commune","region":"Nouvelle-Aquitaine","departement":"Haute-Vienne","departementCode":"87","adresse":{"street":"6 parc de la Mairie","postalCode":"87400","city":"Saint-Martin-Terressus","country":"France"},"contacts":{"email":"mairie@st-martin-terressus.fr","telephone":"0555397412"},"horaires":"Du Lundi au Mardi : de 08h00 à 12h00 de 13h30 à 17h30\nLe Mercredi : de 08h00 à 12h00\nLe Jeudi : de 08h00 à 12h00 de 13h30 à 17h30\nLe Vendredi : de 08h00 à 12h00 de 13h30 à 16h30","latitude":45.919895,"longitude":1.442922,"website":"https://st-martin-terressus.fr/","hasWebsite":true,"hasHoraires":true,"url":"https://lannuaire.service-public.gouv.fr/nouvelle-aquitaine/haute-vienne/4736fd8a-2112-4903-aa5a-c3d14c801742"}
{"nom":"Saint-Mathieu","nomNormalise":"saintmathieu","typeCollectivite":"Commune","region":"Nouvelle-Aquitaine","departement":"Haute-Vienne","departementCode":"87","adresse":{"street":"1 place du Docteur-Hugonneau","postalCode":"87440","city":"Saint-Mathieu","country":"France"},"contacts":{"email":"mairie.saint.mathieu@orange.fr","telephone":"0555003026"},"horaires":"Du Lundi au Jeudi : de 08h30 à 12h00 de 13h30 à 17h30\nLe Vendredi : de 08h30 à 12h00 de 13h30 à 17h00\nLe Samedi : de 08h30 à 12h00","latitude":45.705513,"longitude":0.7589,"website":"https://www.saint-mathieu.fr/","hasWebsite":true,"hasHoraires":true,"url":"https://lannuaire.service-public.gouv.fr/nouvelle-aquitaine/haute-vienne/65128827-89ea-4f93-bb36-368b9a6932a5"}
{"nom":"Saint-Maurice-les-Brousses","nomNormalise":"saintmauricelesbrousses","typeCollectivite":"Commune","region":"Nouvelle-Aquitaine","departement":"Haute-Vienne","departementCode":"87","adresse":{"street":"29 avenue de Limoges","postalCode":"87800","city":"Saint-Maurice-les-Brousses","country":"France"},"contacts":{"email":"mairie@saintmaurice87.fr","telephone":"0555575072"},"horaires":"Du Lundi au Mardi : de 08h30 à 12h00 de 15h00 à 18h00\nLe Mercredi : de 08h30 à 12h00\nDu Jeudi au Vendredi : de 08h30 à 12h00 de 15h00 à 18h00","latitude":45.698307,"longitude":1.23598,"website":"https://www.saintmauricelesbrousses.fr/","hasWebsite":true,"hasHoraires":true,"url":"https://lannuaire.service-public.gouv.fr/nouvelle-aquitaine/haute-vienne/5acb8685-9cff-447a-8bd4-969e0d8ff746"}
{"nom":"Saint-Méard","nomNormalise":"saintmeard","typeCollectivite":"Commune","region":"Nouvelle-Aquitaine","departement":"Haute-Vienne","departementCode":"87","adresse":{"street":"4 rue du Lavoir","postalCode":"87130","city":"Saint-Méard","country":"France"},"contacts":{"email":"mairie@saint-meard.fr","telephone":"0555717058"},"horaires":"Du Mardi au Samedi : de 09h00 à 12h30","latitude":45.66555,"longitude":1.547844,"website":"https://www.saint-meard.fr/","hasWebsite":true,"hasHoraires":true,"url":"https://lannuaire.service-public.gouv.fr/nouvelle-aquitaine/haute-vienne/8778b57d-9b79-489c-94c6-fc88dc67f8b2"}
{"nom":"Saint-Ouen-sur-Gartempe","nomNormalise":"saintouensurgartempe","typeCollectivite":"Commune","region":"Nouvelle-Aquitaine","departement":"Haute-Vienne","departementCode":"87","adresse":{"street":"13 rue des Marronniers","postalCode":"87300","city":"Saint-Ouen-sur-Gartempe","country":"France"},"contacts":{"email":"mairie-st-ouen-sur-gartempe@wanadoo.fr","telephone":"0555681012"},"horaires":"Du Lundi au Vendredi : de 13h30 à 17h30","latitude":46.168,"longitude":1.09219,"website":"","hasWebsite":false,"hasHoraires":true,"url":"https://lannuaire.service-public.gouv.fr/nouvelle-aquitaine/haute-vienne/481056b8-40bb-4d5a-ad88-9953530017dc"}
{"nom":"Mairie déléguée - Saint-Pardoux","nomNormalise":"mairiedelegueesaintpardoux","typeCollectivite":"Commune","region":"Nouvelle-Aquitaine","departement":"Haute-Vienne","departementCode":"87","adresse":{"street":"Saint-Pardoux","postalCode":"87140","city":"Saint-Pardoux-le-Lac","country":"France"},"contacts":{"email":"commune.saint.pardoux@orange.fr","telephone":"0555763382"},"horaires":"Du Mardi au Mercredi : de 09h00 à 12h00 de 14h00 à 17h00\nDu Jeudi au Vendredi : de 09h00 à 12h00\nLe 1er janvier 2019, la commune nouvelle de Saint-Pardoux-le-Lac est créée en lieu et place des communes de Roussac, de Saint-Symphorien-sur-Couze et de Saint-Pardoux (canton de Bellac pour Roussac et Saint-Symphorien-sur-Couze, canton d'Ambazac pour Saint-Pardoux, arrondissement de Bellac)","latitude":46.05836,"longitude":1.28163,"website":"http://www.saint-pardoux-le-lac.fr/","hasWebsite":true,"hasHoraires":true,"url":"https://lannuaire.service-public.gouv.fr/nouvelle-aquitaine/haute-vienne/8a61e830-8573-4340-b156-c1e8f7392692"}
{"nom":"Saint-Pardoux-le-Lac","nomNormalise":"saintpardouxlelac","typeCollectivite":"Commune","region":"Nouvelle-Aquitaine","departement":"Haute-Vienne","departementCode":"87","adresse":{"street":"Roussac","postalCode":"87140","city":"Saint-Pardoux-le-Lac","country":"France"},"contacts":{"email":"mairie.saintpardouxlelac@orange.fr","telephone":"0555602121"},"horaires":"Du Lundi au Samedi : de 09h00 à 12h00","latitude":46.078285,"longitude":1.201791,"website":"https://www.saint-pardoux-le-lac.fr/","hasWebsite":true,"hasHoraires":true,"url":"https://lannuaire.service-public.gouv.fr/nouvelle-aquitaine/haute-vienne/d0cadcac-f802-49e2-9d74-348555f4b2a9"}
{"nom":"Saint-Paul","nomNormalise":"saintpaul","typeCollectivite":"Commune","region":"Nouvelle-Aquitaine","departement":"Haute-Vienne","departementCode":"87","adresse":{"street":"48 avenue de Limoges","postalCode":"87260","city":"Saint-Paul","country":"France"},"contacts":{"email":"accueil@mairie-stpaul87.fr","telephone":"0555097125"},"horaires":"Du Lundi au Jeudi : de 08h30 à 12h00 de 14h00 à 17h00\nLe Vendredi : de 14h00 à 17h00\nLe Samedi : de 08h30 à 12h00","latitude":45.75257,"longitude":1.429428,"website":"https://mairie-stpaul87.fr/","hasWebsite":true,"hasHoraires":true,"url":"https://lannuaire.service-public.gouv.fr/nouvelle-aquitaine/haute-vienne/5590652d-f5a2-4047-8f41-da0e0c9f75ad"}
{"nom":"Saint-Priest-Ligoure","nomNormalise":"saintpriestligoure","typeCollectivite":"Commune","region":"Nouvelle-Aquitaine","departement":"Haute-Vienne","departementCode":"87","adresse":{"street":"2 jardin des Écoliers","postalCode":"87800","city":"Saint-Priest-Ligoure","country":"France"},"contacts":{"email":"stpriestligoure.mairie@wanadoo.fr","telephone":"0555006217"},"horaires":"Du Lundi au Mardi : de 09h00 à 12h00 de 14h00 à 16h30\nLe Jeudi : de 09h00 à 12h00 de 14h00 à 18h00\nLe Vendredi : de 09h00 à 12h00 de 14h00 à 16h30\nLe Samedi : de 09h00 à 12h00\n\nPermanence des élus uniquement.","latitude":45.650894,"longitude":1.291785,"website":"https://www.stpriestligoure.com/","hasWebsite":true,"hasHoraires":true,"url":"https://lannuaire.service-public.gouv.fr/nouvelle-aquitaine/haute-vienne/09bf3d73-e46d-402f-bcc9-afec32994e20"}
{"nom":"Saint-Priest-sous-Aixe","nomNormalise":"saintpriestsousaixe","typeCollectivite":"Commune","region":"Nouvelle-Aquitaine","departement":"Haute-Vienne","departementCode":"87","adresse":{"street":"Le Bourg","postalCode":"87700","city":"Saint-Priest-sous-Aixe","country":"France"},"contacts":{"email":"mairiesaintpriestsousaixe@gmail.com","telephone":"0555700058"},"horaires":"Le Lundi : de 10h30 à 12h00 de 14h00 à 17h15\nDu Mardi au Vendredi : de 09h00 à 12h00 de 14h00 à 17h15\nLe Samedi : de 09h00 à 12h00","latitude":45.817196,"longitude":1.0989761,"website":"","hasWebsite":false,"hasHoraires":true,"url":"https://lannuaire.service-public.gouv.fr/nouvelle-aquitaine/haute-vienne/8d4d8247-32d6-44b8-901f-90bea6e0dc11"}
{"nom":"Saint-Priest-Taurion","nomNormalise":"saintpriesttaurion","typeCollectivite":"Commune","region":"Nouvelle-Aquitaine","departement":"Haute-Vienne","departementCode":"87","adresse":{"street":"24 rue Jean-Gagnant","postalCode":"87480","city":"Saint-Priest-Taurion","country":"France"},"contacts":{"email":"contact@saintpriesttaurion.fr","telephone":"0555397038"},"horaires":"Du Lundi au Mardi : de 08h30 à 12h00 de 13h30 à 18h00\nLe Mercredi : de 08h30 à 12h00 de 14h00 à 17h30\nDu Jeudi au Vendredi : de 08h30 à 12h00 de 13h30 à 18h00\nLe Samedi : de 09h00 à 12h00","latitude":45.8866,"longitude":1.39746,"website":"https://saintpriesttaurion.fr/","hasWebsite":true,"hasHoraires":true,"url":"https://lannuaire.service-public.gouv.fr/nouvelle-aquitaine/haute-vienne/da55c768-2f29-40b5-a7cf-ee033fc93718"}
{"nom":"Saint-Sornin-la-Marche","nomNormalise":"saintsorninlamarche","typeCollectivite":"Commune","region":"Nouvelle-Aquitaine","departement":"Haute-Vienne","departementCode":"87","adresse":{"street":"2 rue du Lieutenant-Paul-Camille-Dumas","postalCode":"87210","city":"Saint-Sornin-la-Marche","country":"France"},"contacts":{"email":"st.sornin.marche@wanadoo.fr","telephone":"0555600296"},"horaires":"Du Lundi au Vendredi : de 09h00 à 12h30","latitude":46.18327,"longitude":0.99103,"website":"","hasWebsite":false,"hasHoraires":true,"url":"https://lannuaire.service-public.gouv.fr/nouvelle-aquitaine/haute-vienne/34361673-383c-4364-9650-fc33861c6488"}
{"nom":"Saint-Sornin-Leulac","nomNormalise":"saintsorninleulac","typeCollectivite":"Commune","region":"Nouvelle-Aquitaine","departement":"Haute-Vienne","departementCode":"87","adresse":{"street":"4 rue de l'Ancien-Abreuvoir","postalCode":"87290","city":"Saint-Sornin-Leulac","country":"France"},"contacts":{"email":"mairie.st-sornin-leulac@wanadoo.fr","telephone":"0555763055"},"horaires":"Du Lundi au Samedi : de 09h00 à 12h00","latitude":46.19833,"longitude":1.298081,"website":"http://www.gartempe-saint-pardoux.fr/fr/territoire/1420/saint-sornin-leulac","hasWebsite":true,"hasHoraires":true,"url":"https://lannuaire.service-public.gouv.fr/nouvelle-aquitaine/haute-vienne/082883cc-c6bc-45fc-8d8b-9df09fbc0e55"}
{"nom":"Saint-Sulpice-Laurière","nomNormalise":"saintsulpicelauriere","typeCollectivite":"Commune","region":"Nouvelle-Aquitaine","departement":"Haute-Vienne","departementCode":"87","adresse":{"street":"2 rue Jules-Ferry","postalCode":"87370","city":"Saint-Sulpice-Laurière","country":"France"},"contacts":{"email":"secretariat@saint-sulpice-lauriere.fr","telephone":"0555714646"},"horaires":"Du Lundi au Mardi : de 08h45 à 12h15 de 13h15 à 17h15\n\nAccueil ouvert uniquement sur rendez-vous le mardi après-midi.\nDu Jeudi au Vendredi : de 08h45 à 12h15 de 13h15 à 17h15\n\nAccueil ouvert uniquement sur rendez-vous le jeudi après-midi.\nLe Samedi : de 08h30 à 12h15","latitude":46.052647,"longitude":1.471242,"website":"http://www.saint-sulpice-lauriere.fr/","hasWebsite":true,"hasHoraires":true,"url":"https://lannuaire.service-public.gouv.fr/nouvelle-aquitaine/haute-vienne/5a6a8309-2033-409a-81c8-71a59d603526"}
{"nom":"Saint-Sulpice-les-Feuilles","nomNormalise":"saintsulpicelesfeuilles","typeCollectivite":"Commune","region":"Nouvelle-Aquitaine","departement":"Haute-Vienne","departementCode":"87","adresse":{"street":"Voie de la Reine","postalCode":"87160","city":"Saint-Sulpice-les-Feuilles","country":"France"},"contacts":{"email":"mairie@sslf.fr","telephone":"0555767332"},"horaires":"Du Lundi au Vendredi : de 09h00 à 12h00 de 13h30 à 17h30","latitude":46.31807,"longitude":1.367965,"website":"https://www.saint-sulpice-les-feuilles.fr/","hasWebsite":true,"hasHoraires":true,"url":"https://lannuaire.service-public.gouv.fr/nouvelle-aquitaine/haute-vienne/957090aa-6c8b-4fd9-b57f-56ae89578b62"}
{"nom":"Saint-Sylvestre","nomNormalise":"saintsylvestre","typeCollectivite":"Commune","region":"Nouvelle-Aquitaine","departement":"Haute-Vienne","departementCode":"87","adresse":{"street":"1 rue de la Mairie","postalCode":"87240","city":"Saint-Sylvestre","country":"France"},"contacts":{"email":"mairie.stsylv87240@orange.fr","telephone":"0555713366"},"horaires":"Du Lundi au Vendredi : de 09h00 à 12h00 de 14h00 à 17h00\nLe Samedi : de 09h00 à 12h00","latitude":45.995644,"longitude":1.3769499,"website":"https://www.saint-sylvestre-limousin.fr/","hasWebsite":true,"hasHoraires":true,"url":"https://lannuaire.service-public.gouv.fr/nouvelle-aquitaine/haute-vienne/0d83bc99-1953-4bbb-9afc-e4b4864864a9"}
{"nom":"Mairie déléguée - Saint-Symphorien-sur-Couze","nomNormalise":"mairiedelegueesaintsymphoriensurcouze","typeCollectivite":"Commune","region":"Nouvelle-Aquitaine","departement":"Haute-Vienne","departementCode":"87","adresse":{"street":"Saint-Symphorien-sur-Couze","postalCode":"87140","city":"Saint-Pardoux-le-Lac","country":"France"},"contacts":{"email":"commune-st-symphorien@orange.fr","telephone":"0555534575"},"horaires":"Du Lundi au Mardi : de 08h30 à 12h00\nDu Jeudi au Samedi : de 08h30 à 12h00\nLe 1er janvier 2019, la commune nouvelle de Saint-Pardoux-le-Lac est créée en lieu et place des communes de Roussac, de Saint-Symphorien-sur-Couze et de Saint-Pardoux (canton de Bellac pour Roussac et Saint-Symphorien-sur-Couze, canton d'Ambazac pour Saint-Pardoux, arrondissement de Bellac)","latitude":46.060307,"longitude":1.234764,"website":"","hasWebsite":false,"hasHoraires":true,"url":"https://lannuaire.service-public.gouv.fr/nouvelle-aquitaine/haute-vienne/68f1764a-fdce-477e-9843-34b8b27483c8"}
{"nom":"Saint-Victurnien","nomNormalise":"saintvicturnien","typeCollectivite":"Commune","region":"Nouvelle-Aquitaine","departement":"Haute-Vienne","departementCode":"87","adresse":{"street":"13 rue Alluaud","postalCode":"87420","city":"Saint-Victurnien","country":"France"},"contacts":{"email":"mairie.stvicturnien@wanadoo.fr","telephone":"0555038127"},"horaires":"Du Lundi au Vendredi : de 08h30 à 12h00 de 13h30 à 17h30\n\nLe secrétariat est fermé au public tous les jeudis AM (13H30/17H30)\nLe Samedi : de 09h00 à 12h00","latitude":45.87777,"longitude":1.013215,"website":"https://www.saint-victurnien.fr/","hasWebsite":true,"hasHoraires":true,"url":"https://lannuaire.service-public.gouv.fr/nouvelle-aquitaine/haute-vienne/2be55fa1-3ba4-41e5-b6fb-0f1980d709b4"}
{"nom":"Saint-Vitte-sur-Briance","nomNormalise":"saintvittesurbriance","typeCollectivite":"Commune","region":"Nouvelle-Aquitaine","departement":"Haute-Vienne","departementCode":"87","adresse":{"street":"7 rue du Mont Gargan","postalCode":"87380","city":"Saint-Vitte-sur-Briance","country":"France"},"contacts":{"email":"mairiestvittesurbriance@orange.fr","telephone":"0555717028"},"horaires":"Du Lundi au Mardi : de 14h00 à 17h30\nDu Jeudi au Vendredi : de 14h00 à 17h00\nLe Samedi : de 09h00 à 12h00\nSemaines impaires : du Lundi au Vendredi : 14h00 à 17h30","latitude":45.625355,"longitude":1.546007,"website":"https://mairiesaintvittesurbriance.fr/","hasWebsite":true,"hasHoraires":true,"url":"https://lannuaire.service-public.gouv.fr/nouvelle-aquitaine/haute-vienne/a0af3461-a2da-4a0f-85a2-855937669204"}
{"nom":"Saint-Yrieix-la-Perche","nomNormalise":"saintyrieixlaperche","typeCollectivite":"Commune","region":"Nouvelle-Aquitaine","departement":"Haute-Vienne","departementCode":"87","adresse":{"street":"45 boulevard de l'Hôtel-de-Ville","postalCode":"87500","city":"Saint-Yrieix-la-Perche","country":"France"},"contacts":{"email":"etat-civil@saint-yrieix.fr","telephone":"0555088888"},"horaires":"Du Lundi au Jeudi : de 08h45 à 12h30 de 13h30 à 18h00\nLe Vendredi : de 08h45 à 12h30 de 13h30 à 17h30\nLe Samedi : de 09h00 à 12h00","latitude":45.51243,"longitude":1.203639,"website":"https://saint-yrieix.fr/","hasWebsite":true,"hasHoraires":true,"url":"https://lannuaire.service-public.gouv.fr/nouvelle-aquitaine/haute-vienne/097818af-04b6-4fa7-9e41-64b64434d6b3"}
{"nom":"Saint-Yrieix-sous-Aixe","nomNormalise":"saintyrieixsousaixe","typeCollectivite":"Commune","region":"Nouvelle-Aquitaine","departement":"Haute-Vienne","departementCode":"87","adresse":{"street":"Le Bourg","postalCode":"87700","city":"Saint-Yrieix-sous-Aixe","country":"France"},"contacts":{"email":"mairie.saint-yrieix-sous-aixe@wanadoo.fr","telephone":"0555038186"},"horaires":"Le Mardi : de 08h30 à 12h30\nLe Jeudi : de 08h30 à 12h30\nLe Samedi : de 08h30 à 12h30","latitude":45.858692,"longitude":1.077816,"website":"http://saint-yrieix-sous-aixe.fr/","hasWebsite":true,"hasHoraires":true,"url":"https://lannuaire.service-public.gouv.fr/nouvelle-aquitaine/haute-vienne/5dfcc7c2-a1ed-49f0-b904-6ad1dc635f33"}
{"nom":"Sauviat-sur-Vige","nomNormalise":"sauviatsurvige","typeCollectivite":"Commune","region":"Nouvelle-Aquitaine","departement":"Haute-Vienne","departementCode":"87","adresse":{"street":"68 rue Émile-Dourdet","postalCode":"87400","city":"Sauviat-sur-Vige","country":"France"},"contacts":{"email":"accueil@mairie-sauviat-sur-vige.fr","telephone":"0555753028"},"horaires":"Du Lundi au Vendredi : de 09h00 à 12h30 de 13h30 à 17h30","latitude":45.90728,"longitude":1.605772,"website":"http://mairie-sauviat-sur-vige.fr/","hasWebsite":true,"hasHoraires":true,"url":"https://lannuaire.service-public.gouv.fr/nouvelle-aquitaine/haute-vienne/4e3d80ab-0663-4c43-bf3f-de7d8ce57a70"}
{"nom":"Séreilhac","nomNormalise":"sereilhac","typeCollectivite":"Commune","region":"Nouvelle-Aquitaine","departement":"Haute-Vienne","departementCode":"87","adresse":{"street":"7 allée des Tilleuls","postalCode":"87620","city":"Séreilhac","country":"France"},"contacts":{"email":"secretariat@sereilhac.com","telephone":"0555391033"},"horaires":"Du Lundi au Vendredi : de 08h00 à 12h00 de 13h30 à 17h30\nLe Samedi : de 09h00 à 12h00","latitude":45.76655,"longitude":1.080765,"website":"http://www.sereilhac.com/","hasWebsite":true,"hasHoraires":true,"url":"https://lannuaire.service-public.gouv.fr/nouvelle-aquitaine/haute-vienne/29b13756-4ce9-4e7f-b37b-28f004d1f8a9"}
{"nom":"Solignac","nomNormalise":"solignac","typeCollectivite":"Commune","region":"Nouvelle-Aquitaine","departement":"Haute-Vienne","departementCode":"87","adresse":{"street":"57 avenue Saint-Éloi","postalCode":"87110","city":"Solignac","country":"France"},"contacts":{"email":"mairie@solignac.fr","telephone":"0555005009"},"horaires":"Du Lundi au Mercredi : de 08h30 à 12h30 de 13h30 à 17h00\nLe Jeudi : de 08h30 à 12h30\nLe Vendredi : de 08h30 à 12h30 de 13h30 à 17h00","latitude":45.755,"longitude":1.27554,"website":"http://www.solignac.fr/","hasWebsite":true,"hasHoraires":true,"url":"https://lannuaire.service-public.gouv.fr/nouvelle-aquitaine/haute-vienne/809e7e6b-91c9-48ca-8d99-fe660f5fd8b3"}
{"nom":"Surdoux","nomNormalise":"surdoux","typeCollectivite":"Commune","region":"Nouvelle-Aquitaine","departement":"Haute-Vienne","departementCode":"87","adresse":{"street":"6 le Bourg","postalCode":"87130","city":"Surdoux","country":"France"},"contacts":{"email":"contact@commune-surdoux.fr","telephone":"0555696122"},"horaires":"Le Mardi : de 09h00 à 12h30\nLe Jeudi : de 09h00 à 12h30","latitude":45.60663,"longitude":1.648759,"website":"https://www.commune-surdoux.fr/","hasWebsite":true,"hasHoraires":true,"url":"https://lannuaire.service-public.gouv.fr/nouvelle-aquitaine/haute-vienne/bf8211de-e46b-422c-80ea-f49bb5aaa26f"}
{"nom":"Sussac","nomNormalise":"sussac","typeCollectivite":"Commune","region":"Nouvelle-Aquitaine","departement":"Haute-Vienne","departementCode":"87","adresse":{"street":"185 route de Sainte-Anne-Saint Priest","postalCode":"87130","city":"Sussac","country":"France"},"contacts":{"email":"mairiesussac@wanadoo.fr","telephone":"0555696241"},"horaires":"Du Lundi au Mardi : de 09h00 à 12h30 de 13h30 à 17h00\nDu Jeudi au Vendredi : de 09h00 à 12h30 de 13h30 à 17h00","latitude":45.664623,"longitude":1.650834,"website":"http://sussac.fr/","hasWebsite":true,"hasHoraires":true,"url":"https://lannuaire.service-public.gouv.fr/nouvelle-aquitaine/haute-vienne/0e9f4f1b-3ceb-4f8c-bc57-8980d18f91c5"}
{"nom":"Tersannes","nomNormalise":"tersannes","typeCollectivite":"Commune","region":"Nouvelle-Aquitaine","departement":"Haute-Vienne","departementCode":"87","adresse":{"street":"1 chemin de l'École","postalCode":"87360","city":"Tersannes","country":"France"},"contacts":{"email":"mairie.tersannes@wanadoo.fr","telephone":"0555682079"},"horaires":"Du Lundi au Vendredi : de 13h30 à 17h00","latitude":46.297935,"longitude":1.122442,"website":"","hasWebsite":false,"hasHoraires":true,"url":"https://lannuaire.service-public.gouv.fr/nouvelle-aquitaine/haute-vienne/34e636f3-a584-4504-8e8a-114b19247412"}
{"nom":"Mairie déléguée - Thiat","nomNormalise":"mairiedelegueethiat","typeCollectivite":"Commune","region":"Nouvelle-Aquitaine","departement":"Haute-Vienne","departementCode":"87","adresse":{"street":"Thiat","postalCode":"87320","city":"Val-d'Oire-et-Gartempe","country":"France"},"contacts":{"email":"thiat@voeg.fr","telephone":"0555684387"},"horaires":"Du Lundi au Mercredi : de 14h30 à 17h00\nLe Vendredi : de 13h30 à 16h00\nA compter du 1er janvier 2019, la commune nouvelle de Val-d'Oire-et-Gartempe est créée en lieu et place des communes de Bussière-Poitevine, de Saint-Barbant, de Darnac et de Thiat (canton de Bellac pour Bussière-Poitevine et Saint-Barbant et canton de Châteauponsac pour Darnac et Thiat, arrondissement de Bellac).","latitude":46.266983,"longitude":0.974154,"website":"https://val-doire-et-gartempe.fr/","hasWebsite":true,"hasHoraires":true,"url":"https://lannuaire.service-public.gouv.fr/nouvelle-aquitaine/haute-vienne/607df43c-a944-421e-b383-c1f7a1955494"}
{"nom":"Thouron","nomNormalise":"thouron","typeCollectivite":"Commune","region":"Nouvelle-Aquitaine","departement":"Haute-Vienne","departementCode":"87","adresse":{"street":"1 rue de la Mairie","postalCode":"87140","city":"Thouron","country":"France"},"contacts":{"email":"mairie.thouron@wanadoo.fr","telephone":"0555534849"},"horaires":"Du Lundi au Mardi : de 09h00 à 12h00 de 14h00 à 16h00\nDu Jeudi au Vendredi : de 09h00 à 12h00 de 14h00 à 16h00\nLe Samedi : de 09h00 à 11h00","latitude":45.99843,"longitude":1.218349,"website":"","hasWebsite":false,"hasHoraires":true,"url":"https://lannuaire.service-public.gouv.fr/nouvelle-aquitaine/haute-vienne/2619665a-2b34-4738-a3e9-12c9f681eb84"}
{"nom":"Val-d'Issoire","nomNormalise":"valdissoire","typeCollectivite":"Commune","region":"Nouvelle-Aquitaine","departement":"Haute-Vienne","departementCode":"87","adresse":{"street":"Mézières-sur-Issoire","postalCode":"87330","city":"Val-d'Issoire","country":"France"},"contacts":{"email":"commune@valdissoire.fr","telephone":"0555683182"},"horaires":"Du Lundi au Vendredi : de 09h00 à 12h00\nLes après-midis par téléphone","latitude":46.107735,"longitude":0.911389,"website":"https://www.valdissoire.fr/","hasWebsite":true,"hasHoraires":true,"url":"https://lannuaire.service-public.gouv.fr/nouvelle-aquitaine/haute-vienne/fb1ad04b-ec22-4bb5-a16d-e2e429f5e810"}
{"nom":"Val-d'Oire-et-Gartempe","nomNormalise":"valdoireetgartempe","typeCollectivite":"Commune","region":"Nouvelle-Aquitaine","departement":"Haute-Vienne","departementCode":"87","adresse":{"street":"Bussière-Poitevine","postalCode":"87320","city":"Val-d'Oire-et-Gartempe","country":"France"},"contacts":{"email":"mairie@voeg.fr","telephone":"0555684083"},"horaires":"Du Lundi au Vendredi : de 08h30 à 12h00\nLe Samedi : de 09h00 à 12h00\n\nAccueil ouvert uniquement le 1er samedi du mois.","latitude":46.234108,"longitude":0.906164,"website":"https://val-doire-et-gartempe.fr/fr/","hasWebsite":true,"hasHoraires":true,"url":"https://lannuaire.service-public.gouv.fr/nouvelle-aquitaine/haute-vienne/f17fd65a-4c03-48ab-b677-9c7b6baecfa1"}
{"nom":"Vaulry","nomNormalise":"vaulry","typeCollectivite":"Commune","region":"Nouvelle-Aquitaine","departement":"Haute-Vienne","departementCode":"87","adresse":{"street":"5 rue du 19-Mars-1962","postalCode":"87140","city":"Vaulry","country":"France"},"contacts":{"email":"mairie.vaulry@wanadoo.fr","telephone":"0555533191"},"horaires":"Le Lundi : de 09h15 à 12h15\nLe Mardi : de 09h15 à 12h15 de 13h45 à 17h15\nLe Mercredi : de 09h15 à 12h15\nLe Jeudi : de 09h15 à 12h15 de 13h45 à 17h15\nLe Vendredi : de 09h15 à 12h15","latitude":46.022396,"longitude":1.084915,"website":"","hasWebsite":false,"hasHoraires":true,"url":"https://lannuaire.service-public.gouv.fr/nouvelle-aquitaine/haute-vienne/411a4fb6-4dbf-4a85-b263-6879628390bf"}
{"nom":"Vayres","nomNormalise":"vayres","typeCollectivite":"Commune","region":"Nouvelle-Aquitaine","departement":"Haute-Vienne","departementCode":"87","adresse":{"street":"9 rue Belles-Roses","postalCode":"87600","city":"Vayres","country":"France"},"contacts":{"email":"mairie-vayres@orange.fr","telephone":"0555781112"},"horaires":"Le Lundi : de 13h30 à 17h00\nLe Mardi : de 08h30 à 12h00 de 13h30 à 17h00\nDu Jeudi au Vendredi : de 08h30 à 12h00 de 13h30 à 17h00\nLe Samedi : de 09h00 à 12h00","latitude":45.758965,"longitude":0.809948,"website":"http://www.vayres.fr/","hasWebsite":true,"hasHoraires":true,"url":"https://lannuaire.service-public.gouv.fr/nouvelle-aquitaine/haute-vienne/ffe466a8-fffc-4d99-914a-490dded36067"}
{"nom":"Verneuil-Moustiers","nomNormalise":"verneuilmoustiers","typeCollectivite":"Commune","region":"Nouvelle-Aquitaine","departement":"Haute-Vienne","departementCode":"87","adresse":{"street":"Le Bourg","postalCode":"87360","city":"Verneuil-Moustiers","country":"France"},"contacts":{"email":"mairie.verneuil-moustiers@wanadoo.fr","telephone":"0555682162"},"horaires":"Du Lundi au Mardi : de 08h30 à 12h30\nDu Jeudi au Vendredi : de 08h30 à 12h30","latitude":46.339474,"longitude":1.135242,"website":"","hasWebsite":false,"hasHoraires":true,"url":"https://lannuaire.service-public.gouv.fr/nouvelle-aquitaine/haute-vienne/481e06cd-c8bb-4fc6-ac36-2b325ff8517b"}
{"nom":"Verneuil-sur-Vienne","nomNormalise":"verneuilsurvienne","typeCollectivite":"Commune","region":"Nouvelle-Aquitaine","departement":"Haute-Vienne","departementCode":"87","adresse":{"street":"2 place de l'Église","postalCode":"87430","city":"Verneuil-sur-Vienne","country":"France"},"contacts":{"email":"mairie@verneuilsurvienne.fr","telephone":"0555480300"},"horaires":"Du Lundi au Vendredi : de 08h30 à 12h00 de 14h00 à 17h30\nLe Samedi : de 09h00 à 12h00","latitude":45.82661,"longitude":1.260348,"website":"https://www.verneuil-sur-vienne.fr/","hasWebsite":true,"hasHoraires":true,"url":"https://lannuaire.service-public.gouv.fr/nouvelle-aquitaine/haute-vienne/25828397-a521-4df2-a3cc-1213e7aad571"}
{"nom":"Veyrac","nomNormalise":"veyrac","typeCollectivite":"Commune","region":"Nouvelle-Aquitaine","departement":"Haute-Vienne","departementCode":"87","adresse":{"street":"1 place de la Mairie","postalCode":"87520","city":"Veyrac","country":"France"},"contacts":{"email":"secretariat@veyrac.fr","telephone":"0555035076"},"horaires":"Le Lundi : de 08h30 à 12h00\nLe Mardi : de 08h30 à 12h00 de 13h30 à 17h00\nLe Mercredi : de 08h30 à 12h00\nLe Jeudi : de 08h30 à 12h00 de 13h30 à 17h00\nDu Vendredi au Samedi : de 08h30 à 12h00","latitude":45.897556,"longitude":1.106287,"website":"http://www.veyrac.fr/","hasWebsite":true,"hasHoraires":true,"url":"https://lannuaire.service-public.gouv.fr/nouvelle-aquitaine/haute-vienne/de623352-f6fb-440a-bec5-5f66efdd452a"}
{"nom":"Vicq-sur-Breuilh","nomNormalise":"vicqsurbreuilh","typeCollectivite":"Commune","region":"Nouvelle-Aquitaine","departement":"Haute-Vienne","departementCode":"87","adresse":{"street":"4 rue de la Mairie","postalCode":"87260","city":"Vicq-sur-Breuilh","country":"France"},"contacts":{"email":"mairie-accueil@vicqsurbreuilh.com","telephone":"0555006103"},"horaires":"Du Lundi au Mardi : de 09h00 à 12h30 de 14h00 à 17h00\nDu Mercredi au Jeudi : de 09h00 à 12h30\n\nJeudi : de 14h00 à 17h00 - Uniquement pour l'urbanisme et sur rendez-vous\nLe Vendredi : de 09h00 à 12h30 de 14h00 à 17h00\nLe Samedi : de 09h00 à 12h30","latitude":45.645626,"longitude":1.384666,"website":"https://www.vicqsurbreuilh.com/","hasWebsite":true,"hasHoraires":true,"url":"https://lannuaire.service-public.gouv.fr/nouvelle-aquitaine/haute-vienne/c25e4883-6637-418a-8a05-1ee3d0b7ad20"}
{"nom":"Videix","nomNormalise":"videix","typeCollectivite":"Commune","region":"Nouvelle-Aquitaine","departement":"Haute-Vienne","departementCode":"87","adresse":{"street":"2 le Bourg","postalCode":"87600","city":"Videix","country":"France"},"contacts":{"email":"mairie@videix.fr","telephone":"0555486262"},"horaires":"Du Lundi au Mardi : de 08h00 à 12h30\nLe Jeudi : de 08h00 à 12h30\nLe Vendredi : de 14h30 à 18h30\nLe Samedi : de 08h00 à 12h00","latitude":45.789646,"longitude":0.737881,"website":"https://videix.fr/","hasWebsite":true,"hasHoraires":true,"url":"https://lannuaire.service-public.gouv.fr/nouvelle-aquitaine/haute-vienne/f8da3294-7eff-47fc-909d-018635ce7d7c"}
{"nom":"Villefavard","nomNormalise":"villefavard","typeCollectivite":"Commune","region":"Nouvelle-Aquitaine","departement":"Haute-Vienne","departementCode":"87","adresse":{"street":"La Solitude","postalCode":"87190","city":"Villefavard","country":"France"},"contacts":{"email":"commune.villefavard@orange.fr","telephone":"0555765013"},"horaires":"Du Lundi au Jeudi : de 09h00 à 12h00 de 14h00 à 16h30\nLe Vendredi : de 09h00 à 12h00","latitude":46.164974,"longitude":1.216087,"website":"","hasWebsite":false,"hasHoraires":true,"url":"https://lannuaire.service-public.gouv.fr/nouvelle-aquitaine/haute-vienne/0dadcbe2-02ec-4e6e-89a2-da9024efebcd"}
