{"nom":"Abbéville-la-Rivière","nomNormalise":"abbevillelariviere","typeCollectivite":"Commune","region":"Île-de-France","departement":"Essonne","departementCode":"91","adresse":{"street":"1 place de la Mairie","postalCode":"91150","city":"Abbéville-la-Rivière","country":"France"},"contacts":{"email":"mairie-abbeville-la-riviere@wanadoo.fr","telephone":"0164956737"},"horaires":"Le Lundi : de 09h00 à 12h00 de 14h00 à 19h00\nLe Mercredi : de 10h00 à 12h00\nLe Vendredi : de 09h00 à 12h00 de 14h00 à 19h00\nLe Samedi : de 10h00 à 12h00","latitude":48.346043,"longitude":2.167075,"website":"https://www.abbevillelariviere.fr/","hasWebsite":true,"hasHoraires":true,"url":"https://lannuaire.service-public.gouv.fr/ile-de-france/essonne/8971767f-e50c-4d58-9e69-94e7a489f49a"}
{"nom":"Angerville","nomNormalise":"angerville","typeCollectivite":"Commune","region":"Île-de-France","departement":"Essonne","departementCode":"91","adresse":{"street":"34 rue Nationale","postalCode":"91670","city":"Angerville","country":"France"},"contacts":{"email":"accueil@mairie-angerville.fr","telephone":"0164952014"},"horaires":"Le Lundi : de 13h30 à 17h30\nDu Mardi au Vendredi : de 08h30 à 12h00 de 13h30 à 17h30\nLe Samedi : de 08h30 à 12h00\n\nContacter la mairie avant de se déplacer.","latitude":48.311268,"longitude":1.9987687,"website":"https://www.mairie-angerville.fr/","hasWebsite":true,"hasHoraires":true,"url":"https://lannuaire.service-public.gouv.fr/ile-de-france/essonne/3172533b-266a-4eb3-a860-367ae11f385c"}
{"nom":"Angervilliers","nomNormalise":"angervilliers","typeCollectivite":"Commune","region":"Île-de-France","departement":"Essonne","departementCode":"91","adresse":{"street":"1 rue du Château","postalCode":"91470","city":"Angervilliers","country":"France"},"contacts":{"email":"contact@ville-angervilliers.fr","telephone":"0164590206"},"horaires":"Le Lundi : de 16h00 à 18h00\nLe Mercredi : de 09h00 à 12h00\nLe Vendredi : de 14h00 à 16h00\nLe Samedi : de 09h00 à 12h00","latitude":48.5915,"longitude":2.06449,"website":"http://ville-angervilliers.fr/","hasWebsite":true,"hasHoraires":true,"url":"https://lannuaire.service-public.gouv.fr/ile-de-france/essonne/64759ce7-c455-4624-a7c1-0143ef528afc"}
{"nom":"Arpajon","nomNormalise":"arpajon","typeCollectivite":"Commune","region":"Île-de-France","departement":"Essonne","departementCode":"91","adresse":{"street":"70 Grande rue","postalCode":"91290","city":"Arpajon","country":"France"},"contacts":{"email":"standard@arpajon91.fr","telephone":"0169261505"},"horaires":"Du Lundi au Jeudi : de 08h45 à 12h30 de 13h30 à 17h45\nLe Vendredi : de 08h45 à 12h30 de 13h30 à 16h45","latitude":48.589165,"longitude":2.2484734,"website":"http://www.arpajon91.fr/","hasWebsite":true,"hasHoraires":true,"url":"https://lannuaire.service-public.gouv.fr/ile-de-france/essonne/fc4d7ff3-071e-43e3-ab40-c4ca9bf31c86"}
{"nom":"Arrancourt","nomNormalise":"arrancourt","typeCollectivite":"Commune","region":"Île-de-France","departement":"Essonne","departementCode":"91","adresse":{"street":"3 place de la Mairie","postalCode":"91690","city":"Arrancourt","country":"France"},"contacts":{"email":"mairie@arrancourt.fr","telephone":"0169588081"},"horaires":"Le Mardi : de 17h00 à 19h00\nLe Vendredi : de 15h00 à 18h00","latitude":48.342037,"longitude":2.161541,"website":"","hasWebsite":false,"hasHoraires":true,"url":"https://lannuaire.service-public.gouv.fr/ile-de-france/essonne/e4a2cb7c-22e0-4bba-ad27-4e192cc8714f"}
{"nom":"Athis-Mons","nomNormalise":"athismons","typeCollectivite":"Commune","region":"Île-de-France","departement":"Essonne","departementCode":"91","adresse":{"street":"Place du Général-de-Gaulle","postalCode":"91200","city":"Athis-Mons","country":"France"},"contacts":{"email":"","telephone":"0169545454"},"horaires":"Du Lundi au Mardi : de 08h30 à 12h30 de 13h30 à 17h00\nLe Mercredi : de 13h30 à 17h00\nDu Jeudi au Vendredi : de 08h30 à 12h30 de 13h30 à 17h00\nLe Samedi : de 08h30 à 12h00\n\nAccueil ouvert uniquement pour l'état civil.","latitude":48.70778,"longitude":2.389201,"website":"https://www.mairie-athis-mons.fr/","hasWebsite":true,"hasHoraires":true,"url":"https://lannuaire.service-public.gouv.fr/ile-de-france/essonne/b710d147-2aaf-44c2-8cdc-0a8a8ea67632"}
{"nom":"Authon-la-Plaine","nomNormalise":"authonlaplaine","typeCollectivite":"Commune","region":"Île-de-France","departement":"Essonne","departementCode":"91","adresse":{"street":"5 place de l'Église","postalCode":"91410","city":"Authon-la-Plaine","country":"France"},"contacts":{"email":"mairiedauthonlaplaine@orange.fr","telephone":"0164955107"},"horaires":"Du Lundi au Mardi : de 08h30 à 12h30 de 13h30 à 17h30\nLe Jeudi : de 09h00 à 12h00 de 14h00 à 19h00\nLe Vendredi : de 08h30 à 12h30 de 13h30 à 17h30\nLe Samedi : de 09h00 à 12h00","latitude":48.450966,"longitude":1.9573541,"website":"","hasWebsite":false,"hasHoraires":true,"url":"https://lannuaire.service-public.gouv.fr/ile-de-france/essonne/4c801a34-7e09-4794-9800-939f0271dbf3"}
{"nom":"Auvernaux","nomNormalise":"auvernaux","typeCollectivite":"Commune","region":"Île-de-France","departement":"Essonne","departementCode":"91","adresse":{"street":"5 place de l'Église","postalCode":"91830","city":"Auvernaux","country":"France"},"contacts":{"email":"mairie@auvernaux.fr","telephone":"0164938016"},"horaires":"Du Mercredi au Jeudi : de 09h00 à 12h30 de 14h00 à 17h30","latitude":48.5652,"longitude":2.49907,"website":"","hasWebsite":false,"hasHoraires":true,"url":"https://lannuaire.service-public.gouv.fr/ile-de-france/essonne/8c5dd957-3a73-46ea-a9c2-59b8b08de72b"}
{"nom":"Auvers-Saint-Georges","nomNormalise":"auverssaintgeorges","typeCollectivite":"Commune","region":"Île-de-France","departement":"Essonne","departementCode":"91","adresse":{"street":"Place du Général-Leclerc","postalCode":"91580","city":"Auvers-Saint-Georges","country":"France"},"contacts":{"email":"mairie@auvers-saint-georges.fr","telephone":"0160803401"},"horaires":"Du Lundi au Vendredi : de 14h00 à 17h00\nLe Samedi : de 09h00 à 12h00","latitude":48.4925,"longitude":2.21852,"website":"https://auvers-saint-georges.fr/","hasWebsite":true,"hasHoraires":true,"url":"https://lannuaire.service-public.gouv.fr/ile-de-france/essonne/8770fee9-ce99-498d-b65d-d5f16ee31fa4"}
{"nom":"Avrainville","nomNormalise":"avrainville","typeCollectivite":"Commune","region":"Île-de-France","departement":"Essonne","departementCode":"91","adresse":{"street":"Château du Merle-Blanc","postalCode":"91630","city":"Avrainville","country":"France"},"contacts":{"email":"mairie@avrainville.fr","telephone":"0164913008"},"horaires":"Du Lundi au Jeudi : de 09h00 à 13h00\nLe Vendredi : de 13h30 à 19h00\nLe Samedi : de 09h00 à 12h30","latitude":48.562923,"longitude":2.2466452,"website":"https://www.avrainville.fr/","hasWebsite":true,"hasHoraires":true,"url":"https://lannuaire.service-public.gouv.fr/ile-de-france/essonne/1bb49707-af84-4a18-ac77-2e934acc05e2"}
{"nom":"Ballainvilliers","nomNormalise":"ballainvilliers","typeCollectivite":"Commune","region":"Île-de-France","departement":"Essonne","departementCode":"91","adresse":{"street":"3 rue du Petit-Ballainvilliers","postalCode":"91160","city":"Ballainvilliers","country":"France"},"contacts":{"email":"public@mairie-ballainvilliers.fr","telephone":"0164488334"},"horaires":"","latitude":48.676586,"longitude":2.2893631,"website":"http://www.mairie-ballainvilliers.fr/","hasWebsite":true,"hasHoraires":false,"url":"https://lannuaire.service-public.gouv.fr/ile-de-france/essonne/bc4ca010-37bc-4efb-95c9-e78db1135b3e"}
{"nom":"Ballancourt-sur-Essonne","nomNormalise":"ballancourtsuressonne","typeCollectivite":"Commune","region":"Île-de-France","departement":"Essonne","departementCode":"91","adresse":{"street":"2 rue de la Mairie","postalCode":"91610","city":"Ballancourt-sur-Essonne","country":"France"},"contacts":{"email":"mairie@mairie-ballancourt.fr","telephone":"0164937373"},"horaires":"Le Lundi : de 13h30 à 17h30\nLe Mardi : de 08h30 à 12h00 de 13h30 à 17h30\nLe Mercredi : de 08h30 à 12h00\nLe Jeudi : de 08h30 à 12h00 de 13h30 à 17h30\nDu Vendredi au Samedi : de 08h30 à 12h00","latitude":48.5256,"longitude":2.38586,"website":"https://www.ville-ballancourt.fr/","hasWebsite":true,"hasHoraires":true,"url":"https://lannuaire.service-public.gouv.fr/ile-de-france/essonne/a4b89d69-58ed-4d52-a6e4-20682e39ad6b"}
{"nom":"Baulne","nomNormalise":"baulne","typeCollectivite":"Commune","region":"Île-de-France","departement":"Essonne","departementCode":"91","adresse":{"street":"102 route de Corbeil","postalCode":"91590","city":"Baulne","country":"France"},"contacts":{"email":"accueil.maire@baulne.fr","telephone":"0164576071"},"horaires":"Le Lundi : de 09h00 à 11h45\nLe Mardi : de 14h00 à 17h45\nLe Jeudi : de 14h00 à 17h45\nLe Vendredi : de 09h00 à 11h45 de 14h00 à 17h45\nLe Samedi : de 09h00 à 11h45","latitude":48.4925,"longitude":2.35961,"website":"","hasWebsite":false,"hasHoraires":true,"url":"https://lannuaire.service-public.gouv.fr/ile-de-france/essonne/ceae1b0c-81e6-4330-b580-79bac151c6e1"}
{"nom":"Bièvres","nomNormalise":"bievres","typeCollectivite":"Commune","region":"Île-de-France","departement":"Essonne","departementCode":"91","adresse":{"street":"Place de la Mairie","postalCode":"91570","city":"Bièvres","country":"France"},"contacts":{"email":"contact@bievres.fr","telephone":"0169351550"},"horaires":"Le Lundi : de 14h30 à 17h30\nDu Mardi au Mercredi : de 08h30 à 12h30 de 14h00 à 17h30\nLe Jeudi : de 08h30 à 12h30\nLe Vendredi : de 08h30 à 12h30 de 14h00 à 17h30\nLe Samedi : de 09h00 à 12h00","latitude":48.75444,"longitude":2.2152085,"website":"https://www.bievres.fr/","hasWebsite":true,"hasHoraires":true,"url":"https://lannuaire.service-public.gouv.fr/ile-de-france/essonne/2b4625db-0190-43c9-bbfb-fedd9b4dd96d"}
{"nom":"Blandy","nomNormalise":"blandy","typeCollectivite":"Commune","region":"Île-de-France","departement":"Essonne","departementCode":"91","adresse":{"street":"1 place Victor-Hugo","postalCode":"91150","city":"Blandy","country":"France"},"contacts":{"email":"mairieblandy@wanadoo.fr","telephone":"0164995858"},"horaires":"Le Mardi : de 15h00 à 19h00\nLe Jeudi : de 15h00 à 19h00","latitude":48.313675,"longitude":2.2574484,"website":"","hasWebsite":false,"hasHoraires":true,"url":"https://lannuaire.service-public.gouv.fr/ile-de-france/essonne/51728fb3-56f9-4ebc-ac73-d07c996f1ca8"}
{"nom":"Boigneville","nomNormalise":"boigneville","typeCollectivite":"Commune","region":"Île-de-France","departement":"Essonne","departementCode":"91","adresse":{"street":"2 rue de Saint-Val","postalCode":"91720","city":"Boigneville","country":"France"},"contacts":{"email":"mairie.boigneville@wanadoo.fr","telephone":"0164994007"},"horaires":"Du Lundi au Mardi : de 09h00 à 13h00\nLe Jeudi : de 09h00 à 13h00 de 14h00 à 19h00","latitude":48.3384,"longitude":2.3769,"website":"https://www.boigneville.fr/","hasWebsite":true,"hasHoraires":true,"url":"https://lannuaire.service-public.gouv.fr/ile-de-france/essonne/cce6d4f7-a970-4d11-ac7f-9aa1c9f4886f"}
{"nom":"Bois-Herpin","nomNormalise":"boisherpin","typeCollectivite":"Commune","region":"Île-de-France","departement":"Essonne","departementCode":"91","adresse":{"street":"25 Grande rue","postalCode":"91150","city":"Bois-Herpin","country":"France"},"contacts":{"email":"mairiedeboisherpin@orange.fr","telephone":"0164958535"},"horaires":"Le Mercredi : de 09h00 à 12h00\nLe Jeudi : de 14h00 à 18h00","latitude":48.3691,"longitude":2.2338264,"website":"","hasWebsite":false,"hasHoraires":true,"url":"https://lannuaire.service-public.gouv.fr/ile-de-france/essonne/aa5a665b-a489-4f5d-8697-2d5685e93e8c"}
{"nom":"Boissy-la-Rivière","nomNormalise":"boissylariviere","typeCollectivite":"Commune","region":"Île-de-France","departement":"Essonne","departementCode":"91","adresse":{"street":"1 rue de la Mairie","postalCode":"91690","city":"Boissy-la-Rivière","country":"France"},"contacts":{"email":"mairie@boissy-la-riviere.fr","telephone":"0164956319"},"horaires":"Du Mardi au Vendredi : de 08h30 à 11h30\nLe Samedi : de 09h30 à 12h00","latitude":48.364307,"longitude":2.0999956,"website":"https://boissy-la-riviere.fr/","hasWebsite":true,"hasHoraires":true,"url":"https://lannuaire.service-public.gouv.fr/ile-de-france/essonne/209497e5-f7c7-4c54-94fc-acb6c76bedfe"}
{"nom":"Boissy-le-Cutté","nomNormalise":"boissylecutte","typeCollectivite":"Commune","region":"Île-de-France","departement":"Essonne","departementCode":"91","adresse":{"street":"2 Grande rue","postalCode":"91590","city":"Boissy-le-Cutté","country":"France"},"contacts":{"email":"mairiedeboissylecutte@wanadoo.fr","telephone":"0164577676"},"horaires":"Le Mardi : de 14h00 à 17h00\nLe Mercredi : de 09h00 à 12h00 de 14h00 à 18h00\nDu Jeudi au Vendredi : de 14h00 à 17h00\nLe Samedi : de 09h00 à 12h00","latitude":48.4692,"longitude":2.28189,"website":"http://www.boissy-le-cutte.fr/","hasWebsite":true,"hasHoraires":true,"url":"https://lannuaire.service-public.gouv.fr/ile-de-france/essonne/9149de47-ffea-4674-b6a0-b2769110aa2f"}
{"nom":"Boissy-le-Sec","nomNormalise":"boissylesec","typeCollectivite":"Commune","region":"Île-de-France","departement":"Essonne","departementCode":"91","adresse":{"street":"Allée Gérard-Dubrule","postalCode":"91870","city":"Boissy-le-Sec","country":"France"},"contacts":{"email":"mairie@boissylesec.fr","telephone":"0164957035"},"horaires":"Le Lundi : de 09h00 à 12h00 de 14h00 à 17h00\nLe Mardi : de 09h00 à 12h00 de 14h00 à 19h00\nDu Jeudi au Vendredi : de 09h00 à 12h00 de 14h00 à 17h00","latitude":48.477753,"longitude":2.088895,"website":"https://www.boissylesec.fr/","hasWebsite":true,"hasHoraires":true,"url":"https://lannuaire.service-public.gouv.fr/ile-de-france/essonne/29b2fc03-abbd-41f9-bfdd-bf72164e51d3"}
{"nom":"Boissy-sous-Saint-Yon","nomNormalise":"boissysoussaintyon","typeCollectivite":"Commune","region":"Île-de-France","departement":"Essonne","departementCode":"91","adresse":{"street":"Place du Général-de-Gaulle","postalCode":"91790","city":"Boissy-sous-Saint-Yon","country":"France"},"contacts":{"email":"mairie@boissy-ssy.fr","telephone":"0164919293"},"horaires":"Le Lundi : de 08h45 à 12h45 de 13h30 à 16h45\nLe Mardi : de 08h45 à 12h45 de 13h30 à 19h45\nLe Jeudi : de 08h45 à 12h45 de 13h30 à 19h45\nLe Vendredi : de 08h45 à 12h45 de 13h30 à 16h45","latitude":48.5586,"longitude":2.20921,"website":"https://www.boissy-ssy.fr/","hasWebsite":true,"hasHoraires":true,"url":"https://lannuaire.service-public.gouv.fr/ile-de-france/essonne/8cfc485b-9be4-4bb4-86ba-6e621316c6e3"}
{"nom":"Bondoufle","nomNormalise":"bondoufle","typeCollectivite":"Commune","region":"Île-de-France","departement":"Essonne","departementCode":"91","adresse":{"street":"43 rue Charles-de-Gaulle","postalCode":"91070","city":"Bondoufle","country":"France"},"contacts":{"email":"mairie@ville-bondoufle.fr","telephone":"0160864727"},"horaires":"Du Lundi au Mercredi : de 09h00 à 12h00 de 13h30 à 17h30\nLe Jeudi : de 09h00 à 12h00 de 13h30 à 18h45\nLe Vendredi : de 09h00 à 12h00\nLe Samedi : de 09h30 à 12h00\n\nAccueil ouvert uniquement pour l'état civil et le service scolaire.","latitude":48.6151,"longitude":2.38146,"website":"https://www.ville-bondoufle.fr/","hasWebsite":true,"hasHoraires":true,"url":"https://lannuaire.service-public.gouv.fr/ile-de-france/essonne/1e77ff29-56c1-41c8-9f52-991ee5745275"}
{"nom":"Boullay-les-Troux","nomNormalise":"boullaylestroux","typeCollectivite":"Commune","region":"Île-de-France","departement":"Essonne","departementCode":"91","adresse":{"street":"2 rue du Clos-Saint-Jean","postalCode":"91470","city":"Boullay-les-Troux","country":"France"},"contacts":{"email":"mairie@boullay-les-troux.fr","telephone":"0160121233"},"horaires":"Le Lundi : de 13h30 à 17h30\nLe Mardi : de 09h00 à 12h00\nLe Jeudi : de 13h30 à 17h30\nLe Vendredi : de 09h00 à 12h00\nLe Samedi : de 09h00 à 12h00\n\nEn semaine paire.","latitude":48.67693,"longitude":2.048067,"website":"http://www.boullay-les-troux.fr/","hasWebsite":true,"hasHoraires":true,"url":"https://lannuaire.service-public.gouv.fr/ile-de-france/essonne/55ae8e69-77a8-4cc6-8eb8-b7446eb212af"}
{"nom":"Bouray-sur-Juine","nomNormalise":"bouraysurjuine","typeCollectivite":"Commune","region":"Île-de-France","departement":"Essonne","departementCode":"91","adresse":{"street":"18 rue de la Mairie","postalCode":"91850","city":"Bouray-sur-Juine","country":"France"},"contacts":{"email":"accueil.mairie@bouraysurjuine.fr","telephone":"0169274436"},"horaires":"Du Lundi au Mardi : de 09h00 à 12h00 de 15h00 à 18h00\nLe Jeudi : de 09h00 à 12h00 de 15h00 à 18h00\nLe Vendredi : de 09h00 à 12h00 de 15h00 à 17h00\nLe Samedi : de 09h00 à 12h00","latitude":48.5209,"longitude":2.29944,"website":"http://www.bouraysurjuine.fr/","hasWebsite":true,"hasHoraires":true,"url":"https://lannuaire.service-public.gouv.fr/ile-de-france/essonne/ce9d7c88-adb0-4085-9b34-da66cd8ef549"}
{"nom":"Boussy-Saint-Antoine","nomNormalise":"boussysaintantoine","typeCollectivite":"Commune","region":"Île-de-France","departement":"Essonne","departementCode":"91","adresse":{"street":"5 place des Droits-de-l'Homme","postalCode":"91800","city":"Boussy-Saint-Antoine","country":"France"},"contacts":{"email":"courrier@ville-boussy.fr","telephone":"0169001300"},"horaires":"Du Lundi au Mardi : de 08h30 à 12h30 de 14h00 à 17h45\nLe Mercredi : de 08h30 à 12h30\nDu Jeudi au Vendredi : de 08h30 à 12h30 de 14h00 à 17h45\nLe Samedi : de 08h30 à 12h30","latitude":48.68895,"longitude":2.530224,"website":"http://www.ville-boussy.fr/","hasWebsite":true,"hasHoraires":true,"url":"https://lannuaire.service-public.gouv.fr/ile-de-france/essonne/7b70141e-1502-489c-87f7-2ed6f7ce99d4"}
{"nom":"Boutervilliers","nomNormalise":"boutervilliers","typeCollectivite":"Commune","region":"Île-de-France","departement":"Essonne","departementCode":"91","adresse":{"street":"Rue de la Mairie","postalCode":"91150","city":"Boutervilliers","country":"France"},"contacts":{"email":"mairie@mairie-boutervilliers.fr","telephone":"0164954209"},"horaires":"Le Lundi : de 09h00 à 12h00 de 14h00 à 18h00\nLe Mardi : de 09h00 à 12h00\nLe Jeudi : de 09h00 à 12h00 de 14h00 à 18h00\nLe Vendredi : de 09h00 à 12h00","latitude":48.452793,"longitude":2.056366,"website":"https://mairie-boutervilliers.fr/","hasWebsite":true,"hasHoraires":true,"url":"https://lannuaire.service-public.gouv.fr/ile-de-france/essonne/13ce7863-3a93-4152-8d4b-410d3faff534"}
{"nom":"Boutigny-sur-Essonne","nomNormalise":"boutignysuressonne","typeCollectivite":"Commune","region":"Île-de-France","departement":"Essonne","departementCode":"91","adresse":{"street":"11 boulevard Maurice-Ouin","postalCode":"91820","city":"Boutigny-sur-Essonne","country":"France"},"contacts":{"email":"contact@boutignysuressonne.fr","telephone":"0164579010"},"horaires":"Du Lundi au Mardi : de 08h30 à 12h00 de 14h00 à 17h30\nLe Mercredi : de 08h30 à 12h00\nLe Jeudi : de 08h30 à 12h00 de 16h00 à 19h00\nLe Vendredi : de 08h30 à 12h00 de 14h00 à 17h30\nLe Samedi : de 08h30 à 12h00","latitude":48.437527,"longitude":2.380754,"website":"http://www.boutignysuressonne.fr/","hasWebsite":true,"hasHoraires":true,"url":"https://lannuaire.service-public.gouv.fr/ile-de-france/essonne/6cd0e172-e17c-4762-936f-1a0a0c177989"}
{"nom":"Bouville","nomNormalise":"bouville","typeCollectivite":"Commune","region":"Île-de-France","departement":"Essonne","departementCode":"91","adresse":{"street":"Rue de la Mairie","postalCode":"91880","city":"Bouville","country":"France"},"contacts":{"email":"mairiedebouville@orange.fr","telephone":"0164958012"},"horaires":"Le Lundi : de 09h30 à 12h00 de 16h30 à 18h30\nLe Mardi : de 09h30 à 12h00\nDu Jeudi au Vendredi : de 09h00 à 12h00","latitude":48.4318,"longitude":2.27622,"website":"http://www.bouville-mairie.com/","hasWebsite":true,"hasHoraires":true,"url":"https://lannuaire.service-public.gouv.fr/ile-de-france/essonne/7bfa7f14-2460-4772-8bcb-26d5f8ceedc4"}
{"nom":"Brétigny-sur-Orge","nomNormalise":"bretignysurorge","typeCollectivite":"Commune","region":"Île-de-France","departement":"Essonne","departementCode":"91","adresse":{"street":"44 rue de la Mairie","postalCode":"91220","city":"Brétigny-sur-Orge Cedex","country":"France"},"contacts":{"email":"","telephone":"0169884040"},"horaires":"Le Lundi : de 08h30 à 12h00 de 13h30 à 17h30\nLe Mardi : de 13h30 à 17h30\nDu Mercredi au Jeudi : de 08h30 à 12h00 de 13h30 à 17h30\nLe Vendredi : de 08h30 à 12h00 de 13h30 à 16h00\nLe Samedi : de 08h30 à 12h00","latitude":48.611256,"longitude":2.305925,"website":"https://www.bretigny91.fr/","hasWebsite":true,"hasHoraires":true,"url":"https://lannuaire.service-public.gouv.fr/ile-de-france/essonne/0b9cb713-8963-4e10-a1e8-1fe1cf37c44a"}
{"nom":"Breuillet","nomNormalise":"breuillet","typeCollectivite":"Commune","region":"Île-de-France","departement":"Essonne","departementCode":"91","adresse":{"street":"42 Grande rue","postalCode":"91650","city":"Breuillet","country":"France"},"contacts":{"email":"mairie@ville-breuillet.fr","telephone":"0169946040"},"horaires":"Le Lundi : de 08h30 à 12h00 de 13h00 à 17h00\nLe Mardi : de 08h30 à 12h00\nDu Mercredi au Jeudi : de 08h30 à 12h00 de 13h00 à 17h00\nLe Samedi : de 09h00 à 12h00","latitude":48.56613,"longitude":2.17112,"website":"http://www.ville-breuillet.fr/","hasWebsite":true,"hasHoraires":true,"url":"https://lannuaire.service-public.gouv.fr/ile-de-france/essonne/2c3c7f2a-24fd-4f3b-8a5b-e72db06d81fa"}
{"nom":"Breux-Jouy","nomNormalise":"breuxjouy","typeCollectivite":"Commune","region":"Île-de-France","departement":"Essonne","departementCode":"91","adresse":{"street":"1 rue du Docteur-Babin","postalCode":"91650","city":"Breux-Jouy","country":"France"},"contacts":{"email":"mairie@breux-jouy.fr","telephone":"0164584141"},"horaires":"Le Lundi : de 14h30 à 17h30\nLe Mercredi : de 09h00 à 12h30\nLe Jeudi : de 15h30 à 18h30\nDu Vendredi au Samedi : de 09h00 à 12h30","latitude":48.55926,"longitude":2.155779,"website":"http://www.breux-jouy.fr/","hasWebsite":true,"hasHoraires":true,"url":"https://lannuaire.service-public.gouv.fr/ile-de-france/essonne/c2c4b1ab-9744-4e44-874e-c20b49236625"}
{"nom":"Brières-les-Scellés","nomNormalise":"briereslesscelles","typeCollectivite":"Commune","region":"Île-de-France","departement":"Essonne","departementCode":"91","adresse":{"street":"Place de la Mairie","postalCode":"91150","city":"Brières-les-Scellés","country":"France"},"contacts":{"email":"contact.mairiebrieres@orange.fr","telephone":"0164941108"},"horaires":"Le Mardi : de 16h30 à 19h00\nLe Vendredi : de 16h30 à 19h00\nLe Samedi : de 10h00 à 11h30","latitude":48.457687,"longitude":2.138502,"website":"http://www.mairie-brieres.com/","hasWebsite":true,"hasHoraires":true,"url":"https://lannuaire.service-public.gouv.fr/ile-de-france/essonne/32c53bcc-453d-47c7-9dee-926f50fbf1bc"}
{"nom":"Briis-sous-Forges","nomNormalise":"briissousforges","typeCollectivite":"Commune","region":"Île-de-France","departement":"Essonne","departementCode":"91","adresse":{"street":"Place de la Libération","postalCode":"91640","city":"Briis-sous-Forges","country":"France"},"contacts":{"email":"accueil@briis.fr","telephone":"0164907026"},"horaires":"Le Lundi : de 09h00 à 12h00 de 13h30 à 18h00\nLe Mardi : de 09h00 à 12h00\nLe Mercredi : de 09h00 à 12h00 de 13h30 à 18h00\nLe Jeudi : de 09h00 à 12h00\nLe Vendredi : de 09h00 à 12h00 de 13h30 à 18h00\nLe Samedi : de 09h00 à 12h00","latitude":48.624535,"longitude":2.1248517,"website":"https://www.briis.fr/","hasWebsite":true,"hasHoraires":true,"url":"https://lannuaire.service-public.gouv.fr/ile-de-france/essonne/a38074c9-31b5-4bb4-b58c-6989c8913994"}
{"nom":"Brouy","nomNormalise":"brouy","typeCollectivite":"Commune","region":"Île-de-France","departement":"Essonne","departementCode":"91","adresse":{"street":"6 rue de la Mairie","postalCode":"91150","city":"Brouy","country":"France"},"contacts":{"email":"mairie-brouy@wanadoo.fr","telephone":"0164995973"},"horaires":"Le Lundi : de 14h00 à 16h00\nLe Vendredi : de 10h00 à 12h00","latitude":48.316784,"longitude":2.278881,"website":"","hasWebsite":false,"hasHoraires":true,"url":"https://lannuaire.service-public.gouv.fr/ile-de-france/essonne/7eb7fbed-a2f5-415f-8665-0a74d095dbfb"}
{"nom":"Brunoy","nomNormalise":"brunoy","typeCollectivite":"Commune","region":"Île-de-France","departement":"Essonne","departementCode":"91","adresse":{"street":"Place de la Mairie","postalCode":"91805","city":"Brunoy","country":"France"},"contacts":{"email":"guichetunique@mairie-brunoy.fr","telephone":"0169398989"},"horaires":"Le Lundi : de 08h30 à 12h00 de 15h30 à 17h30\nLe Mardi : de 08h30 à 12h00 de 13h30 à 17h30\nLe Mercredi : de 08h30 à 12h00\nDu Jeudi au Vendredi : de 08h30 à 12h00 de 13h30 à 17h30\nLe Samedi : de 08h30 à 12h00","latitude":48.69784,"longitude":2.5041466,"website":"https://www.brunoy.fr/","hasWebsite":true,"hasHoraires":true,"url":"https://lannuaire.service-public.gouv.fr/ile-de-france/essonne/48381145-366d-483e-9cd4-7eaf1467c495"}
{"nom":"Bruyères-le-Châtel","nomNormalise":"bruyereslechatel","typeCollectivite":"Commune","region":"Île-de-France","departement":"Essonne","departementCode":"91","adresse":{"street":"2 rue des Vignes","postalCode":"91680","city":"Bruyères-le-Châtel","country":"France"},"contacts":{"email":"mairie@bruyereslechatel.fr","telephone":"0164900718"},"horaires":"Le Lundi : de 10h00 à 13h00 de 14h00 à 17h00\nLe Mardi : de 14h00 à 17h00\nLe Mercredi : de 10h00 à 13h00\nLe Jeudi : de 16h00 à 20h00\nLe Vendredi : de 10h00 à 13h00 de 14h00 à 16h00","latitude":48.59356,"longitude":2.192532,"website":"https://www.ville-bruyereslechatel.fr/","hasWebsite":true,"hasHoraires":true,"url":"https://lannuaire.service-public.gouv.fr/ile-de-france/essonne/d7ea2710-1f2a-4ad2-9577-a1bd273bfce0"}
{"nom":"Buno-Bonnevaux","nomNormalise":"bunobonnevaux","typeCollectivite":"Commune","region":"Île-de-France","departement":"Essonne","departementCode":"91","adresse":{"street":"1 place Jean-Marie-Ferry","postalCode":"91720","city":"Buno-Bonnevaux","country":"France"},"contacts":{"email":"mairie@bunobonnevaux.fr","telephone":"0164994887"},"horaires":"Le Lundi : de 14h00 à 16h00\nLe Mercredi : de 10h00 à 12h00\nLe Vendredi : de 15h00 à 18h00\nLe Samedi : de 10h00 à 12h00\n\nAccueil ouvert les 1er et 3e samedis du mois.","latitude":48.360542,"longitude":2.388309,"website":"https://buno-bonnevaux.fr/","hasWebsite":true,"hasHoraires":true,"url":"https://lannuaire.service-public.gouv.fr/ile-de-france/essonne/54726d99-ac0a-4f05-bda1-d966299816bd"}
{"nom":"Bures-sur-Yvette","nomNormalise":"buressuryvette","typeCollectivite":"Commune","region":"Île-de-France","departement":"Essonne","departementCode":"91","adresse":{"street":"45 rue Charles-de-Gaulle","postalCode":"91440","city":"Bures-sur-Yvette","country":"France"},"contacts":{"email":"mairie@bsy.fr","telephone":"0169182424"},"horaires":"Le Lundi : de 13h30 à 17h30\nLe Mardi : de 08h30 à 12h30 de 13h30 à 17h30\nLe Mercredi : de 08h30 à 12h30\nLe Jeudi : de 08h30 à 12h30 de 13h30 à 17h30\nLe Vendredi : de 08h30 à 12h30\nLe Samedi : de 09h30 à 12h30","latitude":48.6968,"longitude":2.16327,"website":"http://www.bsy.fr/","hasWebsite":true,"hasHoraires":true,"url":"https://lannuaire.service-public.gouv.fr/ile-de-france/essonne/c7ad71d0-f72d-47fb-b0e2-e5bc13343c47"}
{"nom":"Cerny","nomNormalise":"cerny","typeCollectivite":"Commune","region":"Île-de-France","departement":"Essonne","departementCode":"91","adresse":{"street":"8 rue Degommier","postalCode":"91590","city":"Cerny","country":"France"},"contacts":{"email":"mairie@cerny.fr","telephone":"0169231111"},"horaires":"Du Lundi au Mardi : de 08h45 à 12h30 de 13h30 à 18h00\nDu Jeudi au Vendredi : de 08h45 à 12h30 de 13h30 à 18h00\nLe Samedi : de 09h30 à 12h00","latitude":48.476227,"longitude":2.329444,"website":"https://cerny.fr/fr/","hasWebsite":true,"hasHoraires":true,"url":"https://lannuaire.service-public.gouv.fr/ile-de-france/essonne/b4773c5c-d2b1-4ffc-b6df-7df33ae552ff"}
{"nom":"Chalo-Saint-Mars","nomNormalise":"chalosaintmars","typeCollectivite":"Commune","region":"Île-de-France","departement":"Essonne","departementCode":"91","adresse":{"street":"Place du Jeu-de-Paume","postalCode":"91780","city":"Chalo-Saint-Mars","country":"France"},"contacts":{"email":"mairie@chalosaintmars.fr","telephone":"0164954045"},"horaires":"Le Lundi : de 08h30 à 12h30\nLe Mardi : de 08h30 à 12h00 de 13h30 à 19h00\nLe Mercredi : de 08h30 à 12h00\nDu Jeudi au Vendredi : de 09h00 à 12h30\nLe Samedi : de 09h00 à 12h30","latitude":48.427387,"longitude":2.0639844,"website":"http://www.chalosaintmars.fr/","hasWebsite":true,"hasHoraires":true,"url":"https://lannuaire.service-public.gouv.fr/ile-de-france/essonne/c5b30c0b-e530-4bab-95a0-96f7a9e6e4ce"}
{"nom":"Chalou-Moulineux","nomNormalise":"chaloumoulineux","typeCollectivite":"Commune","region":"Île-de-France","departement":"Essonne","departementCode":"91","adresse":{"street":"12 rue Adèle-de-Champagne","postalCode":"91740","city":"Chalou-Moulineux","country":"France"},"contacts":{"email":"contact@chalou-moulineux.fr","telephone":"0164959030"},"horaires":"Le Lundi : de 16h30 à 19h00\nLe Jeudi : de 16h30 à 18h30","latitude":48.38376,"longitude":2.022355,"website":"","hasWebsite":false,"hasHoraires":true,"url":"https://lannuaire.service-public.gouv.fr/ile-de-france/essonne/65c6b18f-7e43-4dc1-bb05-dc2d2ad982cc"}
{"nom":"Chamarande","nomNormalise":"chamarande","typeCollectivite":"Commune","region":"Île-de-France","departement":"Essonne","departementCode":"91","adresse":{"street":"2 place de la Libération","postalCode":"91730","city":"Chamarande","country":"France"},"contacts":{"email":"mairie@chamarande.fr","telephone":"0160822011"},"horaires":"Le Lundi : de 15h00 à 18h00\nLe Jeudi : de 15h00 à 19h00\nLe Vendredi : de 15h00 à 18h00\nLe Samedi : de 09h30 à 12h00\n\nAccueil ouvert uniquement les 1er et 3e samedis de chaque mois.","latitude":48.5135,"longitude":2.21744,"website":"https://www.chamarande.fr/","hasWebsite":true,"hasHoraires":true,"url":"https://lannuaire.service-public.gouv.fr/ile-de-france/essonne/6249b7ad-4b17-4164-a1b0-58a4b39100ff"}
{"nom":"Champcueil","nomNormalise":"champcueil","typeCollectivite":"Commune","region":"Île-de-France","departement":"Essonne","departementCode":"91","adresse":{"street":"4 rue Royale","postalCode":"91750","city":"Champcueil","country":"France"},"contacts":{"email":"mairie@champcueil.fr","telephone":"0164997275"},"horaires":"Du Lundi au Vendredi : de 08h30 à 12h00 de 15h00 à 17h00","latitude":48.5147,"longitude":2.4449,"website":"http://www.champcueil.fr/","hasWebsite":true,"hasHoraires":true,"url":"https://lannuaire.service-public.gouv.fr/ile-de-france/essonne/ed80f238-468d-4f99-9ed3-1ec2fcea347f"}
{"nom":"Champlan","nomNormalise":"champlan","typeCollectivite":"Commune","region":"Île-de-France","departement":"Essonne","departementCode":"91","adresse":{"street":"Place de la Mairie","postalCode":"91160","city":"Champlan","country":"France"},"contacts":{"email":"contact-mairie@ville-champlan.fr","telephone":"0169748660"},"horaires":"Le Lundi : de 09h00 à 12h00 de 13h30 à 17h30\nLe Mardi : de 13h30 à 17h30\nLe Mercredi : de 09h00 à 12h00\nLe Jeudi : de 13h30 à 17h30\nLe Vendredi : de 09h00 à 12h00 de 13h30 à 17h30\nLe Samedi : de 09h00 à 12h00\n\nUniquement le 1er samedi du mois.","latitude":48.07977,"longitude":7.357743,"website":"https://www.ville-champlan.fr/","hasWebsite":true,"hasHoraires":true,"url":"https://lannuaire.service-public.gouv.fr/ile-de-france/essonne/26297100-f57b-4a98-b893-a4d9b18d1d2b"}
{"nom":"Champmotteux","nomNormalise":"champmotteux","typeCollectivite":"Commune","region":"Île-de-France","departement":"Essonne","departementCode":"91","adresse":{"street":"6b rue Michel-de-l'Hospital","postalCode":"91150","city":"Champmotteux","country":"France"},"contacts":{"email":"mairie.champmotteux@wanadoo.fr","telephone":"0164995928"},"horaires":"Du Mardi au Jeudi : de 10h00 à 12h00\nLe Samedi : de 10h00 à 12h00\n\nPermanence des élus uniquement.","latitude":48.3432,"longitude":2.31984,"website":"https://champmotteux.fr/","hasWebsite":true,"hasHoraires":true,"url":"https://lannuaire.service-public.gouv.fr/ile-de-france/essonne/3ef23fe4-4690-4dcb-84c1-6f8e25ef1da8"}
{"nom":"Chatignonville","nomNormalise":"chatignonville","typeCollectivite":"Commune","region":"Île-de-France","departement":"Essonne","departementCode":"91","adresse":{"street":"8","postalCode":"91410","city":"91410","country":"Chatignonville"},"contacts":{"email":"mairiechatignonville@orange.fr","telephone":"0164955180"},"horaires":"","latitude":48.469074,"longitude":1.930582,"website":"","hasWebsite":false,"hasHoraires":false,"url":"https://lannuaire.service-public.gouv.fr/ile-de-france/essonne/30aa23d6-7f6f-4d3b-bbaa-76ea7a57272d"}
{"nom":"Chauffour-lès-Étréchy","nomNormalise":"chauffourlesetrechy","typeCollectivite":"Commune","region":"Île-de-France","departement":"Essonne","departementCode":"91","adresse":{"street":"23 Grande rue","postalCode":"91580","city":"Chauffour-lès-Étréchy","country":"France"},"contacts":{"email":"mairiechauffour@orange.fr","telephone":"0160802626"},"horaires":"Le Mardi : de 09h00 à 12h30\nLe Jeudi : de 18h00 à 19h00","latitude":48.5039,"longitude":2.168646,"website":"https://www.chauffour-les-etrechy.fr/","hasWebsite":true,"hasHoraires":true,"url":"https://lannuaire.service-public.gouv.fr/ile-de-france/essonne/e24f4410-8bfd-469a-a4da-fe252afa6eff"}
{"nom":"Cheptainville","nomNormalise":"cheptainville","typeCollectivite":"Commune","region":"Île-de-France","departement":"Essonne","departementCode":"91","adresse":{"street":"5 rue du Ponceau","postalCode":"91630","city":"Cheptainville","country":"France"},"contacts":{"email":"accueil@cheptainville.fr","telephone":"0169148212"},"horaires":"Le Lundi : de 09h00 à 12h00 de 14h00 à 18h00\nLe Mardi : de 14h00 à 18h00\nLe Jeudi : de 09h00 à 12h00 de 14h00 à 18h00\nLe Vendredi : de 14h00 à 18h00\nLe Samedi : de 09h00 à 12h00\n\nOuvert uniquement 2 samedi sur 3, voir les informations sur le site internet.","latitude":48.5542,"longitude":2.26629,"website":"https://www.cheptainville.fr/","hasWebsite":true,"hasHoraires":true,"url":"https://lannuaire.service-public.gouv.fr/ile-de-france/essonne/ca8b6b48-23a1-406b-9063-9217ef90ce2c"}
{"nom":"Chevannes","nomNormalise":"chevannes","typeCollectivite":"Commune","region":"Île-de-France","departement":"Essonne","departementCode":"91","adresse":{"street":"2 rue du Parc","postalCode":"91750","city":"Chevannes","country":"France"},"contacts":{"email":"mairie@chevannes.fr","telephone":"0164997004"},"horaires":"Du Lundi au Mardi : de 10h00 à 12h00 de 15h00 à 18h00\nLe Mercredi : de 10h00 à 12h00 de 15h00 à 17h00\nLe Jeudi : de 10h00 à 12h00 de 15h00 à 18h00\nLe Vendredi : de 10h00 à 13h00\nLe Samedi : de 10h00 à 12h00\n\nUniquement le 1er samedi du mois.","latitude":48.534393,"longitude":2.44441,"website":"https://www.chevannes.fr/fr/","hasWebsite":true,"hasHoraires":true,"url":"https://lannuaire.service-public.gouv.fr/ile-de-france/essonne/8e4fe185-38f3-425d-8aa2-e34169874d3a"}
{"nom":"Chilly-Mazarin","nomNormalise":"chillymazarin","typeCollectivite":"Commune","region":"Île-de-France","departement":"Essonne","departementCode":"91","adresse":{"street":"Cité administrative","postalCode":"91380","city":"Chilly-Mazarin","country":"France"},"contacts":{"email":"contact@ville-chilly-mazarin.fr","telephone":"0169103700"},"horaires":"","latitude":48.702908,"longitude":2.320706,"website":"https://www.ville-chilly-mazarin.fr/","hasWebsite":true,"hasHoraires":false,"url":"https://lannuaire.service-public.gouv.fr/ile-de-france/essonne/e666a473-67da-4889-b9c6-6dbf212cb5ea"}
{"nom":"Congerville-Thionville","nomNormalise":"congervillethionville","typeCollectivite":"Commune","region":"Île-de-France","departement":"Essonne","departementCode":"91","adresse":{"street":"5 rue des Fravilles","postalCode":"91740","city":"Congerville-Thionville","country":"France"},"contacts":{"email":"mairiecongervillethionville@wanadoo.fr","telephone":"0164959022"},"horaires":"Le Lundi : de 09h00 à 11h00\nLe Jeudi : de 09h00 à 11h00\nLe Vendredi : de 17h00 à 19h00","latitude":48.37766,"longitude":1.9951286,"website":"","hasWebsite":false,"hasHoraires":true,"url":"https://lannuaire.service-public.gouv.fr/ile-de-france/essonne/5260fd74-54fa-4070-9a3d-1c971083a2c9"}
{"nom":"Corbeil-Essonnes","nomNormalise":"corbeilessonnes","typeCollectivite":"Commune","region":"Île-de-France","departement":"Essonne","departementCode":"91","adresse":{"street":"Hôtel de Ville","postalCode":"91108","city":"Corbeil-Essonnes","country":"France"},"contacts":{"email":"cabinetdumaire@mairie-corbeil-essonnes.fr","telephone":"0160897179"},"horaires":"Du Lundi au Vendredi : de 08h30 à 12h30 de 13h30 à 17h00","latitude":48.613667,"longitude":2.479658,"website":"https://www.corbeil-essonnes.fr/","hasWebsite":true,"hasHoraires":true,"url":"https://lannuaire.service-public.gouv.fr/ile-de-france/essonne/32a86ecf-5e38-49af-a6db-a4dd7693a6bf"}
{"nom":"Corbreuse","nomNormalise":"corbreuse","typeCollectivite":"Commune","region":"Île-de-France","departement":"Essonne","departementCode":"91","adresse":{"street":"8 rue des Écoles","postalCode":"91410","city":"Corbreuse","country":"France"},"contacts":{"email":"mairie@corbreuse.fr","telephone":"0164594063"},"horaires":"Le Lundi : de 15h00 à 18h00\nLe Mercredi : de 09h00 à 12h00 de 15h00 à 18h00\nLe Vendredi : de 09h00 à 12h00 de 15h00 à 18h00\nLe Samedi : de 09h00 à 12h00","latitude":48.50032,"longitude":1.961761,"website":"https://www.mairie-corbreuse.fr/","hasWebsite":true,"hasHoraires":true,"url":"https://lannuaire.service-public.gouv.fr/ile-de-france/essonne/a800a2ea-b51b-4971-b1ba-02b88f65468c"}
{"nom":"Courances","nomNormalise":"courances","typeCollectivite":"Commune","region":"Île-de-France","departement":"Essonne","departementCode":"91","adresse":{"street":"Hôtel de Ville","postalCode":"91490","city":"Courances","country":"France"},"contacts":{"email":"courances.mairie@wanadoo.fr","telephone":"0164984109"},"horaires":"Le Mardi : de 15h00 à 17h30\nLe Vendredi : de 15h00 à 17h00","latitude":48.4403,"longitude":2.47436,"website":"http://www.courances.fr/","hasWebsite":true,"hasHoraires":true,"url":"https://lannuaire.service-public.gouv.fr/ile-de-france/essonne/cd8f30ea-eb52-4837-8afb-6ab1247063b5"}
{"nom":"Courdimanche-sur-Essonne","nomNormalise":"courdimanchesuressonne","typeCollectivite":"Commune","region":"Île-de-France","departement":"Essonne","departementCode":"91","adresse":{"street":"2 rue du Clos-Saint-Gervais","postalCode":"91720","city":"Courdimanche-sur-Essonne","country":"France"},"contacts":{"email":"accueil@courdimanche-sur-essonne.fr","telephone":"0164995395"},"horaires":"Le Lundi : de 17h00 à 19h00\nLe Mardi : de 09h00 à 11h00\nLe Jeudi : de 09h00 à 11h00\nLe Samedi : de 09h00 à 11h00","latitude":48.415016,"longitude":2.378794,"website":"http://www.courdimanche-sur-essonne.fr/","hasWebsite":true,"hasHoraires":true,"url":"https://lannuaire.service-public.gouv.fr/ile-de-france/essonne/2101d8ab-610b-4f33-804d-59ca4e83c05b"}
{"nom":"Courson-Monteloup","nomNormalise":"coursonmonteloup","typeCollectivite":"Commune","region":"Île-de-France","departement":"Essonne","departementCode":"91","adresse":{"street":"Place des Tilleuls","postalCode":"91680","city":"Courson-Monteloup","country":"France"},"contacts":{"email":"monteloup.mairie@wanadoo.fr","telephone":"0164589001"},"horaires":"Du Lundi au Mardi : de 16h00 à 18h00\nLe Jeudi : de 16h00 à 18h00\nLe Vendredi : de 15h00 à 17h00\nLe Samedi : de 09h00 à 11h45","latitude":48.59289,"longitude":2.145453,"website":"http://www.courson-monteloup.fr/","hasWebsite":true,"hasHoraires":true,"url":"https://lannuaire.service-public.gouv.fr/ile-de-france/essonne/c63a6f0d-e112-43bb-b27f-2f99b2ea354a"}
{"nom":"Crosne","nomNormalise":"crosne","typeCollectivite":"Commune","region":"Île-de-France","departement":"Essonne","departementCode":"91","adresse":{"street":"35 avenue Jean-Jaurès","postalCode":"91560","city":"Crosne","country":"France"},"contacts":{"email":"mairie@crosne.fr","telephone":"0169496400"},"horaires":"Du Lundi au Mardi : de 08h45 à 12h00 de 13h15 à 17h30\nLe Mercredi : de 08h45 à 12h00 de 13h15 à 17h15\nLe Jeudi : de 08h45 à 12h00 de 13h15 à 17h30\nLe Vendredi : de 08h45 à 12h00 de 13h15 à 17h15\nLe Samedi : de 08h45 à 12h00\n\nOuvert uniquement le 1er samedi du mois.","latitude":48.715927,"longitude":2.4587016,"website":"https://www.crosne.fr/","hasWebsite":true,"hasHoraires":true,"url":"https://lannuaire.service-public.gouv.fr/ile-de-france/essonne/186e18c6-4b3f-42fa-92b5-f028c728fd3b"}
{"nom":"Dannemois","nomNormalise":"dannemois","typeCollectivite":"Commune","region":"Île-de-France","departement":"Essonne","departementCode":"91","adresse":{"street":"1 rue de la Messe","postalCode":"91490","city":"Dannemois","country":"France"},"contacts":{"email":"mairie@dannemois.fr","telephone":"0164984123"},"horaires":"Le Lundi : de 14h00 à 17h00\nLe Mardi : de 09h30 à 11h30\nDu Mercredi au Jeudi : de 09h30 à 11h45\nDu Vendredi au Samedi : de 09h30 à 11h30","latitude":48.451736,"longitude":2.473833,"website":"http://www.dannemois.fr/","hasWebsite":true,"hasHoraires":true,"url":"https://lannuaire.service-public.gouv.fr/ile-de-france/essonne/b8f14126-2ce1-46da-a829-624d2c12dcbb"}
{"nom":"D Huison-Longueville","nomNormalise":"dhuisonlongueville","typeCollectivite":"Commune","region":"Île-de-France","departement":"Essonne","departementCode":"91","adresse":{"street":"2 route d'Étampes","postalCode":"91590","city":"D'Huison-Longueville","country":"France"},"contacts":{"email":"mairie.dhl@wanadoo.fr","telephone":"0169231010"},"horaires":"Le Lundi : de 08h30 à 12h00 de 15h30 à 18h00\nLe Mardi : de 15h30 à 18h00\nLe Jeudi : de 08h30 à 12h00\nLe Vendredi : de 08h30 à 12h00 de 15h30 à 18h00\nLe Samedi : de 08h30 à 18h00","latitude":48.4577,"longitude":2.32224,"website":"https://www.dhuison-longueville.fr/","hasWebsite":true,"hasHoraires":true,"url":"https://lannuaire.service-public.gouv.fr/ile-de-france/essonne/e1fec707-784b-45aa-933e-958f017fbf2f"}
{"nom":"Dourdan","nomNormalise":"dourdan","typeCollectivite":"Commune","region":"Île-de-France","departement":"Essonne","departementCode":"91","adresse":{"street":"Esplanade Jean-Moulin","postalCode":"91410","city":"Dourdan","country":"France"},"contacts":{"email":"secretariat-dg@dourdan.fr","telephone":"0160811414"},"horaires":"Le Lundi : de 08h45 à 12h00 de 13h30 à 17h30\nLe Mardi : de 13h30 à 17h30\nLe Mercredi : de 08h45 à 12h00 de 13h30 à 17h30\nLe Jeudi : de 13h30 à 17h30\nLe Vendredi : de 08h45 à 12h00 de 13h30 à 17h30\nLe Samedi : de 08h45 à 12h00","latitude":48.5293,"longitude":2.01621,"website":"https://www.dourdan.fr/","hasWebsite":true,"hasHoraires":true,"url":"https://lannuaire.service-public.gouv.fr/ile-de-france/essonne/f82afbcd-1737-4788-9516-6ecbfca6f2bd"}
{"nom":"Draveil","nomNormalise":"draveil","typeCollectivite":"Commune","region":"Île-de-France","departement":"Essonne","departementCode":"91","adresse":{"street":"3 avenue de Villiers","postalCode":"91210","city":"Draveil","country":"France"},"contacts":{"email":"courrier@mairiedraveil.fr","telephone":"0169527878"},"horaires":"Du Lundi au Vendredi : de 08h30 à 11h45 de 13h30 à 17h30","latitude":48.682205,"longitude":2.405748,"website":"http://www.draveil.fr/","hasWebsite":true,"hasHoraires":true,"url":"https://lannuaire.service-public.gouv.fr/ile-de-france/essonne/e902f732-c79d-477b-9049-c12dbb237975"}
{"nom":"Echarcon","nomNormalise":"echarcon","typeCollectivite":"Commune","region":"Île-de-France","departement":"Essonne","departementCode":"91","adresse":{"street":"24 rue Jean-Comte","postalCode":"91540","city":"Echarcon","country":"France"},"contacts":{"email":"contact@mairie-echarcon.fr","telephone":"0164570302"},"horaires":"Le Lundi : de 14h00 à 17h30\nLe Mardi : de 14h00 à 19h30\nDu Jeudi au Vendredi : de 14h00 à 17h30","latitude":48.572937,"longitude":2.4143052,"website":"https://lapagelocale.fr/91540-echarcon","hasWebsite":true,"hasHoraires":true,"url":"https://lannuaire.service-public.gouv.fr/ile-de-france/essonne/16787f5c-a506-4579-b8e6-37ffc7217939"}
{"nom":"Égly","nomNormalise":"egly","typeCollectivite":"Commune","region":"Île-de-France","departement":"Essonne","departementCode":"91","adresse":{"street":"4 Grande rue","postalCode":"91520","city":"Égly","country":"France"},"contacts":{"email":"mairie-egly@mairie-egly.fr","telephone":"0169262800"},"horaires":"Le Lundi : de 08h30 à 12h00 de 13h30 à 17h00\nLe Mardi : de 13h30 à 17h00\nDu Mercredi au Jeudi : de 08h30 à 12h00 de 13h30 à 17h00\nLe Vendredi : de 08h30 à 12h00","latitude":48.579994,"longitude":2.221812,"website":"https://mairie-egly.fr/fr/","hasWebsite":true,"hasHoraires":true,"url":"https://lannuaire.service-public.gouv.fr/ile-de-france/essonne/66deb274-94ee-48e6-8557-6110dacc439b"}
{"nom":"Épinay-sous-Sénart","nomNormalise":"epinaysoussenart","typeCollectivite":"Commune","region":"Île-de-France","departement":"Essonne","departementCode":"91","adresse":{"street":"8 rue Sainte-Geneviève","postalCode":"91860","city":"Épinay-sous-Sénart","country":"France"},"contacts":{"email":"dgs@ville-epinay-senart.fr","telephone":"0160478500"},"horaires":"Du Lundi au Mardi : de 08h30 à 11h45 de 13h30 à 17h30\nLe Mercredi : de 08h30 à 11h45\nDu Jeudi au Vendredi : de 08h30 à 11h45 de 13h30 à 17h30\nLe Samedi : de 08h30 à 11h45","latitude":48.69468,"longitude":2.514825,"website":"https://www.ville-epinay-senart.fr/","hasWebsite":true,"hasHoraires":true,"url":"https://lannuaire.service-public.gouv.fr/ile-de-france/essonne/d3bb50e4-e10e-40ab-9eab-a359147ef571"}
{"nom":"Épinay-sur-Orge","nomNormalise":"epinaysurorge","typeCollectivite":"Commune","region":"Île-de-France","departement":"Essonne","departementCode":"91","adresse":{"street":"8 rue de l'Église","postalCode":"91360","city":"Épinay-sur-Orge","country":"France"},"contacts":{"email":"contact@epinaysurorge.fr","telephone":"0169102560"},"horaires":"Du Lundi au Mardi : de 08h30 à 12h00 de 13h30 à 17h30\nLe Mercredi : de 08h30 à 12h00\nDu Jeudi au Vendredi : de 08h30 à 12h00 de 13h30 à 17h30\nLe Samedi : de 08h30 à 12h00\n\nAccueil ouvert uniquement le 1er samedi du mois.","latitude":48.672615,"longitude":2.324264,"website":"https://www.ville-epinay-sur-orge.fr/","hasWebsite":true,"hasHoraires":true,"url":"https://lannuaire.service-public.gouv.fr/ile-de-france/essonne/624a3813-1a40-4661-8142-45ecc359ad18"}
{"nom":"Mairie déléguée - Estouches","nomNormalise":"mairiedelegueeestouches","typeCollectivite":"Commune","region":"Île-de-France","departement":"Essonne","departementCode":"91","adresse":{"street":"Hôtel de Ville","postalCode":"91660","city":"Le Mérévillois","country":"France"},"contacts":{"email":"mairie@lemerevillois.fr","telephone":"0164950020"},"horaires":"","latitude":48.302734,"longitude":2.13399,"website":"https://lemerevillois.fr/","hasWebsite":true,"hasHoraires":false,"url":"https://lannuaire.service-public.gouv.fr/ile-de-france/essonne/014bb39a-edf3-4629-aced-f17b77f9472f"}
{"nom":"Étampes","nomNormalise":"etampes","typeCollectivite":"Commune","region":"Île-de-France","departement":"Essonne","departementCode":"91","adresse":{"street":"12 Carrefour des Religieuses","postalCode":"91150","city":"Étampes","country":"France"},"contacts":{"email":"mairie@mairie-etampes.fr","telephone":"0160816070"},"horaires":"Du Lundi au Vendredi : de 08h30 à 12h30 de 13h30 à 17h00\nLe Samedi : de 08h30 à 12h00\n\nAccueil ouvert uniquement pour l'état civil.","latitude":48.55267,"longitude":2.1628418,"website":"https://www.mairie-etampes.fr/","hasWebsite":true,"hasHoraires":true,"url":"https://lannuaire.service-public.gouv.fr/ile-de-france/essonne/f6b2dc37-6fa5-43b6-97b7-8cd4af80dd84"}
{"nom":"Étiolles","nomNormalise":"etiolles","typeCollectivite":"Commune","region":"Île-de-France","departement":"Essonne","departementCode":"91","adresse":{"street":"1 rue de Thouars","postalCode":"91450","city":"Étiolles","country":"France"},"contacts":{"email":"mairie@etiolles.fr","telephone":"0160750309"},"horaires":"Le Lundi : de 09h00 à 12h30 de 13h30 à 17h00\nLe Mardi : de 09h00 à 12h30 de 14h00 à 19h00\nDu Mercredi au Vendredi : de 09h00 à 12h30 de 13h30 à 17h00","latitude":48.6368,"longitude":2.47237,"website":"https://www.etiolles.fr/","hasWebsite":true,"hasHoraires":true,"url":"https://lannuaire.service-public.gouv.fr/ile-de-france/essonne/a23b6af0-ecb6-4469-b2d4-d464a1e35c24"}
{"nom":"Étréchy","nomNormalise":"etrechy","typeCollectivite":"Commune","region":"Île-de-France","departement":"Essonne","departementCode":"91","adresse":{"street":"Place du Charles-de-Gaulle","postalCode":"91580","city":"Étréchy","country":"France"},"contacts":{"email":"etatcivil@ville-etrechy.fr","telephone":"0160806757"},"horaires":"Le Lundi : de 14h00 à 17h30\nDu Mardi au Vendredi : de 09h00 à 12h00 de 14h00 à 17h30\nLe Samedi : de 09h00 à 12h00","latitude":48.49363,"longitude":2.1903088,"website":"https://www.ville-etrechy.fr/","hasWebsite":true,"hasHoraires":true,"url":"https://lannuaire.service-public.gouv.fr/ile-de-france/essonne/f9a4d242-5ed6-471f-b5f9-789150a444d5"}
{"nom":"Évry-Courcouronnes","nomNormalise":"evrycourcouronnes","typeCollectivite":"Commune","region":"Île-de-France","departement":"Essonne","departementCode":"91","adresse":{"street":"Place des Droits-de-l'Homme-et-du-Citoyen","postalCode":"91011","city":"Évry-Courcouronnes","country":"France"},"contacts":{"email":"evrycourcouronnes@evrycourcouronnes.fr","telephone":"0169366666"},"horaires":"Le Lundi : de 09h00 à 17h00\nLe Mardi : de 13h00 à 17h00\nLe Mercredi : de 09h00 à 17h00\nLe Jeudi : de 09h00 à 19h00\nLe Vendredi : de 09h00 à 17h00\nLe Samedi : de 09h00 à 12h00","latitude":48.623745,"longitude":2.429457,"website":"https://www.evrycourcouronnes.fr/","hasWebsite":true,"hasHoraires":true,"url":"https://lannuaire.service-public.gouv.fr/ile-de-france/essonne/adbeceb5-b624-4fa5-a83a-ed06e4288f54"}
{"nom":"Fleury-Mérogis","nomNormalise":"fleurymerogis","typeCollectivite":"Commune","region":"Île-de-France","departement":"Essonne","departementCode":"91","adresse":{"street":"12 rue Roger-Clavier","postalCode":"91700","city":"Fleury-Mérogis","country":"France"},"contacts":{"email":"mairie@mairie-fleury-merogis.fr","telephone":"0169467200"},"horaires":"Du Lundi au Mardi : de 08h30 à 12h00 de 13h00 à 17h30\nDu Jeudi au Vendredi : de 08h30 à 12h00 de 13h00 à 17h30\nLe Samedi : de 09h00 à 12h00","latitude":48.63,"longitude":2.360986,"website":"https://fleurymerogis.fr/","hasWebsite":true,"hasHoraires":true,"url":"https://lannuaire.service-public.gouv.fr/ile-de-france/essonne/fe805248-5baf-4a54-a9be-a7ad57b3ca2c"}
{"nom":"Fontaine-la-Rivière","nomNormalise":"fontainelariviere","typeCollectivite":"Commune","region":"Île-de-France","departement":"Essonne","departementCode":"91","adresse":{"street":"Montoir-de-Marolles","postalCode":"91690","city":"Fontaine-la-Rivière","country":"France"},"contacts":{"email":"mairiedefontaine@free.fr","telephone":"0160809333"},"horaires":"Le Mardi : de 17h15 à 19h15\nLe Vendredi : de 13h00 à 18h00\nLe Samedi : de 10h00 à 12h00\n\nSur rendez-vous uniquement","latitude":48.35783,"longitude":2.155598,"website":"https://fontainelariviere.fr/","hasWebsite":true,"hasHoraires":true,"url":"https://lannuaire.service-public.gouv.fr/ile-de-france/essonne/4ad6576b-9b71-4704-a27c-73086ab8b0e2"}
{"nom":"Fontenay-lès-Briis","nomNormalise":"fontenaylesbriis","typeCollectivite":"Commune","region":"Île-de-France","departement":"Essonne","departementCode":"91","adresse":{"street":"1 place de la Mairie","postalCode":"91640","city":"Fontenay-lès-Briis","country":"France"},"contacts":{"email":"accueil@fontenay-les-briis.fr","telephone":"0164907074"},"horaires":"Le Lundi : de 15h00 à 17h30\nDu Mardi au Vendredi : de 08h30 à 12h00 de 13h30 à 17h30\nLe Samedi : de 09h00 à 12h00\n\nVoir sur le site, certains samedis de l'année.","latitude":48.61932,"longitude":2.156171,"website":"https://www.fontenay-les-briis.fr/","hasWebsite":true,"hasHoraires":true,"url":"https://lannuaire.service-public.gouv.fr/ile-de-france/essonne/bdcf989a-b36f-4a51-aa28-bc7c58c88526"}
{"nom":"Fontenay-le-Vicomte","nomNormalise":"fontenaylevicomte","typeCollectivite":"Commune","region":"Île-de-France","departement":"Essonne","departementCode":"91","adresse":{"street":"4 rue de la Mairie","postalCode":"91540","city":"Fontenay-le-Vicomte","country":"France"},"contacts":{"email":"contact@mairieflv.fr","telephone":"0164570410"},"horaires":"Du Lundi au Mardi : de 08h30 à 11h30 de 13h30 à 17h00\nDu Jeudi au Vendredi : de 08h30 à 11h30 de 13h30 à 17h00\nLe Samedi : de 09h00 à 11h30\n\nAccueil ouvert le 2e samedi du mois.","latitude":48.548,"longitude":2.39893,"website":"http://www.fontenaylevicomte.fr/","hasWebsite":true,"hasHoraires":true,"url":"https://lannuaire.service-public.gouv.fr/ile-de-france/essonne/2bcafbb5-2e14-43c3-81b9-aed271f63444"}
{"nom":"Forges-les-Bains","nomNormalise":"forgeslesbains","typeCollectivite":"Commune","region":"Île-de-France","departement":"Essonne","departementCode":"91","adresse":{"street":"9 rue du Docteur-Babin","postalCode":"91470","city":"Forges-les-Bains","country":"France"},"contacts":{"email":"mairie@forges-les-bains.fr","telephone":"0164910329"},"horaires":"Le Lundi : de 09h00 à 12h00 de 13h30 à 17h30\nDu Mercredi au Vendredi : de 09h00 à 12h00 de 13h30 à 17h30\nLe Samedi : de 09h00 à 12h00\n\nFermeture le deuxième samedi des vacances scolaires.","latitude":48.627598,"longitude":2.100347,"website":"https://www.forges-les-bains.fr/","hasWebsite":true,"hasHoraires":true,"url":"https://lannuaire.service-public.gouv.fr/ile-de-france/essonne/24684a12-7701-42f5-8b0d-8a189cf05c92"}
{"nom":"Gif-sur-Yvette","nomNormalise":"gifsuryvette","typeCollectivite":"Commune","region":"Île-de-France","departement":"Essonne","departementCode":"91","adresse":{"street":"9 square de la Mairie","postalCode":"91190","city":"Gif-sur-Yvette","country":"France"},"contacts":{"email":"contact@mairie-gif.fr","telephone":"0169186918"},"horaires":"Le Lundi : de 13h30 à 18h00\nDu Mardi au Vendredi : de 08h30 à 12h00 de 13h30 à 18h00\nLe Samedi : de 08h30 à 12h00","latitude":48.7021,"longitude":2.13337,"website":"https://www.ville-gif.fr/","hasWebsite":true,"hasHoraires":true,"url":"https://lannuaire.service-public.gouv.fr/ile-de-france/essonne/733c18e4-67a2-4951-a863-8490bae91d55"}
{"nom":"Gironville-sur-Essonne","nomNormalise":"gironvillesuressonne","typeCollectivite":"Commune","region":"Île-de-France","departement":"Essonne","departementCode":"91","adresse":{"street":"20 Grande rue","postalCode":"91720","city":"Gironville-sur-Essonne","country":"France"},"contacts":{"email":"mairiegironville91@gmail.com","telephone":"0164995218"},"horaires":"Le Lundi : de 14h00 à 17h00\nLe Mardi : de 16h00 à 19h00\nDu Jeudi au Vendredi : de 14h00 à 17h00\nLe Samedi : de 09h00 à 12h00","latitude":48.3723,"longitude":2.37927,"website":"http://www.gironville-sur-essonne.fr/","hasWebsite":true,"hasHoraires":true,"url":"https://lannuaire.service-public.gouv.fr/ile-de-france/essonne/2ce39795-2461-4fbf-aca0-e1054d57b440"}
{"nom":"Gometz-la-Ville","nomNormalise":"gometzlaville","typeCollectivite":"Commune","region":"Île-de-France","departement":"Essonne","departementCode":"91","adresse":{"street":"Place de la Mairie","postalCode":"91400","city":"Gometz-la-Ville","country":"France"},"contacts":{"email":"mairie@gometzlaville.fr","telephone":"0160120803"},"horaires":"Du Mardi au Mercredi : de 15h00 à 17h00\nLe Jeudi : de 16h00 à 19h00\nLe Vendredi : de 15h00 à 17h00\nLe Samedi : de 09h00 à 12h00","latitude":48.6726,"longitude":2.06927,"website":"https://www.mairie-gometzlaville.fr/","hasWebsite":true,"hasHoraires":true,"url":"https://lannuaire.service-public.gouv.fr/ile-de-france/essonne/509cc736-2143-499a-9258-e772db8cfda7"}
{"nom":"Gometz-le-Châtel","nomNormalise":"gometzlechatel","typeCollectivite":"Commune","region":"Île-de-France","departement":"Essonne","departementCode":"91","adresse":{"street":"76 rue Saint-Nicolas","postalCode":"91940","city":"Gometz-le-Châtel","country":"France"},"contacts":{"email":"mairie@gometzlechatel.fr","telephone":"0160121105"},"horaires":"Le Lundi : de 09h30 à 12h00\nLe Mardi : de 14h30 à 19h00\nLe Mercredi : de 14h30 à 17h30\nLe Vendredi : de 14h30 à 17h00","latitude":48.678326,"longitude":2.138193,"website":"https://gometzlechatel.fr/fr/","hasWebsite":true,"hasHoraires":true,"url":"https://lannuaire.service-public.gouv.fr/ile-de-france/essonne/f3064d06-c1dd-49de-9e5b-7bc599b74257"}
{"nom":"Grigny","nomNormalise":"grigny","typeCollectivite":"Commune","region":"Île-de-France","departement":"Essonne","departementCode":"91","adresse":{"street":"19 route de Corbeil","postalCode":"91350","city":"Grigny","country":"France"},"contacts":{"email":"courriers.ville@grigny91.fr","telephone":"0169025353"},"horaires":"Le Lundi : de 08h30 à 12h30 de 13h30 à 17h30\nLe Mardi : de 12h00 à 18h00\nDu Mercredi au Vendredi : de 08h30 à 12h30 de 13h30 à 17h30\nLe Samedi : de 09h00 à 12h00","latitude":48.6546,"longitude":2.38879,"website":"http://grigny91.fr/","hasWebsite":true,"hasHoraires":true,"url":"https://lannuaire.service-public.gouv.fr/ile-de-france/essonne/bf9ab01c-1071-4782-b87e-d759882897e9"}
{"nom":"Guibeville","nomNormalise":"guibeville","typeCollectivite":"Commune","region":"Île-de-France","departement":"Essonne","departementCode":"91","adresse":{"street":"Rue Pasteur","postalCode":"91630","city":"Guibeville","country":"France"},"contacts":{"email":"mairie@guibeville.fr","telephone":"0164902633"},"horaires":"Du Lundi au Mardi : de 14h00 à 16h00\nLe Mercredi : de 09h00 à 12h00\nDu Jeudi au Vendredi : de 14h00 à 16h00\nLe Samedi : de 09h00 à 12h00","latitude":48.5694,"longitude":2.26864,"website":"http://www.guibeville.fr/","hasWebsite":true,"hasHoraires":true,"url":"https://lannuaire.service-public.gouv.fr/ile-de-france/essonne/536a7c3d-2f91-4972-bb5e-0b90b3419a49"}
{"nom":"Guigneville-sur-Essonne","nomNormalise":"guignevillesuressonne","typeCollectivite":"Commune","region":"Île-de-France","departement":"Essonne","departementCode":"91","adresse":{"street":"Route départementale 105","postalCode":"91590","city":"Guigneville-sur-Essonne","country":"France"},"contacts":{"email":"mairie.guigneville.essonne@wanadoo.fr","telephone":"0164576148"},"horaires":"Du Lundi au Mardi : de 10h00 à 12h00 de 16h00 à 17h30\nLe Jeudi : de 10h00 à 12h00 de 16h00 à 17h30\nLe Vendredi : de 10h00 à 12h00 de 15h00 à 17h00\nLe Samedi : de 09h00 à 12h00","latitude":48.4336,"longitude":2.36535,"website":"","hasWebsite":false,"hasHoraires":true,"url":"https://lannuaire.service-public.gouv.fr/ile-de-france/essonne/7fb44a44-0952-4c0f-8a8c-084aee63b5b4"}
{"nom":"Guillerval","nomNormalise":"guillerval","typeCollectivite":"Commune","region":"Île-de-France","departement":"Essonne","departementCode":"91","adresse":{"street":"2 rue de la Guymont","postalCode":"91690","city":"Guillerval","country":"France"},"contacts":{"email":"commune.guillerval@gmail.com","telephone":"0164956103"},"horaires":"Le Lundi : de 14h30 à 17h00\nLe Mardi : de 09h30 à 12h00\nLe Mercredi : de 14h30 à 17h00\nLe Vendredi : de 14h30 à 17h00","latitude":48.3646,"longitude":2.10157,"website":"https://www.guillerval.fr/","hasWebsite":true,"hasHoraires":true,"url":"https://lannuaire.service-public.gouv.fr/ile-de-france/essonne/b3a0f427-e4b1-4898-874d-94cc162bab62"}
{"nom":"Igny","nomNormalise":"igny","typeCollectivite":"Commune","region":"Île-de-France","departement":"Essonne","departementCode":"91","adresse":{"street":"23 avenue de la Division-Leclerc","postalCode":"91430","city":"Igny","country":"France"},"contacts":{"email":"mairie@igny.fr","telephone":"0169331119"},"horaires":"Du Lundi au Mercredi : de 09h00 à 12h00 de 14h00 à 17h30\nLe Jeudi : de 09h00 à 12h00\nLe Vendredi : de 09h00 à 12h00 de 14h00 à 17h30\nLe Samedi : de 09h00 à 12h00\n\nAccueil fermé le dernier samedi du mois. et les samedis du mois d'août.","latitude":48.742256,"longitude":2.22611,"website":"https://www.igny.fr/","hasWebsite":true,"hasHoraires":true,"url":"https://lannuaire.service-public.gouv.fr/ile-de-france/essonne/7867fb36-cd41-4161-84af-c40c1393ed5a"}
{"nom":"Itteville","nomNormalise":"itteville","typeCollectivite":"Commune","region":"Île-de-France","departement":"Essonne","departementCode":"91","adresse":{"street":"103 rue Saint-Germain","postalCode":"91760","city":"Itteville","country":"France"},"contacts":{"email":"contact@mairie-itteville.fr","telephone":"0164937700"},"horaires":"Le Lundi : de 09h00 à 12h30 de 15h00 à 17h30\nLe Mardi : de 09h00 à 12h30\nDu Mercredi au Jeudi : de 09h00 à 12h30 de 15h00 à 17h30\nLe Vendredi : de 09h00 à 12h30\nLe Samedi : de 08h30 à 12h00","latitude":48.517292,"longitude":2.3459752,"website":"https://www.itteville.fr/","hasWebsite":true,"hasHoraires":true,"url":"https://lannuaire.service-public.gouv.fr/ile-de-france/essonne/7e912bde-1220-40c5-bb38-e21edeceb6e5"}
{"nom":"Janville-sur-Juine","nomNormalise":"janvillesurjuine","typeCollectivite":"Commune","region":"Île-de-France","departement":"Essonne","departementCode":"91","adresse":{"street":"40 Grande rue","postalCode":"91510","city":"Janville-sur-Juine","country":"France"},"contacts":{"email":"mairie@janville-sur-juine.fr","telephone":"0169274013"},"horaires":"Le Lundi : de 09h00 à 12h00 de 15h00 à 18h00\nDu Mardi au Mercredi : de 09h00 à 12h00\nDu Jeudi au Vendredi : de 09h00 à 12h00 de 15h00 à 17h30\nLe Samedi : de 09h00 à 12h00","latitude":48.51372,"longitude":2.259085,"website":"http://www.janville-sur-juine.fr/","hasWebsite":true,"hasHoraires":true,"url":"https://lannuaire.service-public.gouv.fr/ile-de-france/essonne/14cfcacd-eb52-4489-9adf-7fe491a7e4d6"}
{"nom":"Janvry","nomNormalise":"janvry","typeCollectivite":"Commune","region":"Île-de-France","departement":"Essonne","departementCode":"91","adresse":{"street":"Rue des Genévriers","postalCode":"91640","city":"Janvry","country":"France"},"contacts":{"email":"mairie@janvry.fr","telephone":"0164907210"},"horaires":"Du Lundi au Mardi : de 15h00 à 19h00\nLe Mercredi : de 09h00 à 12h00\nDu Jeudi au Vendredi : de 15h00 à 19h00","latitude":48.64691,"longitude":2.1560278,"website":"http://www.janvry.fr/","hasWebsite":true,"hasHoraires":true,"url":"https://lannuaire.service-public.gouv.fr/ile-de-france/essonne/f8b841a1-26a5-4e53-b783-ff1826da8a56"}
{"nom":"Juvisy-sur-Orge","nomNormalise":"juvisysurorge","typeCollectivite":"Commune","region":"Île-de-France","departement":"Essonne","departementCode":"91","adresse":{"street":"25 Grande rue","postalCode":"91260","city":"Juvisy-sur-Orge","country":"France"},"contacts":{"email":"espace-marianne@mairie-juvisy.fr","telephone":"0169125000"},"horaires":"Le Lundi : de 08h30 à 12h30 de 13h30 à 17h00\nLe Mardi : de 08h30 à 18h30\nLe Mercredi : de 08h30 à 12h30 de 13h30 à 17h00\nLe Jeudi : de 13h30 à 17h00\nLe Vendredi : de 08h30 à 12h30 de 13h30 à 17h00\nLe Samedi : de 09h00 à 12h00","latitude":48.689095,"longitude":2.374643,"website":"http://www.juvisy.fr/","hasWebsite":true,"hasHoraires":true,"url":"https://lannuaire.service-public.gouv.fr/ile-de-france/essonne/aebda5ca-21db-4b3e-b239-e330dcb0303d"}
{"nom":"La Ferte-Alais","nomNormalise":"lafertealais","typeCollectivite":"Commune","region":"Île-de-France","departement":"Essonne","departementCode":"91","adresse":{"street":"5 rue des Fillettes","postalCode":"91590","city":"La Ferte-Alais","country":"France"},"contacts":{"email":"mairie@lafertealais.fr","telephone":"0169908844"},"horaires":"Du Lundi au Mercredi : de 08h30 à 12h00 de 13h30 à 17h30\nLe Vendredi : de 08h30 à 12h00 de 13h30 à 17h30\nLe Samedi : de 08h30 à 12h00","latitude":48.4811,"longitude":2.34781,"website":"http://www.lafertealais.fr/","hasWebsite":true,"hasHoraires":true,"url":"https://lannuaire.service-public.gouv.fr/ile-de-france/essonne/922a0248-29a3-400f-84f9-07fb9a7180cd"}
{"nom":"La Forêt-le-Roi","nomNormalise":"laforetleroi","typeCollectivite":"Commune","region":"Île-de-France","departement":"Essonne","departementCode":"91","adresse":{"street":"2 route d'Étampes","postalCode":"91410","city":"La Forêt-le-Roi","country":"France"},"contacts":{"email":"laforetleroi@wanadoo.fr","telephone":"0164957122"},"horaires":"Le Lundi : de 09h00 à 12h00 de 13h00 à 18h00\nDu Mercredi au Jeudi : de 09h00 à 12h00 de 13h00 à 18h00\nLe Vendredi : de 08h00 à 12h00","latitude":48.478615,"longitude":2.046265,"website":"https://www.laforetleroi.fr/","hasWebsite":true,"hasHoraires":true,"url":"https://lannuaire.service-public.gouv.fr/ile-de-france/essonne/1b092783-147a-4246-ac89-58edc3b960c1"}
{"nom":"La Forêt-Sainte-Croix","nomNormalise":"laforetsaintecroix","typeCollectivite":"Commune","region":"Île-de-France","departement":"Essonne","departementCode":"91","adresse":{"street":"2 route de Malesherbes","postalCode":"91150","city":"La Forêt-Sainte-Croix","country":"France"},"contacts":{"email":"foretsaintecroix@wanadoo.fr","telephone":"0169954236"},"horaires":"Le Mardi : de 17h00 à 19h00\nLe Jeudi : de 17h00 à 19h00","latitude":48.38454,"longitude":2.230671,"website":"","hasWebsite":false,"hasHoraires":true,"url":"https://lannuaire.service-public.gouv.fr/ile-de-france/essonne/42178af9-1f32-46ed-a130-cdb53400927b"}
{"nom":"La Norville","nomNormalise":"lanorville","typeCollectivite":"Commune","region":"Île-de-France","departement":"Essonne","departementCode":"91","adresse":{"street":"1 rue Pasteur","postalCode":"91290","city":"La Norville","country":"France"},"contacts":{"email":"mairie@lanorville91.fr","telephone":"0169261900"},"horaires":"Du Lundi au Mardi : de 08h15 à 12h15 de 13h15 à 17h15\nDu Jeudi au Vendredi : de 08h15 à 12h15 de 13h15 à 17h15\nLe Samedi : de 08h15 à 12h15","latitude":48.586662,"longitude":2.259271,"website":"http://www.lanorville91.fr/","hasWebsite":true,"hasHoraires":true,"url":"https://lannuaire.service-public.gouv.fr/ile-de-france/essonne/7f7a5a82-6ab5-4ee9-9ab6-dd6530cbad2c"}
{"nom":"Lardy","nomNormalise":"lardy","typeCollectivite":"Commune","region":"Île-de-France","departement":"Essonne","departementCode":"91","adresse":{"street":"70 Grande rue","postalCode":"91510","city":"Lardy","country":"France"},"contacts":{"email":"maire@ville-lardy.fr","telephone":"0169271400"},"horaires":"Du Lundi au Mardi : de 09h00 à 12h30 de 14h00 à 17h30\nLe Mercredi : de 09h00 à 12h30\nDu Jeudi au Vendredi : de 09h00 à 12h30 de 14h00 à 17h30\nLe Samedi : de 09h00 à 12h30","latitude":48.5207,"longitude":2.26503,"website":"http://www.ville-lardy.fr/","hasWebsite":true,"hasHoraires":true,"url":"https://lannuaire.service-public.gouv.fr/ile-de-france/essonne/3b4f3ac4-c509-4069-b1c6-d7eb676b6ddd"}
{"nom":"La Ville-du-Bois","nomNormalise":"lavilledubois","typeCollectivite":"Commune","region":"Île-de-France","departement":"Essonne","departementCode":"91","adresse":{"street":"Place du Général-de-Gaulle","postalCode":"91620","city":"La Ville-du-Bois","country":"France"},"contacts":{"email":"communication@lavilledubois.fr","telephone":"0164495949"},"horaires":"Du Lundi au Mardi : de 08h30 à 12h00 de 14h30 à 17h30\nLe Mercredi : de 08h30 à 12h15\nDu Jeudi au Vendredi : de 08h30 à 12h00 de 14h30 à 17h30\nLe Samedi : de 08h30 à 12h15","latitude":48.66107,"longitude":2.268826,"website":"https://www.lavilledubois.fr/","hasWebsite":true,"hasHoraires":true,"url":"https://lannuaire.service-public.gouv.fr/ile-de-france/essonne/f9d49a2b-638c-47cd-9520-e8dfc7ad0458"}
{"nom":"Le Coudray-Montceaux","nomNormalise":"lecoudraymontceaux","typeCollectivite":"Commune","region":"Île-de-France","departement":"Essonne","departementCode":"91","adresse":{"street":"45 avenue Charles-de-Gaulle","postalCode":"91830","city":"Le Coudray-Montceaux","country":"France"},"contacts":{"email":"contact@lecoudraymontceaux.fr","telephone":"0164938112"},"horaires":"Du Lundi au Jeudi : de 09h00 à 12h00 de 13h30 à 17h00\nLe Vendredi : de 09h00 à 12h00 de 13h30 à 15h45\nLe Samedi : de 10h00 à 12h00\n\nAccueil fermé pendant les vacances scolaires.","latitude":48.565735,"longitude":2.485808,"website":"https://coudray-montceaux.fr/fr/","hasWebsite":true,"hasHoraires":true,"url":"https://lannuaire.service-public.gouv.fr/ile-de-france/essonne/ee7e1eb2-9f04-48c0-8704-4aaeafbb6809"}
{"nom":"Le Mérévillois","nomNormalise":"lemerevillois","typeCollectivite":"Commune","region":"Île-de-France","departement":"Essonne","departementCode":"91","adresse":{"street":"Méréville","postalCode":"91660","city":"Le Mérivillois","country":"France"},"contacts":{"email":"mairie@lemerevillois.fr","telephone":"0164950020"},"horaires":"Du Lundi au Jeudi : de 08h30 à 12h00 de 13h30 à 17h00\nLe Vendredi : de 08h30 à 12h00 de 14h00 à 17h30\nLe Samedi : de 09h00 à 12h00","latitude":48.318565,"longitude":2.087099,"website":"https://lemerevillois.fr/","hasWebsite":true,"hasHoraires":true,"url":"https://lannuaire.service-public.gouv.fr/ile-de-france/essonne/18ef6f46-c569-4d43-aa3c-346979a67f5c"}
{"nom":"Le Plessis-Pâté","nomNormalise":"leplessispate","typeCollectivite":"Commune","region":"Île-de-France","departement":"Essonne","departementCode":"91","adresse":{"street":"Place du 8-Mai-1945","postalCode":"91220","city":"Le Plessis-Pâté","country":"France"},"contacts":{"email":"mairie@leplessispate.fr","telephone":"0160855900"},"horaires":"Du Lundi au Mardi : de 08h30 à 12h00 de 15h00 à 18h00\nLe Mercredi : de 08h30 à 12h00\nDu Jeudi au Vendredi : de 08h30 à 12h00 de 15h00 à 18h00","latitude":48.612,"longitude":2.32573,"website":"https://www.leplessispate.fr/fr/","hasWebsite":true,"hasHoraires":true,"url":"https://lannuaire.service-public.gouv.fr/ile-de-france/essonne/cc63203c-0aa8-4cf3-855b-222d2f4c0531"}
{"nom":"Les Granges-le-Roi","nomNormalise":"lesgrangesleroi","typeCollectivite":"Commune","region":"Île-de-France","departement":"Essonne","departementCode":"91","adresse":{"street":"8 rue des Popineaux","postalCode":"91410","city":"Les Granges-le-Roi","country":"France"},"contacts":{"email":"accueil@lesgrangesleroi.com","telephone":"0164597354"},"horaires":"Le Lundi : de 09h00 à 12h00 de 14h00 à 17h00\nLe Mardi : de 14h00 à 17h30\nDu Mercredi au Jeudi : de 09h00 à 12h00\nLe Vendredi : de 14h00 à 17h30\nLe Samedi : de 09h30 à 12h00\n\nAccueil ouvert un samedi sur deux, consulter le site de la mairie avant de vous déplacer.","latitude":48.5018,"longitude":2.01964,"website":"http://www.mairielesgrangesleroi.com/","hasWebsite":true,"hasHoraires":true,"url":"https://lannuaire.service-public.gouv.fr/ile-de-france/essonne/b11c5167-5575-446e-b9e0-e896f22fe476"}
{"nom":"Les Molières","nomNormalise":"lesmolieres","typeCollectivite":"Commune","region":"Île-de-France","departement":"Essonne","departementCode":"91","adresse":{"street":"1 place de la Mairie","postalCode":"91470","city":"Les Molières","country":"France"},"contacts":{"email":"contact@lesmolieres.fr","telephone":"0160120799"},"horaires":"Du Lundi au Mardi : de 09h00 à 12h00\n\nL'après-midi uniquement sur rendez-vous.\nLe Mercredi : de 09h00 à 12h00\n\nUniquement sur rendez-vous le matin.\nDu Jeudi au Vendredi : de 09h00 à 12h00\n\nL'après-midi sur rendez-vous.\nLe Samedi : de 09h00 à 12h00\nL'après-midi uniquement sur rendez-vous.","latitude":48.673084,"longitude":2.069162,"website":"https://www.lesmolieres.fr/","hasWebsite":true,"hasHoraires":true,"url":"https://lannuaire.service-public.gouv.fr/ile-de-france/essonne/0b826e6d-9e37-4a20-895f-735ed9907050"}
{"nom":"Les Ulis","nomNormalise":"lesulis","typeCollectivite":"Commune","region":"Île-de-France","departement":"Essonne","departementCode":"91","adresse":{"street":"Esplanade de la République","postalCode":"91940","city":"Les Ulis","country":"France"},"contacts":{"email":"mairie@lesulis.fr","telephone":"0169293400"},"horaires":"Du Lundi au Mercredi : de 08h45 à 12h00 de 13h30 à 17h30\nLe Jeudi : de 08h45 à 12h00\nLe Vendredi : de 08h45 à 16h00\nLe Samedi : de 09h00 à 12h15","latitude":48.682205,"longitude":2.169389,"website":"https://www.lesulis.fr/","hasWebsite":true,"hasHoraires":true,"url":"https://lannuaire.service-public.gouv.fr/ile-de-france/essonne/5e8c2c65-f71d-4d29-9ad6-a451d524e951"}
{"nom":"Leudeville","nomNormalise":"leudeville","typeCollectivite":"Commune","region":"Île-de-France","departement":"Essonne","departementCode":"91","adresse":{"street":"10 Grande-Rue","postalCode":"91630","city":"Leudeville","country":"France"},"contacts":{"email":"mairie@leudeville.fr","telephone":"0169148152"},"horaires":"Le Lundi : de 08h15 à 12h00\nLe Mardi : de 08h15 à 12h00 de 13h30 à 17h15\nLe Mercredi : de 08h30 à 12h00\nDu Jeudi au Vendredi : de 08h15 à 12h00 de 13h30 à 17h15\nLe Samedi : de 08h30 à 12h00","latitude":48.565643,"longitude":2.326298,"website":"https://www.leudeville.fr/","hasWebsite":true,"hasHoraires":true,"url":"https://lannuaire.service-public.gouv.fr/ile-de-france/essonne/6d842406-55f6-476d-bfcc-5e2be20028a7"}
{"nom":"Leuville-sur-Orge","nomNormalise":"leuvillesurorge","typeCollectivite":"Commune","region":"Île-de-France","departement":"Essonne","departementCode":"91","adresse":{"street":"28 rue Jules-Ferry","postalCode":"91310","city":"Leuville-sur-Orge","country":"France"},"contacts":{"email":"mairie@leuville.fr","telephone":"0160852960"},"horaires":"Le Lundi : de 13h30 à 18h00\nDu Mardi au Jeudi : de 08h30 à 12h00 de 13h30 à 18h00\nLe Vendredi : de 08h30 à 12h00\nLe Samedi : de 08h30 à 12h00\n\nUniquement le premier samedi du mois.","latitude":48.61621,"longitude":2.263872,"website":"https://www.leuville.fr/","hasWebsite":true,"hasHoraires":true,"url":"https://lannuaire.service-public.gouv.fr/ile-de-france/essonne/00090adf-5d8f-4b6b-b69e-6f7a4461309e"}
{"nom":"Le Val-Saint-Germain","nomNormalise":"levalsaintgermain","typeCollectivite":"Commune","region":"Île-de-France","departement":"Essonne","departementCode":"91","adresse":{"street":"93 bis rue du Village","postalCode":"91530","city":"Le Val-Saint-Germain","country":"France"},"contacts":{"email":"mairie@le-val-saint-germain.fr","telephone":"0164590010"},"horaires":"Le Mardi : de 09h00 à 12h00\nDu Jeudi au Samedi : de 09h00 à 12h00","latitude":48.565376,"longitude":2.059514,"website":"https://le-val-saint-germain.fr/","hasWebsite":true,"hasHoraires":true,"url":"https://lannuaire.service-public.gouv.fr/ile-de-france/essonne/e1e93110-9f52-4f1f-bdaf-978907af6538"}
{"nom":"Limours","nomNormalise":"limours","typeCollectivite":"Commune","region":"Île-de-France","departement":"Essonne","departementCode":"91","adresse":{"street":"Place du Général-de-Gaulle","postalCode":"91470","city":"Limours","country":"France"},"contacts":{"email":"info@mairie-limours.fr","telephone":"0164916363"},"horaires":"Du Mardi au Mercredi : de 09h00 à 12h00 de 14h00 à 17h30\nLe Jeudi : de 09h00 à 12h00\nLe Vendredi : de 09h00 à 12h00 de 14h00 à 17h30\nLe Samedi : de 09h00 à 12h00","latitude":48.645836,"longitude":2.0767167,"website":"https://www.mairie-limours.fr/","hasWebsite":true,"hasHoraires":true,"url":"https://lannuaire.service-public.gouv.fr/ile-de-france/essonne/ad887a4d-9c84-4955-80a4-9ff310ef943c"}
{"nom":"Linas","nomNormalise":"linas","typeCollectivite":"Commune","region":"Île-de-France","departement":"Essonne","departementCode":"91","adresse":{"street":"Place Ernest-Pillon","postalCode":"91310","city":"Linas","country":"France"},"contacts":{"email":"mairie@linas.fr","telephone":"0169801400"},"horaires":"Du Lundi au Vendredi : de 08h30 à 12h30 de 13h30 à 17h30\nLe Samedi : de 08h30 à 12h30\n\nFermé le samedi de mi-juillet à mi-août.","latitude":48.631523,"longitude":2.26645,"website":"http://www.linas.fr/","hasWebsite":true,"hasHoraires":true,"url":"https://lannuaire.service-public.gouv.fr/ile-de-france/essonne/3c693b8b-88d1-4b5b-a5ff-f4408a2af732"}
{"nom":"Lisses","nomNormalise":"lisses","typeCollectivite":"Commune","region":"Île-de-France","departement":"Essonne","departementCode":"91","adresse":{"street":"2 rue Thirouin","postalCode":"91090","city":"Lisses","country":"France"},"contacts":{"email":"infolisses@ville-lisses.fr","telephone":"0169114000"},"horaires":"Du Lundi au Mercredi : de 08h30 à 12h00 de 14h00 à 17h45\nLe Jeudi : de 08h30 à 12h00 de 14h00 à 18h30\nLe Vendredi : de 08h30 à 12h00 de 14h00 à 17h45\nLe Samedi : de 08h30 à 12h00","latitude":48.59807,"longitude":2.424415,"website":"http://www.ville-lisses.fr/","hasWebsite":true,"hasHoraires":true,"url":"https://lannuaire.service-public.gouv.fr/ile-de-france/essonne/18275df5-e3dc-4f7a-b9b3-971b301cce35"}
{"nom":"Longjumeau","nomNormalise":"longjumeau","typeCollectivite":"Commune","region":"Île-de-France","departement":"Essonne","departementCode":"91","adresse":{"street":"6 bis rue Léontine-Sohier","postalCode":"91160","city":"Longjumeau Cedex","country":"France"},"contacts":{"email":"mairie@longjumeau.fr","telephone":"0164541900"},"horaires":"Du Lundi au Mardi : de 08h30 à 12h30 de 13h30 à 18h00\nLe Mercredi : de 08h30 à 12h00\nDu Jeudi au Vendredi : de 08h30 à 12h30 de 13h30 à 18h00\nLe Samedi : de 08h30 à 12h00","latitude":48.694256,"longitude":2.296288,"website":"https://www.longjumeau.fr/","hasWebsite":true,"hasHoraires":true,"url":"https://lannuaire.service-public.gouv.fr/ile-de-france/essonne/635f135e-85d7-4be7-a8a1-e2d664f612d8"}
{"nom":"Longpont-sur-Orge","nomNormalise":"longpontsurorge","typeCollectivite":"Commune","region":"Île-de-France","departement":"Essonne","departementCode":"91","adresse":{"street":"Place des Combattants","postalCode":"91310","city":"Longpont-sur-Orge","country":"France"},"contacts":{"email":"accueil@mairie-longpont91.fr","telephone":"0169016818"},"horaires":"Du Lundi au Mardi : de 08h45 à 12h00 de 13h30 à 17h30\nLe Mercredi : de 08h45 à 12h00\nDu Jeudi au Vendredi : de 08h45 à 12h00 de 13h30 à 17h30\n\nAccueil CCAS fermé les mardi et jeudi après-midis.","latitude":48.64245,"longitude":2.2923636,"website":"https://www.mairie-longpont91.fr/","hasWebsite":true,"hasHoraires":true,"url":"https://lannuaire.service-public.gouv.fr/ile-de-france/essonne/176199da-1506-4fcf-86f1-adf02010a6f8"}
{"nom":"Maisse","nomNormalise":"maisse","typeCollectivite":"Commune","region":"Île-de-France","departement":"Essonne","departementCode":"91","adresse":{"street":"Place de l'Hôtel-de-Ville","postalCode":"91720","city":"Maisse","country":"France"},"contacts":{"email":"mairie@maisse.fr","telephone":"0164994726"},"horaires":"Du Lundi au Vendredi : de 09h00 à 12h00 de 14h00 à 17h30\nLe Samedi : de 09h00 à 12h00","latitude":48.394123,"longitude":2.3757436,"website":"https://www.maisse.fr/","hasWebsite":true,"hasHoraires":true,"url":"https://lannuaire.service-public.gouv.fr/ile-de-france/essonne/ffe0a02e-2e9d-478f-b30a-29a5c20bcc64"}
{"nom":"Marcoussis","nomNormalise":"marcoussis","typeCollectivite":"Commune","region":"Île-de-France","departement":"Essonne","departementCode":"91","adresse":{"street":"5 rue Alfred-Dubois","postalCode":"91460","city":"Marcoussis","country":"France"},"contacts":{"email":"contact@marcoussis.fr","telephone":"0164496400"},"horaires":"Le Lundi : de 13h30 à 17h30\nDu Mardi au Jeudi : de 08h30 à 12h00 de 13h30 à 17h30\nLe Vendredi : de 08h30 à 12h00 de 13h30 à 17h00\n\nAccueil ouvert les 1er et 3e vendredi du mois jusqu'à 18h.\nLe Samedi : de 09h00 à 12h00\n\nAccueil ouvert les 2e et 4e samedis du mois.","latitude":48.64251,"longitude":2.230769,"website":"https://marcoussis.fr/","hasWebsite":true,"hasHoraires":true,"url":"https://lannuaire.service-public.gouv.fr/ile-de-france/essonne/3b304762-f2ad-4b5b-a48d-486689b0076b"}
{"nom":"Marolles-en-Beauce","nomNormalise":"marollesenbeauce","typeCollectivite":"Commune","region":"Île-de-France","departement":"Essonne","departementCode":"91","adresse":{"street":"48 Grande rue","postalCode":"91150","city":"Marolles-en-Beauce","country":"France"},"contacts":{"email":"mairie.marolles.en.beauce@wanadoo.fr","telephone":"0164958152"},"horaires":"Le Vendredi : de 10h00 à 12h00","latitude":48.389,"longitude":2.23946,"website":"http://www.marolles-en-beauce.fr/","hasWebsite":true,"hasHoraires":true,"url":"https://lannuaire.service-public.gouv.fr/ile-de-france/essonne/8a917194-92d9-45d0-8f35-882948b19eaa"}
{"nom":"Marolles-en-Hurepoix","nomNormalise":"marollesenhurepoix","typeCollectivite":"Commune","region":"Île-de-France","departement":"Essonne","departementCode":"91","adresse":{"street":"1 avenue Charles-de-Gaulle","postalCode":"91630","city":"Marolles-en-Hurepoix","country":"France"},"contacts":{"email":"mairie@marolles-en-hurepoix.fr","telephone":"0169141440"},"horaires":"Du Lundi au Mardi : de 08h30 à 12h00 de 13h30 à 18h00\nLe Mercredi : de 08h30 à 12h00\nDu Jeudi au Vendredi : de 08h30 à 12h00 de 13h30 à 18h00\nLe Samedi : de 08h30 à 12h00","latitude":48.5625,"longitude":2.29803,"website":"http://www.marolles-en-hurepoix.fr/","hasWebsite":true,"hasHoraires":true,"url":"https://lannuaire.service-public.gouv.fr/ile-de-france/essonne/178ea45b-ea10-49d8-b281-942b979a6435"}
{"nom":"Massy","nomNormalise":"massy","typeCollectivite":"Commune","region":"Île-de-France","departement":"Essonne","departementCode":"91","adresse":{"street":"1 avenue du Général-de-Gaulle","postalCode":"91300","city":"Massy","country":"France"},"contacts":{"email":"","telephone":"0160133000"},"horaires":"Du Lundi au Mercredi : de 08h30 à 12h30 de 13h30 à 18h20\n\nPendant les vacances scolaires fermeture à 12h le matin et à 17h le soir.\nLe Jeudi : de 13h30 à 18h20\nLe Vendredi : de 08h30 à 12h30 de 13h30 à 18h20\nLe Samedi : de 08h30 à 12h00\nPendant les vacances scolaires fermeture à 12h le matin et à 17h ainsi que le jeudi.","latitude":48.73052,"longitude":2.272041,"website":"https://www.ville-massy.fr/","hasWebsite":true,"hasHoraires":true,"url":"https://lannuaire.service-public.gouv.fr/ile-de-france/essonne/871762ea-80cb-4d38-841d-7fb76f57965c"}
{"nom":"Mauchamps","nomNormalise":"mauchamps","typeCollectivite":"Commune","region":"Île-de-France","departement":"Essonne","departementCode":"91","adresse":{"street":"1 place Saint-Jean","postalCode":"91730","city":"Mauchamps","country":"France"},"contacts":{"email":"mairie@mauchamps.org","telephone":"0160822079"},"horaires":"Le Mardi : de 08h45 à 11h45\nLe Vendredi : de 14h00 à 17h30","latitude":48.530014,"longitude":2.193939,"website":"http://www.mauchamps.org/","hasWebsite":true,"hasHoraires":true,"url":"https://lannuaire.service-public.gouv.fr/ile-de-france/essonne/cc33c9c8-e681-49b7-87ea-2ecff574e80f"}
{"nom":"Mennecy","nomNormalise":"mennecy","typeCollectivite":"Commune","region":"Île-de-France","departement":"Essonne","departementCode":"91","adresse":{"street":"Hôtel de Ville","postalCode":"91540","city":"Mennecy","country":"France"},"contacts":{"email":"cabinet@mennecy.fr","telephone":"0169908030"},"horaires":"Du Lundi au Vendredi : de 08h30 à 12h00 de 13h30 à 17h30","latitude":48.566837,"longitude":2.4348078,"website":"https://www.mennecy.fr/","hasWebsite":true,"hasHoraires":true,"url":"https://lannuaire.service-public.gouv.fr/ile-de-france/essonne/3ca4c9aa-ac7a-4804-8b69-0cc01c2e92cd"}
{"nom":"Mérobert","nomNormalise":"merobert","typeCollectivite":"Commune","region":"Île-de-France","departement":"Essonne","departementCode":"91","adresse":{"street":"1 place de l'Église","postalCode":"91780","city":"Mérobert","country":"France"},"contacts":{"email":"mairie.merobert@wanadoo.fr","telephone":"0962322017"},"horaires":"Du Lundi au Mardi : de 14h00 à 16h30\nDu Jeudi au Vendredi : de 14h00 à 16h30\nLe Samedi : de 10h00 à 12h00","latitude":48.416092,"longitude":2.004544,"website":"https://www.commune-merobert.fr/","hasWebsite":true,"hasHoraires":true,"url":"https://lannuaire.service-public.gouv.fr/ile-de-france/essonne/7c28632c-24a0-431b-8f52-1736cb6df530"}
{"nom":"Mespuits","nomNormalise":"mespuits","typeCollectivite":"Commune","region":"Île-de-France","departement":"Essonne","departementCode":"91","adresse":{"street":"26 Grand'rue","postalCode":"91150","city":"Mespuits","country":"France"},"contacts":{"email":"mairie.mespuits@wanadoo.fr","telephone":"0164958554"},"horaires":"Le Lundi : de 15h30 à 18h00\nLe Jeudi : de 10h30 à 12h00","latitude":48.355656,"longitude":2.2717485,"website":"","hasWebsite":false,"hasHoraires":true,"url":"https://lannuaire.service-public.gouv.fr/ile-de-france/essonne/dd269e92-bc41-43c0-8106-ceb6dbcae563"}
{"nom":"Milly-la-Forêt","nomNormalise":"millylaforet","typeCollectivite":"Commune","region":"Île-de-France","departement":"Essonne","departementCode":"91","adresse":{"street":"Place de la République","postalCode":"91490","city":"Milly-la-Forêt","country":"France"},"contacts":{"email":"mairie@milly-la-foret.fr","telephone":"0164988007"},"horaires":"Du Lundi au Jeudi : de 09h00 à 12h00 de 14h00 à 17h30\nLe Vendredi : de 09h00 à 12h00 de 14h00 à 17h00","latitude":48.4033,"longitude":2.46711,"website":"https://www.milly-la-foret.fr/","hasWebsite":true,"hasHoraires":true,"url":"https://lannuaire.service-public.gouv.fr/ile-de-france/essonne/25dcf6e9-daae-49a3-b541-8ee8d3fc1d9d"}
{"nom":"Moigny-sur-École","nomNormalise":"moignysurecole","typeCollectivite":"Commune","region":"Île-de-France","departement":"Essonne","departementCode":"91","adresse":{"street":"59 Grand'Rue","postalCode":"91490","city":"Moigny-sur-École","country":"France"},"contacts":{"email":"accueil@mairiemoignysurecole.fr","telephone":"0164984014"},"horaires":"Le Lundi : de 09h30 à 12h30 de 14h30 à 17h30\nLe Mardi : de 09h30 à 12h30 de 14h30 à 18h30\nDu Mercredi au Jeudi : de 09h30 à 12h30 de 14h30 à 17h30\nLe Vendredi : de 09h30 à 12h30 de 14h30 à 17h00","latitude":48.433067,"longitude":2.45739,"website":"https://www.moigny-sur-ecole.com/","hasWebsite":true,"hasHoraires":true,"url":"https://lannuaire.service-public.gouv.fr/ile-de-france/essonne/555a9502-e499-4c5c-8fb5-7d8ec58fdff2"}
{"nom":"Mondeville","nomNormalise":"mondeville","typeCollectivite":"Commune","region":"Île-de-France","departement":"Essonne","departementCode":"91","adresse":{"street":"18 Grande rue","postalCode":"91590","city":"Mondeville","country":"France"},"contacts":{"email":"mairie@mondeville91.fr","telephone":"0164983103"},"horaires":"Le Lundi : de 09h00 à 12h00 de 14h00 à 17h30\nLe Mardi : de 09h00 à 12h00 de 14h00 à 19h00\nLe Jeudi : de 09h00 à 12h00 de 14h00 à 18h00\nLe Vendredi : de 09h00 à 12h00 de 14h00 à 18h00\nLe Samedi : de 09h00 à 12h00\n\nUniquement sur les semaines paires.","latitude":48.4899,"longitude":2.41697,"website":"https://www.intramuros.org/mondeville","hasWebsite":true,"hasHoraires":true,"url":"https://lannuaire.service-public.gouv.fr/ile-de-france/essonne/5d369d3a-5a57-48cc-9f75-dd3b5488fabf"}
{"nom":"Monnerville","nomNormalise":"monnerville","typeCollectivite":"Commune","region":"Île-de-France","departement":"Essonne","departementCode":"91","adresse":{"street":"7 bis Grande rue","postalCode":"91930","city":"Monnerville","country":"France"},"contacts":{"email":"","telephone":"0164950357"},"horaires":"","latitude":48.34669,"longitude":2.045526,"website":"http://www.mairie-monnerville.com/","hasWebsite":true,"hasHoraires":false,"url":"https://lannuaire.service-public.gouv.fr/ile-de-france/essonne/85ff0200-f16d-4390-bcb1-84b276148a2a"}
{"nom":"Montgeron","nomNormalise":"montgeron","typeCollectivite":"Commune","region":"Île-de-France","departement":"Essonne","departementCode":"91","adresse":{"street":"112 bis avenue de la République","postalCode":"91230","city":"Montgeron","country":"France"},"contacts":{"email":"montgeron@montgeron.fr","telephone":"0169836900"},"horaires":"Le Lundi : de 08h15 à 12h15 de 13h30 à 17h30\n\nJournée en continu le lundi midi, en période scolaire.\nLe Mardi : de 08h15 à 12h15\n\nLe mardi après-midi, les service sont fermés mais l'accueil est assuré jusqu'à 17h30.\nDu Mercredi au Vendredi : de 08h15 à 12h15 de 13h30 à 17h30\nLe Samedi : de 09h00 à 12h00\n\nAccueil ouvert uniquement pour les services affaires générales, enfance et éducation.\nJournée en continu le lundi midi, en période scolaire.","latitude":48.704033,"longitude":2.460222,"website":"https://www.montgeron.fr/","hasWebsite":true,"hasHoraires":true,"url":"https://lannuaire.service-public.gouv.fr/ile-de-france/essonne/b45db300-8e6a-4892-8dce-d82e05d35e89"}
{"nom":"Montlhéry","nomNormalise":"montlhery","typeCollectivite":"Commune","region":"Île-de-France","departement":"Essonne","departementCode":"91","adresse":{"street":"1 rue Blanche-de-Castille","postalCode":"91310","city":"Montlhéry","country":"France"},"contacts":{"email":"mairie@ville-montlhery.fr","telephone":"0164495333"},"horaires":"Du Lundi au Vendredi : de 08h00 à 12h00 de 13h15 à 17h15\nLe Samedi : de 09h00 à 12h00","latitude":48.636726,"longitude":2.270279,"website":"https://www.montlhery.fr/","hasWebsite":true,"hasHoraires":true,"url":"https://lannuaire.service-public.gouv.fr/ile-de-france/essonne/bc92bec8-1597-4dfe-93e2-2b0c3664cb1c"}
{"nom":"Morangis","nomNormalise":"morangis","typeCollectivite":"Commune","region":"Île-de-France","departement":"Essonne","departementCode":"91","adresse":{"street":"12 avenue de la République","postalCode":"91420","city":"Morangis","country":"France"},"contacts":{"email":"mairie@morangis91.com","telephone":"0164542828"},"horaires":"Du Lundi au Mardi : de 08h30 à 12h00 de 13h30 à 17h30\nLe Mercredi : de 08h30 à 12h00\nLe Jeudi : de 08h30 à 12h00 de 13h30 à 18h30\n\nAccueil ouvert jusqu'à 18h30 pour le guichet unique et état civil, fermeture des autres services à 17h30.\nLe Vendredi : de 08h30 à 12h00 de 13h30 à 17h30\nLe Samedi : de 08h30 à 12h00\n\nAccueil ouvert uniquement pour l'état civil et quichet unique.","latitude":48.70469,"longitude":2.3322868,"website":"https://www.morangis91.com/","hasWebsite":true,"hasHoraires":true,"url":"https://lannuaire.service-public.gouv.fr/ile-de-france/essonne/707e5f23-318b-448f-b2ee-d109fea05228"}
{"nom":"Morigny-Champigny","nomNormalise":"morignychampigny","typeCollectivite":"Commune","region":"Île-de-France","departement":"Essonne","departementCode":"91","adresse":{"street":"5 rue de la Mairie","postalCode":"91150","city":"Morigny-Champigny","country":"France"},"contacts":{"email":"mairie@morignychampigny.fr","telephone":"0164943909"},"horaires":"Du Mardi au Mercredi : de 08h30 à 12h00 de 15h00 à 17h30\nLe Jeudi : de 08h30 à 12h00 de 15h00 à 18h30\nLe Vendredi : de 08h30 à 12h00 de 15h00 à 17h30\nLe Samedi : de 08h30 à 12h00","latitude":48.446465,"longitude":2.1802278,"website":"http://www.morignychampigny.fr/","hasWebsite":true,"hasHoraires":true,"url":"https://lannuaire.service-public.gouv.fr/ile-de-france/essonne/47fc620b-cfdc-4300-965a-e9d3db914988"}
{"nom":"Morsang-sur-Orge","nomNormalise":"morsangsurorge","typeCollectivite":"Commune","region":"Île-de-France","departement":"Essonne","departementCode":"91","adresse":{"street":"Square Alexandre-Christophe","postalCode":"91390","city":"Morsang-sur-Orge","country":"France"},"contacts":{"email":"cabinetdumaire@ville-morsang.fr","telephone":"0169253900"},"horaires":"Du Lundi au Mardi : de 08h30 à 12h00 de 13h30 à 18h00\nLe Mercredi : de 08h30 à 12h00\nLe Jeudi : de 08h30 à 12h00\nLe Vendredi : de 08h30 à 12h00 de 13h30 à 18h00\nLe Samedi : de 08h30 à 12h00","latitude":48.66185,"longitude":2.3469908,"website":"https://morsang.fr/","hasWebsite":true,"hasHoraires":true,"url":"https://lannuaire.service-public.gouv.fr/ile-de-france/essonne/de44be4f-d6a9-4f50-ba58-2431e8ab1ae5"}
{"nom":"Morsang-sur-Seine","nomNormalise":"morsangsurseine","typeCollectivite":"Commune","region":"Île-de-France","departement":"Essonne","departementCode":"91","adresse":{"street":"24 Grande rue","postalCode":"91250","city":"Morsang-sur-Seine","country":"France"},"contacts":{"email":"secretariat.mairie@mairie-morsangsurseine.fr","telephone":"0160752018"},"horaires":"Du Lundi au Samedi : de 09h00 à 12h00","latitude":48.57065,"longitude":2.493202,"website":"https://www.mairie-morsangsurseine.fr/","hasWebsite":true,"hasHoraires":true,"url":"https://lannuaire.service-public.gouv.fr/ile-de-france/essonne/99614a60-0573-43bd-a04f-75f33ad3138b"}
{"nom":"Nainville-les-Roches","nomNormalise":"nainvillelesroches","typeCollectivite":"Commune","region":"Île-de-France","departement":"Essonne","departementCode":"91","adresse":{"street":"Place de la Mairie","postalCode":"91750","city":"Nainville-les-Roches","country":"France"},"contacts":{"email":"mairie@nainville.fr","telephone":"0164980155"},"horaires":"Le Lundi : de 15h00 à 19h00\nDu Mardi au Jeudi : de 09h00 à 12h00","latitude":48.50567,"longitude":2.494346,"website":"http://www.nainville.fr/","hasWebsite":true,"hasHoraires":true,"url":"https://lannuaire.service-public.gouv.fr/ile-de-france/essonne/6562a56e-06c4-4e5b-acf0-daed26ce5ace"}
{"nom":"Nozay","nomNormalise":"nozay","typeCollectivite":"Commune","region":"Île-de-France","departement":"Essonne","departementCode":"91","adresse":{"street":"Place de la Mairie","postalCode":"91620","city":"Nozay","country":"France"},"contacts":{"email":"mairie@nozay91.fr","telephone":"0164495800"},"horaires":"Le Lundi : de 15h00 à 17h30\nLe Mardi : de 08h30 à 12h00 de 15h00 à 19h00\nDu Mercredi au Jeudi : de 08h30 à 12h00 de 15h00 à 17h30\nLe Vendredi : de 08h30 à 12h00 de 15h00 à 17h00\nLe Samedi : de 09h00 à 12h00","latitude":48.6603,"longitude":2.24212,"website":"https://nozay91.fr/","hasWebsite":true,"hasHoraires":true,"url":"https://lannuaire.service-public.gouv.fr/ile-de-france/essonne/68e11b0e-c7b8-402e-871d-b9d14bde4ea4"}
{"nom":"Ollainville","nomNormalise":"ollainville","typeCollectivite":"Commune","region":"Île-de-France","departement":"Essonne","departementCode":"91","adresse":{"street":"2 rue de la Mairie","postalCode":"91340","city":"Ollainville","country":"France"},"contacts":{"email":"accueil@mairie-ollainville91.fr","telephone":"0169261919"},"horaires":"Le Lundi : de 08h30 à 12h00 de 13h00 à 17h00\nLe Mardi : de 08h30 à 12h00 de 16h00 à 20h00\nLe Mercredi : de 08h30 à 12h00\nDu Jeudi au Vendredi : de 08h30 à 12h00 de 13h00 à 17h00\nLe Samedi : de 08h30 à 12h00\n\nPour connaître les samedis ouverts, consulter le site internet de la ville.","latitude":48.5913,"longitude":2.21663,"website":"https://www.mairie-ollainville91.fr/","hasWebsite":true,"hasHoraires":true,"url":"https://lannuaire.service-public.gouv.fr/ile-de-france/essonne/478e0950-4a7b-4800-9f96-4f57bf9ad4c7"}
{"nom":"Oncy-sur-École","nomNormalise":"oncysurecole","typeCollectivite":"Commune","region":"Île-de-France","departement":"Essonne","departementCode":"91","adresse":{"street":"Grande rue","postalCode":"91490","city":"Oncy-sur-École","country":"France"},"contacts":{"email":"mairie@oncy-sur-ecole.fr","telephone":"0164988140"},"horaires":"Le Lundi : de 14h00 à 17h30\nLe Mardi : de 14h00 à 19h30\nLe Jeudi : de 14h00 à 17h30\nLe Vendredi : de 14h00 à 19h30","latitude":48.3825,"longitude":2.47298,"website":"https://www.oncy-sur-ecole.fr/","hasWebsite":true,"hasHoraires":true,"url":"https://lannuaire.service-public.gouv.fr/ile-de-france/essonne/c379766e-600c-4e47-991c-803b7e2e0bf9"}
{"nom":"Ormoy","nomNormalise":"ormoy","typeCollectivite":"Commune","region":"Île-de-France","departement":"Essonne","departementCode":"91","adresse":{"street":"Place Raymond-Gombault","postalCode":"91540","city":"Ormoy","country":"France"},"contacts":{"email":"mairie@ormoy.fr","telephone":"0169907500"},"horaires":"Du Lundi au Mardi : de 08h30 à 12h00 de 14h00 à 17h30\nLe Mercredi : de 09h00 à 12h00\nDu Jeudi au Vendredi : de 08h30 à 12h00 de 14h00 à 17h30\nLe Samedi : de 09h00 à 12h00\n\nAccueil fermé durant les vacances scolaires.","latitude":48.5764,"longitude":2.447247,"website":"http://www.ormoy.fr/","hasWebsite":true,"hasHoraires":true,"url":"https://lannuaire.service-public.gouv.fr/ile-de-france/essonne/f8c60cdc-29f2-4d06-a742-1e8f90a2c59d"}
{"nom":"Ormoy-la-Rivière","nomNormalise":"ormoylariviere","typeCollectivite":"Commune","region":"Île-de-France","departement":"Essonne","departementCode":"91","adresse":{"street":"41 Grand'rue","postalCode":"91150","city":"Ormoy-la-Rivière","country":"France"},"contacts":{"email":"mairieormoylariviere@orange.fr","telephone":"0164942106"},"horaires":"Du Mardi au Samedi : de 09h00 à 12h00","latitude":48.40436,"longitude":2.149708,"website":"https://www.ormoy-la-riviere.fr/","hasWebsite":true,"hasHoraires":true,"url":"https://lannuaire.service-public.gouv.fr/ile-de-france/essonne/38a3d635-838a-4c49-b049-5393c6984d96"}
{"nom":"Orsay","nomNormalise":"orsay","typeCollectivite":"Commune","region":"Île-de-France","departement":"Essonne","departementCode":"91","adresse":{"street":"2 place du Général-Leclerc","postalCode":"91400","city":"Orsay Cedex","country":"France"},"contacts":{"email":"contact@mairie-orsay.fr","telephone":"0160928000"},"horaires":"Du Lundi au Mercredi : de 08h30 à 12h30 de 13h30 à 17h00\nLe Jeudi : de 13h00 à 17h00\nLe Vendredi : de 08h30 à 12h30 de 13h30 à 17h30\nLe Samedi : de 09h00 à 12h00\n\nAccueil ouvert uniquement pour les formalités administratives et le pôle famille.","latitude":48.69903,"longitude":2.187653,"website":"https://www.mairie-orsay.fr/","hasWebsite":true,"hasHoraires":true,"url":"https://lannuaire.service-public.gouv.fr/ile-de-france/essonne/5815c7d4-0f6c-455a-8cba-ede181cdc59e"}
{"nom":"Orveau","nomNormalise":"orveau","typeCollectivite":"Commune","region":"Île-de-France","departement":"Essonne","departementCode":"91","adresse":{"street":"4 Grand'Rue Guy-Gauthier","postalCode":"91590","city":"Orveau","country":"France"},"contacts":{"email":"mairie@orveau.fr","telephone":"0164576611"},"horaires":"Le Mardi : de 08h30 à 12h00 de 14h00 à 17h00\nDu Jeudi au Vendredi : de 08h30 à 12h00 de 14h00 à 17h00\nLe Samedi : de 08h30 à 12h00","latitude":48.4594,"longitude":2.32028,"website":"http://orveau.free.fr/","hasWebsite":true,"hasHoraires":true,"url":"https://lannuaire.service-public.gouv.fr/ile-de-france/essonne/fb61b9da-97c7-4991-a432-23cbf29ccd26"}
{"nom":"Palaiseau","nomNormalise":"palaiseau","typeCollectivite":"Commune","region":"Île-de-France","departement":"Essonne","departementCode":"91","adresse":{"street":"91 rue de Paris","postalCode":"91120","city":"Palaiseau","country":"France"},"contacts":{"email":"contact@mairie-palaiseau.fr","telephone":"0169319300"},"horaires":"Le Lundi : de 08h30 à 12h00 de 13h30 à 17h30\nLe Mardi : de 08h30 à 12h00 de 13h30 à 19h00\nLe Mercredi : de 08h30 à 12h00 de 13h30 à 17h30\nLe Jeudi : de 08h30 à 13h30\nLe Vendredi : de 08h30 à 17h30\nLe Samedi : de 09h00 à 12h30","latitude":48.714695,"longitude":2.245556,"website":"https://www.ville-palaiseau.fr/","hasWebsite":true,"hasHoraires":true,"url":"https://lannuaire.service-public.gouv.fr/ile-de-france/essonne/7bc99005-3c1e-4697-832f-ef0bb076b9a7"}
{"nom":"Paray-Vieille-Poste","nomNormalise":"parayvieilleposte","typeCollectivite":"Commune","region":"Île-de-France","departement":"Essonne","departementCode":"91","adresse":{"street":"Place Henri-Barbusse","postalCode":"91550","city":"Paray-Vieille-Poste","country":"France"},"contacts":{"email":"contactmairie@paray-vieille-poste.fr","telephone":"0169387983"},"horaires":"Le Lundi : de 08h30 à 12h30 de 13h30 à 17h30\nLe Mardi : de 08h30 à 12h30 de 13h30 à 18h00\nLe Mercredi : de 08h30 à 12h30 de 13h30 à 17h30\nLe Jeudi : de 13h30 à 18h00\nLe Vendredi : de 08h30 à 12h30 de 13h30 à 17h30\nLe Samedi : de 09h00 à 12h00\n\nAccueil fermé pendant les vacances scolaires.","latitude":48.7131,"longitude":2.363,"website":"https://www.paray-vieille-poste.fr/","hasWebsite":true,"hasHoraires":true,"url":"https://lannuaire.service-public.gouv.fr/ile-de-france/essonne/40449c27-2343-4a87-b704-99df54d773e4"}
{"nom":"Pecqueuse","nomNormalise":"pecqueuse","typeCollectivite":"Commune","region":"Île-de-France","departement":"Essonne","departementCode":"91","adresse":{"street":"12 Grande-Rue","postalCode":"91470","city":"Pecqueuse","country":"France"},"contacts":{"email":"secretariat@pecqueuse.fr","telephone":"0186043478"},"horaires":"Du Lundi au Mardi : de 09h00 à 12h00 de 14h00 à 18h00\nDu Jeudi au Vendredi : de 09h00 à 12h00 de 14h00 à 18h00","latitude":48.64665,"longitude":2.048052,"website":"https://mairie-pecqueuse.fr/","hasWebsite":true,"hasHoraires":true,"url":"https://lannuaire.service-public.gouv.fr/ile-de-france/essonne/c698eb1c-c39c-4493-b840-cde99f49e307"}
{"nom":"Plessis-Saint-Benoist","nomNormalise":"plessissaintbenoist","typeCollectivite":"Commune","region":"Île-de-France","departement":"Essonne","departementCode":"91","adresse":{"street":"Rue du Petit-Plessis","postalCode":"91410","city":"Plessis-Saint-Benoist","country":"France"},"contacts":{"email":"mairie.plessis-saint-benoit@wanadoo.fr","telephone":"0164955126"},"horaires":"Le Lundi : de 14h00 à 16h00\nLe Mardi : de 14h00 à 18h00\nDu Jeudi au Vendredi : de 14h00 à 17h00","latitude":48.443153,"longitude":2.005403,"website":"","hasWebsite":false,"hasHoraires":true,"url":"https://lannuaire.service-public.gouv.fr/ile-de-france/essonne/d9717865-79c3-43e6-8416-31289b0e8f90"}
{"nom":"Prunay-sur-Essonne","nomNormalise":"prunaysuressonne","typeCollectivite":"Commune","region":"Île-de-France","departement":"Essonne","departementCode":"91","adresse":{"street":"1 rue Georges-Bercher","postalCode":"91720","city":"Prunay-sur-Essonne","country":"France"},"contacts":{"email":"prunaysuressonne@orange.fr","telephone":"0164995217"},"horaires":"","latitude":48.356987,"longitude":2.377812,"website":"http://www.prunaysuressonne.fr/","hasWebsite":true,"hasHoraires":false,"url":"https://lannuaire.service-public.gouv.fr/ile-de-france/essonne/f2d1cc17-ba2c-43cf-97af-b6c87e817ac4"}
{"nom":"Puiselet-le-Marais","nomNormalise":"puiseletlemarais","typeCollectivite":"Commune","region":"Île-de-France","departement":"Essonne","departementCode":"91","adresse":{"street":"43 rue de la Grande-Vallée","postalCode":"91150","city":"Puiselet-le-Marais","country":"France"},"contacts":{"email":"mairie-puiselet-le-marais@wanadoo.fr","telephone":"0164958108"},"horaires":"Le Mercredi : de 10h00 à 12h00\nLe Samedi : de 10h00 à 12h00","latitude":48.406315,"longitude":2.2640188,"website":"","hasWebsite":false,"hasHoraires":true,"url":"https://lannuaire.service-public.gouv.fr/ile-de-france/essonne/5d0a1961-d8f0-4c7a-ad19-a50fafef08ba"}
{"nom":"Pussay","nomNormalise":"pussay","typeCollectivite":"Commune","region":"Île-de-France","departement":"Essonne","departementCode":"91","adresse":{"street":"Place du Jeu-de-Paume","postalCode":"91740","city":"Pussay","country":"France"},"contacts":{"email":"pussay.mairie@wanadoo.fr","telephone":"0164952338"},"horaires":"Du Lundi au Vendredi : de 08h30 à 12h00 de 13h30 à 17h00\nLe Samedi : de 08h30 à 12h00","latitude":48.3496,"longitude":1.99452,"website":"https://www.mairiepussay.fr/","hasWebsite":true,"hasHoraires":true,"url":"https://lannuaire.service-public.gouv.fr/ile-de-france/essonne/f4fe7a80-eeae-4b90-982d-febc4d628d73"}
{"nom":"Quincy-sous-Sénart","nomNormalise":"quincysoussenart","typeCollectivite":"Commune","region":"Île-de-France","departement":"Essonne","departementCode":"91","adresse":{"street":"5 rue Combs-la-Ville","postalCode":"91480","city":"Quincy-sous-Sénart","country":"France"},"contacts":{"email":"mairie@mairie-quincy-sous-senart.fr","telephone":"0169001414"},"horaires":"Du Lundi au Mercredi : de 08h45 à 12h30 de 13h30 à 17h00\nLe Jeudi : de 08h45 à 12h30 de 13h30 à 18h00\nLe Vendredi : de 08h45 à 12h30 de 13h30 à 17h00\nLe Samedi : de 08h45 à 12h30\n\nAccueil ouvert uniquement pour l'état civil et la régie.","latitude":48.6711,"longitude":2.54044,"website":"http://www.mairie-quincy-sous-senart.fr/","hasWebsite":true,"hasHoraires":true,"url":"https://lannuaire.service-public.gouv.fr/ile-de-france/essonne/116d2aab-a999-459b-8519-a49c4588d9e4"}
{"nom":"Richarville","nomNormalise":"richarville","typeCollectivite":"Commune","region":"Île-de-France","departement":"Essonne","departementCode":"91","adresse":{"street":"9 rue du Plessis","postalCode":"91410","city":"Richarville","country":"France"},"contacts":{"email":"mairie-richarville@orange.fr","telephone":"0164957067"},"horaires":"Du Lundi au Mercredi : de 10h00 à 11h00\nLe Jeudi : de 16h00 à 17h30\nLe Vendredi : de 14h30 à 16h00","latitude":48.473377,"longitude":1.9995117,"website":"http://www.richarville.fr/","hasWebsite":true,"hasHoraires":true,"url":"https://lannuaire.service-public.gouv.fr/ile-de-france/essonne/3098b27f-4838-4a00-a173-0edf8e9087d8"}
{"nom":"Ris-Orangis","nomNormalise":"risorangis","typeCollectivite":"Commune","region":"Île-de-France","departement":"Essonne","departementCode":"91","adresse":{"street":"Place du Général-de-Gaulle","postalCode":"91130","city":"Ris-Orangis","country":"France"},"contacts":{"email":"contact@ville-ris-orangis.fr","telephone":"0169025252"},"horaires":"Le Lundi : de 08h30 à 12h30 de 13h30 à 17h30\nLe Mardi : de 08h30 à 12h30 de 13h30 à 19h00\n\nFermeture à 17h30 pendant les vacances scolaires.\nLe Mercredi : de 08h30 à 12h30 de 13h30 à 17h30\nLe Jeudi : de 08h30 à 12h30\nLe Vendredi : de 08h30 à 12h30 de 13h30 à 17h30\nLe Samedi : de 09h00 à 12h00","latitude":48.65363,"longitude":2.415888,"website":"https://www.mairie-ris-orangis.fr/","hasWebsite":true,"hasHoraires":true,"url":"https://lannuaire.service-public.gouv.fr/ile-de-france/essonne/91ac4cfe-5bb2-4ef0-a365-a09b3bfb5e26"}
{"nom":"Roinville","nomNormalise":"roinville","typeCollectivite":"Commune","region":"Île-de-France","departement":"Essonne","departementCode":"91","adresse":{"street":"2 rue du Général-de-Gaulle","postalCode":"91410","city":"Roinville","country":"France"},"contacts":{"email":"contact@mairie-roinville.fr","telephone":"0164597282"},"horaires":"Du Lundi au Vendredi : de 08h30 à 12h00 de 14h00 à 17h00\nLe Samedi : de 08h30 à 12h00\n\nfermé pendant les vacances scolaires","latitude":48.531174,"longitude":2.0460057,"website":"http://www.mairie-roinville.fr/","hasWebsite":true,"hasHoraires":true,"url":"https://lannuaire.service-public.gouv.fr/ile-de-france/essonne/55ded389-4855-41f3-8df8-62fe7010267a"}
{"nom":"Roinvilliers","nomNormalise":"roinvilliers","typeCollectivite":"Commune","region":"Île-de-France","departement":"Essonne","departementCode":"91","adresse":{"street":"12 Grande rue","postalCode":"91150","city":"Roinvilliers","country":"France"},"contacts":{"email":"communederoinvilliers@wanadoo.fr","telephone":"0169954295"},"horaires":"Le Mardi : de 16h00 à 19h00","latitude":48.384,"longitude":2.23002,"website":"","hasWebsite":false,"hasHoraires":true,"url":"https://lannuaire.service-public.gouv.fr/ile-de-france/essonne/d251981f-409c-4ef7-bab0-92840175f5ca"}
{"nom":"Saclas","nomNormalise":"saclas","typeCollectivite":"Commune","region":"Île-de-France","departement":"Essonne","departementCode":"91","adresse":{"street":"19 rue de la Mairie","postalCode":"91690","city":"Saclas","country":"France"},"contacts":{"email":"contact@mairie-saclas.fr","telephone":"0169588800"},"horaires":"Le Lundi : de 08h00 à 12h00 de 13h30 à 17h00\nLe Mardi : de 08h00 à 12h00\nLe Mercredi : de 08h00 à 12h00 de 13h30 à 17h00\nLe Jeudi : de 08h00 à 12h00\nLe Vendredi : de 08h00 à 12h00 de 13h30 à 16h00\nLe Samedi : de 08h00 à 12h00","latitude":48.3606,"longitude":2.1254,"website":"http://www.mairie-saclas.fr/","hasWebsite":true,"hasHoraires":true,"url":"https://lannuaire.service-public.gouv.fr/ile-de-france/essonne/bb7502e9-0339-4223-87d3-3f7b8b33d7da"}
{"nom":"Saclay","nomNormalise":"saclay","typeCollectivite":"Commune","region":"Île-de-France","departement":"Essonne","departementCode":"91","adresse":{"street":"12 place de la Mairie","postalCode":"91400","city":"Saclay","country":"France"},"contacts":{"email":"maire@saclay.fr","telephone":"0169410283"},"horaires":"Le Lundi : de 13h30 à 17h30\nDu Mardi au Mercredi : de 09h00 à 12h00 de 13h30 à 17h30\nLe Jeudi : de 13h30 à 19h00\nLe Vendredi : de 09h00 à 12h00 de 13h30 à 17h00\nLe Samedi : de 09h00 à 12h30","latitude":48.7311,"longitude":2.17242,"website":"http://www.saclay.fr/","hasWebsite":true,"hasHoraires":true,"url":"https://lannuaire.service-public.gouv.fr/ile-de-france/essonne/973a90e3-6dba-413c-a54c-3f9b9803172a"}
{"nom":"Saint-Aubin","nomNormalise":"saintaubin","typeCollectivite":"Commune","region":"Île-de-France","departement":"Essonne","departementCode":"91","adresse":{"street":"Place de la Mairie","postalCode":"91190","city":"Saint-Aubin","country":"France"},"contacts":{"email":"mairie@saint-aubin.fr","telephone":"0169410915"},"horaires":"Du Mardi au Mercredi : de 14h00 à 17h00\nLe Vendredi : de 09h00 à 12h00 de 14h00 à 17h00\nLe Samedi : de 09h00 à 12h00","latitude":48.71539,"longitude":2.140102,"website":"https://saint-aubin.fr/","hasWebsite":true,"hasHoraires":true,"url":"https://lannuaire.service-public.gouv.fr/ile-de-france/essonne/a2e1d3f1-c42d-4ad0-90d8-9b1c3283b963"}
{"nom":"Saint-Chéron","nomNormalise":"saintcheron","typeCollectivite":"Commune","region":"Île-de-France","departement":"Essonne","departementCode":"91","adresse":{"street":"Parc des Tourelles","postalCode":"91530","city":"Saint-Chéron","country":"France"},"contacts":{"email":"contact@saint-cheron.fr","telephone":"0169141300"},"horaires":"Le Lundi : de 08h30 à 12h00 de 13h30 à 16h45\nLe Mardi : de 08h30 à 12h00 de 13h30 à 18h30\nLe Mercredi : de 08h30 à 12h00 de 13h30 à 16h45\nLe Jeudi : de 08h30 à 12h00\nLe Vendredi : de 08h30 à 12h00 de 13h30 à 16h45\nLe Samedi : de 09h00 à 12h00","latitude":48.55441,"longitude":2.123433,"website":"https://saint-cheron.fr/","hasWebsite":true,"hasHoraires":true,"url":"https://lannuaire.service-public.gouv.fr/ile-de-france/essonne/0980f9e8-38fb-4c12-b8cb-b65c957911d8"}
{"nom":"Saint-Cyr-la-Rivière","nomNormalise":"saintcyrlariviere","typeCollectivite":"Commune","region":"Île-de-France","departement":"Essonne","departementCode":"91","adresse":{"street":"Rue du Château","postalCode":"91690","city":"Saint-Cyr-la-Rivière","country":"France"},"contacts":{"email":"mairie.saint-cyr-la-riviere@wanadoo.fr","telephone":"0164956063"},"horaires":"","latitude":48.355034,"longitude":2.1499798,"website":"http://www.mairie-saintcyrlariviere.fr/","hasWebsite":true,"hasHoraires":false,"url":"https://lannuaire.service-public.gouv.fr/ile-de-france/essonne/09fbf855-5287-4636-ad08-5f3c8c1e390c"}
{"nom":"Saint-Cyr-sous-Dourdan","nomNormalise":"saintcyrsousdourdan","typeCollectivite":"Commune","region":"Île-de-France","departement":"Essonne","departementCode":"91","adresse":{"street":"1 route de Paris","postalCode":"91410","city":"Saint-Cyr-sous-Dourdan","country":"France"},"contacts":{"email":"mairie@saint-cyr-sous-dourdan.fr","telephone":"0164590129"},"horaires":"Du Lundi au Samedi : de 09h00 à 12h00","latitude":48.566,"longitude":2.0298,"website":"http://www.saint-cyr-sous-dourdan.fr/","hasWebsite":true,"hasHoraires":true,"url":"https://lannuaire.service-public.gouv.fr/ile-de-france/essonne/896f5424-5f5f-4155-b936-de66dcf4f1fb"}
{"nom":"Sainte-Geneviève-des-Bois","nomNormalise":"saintegenevievedesbois","typeCollectivite":"Commune","region":"Île-de-France","departement":"Essonne","departementCode":"91","adresse":{"street":"Place Roger-Perriaud","postalCode":"91700","city":"Sainte-Geneviève-des-Bois","country":"France"},"contacts":{"email":"le-maire@sgdb91.com","telephone":"0169468000"},"horaires":"Du Lundi au Mardi : de 08h45 à 12h30 de 13h30 à 18h00\nLe Mercredi : de 09h00 à 12h30\nLe Jeudi : de 08h45 à 12h30 de 14h30 à 19h00\nLe Vendredi : de 08h45 à 12h30 de 13h30 à 18h00\nLe Samedi : de 09h00 à 12h30\n\nAccueil ouvert uniquement pour le service de l'état civil en mairie annexe.","latitude":48.640884,"longitude":2.325941,"website":"https://www.sgdb91.com/","hasWebsite":true,"hasHoraires":true,"url":"https://lannuaire.service-public.gouv.fr/ile-de-france/essonne/7b411403-cdeb-4c93-b1c4-68d2ae67fb02"}
{"nom":"Saint-Escobille","nomNormalise":"saintescobille","typeCollectivite":"Commune","region":"Île-de-France","departement":"Essonne","departementCode":"91","adresse":{"street":"2 rue du Château","postalCode":"91410","city":"Saint-Escobille","country":"France"},"contacts":{"email":"mairieescobille@wanadoo.fr","telephone":"0164955262"},"horaires":"Le Lundi : de 08h30 à 12h00\nLe Mardi : de 13h30 à 17h00\nLe Jeudi : de 13h30 à 18h00\nLe Vendredi : de 08h30 à 12h00\nLe Samedi : de 09h00 à 12h00","latitude":48.4297,"longitude":1.96724,"website":"http://www.saintescobille.fr/","hasWebsite":true,"hasHoraires":true,"url":"https://lannuaire.service-public.gouv.fr/ile-de-france/essonne/a70cb341-1904-4c74-9752-d86d4b46d123"}
{"nom":"Saint-Germain-lès-Arpajon","nomNormalise":"saintgermainlesarpajon","typeCollectivite":"Commune","region":"Île-de-France","departement":"Essonne","departementCode":"91","adresse":{"street":"3 rue René-Dècle","postalCode":"91180","city":"Saint-Germain-lès-Arpajon","country":"France"},"contacts":{"email":"","telephone":"0169262620"},"horaires":"Le Lundi : de 08h30 à 12h00 de 13h30 à 17h00\nLe Mardi : de 08h30 à 12h00 de 13h30 à 19h00\nLe Mercredi : de 08h30 à 12h00 de 13h30 à 17h00\nLe Jeudi : de 08h30 à 12h00\nLe Vendredi : de 08h30 à 12h00 de 13h30 à 17h00\nLe Samedi : de 09h00 à 12h00","latitude":48.595,"longitude":2.25876,"website":"https://ville-sgla.fr/","hasWebsite":true,"hasHoraires":true,"url":"https://lannuaire.service-public.gouv.fr/ile-de-france/essonne/03feb7c1-0466-4f72-9ae1-2e4c14de2c9b"}
{"nom":"Saint-Germain-lès-Corbeil","nomNormalise":"saintgermainlescorbeil","typeCollectivite":"Commune","region":"Île-de-France","departement":"Essonne","departementCode":"91","adresse":{"street":"2 route de Lieusaint","postalCode":"91250","city":"Saint-Germain-lès-Corbeil","country":"France"},"contacts":{"email":"contact@sglc.fr","telephone":"0169897070"},"horaires":"Du Lundi au Mardi : de 08h30 à 12h15 de 13h30 à 17h30\nLe Mercredi : de 08h30 à 12h00 de 13h30 à 17h00\nDu Jeudi au Vendredi : de 08h30 à 12h15 de 13h30 à 17h30\nLe Samedi : de 08h30 à 12h00","latitude":48.62051,"longitude":2.487888,"website":"https://www.saint-germain-les-corbeil.org/","hasWebsite":true,"hasHoraires":true,"url":"https://lannuaire.service-public.gouv.fr/ile-de-france/essonne/c7b87e8f-fc5d-4f23-a9c4-de1cc14a69d2"}
{"nom":"Saint-Hilaire","nomNormalise":"sainthilaire","typeCollectivite":"Commune","region":"Île-de-France","departement":"Essonne","departementCode":"91","adresse":{"street":"1 allée des Tilleuls","postalCode":"91780","city":"Saint-Hilaire","country":"France"},"contacts":{"email":"mairie@saint-hilaire.org","telephone":"0164954085"},"horaires":"Le Lundi : de 16h00 à 19h00\nLe Mardi : de 08h30 à 12h00 de 13h30 à 17h30\nLe Jeudi : de 08h30 à 12h00 de 13h30 à 17h30\nLe Vendredi : de 16h00 à 19h30","latitude":48.4338,"longitude":2.07684,"website":"https://saint-hilaire.org/","hasWebsite":true,"hasHoraires":true,"url":"https://lannuaire.service-public.gouv.fr/ile-de-france/essonne/faacb354-7fa7-4df8-9cce-95946f8d1f1b"}
{"nom":"Saint-Jean-de-Beauregard","nomNormalise":"saintjeandebeauregard","typeCollectivite":"Commune","region":"Île-de-France","departement":"Essonne","departementCode":"91","adresse":{"street":"49 Grand'rue","postalCode":"91940","city":"Saint-Jean-de-Beauregard","country":"France"},"contacts":{"email":"secretariat@stjean91.fr","telephone":"0160120004"},"horaires":"Du Lundi au Mardi : de 14h00 à 18h00\nLe Mercredi : de 14h30 à 18h00\nLe Jeudi : de 14h00 à 19h00","latitude":48.66687,"longitude":2.166944,"website":"http://www.mairie-saintjeandebeauregard.fr/","hasWebsite":true,"hasHoraires":true,"url":"https://lannuaire.service-public.gouv.fr/ile-de-france/essonne/88e9e99f-828b-49a3-b41a-8516b09f6bcf"}
{"nom":"Saint-Maurice-Montcouronne","nomNormalise":"saintmauricemontcouronne","typeCollectivite":"Commune","region":"Île-de-France","departement":"Essonne","departementCode":"91","adresse":{"street":"5 rue de Bourguignette","postalCode":"91530","city":"Saint-Maurice-Montcouronne","country":"France"},"contacts":{"email":"","telephone":"0164589155"},"horaires":"Le Lundi : de 15h00 à 17h30\nLe Mardi : de 08h00 à 19h00\nLe Mercredi : de 08h30 à 17h30\nLe Jeudi : de 15h00 à 17h30\nLe Vendredi : de 15h00 à 17h00\nLe Samedi : de 09h00 à 12h00\n\nAccueil ouvert les 1er et 3e samedi de chaque mois.","latitude":48.580982,"longitude":2.123742,"website":"https://www.mairie-saint-maurice-montcouronne.fr/fr/","hasWebsite":true,"hasHoraires":true,"url":"https://lannuaire.service-public.gouv.fr/ile-de-france/essonne/a0bb63be-16e1-40ce-b848-b40464524a31"}
{"nom":"Saint-Michel-sur-Orge","nomNormalise":"saintmichelsurorge","typeCollectivite":"Commune","region":"Île-de-France","departement":"Essonne","departementCode":"91","adresse":{"street":"16 rue de l'Église","postalCode":"91240","city":"Saint-Michel-sur-Orge","country":"France"},"contacts":{"email":"mairie@saintmichel91.fr","telephone":"0169802929"},"horaires":"Le Lundi : de 13h00 à 17h30\n\n19h pour l'état-civil, fermeture 17h30 en période de vacances scolaires.\nDu Mardi au Vendredi : de 08h30 à 12h00 de 13h30 à 17h30\n\nOuverture à 9h en juillet-août.\nLe Samedi : de 09h00 à 12h00\n\nétat civil, cartes d'identité et passeports, règlements scolaires.\n19h pour l'état-civil, fermeture 17h30 en période de vacances scolaires.","latitude":48.630234,"longitude":2.302906,"website":"https://www.saintmichelsurorge.fr/","hasWebsite":true,"hasHoraires":true,"url":"https://lannuaire.service-public.gouv.fr/ile-de-france/essonne/8c77c368-df34-4be1-b57d-4bf1ab6f1c10"}
{"nom":"Saint-Pierre-du-Perray","nomNormalise":"saintpierreduperray","typeCollectivite":"Commune","region":"Île-de-France","departement":"Essonne","departementCode":"91","adresse":{"street":"8 rue Vivaldi","postalCode":"91280","city":"Saint-Pierre-du-Perray","country":"France"},"contacts":{"email":"mairie@stpdp.com","telephone":"0169897500"},"horaires":"Le Lundi : de 13h30 à 17h00\nDu Mardi au Vendredi : de 08h30 à 12h00 de 13h30 à 17h00\nLe Samedi : de 08h30 à 12h00","latitude":48.613125,"longitude":2.5103495,"website":"https://www.saint-pierre-du-perray.fr/","hasWebsite":true,"hasHoraires":true,"url":"https://lannuaire.service-public.gouv.fr/ile-de-france/essonne/0c324b56-5590-4fc9-a64a-1647c7661e87"}
{"nom":"Saintry-sur-Seine","nomNormalise":"saintrysurseine","typeCollectivite":"Commune","region":"Île-de-France","departement":"Essonne","departementCode":"91","adresse":{"street":"57 Grande rue Charles-de-Gaulle","postalCode":"91250","city":"Saintry-sur-Seine","country":"France"},"contacts":{"email":"accueil@saintry.fr","telephone":"0169895252"},"horaires":"","latitude":48.59629,"longitude":2.492879,"website":"http://www.saintry-sur-seine.fr/","hasWebsite":true,"hasHoraires":false,"url":"https://lannuaire.service-public.gouv.fr/ile-de-france/essonne/e49a5c89-6536-49f3-8981-38c244d28535"}
{"nom":"Saint-Sulpice-de-Favières","nomNormalise":"saintsulpicedefavieres","typeCollectivite":"Commune","region":"Île-de-France","departement":"Essonne","departementCode":"91","adresse":{"street":"14 rue Aux-Fèves","postalCode":"91910","city":"Saint-Sulpice-de-Favières","country":"France"},"contacts":{"email":"mairie@saint-sulpice-de-favieres.fr","telephone":"0164584233"},"horaires":"Le Lundi : de 10h00 à 12h00\nLe Mardi : de 09h00 à 12h00 de 14h00 à 17h00\nLe Mercredi : de 09h00 à 12h00 de 14h00 à 16h00\nLe Jeudi : de 09h00 à 12h00 de 14h00 à 18h00\nLe Samedi : de 10h00 à 12h00","latitude":48.54119,"longitude":2.1776137,"website":"https://saint-sulpice-de-favieres.fr/","hasWebsite":true,"hasHoraires":true,"url":"https://lannuaire.service-public.gouv.fr/ile-de-france/essonne/5995c49f-e451-4209-8b7c-d82ae9e3a670"}
{"nom":"Saint-Vrain","nomNormalise":"saintvrain","typeCollectivite":"Commune","region":"Île-de-France","departement":"Essonne","departementCode":"91","adresse":{"street":"13 rue des Noblets","postalCode":"91770","city":"Saint-Vrain","country":"France"},"contacts":{"email":"accueil@mairiesaintvrain91.fr","telephone":"0164561363"},"horaires":"Du Lundi au Mardi : de 09h00 à 12h00 de 15h00 à 17h00\nLe Mercredi : de 09h00 à 12h00\nDu Jeudi au Vendredi : de 09h00 à 12h00 de 15h00 à 17h00\nLe Samedi : de 09h00 à 12h00\n\nAccueil ouvert les semaines paires uniquement.","latitude":48.541714,"longitude":2.334549,"website":"http://www.saint-vrain91.fr/","hasWebsite":true,"hasHoraires":true,"url":"https://lannuaire.service-public.gouv.fr/ile-de-france/essonne/f3a1f333-552e-4ce8-8973-9af9ef57abfe"}
{"nom":"Saint-Yon","nomNormalise":"saintyon","typeCollectivite":"Commune","region":"Île-de-France","departement":"Essonne","departementCode":"91","adresse":{"street":"Rue des Cosnardières","postalCode":"91650","city":"Saint-Yon","country":"France"},"contacts":{"email":"mairie@saint-yon.fr","telephone":"0164584054"},"horaires":"Le Mardi : de 09h00 à 12h00 de 13h00 à 17h00\nLe Jeudi : de 09h00 à 12h00 de 13h00 à 17h00\nLe Samedi : de 09h00 à 12h00","latitude":48.5611,"longitude":2.1848,"website":"http://www.saint-yon.fr/","hasWebsite":true,"hasHoraires":true,"url":"https://lannuaire.service-public.gouv.fr/ile-de-france/essonne/0d88f6df-11e5-43b3-ab8f-7d32670b3855"}
{"nom":"Saulx-les-Chartreux","nomNormalise":"saulxleschartreux","typeCollectivite":"Commune","region":"Île-de-France","departement":"Essonne","departementCode":"91","adresse":{"street":"62 rue de la Division-Leclerc","postalCode":"91160","city":"Saulx-les-Chartreux","country":"France"},"contacts":{"email":"accueil@saulx.org","telephone":"0169741120"},"horaires":"Du Lundi au Mardi : de 08h30 à 12h30 de 13h30 à 17h30\nLe Mercredi : de 09h00 à 12h00\nDu Jeudi au Vendredi : de 08h30 à 12h30 de 13h30 à 17h30","latitude":48.6883,"longitude":2.25912,"website":"https://www.saulxleschartreux.fr/","hasWebsite":true,"hasHoraires":true,"url":"https://lannuaire.service-public.gouv.fr/ile-de-france/essonne/4b822fce-6ea3-4b72-9460-6719a0fe0e8d"}
{"nom":"Savigny-sur-Orge","nomNormalise":"savignysurorge","typeCollectivite":"Commune","region":"Île-de-France","departement":"Essonne","departementCode":"91","adresse":{"street":"48 avenue Charles-de-Gaulle","postalCode":"91600","city":"Savigny-sur-Orge","country":"France"},"contacts":{"email":"contact@savigny.org","telephone":"0169544000"},"horaires":"Du Lundi au Mardi : de 08h30 à 12h00 de 13h00 à 17h30\nLe Mercredi : de 08h30 à 12h00\nLe Jeudi : de 09h30 à 19h00\nLe Vendredi : de 08h30 à 12h00 de 13h00 à 17h30\nLe Samedi : de 08h30 à 12h00","latitude":48.67919,"longitude":2.34565,"website":"https://www.savigny.org/","hasWebsite":true,"hasHoraires":true,"url":"https://lannuaire.service-public.gouv.fr/ile-de-france/essonne/4960bbf4-7c26-46f7-b22e-d20028933563"}
{"nom":"Sermaise","nomNormalise":"sermaise","typeCollectivite":"Commune","region":"Île-de-France","departement":"Essonne","departementCode":"91","adresse":{"street":"280 avenue Paul-Blot","postalCode":"91530","city":"Sermaise","country":"France"},"contacts":{"email":"contact@sermaise.fr","telephone":"0164598227"},"horaires":"Du Lundi au Mardi : de 09h00 à 12h00 de 14h00 à 18h00\nDu Jeudi au Vendredi : de 09h00 à 12h00 de 14h00 à 18h00\nLe Samedi : de 09h00 à 12h00\n\nAccueil ouvert uniquement les 1er samedis du mois.","latitude":48.537846,"longitude":2.080527,"website":"http://www.mairie-sermaise.com/","hasWebsite":true,"hasHoraires":true,"url":"https://lannuaire.service-public.gouv.fr/ile-de-france/essonne/85f27ec3-f8ea-4f04-81c1-7f686faee717"}
{"nom":"Soisy-sur-École","nomNormalise":"soisysurecole","typeCollectivite":"Commune","region":"Île-de-France","departement":"Essonne","departementCode":"91","adresse":{"street":"Place de la Mairie Ernest Loste","postalCode":"91840","city":"Soisy-sur-École","country":"France"},"contacts":{"email":"mairie@soisysurecole.fr","telephone":"0164980001"},"horaires":"Le Lundi : de 14h00 à 18h30\nLe Mardi : de 08h30 à 12h30\nLe Mercredi : de 09h00 à 12h00\nLe Jeudi : de 08h30 à 12h30\nLe Vendredi : de 08h30 à 12h30 de 14h00 à 17h00\nLe Samedi : de 09h00 à 12h00\n\nUniquement le 1er samedi du mois","latitude":48.474815,"longitude":2.4967139,"website":"https://soisysurecole.fr/fr/","hasWebsite":true,"hasHoraires":true,"url":"https://lannuaire.service-public.gouv.fr/ile-de-france/essonne/2e68435d-59de-4b59-bf6f-d09690168892"}
{"nom":"Soisy-sur-Seine","nomNormalise":"soisysurseine","typeCollectivite":"Commune","region":"Île-de-France","departement":"Essonne","departementCode":"91","adresse":{"street":"12 rue Notre Dame","postalCode":"91450","city":"Soisy-sur-Seine","country":"France"},"contacts":{"email":"accueil@soisysurseine.fr","telephone":"0169897171"},"horaires":"Du Lundi au Mercredi : de 09h00 à 12h30 de 13h30 à 17h30\nLe Jeudi : de 09h00 à 12h30\nLe Vendredi : de 09h00 à 12h30 de 13h30 à 16h30\nLe Samedi : de 09h00 à 12h00","latitude":48.64412,"longitude":2.45411,"website":"http://www.soisysurseine.fr/","hasWebsite":true,"hasHoraires":true,"url":"https://lannuaire.service-public.gouv.fr/ile-de-france/essonne/17628ba7-3ad0-48de-8bde-e0def65c535f"}
{"nom":"Souzy-la-Briche","nomNormalise":"souzylabriche","typeCollectivite":"Commune","region":"Île-de-France","departement":"Essonne","departementCode":"91","adresse":{"street":"4 chemin des Sources","postalCode":"91580","city":"Souzy-la-Briche","country":"France"},"contacts":{"email":"mairie@souzylabriche.fr","telephone":"0160803625"},"horaires":"Le Mardi : de 15h00 à 19h00\nDu Jeudi au Vendredi : de 10h00 à 12h00","latitude":48.53006,"longitude":2.148366,"website":"https://souzylabriche.fr/","hasWebsite":true,"hasHoraires":true,"url":"https://lannuaire.service-public.gouv.fr/ile-de-france/essonne/501254ad-1a99-40d4-b82d-b143a2bba1ce"}
{"nom":"Tigery","nomNormalise":"tigery","typeCollectivite":"Commune","region":"Île-de-France","departement":"Essonne","departementCode":"91","adresse":{"street":"2 place Liedekerke Beaufort","postalCode":"91250","city":"Tigery","country":"France"},"contacts":{"email":"mairie@tigery.fr","telephone":"0160751797"},"horaires":"Du Lundi au Mercredi : de 09h00 à 12h00 de 14h00 à 17h30\nLe Jeudi : de 14h00 à 17h30\nLe Vendredi : de 09h00 à 12h00 de 14h00 à 17h30\nLe Samedi : de 09h00 à 12h00","latitude":48.63945,"longitude":2.507095,"website":"https://www.tigery.fr/","hasWebsite":true,"hasHoraires":true,"url":"https://lannuaire.service-public.gouv.fr/ile-de-france/essonne/6e56922a-d989-4cc3-9d59-8bf31cefdab4"}
{"nom":"Torfou","nomNormalise":"torfou","typeCollectivite":"Commune","region":"Île-de-France","departement":"Essonne","departementCode":"91","adresse":{"street":"16 Grande-Mairie","postalCode":"91730","city":"Torfou","country":"France"},"contacts":{"email":"mairie.torfou@wanadoo.fr","telephone":"0160823940"},"horaires":"Le Jeudi : de 16h00 à 19h00","latitude":48.5134,"longitude":2.25798,"website":"https://www.torfou.com/mairie/","hasWebsite":true,"hasHoraires":true,"url":"https://lannuaire.service-public.gouv.fr/ile-de-france/essonne/2f7a134c-e26c-4278-8076-af20aed7a2fd"}
{"nom":"Valpuiseaux","nomNormalise":"valpuiseaux","typeCollectivite":"Commune","region":"Île-de-France","departement":"Essonne","departementCode":"91","adresse":{"street":"16 rue de la Mairie","postalCode":"91720","city":"Valpuiseaux","country":"France"},"contacts":{"email":"commune.valpuiseaux@wanadoo.fr","telephone":"0164958704"},"horaires":"Le Lundi : de 09h00 à 12h00\nLe Mardi : de 09h00 à 12h00 de 14h30 à 17h30\nLe Jeudi : de 09h00 à 12h00 de 14h30 à 17h30\nDu Vendredi au Samedi : de 09h00 à 12h00","latitude":48.392906,"longitude":2.306017,"website":"","hasWebsite":false,"hasHoraires":true,"url":"https://lannuaire.service-public.gouv.fr/ile-de-france/essonne/d790dd68-55d3-43f3-9384-92294d11a829"}
{"nom":"Varennes-Jarcy","nomNormalise":"varennesjarcy","typeCollectivite":"Commune","region":"Île-de-France","departement":"Essonne","departementCode":"91","adresse":{"street":"Place Aristide-Briand","postalCode":"91480","city":"Varennes-Jarcy","country":"France"},"contacts":{"email":"accueil@varennes-jarcy.fr","telephone":"0169001133"},"horaires":"Du Lundi au Mardi : de 09h00 à 12h30 de 14h00 à 17h00\nDu Mercredi au Jeudi : de 09h00 à 12h30\nLe Vendredi : de 09h00 à 12h30 de 14h00 à 17h00\nLe Samedi : de 09h00 à 12h30\n\nAccueil fermé durant les congés scolaires.","latitude":48.6784,"longitude":2.5599878,"website":"https://www.varennesjarcy.fr/","hasWebsite":true,"hasHoraires":true,"url":"https://lannuaire.service-public.gouv.fr/ile-de-france/essonne/2871e98c-34e7-4515-a5ac-802943df5cd2"}
{"nom":"Vaugrigneuse","nomNormalise":"vaugrigneuse","typeCollectivite":"Commune","region":"Île-de-France","departement":"Essonne","departementCode":"91","adresse":{"street":"1 rue Héroard","postalCode":"91640","city":"Vaugrigneuse","country":"France"},"contacts":{"email":"contact@ville-vaugrigneuse.fr","telephone":"0164589059"},"horaires":"Le Mardi : de 14h00 à 18h00\nLe Jeudi : de 14h00 à 18h00\nLe Samedi : de 10h00 à 12h00\n\nle 2 eme et le 4 éme du mois","latitude":48.602577,"longitude":2.1211176,"website":"http://www.ville-vaugrigneuse.fr/","hasWebsite":true,"hasHoraires":true,"url":"https://lannuaire.service-public.gouv.fr/ile-de-france/essonne/7e397751-df5c-4261-8ac3-09588f31d8d8"}
{"nom":"Vauhallan","nomNormalise":"vauhallan","typeCollectivite":"Commune","region":"Île-de-France","departement":"Essonne","departementCode":"91","adresse":{"street":"10 Grande rue du 8-Mai-1945","postalCode":"91430","city":"Vauhallan","country":"France"},"contacts":{"email":"mairie@vauhallan.fr","telephone":"0169355300"},"horaires":"Le Lundi : de 08h30 à 12h00\nLe Mardi : de 08h30 à 12h00 de 13h30 à 18h30\nLe Mercredi : de 08h30 à 12h30\nLe Jeudi : de 08h30 à 12h00 de 13h30 à 17h30\nLe Vendredi : de 08h30 à 12h00\nLe Samedi : de 09h00 à 12h00\n\nAccueil ouvert les 1er et 3e samedi du mois sauf exception, fermé en août.","latitude":48.734196,"longitude":2.207337,"website":"https://www.vauhallan.fr/","hasWebsite":true,"hasHoraires":true,"url":"https://lannuaire.service-public.gouv.fr/ile-de-france/essonne/30ba92dc-4552-4e37-a025-54b8727547f0"}
{"nom":"Vayres-sur-Essonne","nomNormalise":"vayressuressonne","typeCollectivite":"Commune","region":"Île-de-France","departement":"Essonne","departementCode":"91","adresse":{"street":"Chemin d'Orveau","postalCode":"91820","city":"Vayres-sur-Essonne","country":"France"},"contacts":{"email":"accueil@mairie-vayres-essonne.fr","telephone":"0164579019"},"horaires":"Du Lundi au Mardi : de 10h30 à 11h45 de 16h30 à 17h45\nLe Mercredi : de 10h30 à 11h45\nDu Jeudi au Vendredi : de 10h30 à 11h45 de 16h30 à 17h45\nLe Samedi : de 09h00 à 11h45","latitude":48.4381,"longitude":2.35144,"website":"https://www.mairie-vayres-essonne.fr/","hasWebsite":true,"hasHoraires":true,"url":"https://lannuaire.service-public.gouv.fr/ile-de-france/essonne/92f18a80-7b49-4b98-8415-07f40543b820"}
{"nom":"Verrières-le-Buisson","nomNormalise":"verriereslebuisson","typeCollectivite":"Commune","region":"Île-de-France","departement":"Essonne","departementCode":"91","adresse":{"street":"Place Charles-de-Gaulle","postalCode":"91370","city":"Verrières-le-Buisson","country":"France"},"contacts":{"email":"","telephone":"0169537800"},"horaires":"Du Lundi au Mercredi : de 08h30 à 12h00 de 13h30 à 18h00\nLe Samedi : de 08h30 à 12h00","latitude":48.7465,"longitude":2.26695,"website":"https://www.verrieres-le-buisson.fr/","hasWebsite":true,"hasHoraires":true,"url":"https://lannuaire.service-public.gouv.fr/ile-de-france/essonne/0f9867d1-ef2b-4d93-b36a-5ff863433584"}
{"nom":"Vert-le-Grand","nomNormalise":"vertlegrand","typeCollectivite":"Commune","region":"Île-de-France","departement":"Essonne","departementCode":"91","adresse":{"street":"7 place de la Mairie","postalCode":"91810","city":"Vert-le-Grand","country":"France"},"contacts":{"email":"mairie@vertlegrand.fr","telephone":"0164560272"},"horaires":"Le Lundi : de 08h30 à 12h00 de 13h30 à 17h30\nLe Jeudi : de 08h30 à 12h00 de 13h30 à 19h00\nLe Vendredi : de 08h30 à 12h00 de 13h30 à 17h30\nLe Samedi : de 08h30 à 12h00","latitude":48.57323,"longitude":2.3585534,"website":"https://www.vertlegrand.com/","hasWebsite":true,"hasHoraires":true,"url":"https://lannuaire.service-public.gouv.fr/ile-de-france/essonne/e4b3f6ff-bdab-4aec-b550-3d58365b8af0"}
{"nom":"Vert-le-Petit","nomNormalise":"vertlepetit","typeCollectivite":"Commune","region":"Île-de-France","departement":"Essonne","departementCode":"91","adresse":{"street":"4 rue du Général-Leclerc","postalCode":"91710","city":"Vert-le-Petit","country":"France"},"contacts":{"email":"mairie@vertlepetit.fr","telephone":"0164932402"},"horaires":"Le Lundi : de 08h30 à 12h30 de 13h30 à 17h30\nLe Mardi : de 08h30 à 12h30 de 16h00 à 18h00\nLe Mercredi : de 08h30 à 12h30\nDu Jeudi au Vendredi : de 08h30 à 12h30 de 13h30 à 17h30\nLe Samedi : de 10h00 à 12h00\n\nAccueil ouvert uniquement pour la permanence.","latitude":48.550774,"longitude":2.366356,"website":"https://vertlepetit.fr/","hasWebsite":true,"hasHoraires":true,"url":"https://lannuaire.service-public.gouv.fr/ile-de-france/essonne/0ec04a61-728b-490b-bf66-2a3107e0a4d4"}
{"nom":"Videlles","nomNormalise":"videlles","typeCollectivite":"Commune","region":"Île-de-France","departement":"Essonne","departementCode":"91","adresse":{"street":"1 rue de la Croix-Boissée","postalCode":"91890","city":"Videlles","country":"France"},"contacts":{"email":"mairie.videlles@wanadoo.fr","telephone":"0164983209"},"horaires":"Du Lundi au Mercredi : de 08h30 à 12h00\nLe Jeudi : de 08h30 à 12h00 de 14h00 à 19h00\nLe Vendredi : de 08h30 à 12h00\nLe Samedi : de 10h30 à 11h30\n\nPermanence d'un élu également.","latitude":48.4662,"longitude":2.43089,"website":"http://www.videlles.fr/","hasWebsite":true,"hasHoraires":true,"url":"https://lannuaire.service-public.gouv.fr/ile-de-france/essonne/92eda53a-007a-4092-a7bc-ddff05981346"}
{"nom":"Vigneux-sur-Seine","nomNormalise":"vigneuxsurseine","typeCollectivite":"Commune","region":"Île-de-France","departement":"Essonne","departementCode":"91","adresse":{"street":"75 rue Pierre-Marin","postalCode":"91270","city":"Vigneux-sur-Seine","country":"France"},"contacts":{"email":"monsieurlemaire@vigneux91.fr","telephone":"0169835600"},"horaires":"Du Lundi au Mardi : de 08h30 à 12h00 de 13h30 à 17h00\nLe Mercredi : de 08h30 à 12h00 de 13h30 à 18h00\n\nAccueil ouvert de 17h à 18h uniquement pour l'état civil.\nLe Jeudi : de 08h30 à 12h00\n\nAccueil fermé pendant les vacances scolaires.\nLe Vendredi : de 08h30 à 12h00 de 13h30 à 17h00\nLe Samedi : de 08h30 à 12h00\n\nAccueil ouvert uniquement pour l'état civil et les affaires scolaires.","latitude":48.699844,"longitude":2.416904,"website":"https://www.vigneux91.fr/","hasWebsite":true,"hasHoraires":true,"url":"https://lannuaire.service-public.gouv.fr/ile-de-france/essonne/5de2ad82-d8f3-4ad0-a246-0aba7a3efcb3"}
{"nom":"Villabé","nomNormalise":"villabe","typeCollectivite":"Commune","region":"Île-de-France","departement":"Essonne","departementCode":"91","adresse":{"street":"34 bis avenue du 8-Mai-1945","postalCode":"91100","city":"Villabé","country":"France"},"contacts":{"email":"contact@mairie-villabe.fr","telephone":"0169111975"},"horaires":"Du Lundi au Vendredi : de 08h30 à 12h00 de 13h30 à 17h30\nLe Samedi : de 09h30 à 12h00\n\nUniquement le 1er samedi du mois, fermé en juillet et août.","latitude":48.589054,"longitude":2.453701,"website":"https://www.villabe.fr/","hasWebsite":true,"hasHoraires":true,"url":"https://lannuaire.service-public.gouv.fr/ile-de-france/essonne/0adbac33-0aec-4d3f-a51c-fffb5b84917d"}
{"nom":"Villebon-sur-Yvette","nomNormalise":"villebonsuryvette","typeCollectivite":"Commune","region":"Île-de-France","departement":"Essonne","departementCode":"91","adresse":{"street":"Place Gérard-Nevers","postalCode":"91140","city":"Villebon-sur-Yvette","country":"France"},"contacts":{"email":"votremairie@villebon-sur-yvette.fr","telephone":"0169934900"},"horaires":"Le Lundi : de 13h30 à 17h00\nDu Mardi au Vendredi : de 08h30 à 12h00 de 13h30 à 17h00\nLe Samedi : de 08h30 à 12h00","latitude":48.7001,"longitude":2.22724,"website":"https://www.villebon-sur-yvette.fr/","hasWebsite":true,"hasHoraires":true,"url":"https://lannuaire.service-public.gouv.fr/ile-de-france/essonne/d642cfac-ee66-4aea-b168-23a8be2f9911"}
{"nom":"Villeconin","nomNormalise":"villeconin","typeCollectivite":"Commune","region":"Île-de-France","departement":"Essonne","departementCode":"91","adresse":{"street":"30 Grande-rue","postalCode":"91580","city":"Villeconin","country":"France"},"contacts":{"email":"mairie.villeconin@wanadoo.fr","telephone":"0160803608"},"horaires":"Le Lundi : de 09h00 à 12h00\nLe Mardi : de 14h00 à 17h00\nLe Jeudi : de 09h00 à 12h00\nLe Jeudi : de 14h00 à 17h00\nLe Samedi : de 10h00 à 12h00","latitude":48.514057,"longitude":2.123585,"website":"https://villeconin.fr/","hasWebsite":true,"hasHoraires":true,"url":"https://lannuaire.service-public.gouv.fr/ile-de-france/essonne/78637060-14ec-4f74-901e-cc91a370288b"}
{"nom":"Villejust","nomNormalise":"villejust","typeCollectivite":"Commune","region":"Île-de-France","departement":"Essonne","departementCode":"91","adresse":{"street":"6 rue de la Mairie","postalCode":"91140","city":"Villejust","country":"France"},"contacts":{"email":"secretariat-maire@villejust.fr","telephone":"0169317440"},"horaires":"Le Lundi : de 09h00 à 12h30\nLe Mardi : de 13h30 à 17h30\nLe Mercredi : de 09h00 à 12h00\nLe Jeudi : de 13h30 à 18h30\nLe Vendredi : de 09h00 à 12h30\nLe Samedi : de 09h00 à 12h00","latitude":48.682365,"longitude":2.236617,"website":"https://www.villejust.fr/","hasWebsite":true,"hasHoraires":true,"url":"https://lannuaire.service-public.gouv.fr/ile-de-france/essonne/8c9d22b7-d31b-4517-8122-4d6862017335"}
{"nom":"Villemoisson-sur-Orge","nomNormalise":"villemoissonsurorge","typeCollectivite":"Commune","region":"Île-de-France","departement":"Essonne","departementCode":"91","adresse":{"street":"22 avenue du Grand-Orme","postalCode":"91360","city":"Villemoisson-sur-Orge","country":"France"},"contacts":{"email":"contact@villemoisson.fr","telephone":"0169515600"},"horaires":"Du Lundi au Mardi : de 08h30 à 12h00 de 13h30 à 17h00\nLe Mercredi : de 08h30 à 12h00\nDu Jeudi au Vendredi : de 08h30 à 12h00 de 13h30 à 17h00\nLe Samedi : de 08h30 à 12h00\n\nAccueil ouvert uniquement pour l'état civil.","latitude":48.66196,"longitude":2.329735,"website":"https://www.villemoisson.fr/","hasWebsite":true,"hasHoraires":true,"url":"https://lannuaire.service-public.gouv.fr/ile-de-france/essonne/7783f629-5c98-4309-84c7-01390efd1735"}
{"nom":"Villeneuve-sur-Auvers","nomNormalise":"villeneuvesurauvers","typeCollectivite":"Commune","region":"Île-de-France","departement":"Essonne","departementCode":"91","adresse":{"street":"5 bis impasse de l'Ancien-Clos","postalCode":"91580","city":"Villeneuve-sur-Auvers","country":"France"},"contacts":{"email":"mairie-villeneuve-sur-auvers@wanadoo.fr","telephone":"0160804225"},"horaires":"Le Lundi : de 15h00 à 18h00\nLe Jeudi : de 15h00 à 18h00\nLe Samedi : de 10h00 à 12h00\n\nLe maire reçoit sur rendez-vous le samedi matin.","latitude":48.474,"longitude":2.24879,"website":"http://www.villeneuve-mesnil.fr/","hasWebsite":true,"hasHoraires":true,"url":"https://lannuaire.service-public.gouv.fr/ile-de-france/essonne/2ee9f276-2dac-4ba5-a431-10d9d470e540"}
{"nom":"Villiers-le-Bâcle","nomNormalise":"villierslebacle","typeCollectivite":"Commune","region":"Île-de-France","departement":"Essonne","departementCode":"91","adresse":{"street":"Place de la Mairie","postalCode":"91190","city":"Villiers-le-Bâcle","country":"France"},"contacts":{"email":"mairie@ville-villierslebacle.fr","telephone":"0169331515"},"horaires":"Du Lundi au Mardi : de 16h00 à 18h00\nLe Mercredi : de 09h00 à 12h00\nLe Jeudi : de 09h00 à 12h00 de 16h00 à 18h00\nLe Vendredi : de 16h00 à 18h00\nLe Samedi : de 09h00 à 12h00","latitude":48.7257,"longitude":2.12535,"website":"https://www.ville-villierslebacle.fr/","hasWebsite":true,"hasHoraires":true,"url":"https://lannuaire.service-public.gouv.fr/ile-de-france/essonne/2abf8218-9449-4d7b-82c0-bc543cf4ffc5"}
{"nom":"Villiers-sur-Orge","nomNormalise":"villierssurorge","typeCollectivite":"Commune","region":"Île-de-France","departement":"Essonne","departementCode":"91","adresse":{"street":"6 rue Jean-Jaurès","postalCode":"91700","city":"Villiers-sur-Orge","country":"France"},"contacts":{"email":"mairie@vso91.fr","telephone":"0169517100"},"horaires":"Le Lundi : de 08h45 à 12h30 de 13h30 à 17h30\nLe Mardi : de 08h45 à 12h30 de 13h30 à 18h45\nLe Jeudi : de 08h45 à 12h30\nLe Vendredi : de 08h45 à 12h30 de 13h30 à 17h30\nLe Samedi : de 08h45 à 12h30","latitude":48.657284,"longitude":2.300415,"website":"https://ville.villiers-sur-orge.com/","hasWebsite":true,"hasHoraires":true,"url":"https://lannuaire.service-public.gouv.fr/ile-de-france/essonne/5b5dce62-67a1-4acf-ae62-3ce0b5480402"}
{"nom":"Viry-Châtillon","nomNormalise":"virychatillon","typeCollectivite":"Commune","region":"Île-de-France","departement":"Essonne","departementCode":"91","adresse":{"street":"Hôtel de Ville","postalCode":"91178","city":"Viry-Châtillon","country":"France"},"contacts":{"email":"accueil@viry-chatillon.fr","telephone":"0169126212"},"horaires":"Du Lundi au Mercredi : de 08h30 à 12h00 de 13h30 à 17h30\nLe Jeudi : de 13h30 à 19h00\nLe Vendredi : de 08h30 à 12h00 de 13h30 à 17h30\nLe Samedi : de 09h00 à 12h00","latitude":48.673904,"longitude":2.377272,"website":"http://www.viry-chatillon.fr/","hasWebsite":true,"hasHoraires":true,"url":"https://lannuaire.service-public.gouv.fr/ile-de-france/essonne/6242f4eb-a236-43f6-bec5-afd435faa3b0"}
{"nom":"Wissous","nomNormalise":"wissous","typeCollectivite":"Commune","region":"Île-de-France","departement":"Essonne","departementCode":"91","adresse":{"street":"Place de la Libération","postalCode":"91320","city":"Wissous","country":"France"},"contacts":{"email":"accueil@wissous.fr","telephone":"0164472727"},"horaires":"Le Lundi : de 13h30 à 17h30\nLe Mardi : de 09h00 à 12h00 de 13h30 à 19h00\nLe Mercredi : de 09h00 à 12h00 de 13h30 à 17h30\nLe Jeudi : de 09h00 à 12h00\nLe Vendredi : de 09h00 à 12h00 de 13h30 à 17h30\nLe Samedi : de 09h00 à 11h45\n\nUniquement le 1er samedi de chaque mois.","latitude":48.7316,"longitude":2.32669,"website":"https://www.wissous.fr/","hasWebsite":true,"hasHoraires":true,"url":"https://lannuaire.service-public.gouv.fr/ile-de-france/essonne/196fe150-2717-4035-9337-f11094cb07d7"}
{"nom":"Yerres","nomNormalise":"yerres","typeCollectivite":"Commune","region":"Île-de-France","departement":"Essonne","departementCode":"91","adresse":{"street":"60 rue Charles-de-Gaulle","postalCode":"91330","city":"Yerres","country":"France"},"contacts":{"email":"comptecitoyen@yerres.fr","telephone":"0169497600"},"horaires":"Du Lundi au Vendredi : de 08h30 à 12h00 de 13h30 à 17h15\nLe Samedi : de 08h30 à 12h00\n\nAccueil ouvert uniquement pour l'état civil.","latitude":48.716564,"longitude":2.488441,"website":"https://www.yerres.fr/","hasWebsite":true,"hasHoraires":true,"url":"https://lannuaire.service-public.gouv.fr/ile-de-france/essonne/e814eab2-3f33-4070-806e-e0a4036b3dbe"}
