{"nom":"Antony","nomNormalise":"antony","typeCollectivite":"Commune","region":"Île-de-France","departement":"Hauts-de-Seine","departementCode":"92","adresse":{"street":"1 place Auguste-Mounié","postalCode":"92160","city":"Antony","country":"France"},"contacts":{"email":"","telephone":"0140967100"},"horaires":"Du Lundi au Vendredi : de 08h30 à 12h00 de 13h30 à 17h30\n\nFermeture le jeudi matin pour les services au public.\nLe Samedi : de 09h00 à 12h00\n\nAccueil ouvert uniquement sur rendez-vous pour l'état civil.","latitude":48.753513,"longitude":2.2970507,"website":"https://www.ville-antony.fr/","hasWebsite":true,"hasHoraires":true,"url":"https://lannuaire.service-public.gouv.fr/ile-de-france/hauts-de-seine/54260182-e2ff-4a92-891e-9d43b932cae8"}
{"nom":"Asnières-sur-Seine","nomNormalise":"asnieressurseine","typeCollectivite":"Commune","region":"Île-de-France","departement":"Hauts-de-Seine","departementCode":"92","adresse":{"street":"1 place de l'Hôtel-de-Ville","postalCode":"92600","city":"Asnières-sur-Seine","country":"France"},"contacts":{"email":"","telephone":"0141111213"},"horaires":"Du Lundi au Vendredi : de 08h30 à 17h30\nLe Samedi : de 09h00 à 11h45\n\nÉtat civil uniquement.","latitude":48.91069,"longitude":2.288989,"website":"https://asnieres-sur-seine.fr/","hasWebsite":true,"hasHoraires":true,"url":"https://lannuaire.service-public.gouv.fr/ile-de-france/hauts-de-seine/90b3deac-b4f6-4c48-92b4-d787a265ad19"}
{"nom":"Bagneux","nomNormalise":"bagneux","typeCollectivite":"Commune","region":"Île-de-France","departement":"Hauts-de-Seine","departementCode":"92","adresse":{"street":"57 avenue Henri-Ravera","postalCode":"92220","city":"Bagneux","country":"France"},"contacts":{"email":"contact@mairie-bagneux.fr","telephone":"0142316000"},"horaires":"Le Lundi : de 08h30 à 12h00 de 13h30 à 17h00\nLe Mardi : de 13h30 à 17h00\nDu Mercredi au Vendredi : de 08h30 à 12h00 de 13h30 à 17h00","latitude":48.798557,"longitude":2.304355,"website":"https://www.bagneux92.fr/","hasWebsite":true,"hasHoraires":true,"url":"https://lannuaire.service-public.gouv.fr/ile-de-france/hauts-de-seine/9c433d99-14ea-4cd0-bb20-3b8c2b3a5cf2"}
{"nom":"Bois-Colombes","nomNormalise":"boiscolombes","typeCollectivite":"Commune","region":"Île-de-France","departement":"Hauts-de-Seine","departementCode":"92","adresse":{"street":"15 rue Charles-Duflos","postalCode":"92277","city":"Bois-Colombes Cedex","country":"France"},"contacts":{"email":"bois-colombes@bois-colombes.com","telephone":"0141198300"},"horaires":"Du Lundi au Vendredi : de 08h30 à 12h00 de 13h30 à 17h30\nLe Samedi : de 08h30 à 12h00\n\nAccueil ouvert uniquement pour l'état civil.","latitude":48.9146,"longitude":2.26765,"website":"https://www.bois-colombes.fr/","hasWebsite":true,"hasHoraires":true,"url":"https://lannuaire.service-public.gouv.fr/ile-de-france/hauts-de-seine/414058d9-77a7-42f5-879d-c43e3bd915c2"}
{"nom":"Boulogne-Billancourt","nomNormalise":"boulognebillancourt","typeCollectivite":"Commune","region":"Île-de-France","departement":"Hauts-de-Seine","departementCode":"92","adresse":{"street":"26 avenue André-Morizet","postalCode":"92100","city":"Boulogne-Billancourt","country":"France"},"contacts":{"email":"","telephone":"0155185300"},"horaires":"Du Lundi au Mercredi : de 08h30 à 17h30\nLe Jeudi : de 08h30 à 12h00 de 14h00 à 19h15\nLe Vendredi : de 08h30 à 16h30\nLe Samedi : de 08h30 à 11h45\n\nAccueil ouvert uniquement pour l'état civil.","latitude":48.835976,"longitude":2.240282,"website":"https://www.boulognebillancourt.com/accueil","hasWebsite":true,"hasHoraires":true,"url":"https://lannuaire.service-public.gouv.fr/ile-de-france/hauts-de-seine/81c6e04d-b812-48af-b81e-e6d962a9836d"}
{"nom":"Bourg-la-Reine","nomNormalise":"bourglareine","typeCollectivite":"Commune","region":"Île-de-France","departement":"Hauts-de-Seine","departementCode":"92","adresse":{"street":"6 boulevard Carnot","postalCode":"92340","city":"Bourg-la-Reine","country":"France"},"contacts":{"email":"mairie@bourg-la-reine.fr","telephone":"0179714000"},"horaires":"Le Lundi : de 08h30 à 12h00 de 13h30 à 17h30\nLe Mardi : de 08h30 à 12h00\nDu Mercredi au Vendredi : de 08h30 à 12h00 de 13h30 à 17h30\nLe Samedi : de 09h00 à 12h00","latitude":48.7791,"longitude":2.31617,"website":"http://www.bourg-la-reine.fr/","hasWebsite":true,"hasHoraires":true,"url":"https://lannuaire.service-public.gouv.fr/ile-de-france/hauts-de-seine/e30182c4-5d53-4bda-8fd7-62183b66e0ec"}
{"nom":"Châtenay-Malabry","nomNormalise":"chatenaymalabry","typeCollectivite":"Commune","region":"Île-de-France","departement":"Hauts-de-Seine","departementCode":"92","adresse":{"street":"26 rue du Docteur-le-Savoureux","postalCode":"92290","city":"Châtenay-Malabry","country":"France"},"contacts":{"email":"infos@chatenay-malabry.fr","telephone":"0146834683"},"horaires":"Du Lundi au Vendredi : de 08h30 à 12h30 de 13h30 à 17h30\nLe Samedi : de 09h00 à 12h00\n\nAccueil ouvert uniquement pour l'état civil et espace service.","latitude":48.767155,"longitude":2.277524,"website":"https://www.chatenay-malabry.fr/","hasWebsite":true,"hasHoraires":true,"url":"https://lannuaire.service-public.gouv.fr/ile-de-france/hauts-de-seine/2bcdbdb0-2fe9-40b4-9548-ef76edd5d614"}
{"nom":"Châtillon","nomNormalise":"chatillon","typeCollectivite":"Commune","region":"Île-de-France","departement":"Hauts-de-Seine","departementCode":"92","adresse":{"street":"1 place de la Libération","postalCode":"92320","city":"Châtillon","country":"France"},"contacts":{"email":"etat-civil@chatillon92.fr","telephone":"0142318181"},"horaires":"Du Lundi au Mercredi : de 08h30 à 12h15 de 13h30 à 18h00\nLe Jeudi : de 13h30 à 19h00\nLe Vendredi : de 08h30 à 12h15 de 13h30 à 18h00\nLe Samedi : de 08h30 à 13h30","latitude":48.800064,"longitude":2.289605,"website":"https://ville-chatillon.fr/","hasWebsite":true,"hasHoraires":true,"url":"https://lannuaire.service-public.gouv.fr/ile-de-france/hauts-de-seine/74daed04-861c-422c-b9a0-ec6da2a500b5"}
{"nom":"Chaville","nomNormalise":"chaville","typeCollectivite":"Commune","region":"Île-de-France","departement":"Hauts-de-Seine","departementCode":"92","adresse":{"street":"1456 avenue Roger-Salengro","postalCode":"92370","city":"Chaville","country":"France"},"contacts":{"email":"mairie@ville-chaville.fr","telephone":"0141154000"},"horaires":"Le Lundi : de 08h30 à 12h30 de 13h30 à 17h30\nLe Mardi : de 13h30 à 17h30\nDu Mercredi au Jeudi : de 08h30 à 12h30 de 13h30 à 17h30\nLe Vendredi : de 08h30 à 12h30 de 13h30 à 16h30\nLe Samedi : de 09h00 à 12h00","latitude":48.809452,"longitude":2.188706,"website":"https://www.ville-chaville.fr/accueil-3.html","hasWebsite":true,"hasHoraires":true,"url":"https://lannuaire.service-public.gouv.fr/ile-de-france/hauts-de-seine/355f3722-bf6b-4fce-8c06-bb3d108e6d00"}
{"nom":"Clamart","nomNormalise":"clamart","typeCollectivite":"Commune","region":"Île-de-France","departement":"Hauts-de-Seine","departementCode":"92","adresse":{"street":"Hôtel de Ville","postalCode":"92140","city":"Clamart","country":"France"},"contacts":{"email":"mairie@clamart.fr","telephone":"0146623535"},"horaires":"Le Lundi : de 08h30 à 12h30 de 13h30 à 18h00\nLe Mardi : de 13h30 à 18h00\nDu Mercredi au Jeudi : de 08h30 à 12h30 de 13h30 à 18h00\nLe Vendredi : de 08h30 à 12h30 de 13h30 à 17h00\nLe Samedi : de 08h30 à 12h00","latitude":48.800293,"longitude":2.263582,"website":"https://www.clamart.fr/fr","hasWebsite":true,"hasHoraires":true,"url":"https://lannuaire.service-public.gouv.fr/ile-de-france/hauts-de-seine/549f5e48-395e-4c5a-87b9-f827a8fe50b7"}
{"nom":"Clichy-la-Garenne","nomNormalise":"clichylagarenne","typeCollectivite":"Commune","region":"Île-de-France","departement":"Hauts-de-Seine","departementCode":"92","adresse":{"street":"80 boulevard Jean-Jaurès","postalCode":"92110","city":"Clichy","country":"France"},"contacts":{"email":"","telephone":"0147153000"},"horaires":"Du Lundi au Vendredi : de 08h00 à 18h00\n\nAccueil ouvert pour l'état civil ouvert tous les jours de 9h à 17h30, sauf le jeudi de 12h30 à 17h30.\nLe Samedi : de 09h00 à 12h00","latitude":48.902775,"longitude":2.304835,"website":"https://www.ville-clichy.fr/","hasWebsite":true,"hasHoraires":true,"url":"https://lannuaire.service-public.gouv.fr/ile-de-france/hauts-de-seine/470f8d8b-c2f2-4f08-89e3-21ee52d61cb8"}
{"nom":"Colombes","nomNormalise":"colombes","typeCollectivite":"Commune","region":"Île-de-France","departement":"Hauts-de-Seine","departementCode":"92","adresse":{"street":"Place de la République","postalCode":"92701","city":"Colombes Cedex","country":"France"},"contacts":{"email":"","telephone":"0147608000"},"horaires":"Du Lundi au Vendredi : de 08h30 à 17h30\nLe Samedi : de 08h30 à 12h00\n\nContacter l'accueil pour connaître les horaires des différents services.","latitude":48.922676,"longitude":2.2547662,"website":"https://www.colombes.fr/","hasWebsite":true,"hasHoraires":true,"url":"https://lannuaire.service-public.gouv.fr/ile-de-france/hauts-de-seine/39bda65a-aabf-4208-be04-a71333484fa2"}
{"nom":"Courbevoie","nomNormalise":"courbevoie","typeCollectivite":"Commune","region":"Île-de-France","departement":"Hauts-de-Seine","departementCode":"92","adresse":{"street":"2 place de l'Hôtel-de-Ville","postalCode":"92400","city":"Courbevoie","country":"France"},"contacts":{"email":"courbevoie@ville-courbevoie.fr","telephone":"0171057000"},"horaires":"Le Lundi : de 08h30 à 17h30\nLe Mardi : de 13h00 à 17h30\nLe Mercredi : de 08h30 à 17h30\nLe Jeudi : de 08h30 à 19h30\n\nAccueil ouvert jusqu'à 19h30 uniquement pour l'état civil, service accueil et guichet famille.\nLe Vendredi : de 08h30 à 17h30\nLe Samedi : de 09h00 à 12h00\n\nPour le Guichet Famille, uniquement sur rendez-vous, fermé pendant les vacances scolaires\nHoraires généraux. Contacter l'accueil pour prendre rendez-vous aux horaires spécifiques de certains services.","latitude":48.894592,"longitude":2.257205,"website":"https://www.ville-courbevoie.fr/","hasWebsite":true,"hasHoraires":true,"url":"https://lannuaire.service-public.gouv.fr/ile-de-france/hauts-de-seine/58ffe801-7c23-4e1b-9fbb-1ca0a9cb033c"}
{"nom":"Fontenay-aux-Roses","nomNormalise":"fontenayauxroses","typeCollectivite":"Commune","region":"Île-de-France","departement":"Hauts-de-Seine","departementCode":"92","adresse":{"street":"75 rue Boucicaut","postalCode":"92260","city":"Fontenay-aux-Roses","country":"France"},"contacts":{"email":"mairie@fontenay-aux-roses.fr","telephone":"0141132000"},"horaires":"Du Lundi au Mardi : de 08h30 à 12h00 de 13h30 à 17h00\nLe Mercredi : de 08h30 à 12h00 de 13h30 à 19h30\nLe Jeudi : de 08h30 à 12h00\nLe Vendredi : de 08h30 à 12h00 de 13h30 à 17h00\n\nChangement d'horaires à compter du 7 novembre 2022, consultez le site de la mairie.","latitude":48.7915,"longitude":2.28662,"website":"http://www.fontenay-aux-roses.fr/","hasWebsite":true,"hasHoraires":true,"url":"https://lannuaire.service-public.gouv.fr/ile-de-france/hauts-de-seine/ce9f34b3-26b5-48c4-a8d0-657065a643a1"}
{"nom":"Garches","nomNormalise":"garches","typeCollectivite":"Commune","region":"Île-de-France","departement":"Hauts-de-Seine","departementCode":"92","adresse":{"street":"2 rue Claude-Liard","postalCode":"92380","city":"Garches","country":"France"},"contacts":{"email":"info@garches.fr","telephone":"0147956666"},"horaires":"Du Lundi au Vendredi : de 08h30 à 12h00 de 13h00 à 17h00\n\nAccueil ouvert dès 8h pour le service de l'état civil.\nLe Samedi : de 08h30 à 12h00\n\nAccueil ouvert à 9h pour le service état civil.","latitude":48.843437,"longitude":2.187209,"website":"https://garches.fr/","hasWebsite":true,"hasHoraires":true,"url":"https://lannuaire.service-public.gouv.fr/ile-de-france/hauts-de-seine/6a008562-df52-4a92-bf68-f17b61f95865"}
{"nom":"Gennevilliers","nomNormalise":"gennevilliers","typeCollectivite":"Commune","region":"Île-de-France","departement":"Hauts-de-Seine","departementCode":"92","adresse":{"street":"177 avenue Gabriel-Péri","postalCode":"92230","city":"Gennevilliers","country":"France"},"contacts":{"email":"mairie@ville-gennevilliers.fr","telephone":"0140856666"},"horaires":"Du Lundi au Mercredi : de 08h30 à 12h00 de 13h30 à 17h30\nLe Jeudi : de 08h30 à 12h00 de 13h30 à 19h00\n\nContacter l'accueil pour vérifier l'ouverture des différents services.\nLe Vendredi : de 08h30 à 12h00 de 13h30 à 16h00\nLe Samedi : de 08h30 à 12h00\n\nAccueil ouvert uniquement pour l'état civil et la démarcherie.","latitude":48.92546,"longitude":2.294045,"website":"https://www.ville-gennevilliers.fr/","hasWebsite":true,"hasHoraires":true,"url":"https://lannuaire.service-public.gouv.fr/ile-de-france/hauts-de-seine/e674993d-27c8-4ff0-afc0-9917844bbd68"}
{"nom":"Issy-les-Moulineaux","nomNormalise":"issylesmoulineaux","typeCollectivite":"Commune","region":"Île-de-France","departement":"Hauts-de-Seine","departementCode":"92","adresse":{"street":"Centre Administratif Municipal","postalCode":"92130","city":"Issy-les-Moulineaux","country":"France"},"contacts":{"email":"","telephone":"0141238000"},"horaires":"Du Lundi au Mercredi : de 08h30 à 18h00\nLe Jeudi : de 08h30 à 19h00\nLe Vendredi : de 08h30 à 18h00\nLe Samedi : de 08h30 à 12h00","latitude":48.82467,"longitude":2.274968,"website":"https://www.issy.com/","hasWebsite":true,"hasHoraires":true,"url":"https://lannuaire.service-public.gouv.fr/ile-de-france/hauts-de-seine/bfc152df-1cb5-4ced-8a7c-3229ecce3add"}
{"nom":"La Garenne-Colombes","nomNormalise":"lagarennecolombes","typeCollectivite":"Commune","region":"Île-de-France","departement":"Hauts-de-Seine","departementCode":"92","adresse":{"street":"68 boulevard de la République","postalCode":"92250","city":"La Garenne-Colombes","country":"France"},"contacts":{"email":"accueil@lagarennecolombes.fr","telephone":"0172424000"},"horaires":"Du Lundi au Vendredi : de 08h30 à 12h00 de 13h30 à 17h30\nLe Samedi : de 08h45 à 12h00","latitude":48.906715,"longitude":2.24641,"website":"https://www.lagarennecolombes.fr/","hasWebsite":true,"hasHoraires":true,"url":"https://lannuaire.service-public.gouv.fr/ile-de-france/hauts-de-seine/5e02ab51-b295-43ee-9ca8-a510eccb79b3"}
{"nom":"Le Plessis-Robinson","nomNormalise":"leplessisrobinson","typeCollectivite":"Commune","region":"Île-de-France","departement":"Hauts-de-Seine","departementCode":"92","adresse":{"street":"3 place de la Mairie","postalCode":"92350","city":"Le Plessis-Robinson","country":"France"},"contacts":{"email":"courrier@plessis-robinson.com","telephone":"0146014321"},"horaires":"Du Lundi au Vendredi : de 08h30 à 12h00 de 13h00 à 17h00","latitude":48.7823,"longitude":2.26331,"website":"https://www.plessis-robinson.com/","hasWebsite":true,"hasHoraires":true,"url":"https://lannuaire.service-public.gouv.fr/ile-de-france/hauts-de-seine/c351a80d-2309-4e32-a6a9-1474398546bb"}
{"nom":"Levallois-Perret","nomNormalise":"levalloisperret","typeCollectivite":"Commune","region":"Île-de-France","departement":"Hauts-de-Seine","departementCode":"92","adresse":{"street":"1 place de la République","postalCode":"92300","city":"Levallois","country":"France"},"contacts":{"email":"votre.maire@ville-levallois.fr","telephone":"0149683156"},"horaires":"Du Lundi au Mercredi : de 08h30 à 18h00\nLe Jeudi : de 08h30 à 19h00\nLe Vendredi : de 09h30 à 18h00\nLe Samedi : de 09h30 à 12h00\n\nAccueil ouvert le samedi uniquement pour l'état civil , contacter l'accueil pour obtenir les horaires des différents services.","latitude":48.893166,"longitude":2.289003,"website":"https://www.ville-levallois.fr/","hasWebsite":true,"hasHoraires":true,"url":"https://lannuaire.service-public.gouv.fr/ile-de-france/hauts-de-seine/22c819af-b048-4120-a848-ae6cb0e0b9fd"}
{"nom":"Malakoff","nomNormalise":"malakoff","typeCollectivite":"Commune","region":"Île-de-France","departement":"Hauts-de-Seine","departementCode":"92","adresse":{"street":"Hôtel de Ville","postalCode":"92245","city":"Malakoff Cedex","country":"France"},"contacts":{"email":"mairie@ville-malakoff.fr","telephone":"0147467500"},"horaires":"Le Lundi : de 08h30 à 12h00 de 13h30 à 18h00\nDu Mardi au Mercredi : de 08h30 à 12h00 de 13h30 à 17h00\nLe Jeudi : de 08h30 à 12h00\nLe Vendredi : de 08h30 à 12h00 de 13h30 à 17h00\nLe Samedi : de 09h00 à 12h00","latitude":48.821125,"longitude":2.3014858,"website":"https://www.malakoff.fr/","hasWebsite":true,"hasHoraires":true,"url":"https://lannuaire.service-public.gouv.fr/ile-de-france/hauts-de-seine/151b1221-0b86-40f5-bdfc-adbf02139b26"}
{"nom":"Marnes-la-Coquette","nomNormalise":"marneslacoquette","typeCollectivite":"Commune","region":"Île-de-France","departement":"Hauts-de-Seine","departementCode":"92","adresse":{"street":"3 place de la Mairie","postalCode":"92430","city":"Marnes-la-Coquette","country":"France"},"contacts":{"email":"mairiedemarnes@wanadoo.fr","telephone":"0147410636"},"horaires":"Du Lundi au Mardi : de 08h30 à 12h30 de 13h30 à 17h30\nLe Mercredi : de 08h30 à 12h30\nLe Jeudi : de 08h30 à 12h30 de 13h30 à 17h30\nLe Vendredi : de 08h30 à 12h30 de 13h30 à 17h00\nLe Samedi : de 09h00 à 12h30\n\nAccueil ouvert uniquement pour l'état-civil et seulement les 2e et 4e samedi du mois, hors vacances scolaires.","latitude":48.83019,"longitude":2.17746,"website":"https://www.marnes-la-coquette.fr/","hasWebsite":true,"hasHoraires":true,"url":"https://lannuaire.service-public.gouv.fr/ile-de-france/hauts-de-seine/d260ede2-2ac2-4c0c-b455-e414e5c59987"}
{"nom":"Meudon","nomNormalise":"meudon","typeCollectivite":"Commune","region":"Île-de-France","departement":"Hauts-de-Seine","departementCode":"92","adresse":{"street":"6 avenue Le-Corbeiller","postalCode":"92190","city":"Meudon","country":"France"},"contacts":{"email":"","telephone":"0141148000"},"horaires":"Du Lundi au Mercredi : de 08h30 à 12h00 de 13h30 à 17h30\nLe Jeudi : de 08h30 à 12h00\nLe Vendredi : de 08h30 à 12h00 de 13h30 à 17h30\nLe Samedi : de 09h00 à 12h00","latitude":48.812557,"longitude":2.238806,"website":"https://www.meudon.fr/","hasWebsite":true,"hasHoraires":true,"url":"https://lannuaire.service-public.gouv.fr/ile-de-france/hauts-de-seine/bd00dac9-97ff-480d-91fa-95abf08f57d5"}
{"nom":"Montrouge","nomNormalise":"montrouge","typeCollectivite":"Commune","region":"Île-de-France","departement":"Hauts-de-Seine","departementCode":"92","adresse":{"street":"43 avenue de la République","postalCode":"92120","city":"Montrouge","country":"France"},"contacts":{"email":"webmontrouge@ville-montrouge.fr","telephone":"0146127676"},"horaires":"Du Lundi au Mercredi : de 08h30 à 11h30 de 13h30 à 17h00\nLe Jeudi : de 08h30 à 11h30 de 13h30 à 19h00\nLe Vendredi : de 08h30 à 11h30 de 13h30 à 17h00","latitude":48.818806,"longitude":2.320964,"website":"http://www.ville-montrouge.fr/","hasWebsite":true,"hasHoraires":true,"url":"https://lannuaire.service-public.gouv.fr/ile-de-france/hauts-de-seine/cde9e047-5bb4-4df7-a7c8-14ade87cde42"}
{"nom":"Nanterre","nomNormalise":"nanterre","typeCollectivite":"Commune","region":"Île-de-France","departement":"Hauts-de-Seine","departementCode":"92","adresse":{"street":"1 place du 27 mars 2002","postalCode":"92000","city":"Nanterre","country":"France"},"contacts":{"email":"","telephone":"0147295050"},"horaires":"Du Lundi au Mercredi : de 09h00 à 12h00 de 13h00 à 17h30\nLe Jeudi : de 13h00 à 17h30\nLe Vendredi : de 09h00 à 12h00 de 13h00 à 17h30\nLe Samedi : de 09h00 à 12h30\n\nhors vacances scolaires.","latitude":48.892223,"longitude":2.206936,"website":"https://www.nanterre.fr/","hasWebsite":true,"hasHoraires":true,"url":"https://lannuaire.service-public.gouv.fr/ile-de-france/hauts-de-seine/c2045c4c-b7f5-47a3-83c6-92ff1397b578"}
{"nom":"Neuilly-sur-Seine","nomNormalise":"neuillysurseine","typeCollectivite":"Commune","region":"Île-de-France","departement":"Hauts-de-Seine","departementCode":"92","adresse":{"street":"96 avenue Achille-Peretti","postalCode":"92522","city":"Neuilly-sur-Seine Cedex","country":"France"},"contacts":{"email":"mr.lemaire@ville-neuillysurseine.fr","telephone":"0140888888"},"horaires":"Du Lundi au Vendredi : de 09h00 à 17h30\nLe Samedi : de 09h00 à 12h00\n\nAccueil ouvert uniquement pour l'état civil et les affaires générales.","latitude":48.884743,"longitude":2.26941,"website":"https://www.neuillysurseine.fr/","hasWebsite":true,"hasHoraires":true,"url":"https://lannuaire.service-public.gouv.fr/ile-de-france/hauts-de-seine/c6635792-dc57-4a64-ae2f-5146f731f6e7"}
{"nom":"Puteaux","nomNormalise":"puteaux","typeCollectivite":"Commune","region":"Île-de-France","departement":"Hauts-de-Seine","departementCode":"92","adresse":{"street":"131 rue de la République","postalCode":"92800","city":"Puteaux","country":"France"},"contacts":{"email":"info@mairie-puteaux.fr","telephone":"0146929292"},"horaires":"Le Lundi : de 09h00 à 18h00\nLe Mardi : de 13h30 à 18h00\nDu Mercredi au Jeudi : de 09h00 à 18h00\nLe Vendredi : de 09h00 à 17h30\nLe Samedi : de 09h00 à 12h00\n\nAccueil fermé de 12h à 13h30 pendant les congés scolaire, accueil ouvert le samedi uniquement pour les démarches du hall administratif : passeports, état civil, cartes nationales d'identité.","latitude":48.88442,"longitude":2.237979,"website":"https://www.puteaux.fr/","hasWebsite":true,"hasHoraires":true,"url":"https://lannuaire.service-public.gouv.fr/ile-de-france/hauts-de-seine/44adc6c8-6040-4358-9572-4f6a828f91c2"}
{"nom":"Rueil-Malmaison","nomNormalise":"rueilmalmaison","typeCollectivite":"Commune","region":"Île-de-France","departement":"Hauts-de-Seine","departementCode":"92","adresse":{"street":"Hôtel de Ville","postalCode":"92501","city":"Rueil-Malmaison Cedex","country":"France"},"contacts":{"email":"info@mairie-rueilmalmaison.fr","telephone":"0147326565"},"horaires":"Le Lundi : de 08h30 à 12h00 de 13h30 à 18h00\nDu Mardi au Vendredi : de 08h30 à 18h00\nLe Samedi : de 08h30 à 12h30","latitude":48.878193,"longitude":2.180434,"website":"https://www.villederueil.fr/fr","hasWebsite":true,"hasHoraires":true,"url":"https://lannuaire.service-public.gouv.fr/ile-de-france/hauts-de-seine/a332ddcf-c671-42ca-ba81-f46dfe6bee09"}
{"nom":"Saint-Cloud","nomNormalise":"saintcloud","typeCollectivite":"Commune","region":"Île-de-France","departement":"Hauts-de-Seine","departementCode":"92","adresse":{"street":"13 place Charles-de-Gaulle","postalCode":"92211","city":"Saint-Cloud Cedex","country":"France"},"contacts":{"email":"accueil@saintcloud.fr","telephone":"0147715300"},"horaires":"Du Lundi au Mercredi : de 08h45 à 12h15 de 13h45 à 17h15\nLe Jeudi : de 08h30 à 12h15 de 13h45 à 17h15\nLe Vendredi : de 08h45 à 12h15 de 13h45 à 17h00\nLe Samedi : de 08h30 à 12h00","latitude":48.849674,"longitude":2.237594,"website":"https://www.saintcloud.fr/","hasWebsite":true,"hasHoraires":true,"url":"https://lannuaire.service-public.gouv.fr/ile-de-france/hauts-de-seine/602c5247-fa8a-4728-a602-79a2817921cf"}
{"nom":"Sceaux","nomNormalise":"sceaux","typeCollectivite":"Commune","region":"Île-de-France","departement":"Hauts-de-Seine","departementCode":"92","adresse":{"street":"122 rue Houdan","postalCode":"92330","city":"Sceaux","country":"France"},"contacts":{"email":"sceauxinfomairie@sceaux.fr","telephone":"0141133300"},"horaires":"Du Lundi au Mercredi : de 08h30 à 12h00 de 13h30 à 17h30\nLe Jeudi : de 08h30 à 12h00\nLe Vendredi : de 08h30 à 12h00 de 13h30 à 17h30\nLe Samedi : de 09h00 à 12h00\n\nAccueil ouvert uniquement pour l'état civil.","latitude":48.7789,"longitude":2.29113,"website":"http://www.sceaux.fr/","hasWebsite":true,"hasHoraires":true,"url":"https://lannuaire.service-public.gouv.fr/ile-de-france/hauts-de-seine/aaa8ccc5-73cc-4eb4-b48e-a4d8a61ea45d"}
{"nom":"Sèvres","nomNormalise":"sevres","typeCollectivite":"Commune","region":"Île-de-France","departement":"Hauts-de-Seine","departementCode":"92","adresse":{"street":"54 Grande rue","postalCode":"92311","city":"Sèvres Cedex","country":"France"},"contacts":{"email":"mairie@ville-sevres.fr","telephone":"0141141010"},"horaires":"Le Lundi : de 08h30 à 12h30 de 13h30 à 17h30\nLe Mardi : de 12h00 à 17h30\nLe Mercredi : de 08h30 à 17h30\nLe Jeudi : de 08h30 à 12h30 de 13h30 à 18h00\nLe Vendredi : de 08h30 à 12h30\nLe Samedi : de 08h30 à 12h30\n\nAccueil ouvert uniquement pour l'état civil et la scolarité et sur rendez-vous uniquement pour l'établissement des passeports et des cartes d'identité.","latitude":48.82455,"longitude":2.212612,"website":"https://www.sevres.fr/","hasWebsite":true,"hasHoraires":true,"url":"https://lannuaire.service-public.gouv.fr/ile-de-france/hauts-de-seine/7b1c1738-7ab2-4474-9d4c-f423fb52f625"}
{"nom":"Suresnes","nomNormalise":"suresnes","typeCollectivite":"Commune","region":"Île-de-France","departement":"Hauts-de-Seine","departementCode":"92","adresse":{"street":"2 rue Carnot","postalCode":"92151","city":"Suresnes Cedex","country":"France"},"contacts":{"email":"","telephone":"0141181920"},"horaires":"Du Lundi au Vendredi : de 08h30 à 12h00 de 13h30 à 18h00\nLe Samedi : de 09h00 à 12h00","latitude":48.871475,"longitude":2.225164,"website":"https://www.suresnes.fr/","hasWebsite":true,"hasHoraires":true,"url":"https://lannuaire.service-public.gouv.fr/ile-de-france/hauts-de-seine/081a346f-8fe6-4d66-ae8a-d5d0cc56e74e"}
{"nom":"Vanves","nomNormalise":"vanves","typeCollectivite":"Commune","region":"Île-de-France","departement":"Hauts-de-Seine","departementCode":"92","adresse":{"street":"33 rue Antoine Fratacci","postalCode":"92170","city":"Vanves","country":"France"},"contacts":{"email":"services.municipaux@ville-vanves.fr","telephone":"0141339200"},"horaires":"Du Lundi au Jeudi : de 08h30 à 12h30 de 13h30 à 17h30\nLe Vendredi : de 08h30 à 12h30 de 13h30 à 17h00","latitude":48.820526,"longitude":2.2905066,"website":"http://www.vanves.fr/","hasWebsite":true,"hasHoraires":true,"url":"https://lannuaire.service-public.gouv.fr/ile-de-france/hauts-de-seine/f07c4386-ab02-4309-a959-4d7f9b0d2e52"}
{"nom":"Vaucresson","nomNormalise":"vaucresson","typeCollectivite":"Commune","region":"Île-de-France","departement":"Hauts-de-Seine","departementCode":"92","adresse":{"street":"8 Grande rue","postalCode":"92420","city":"Vaucresson","country":"France"},"contacts":{"email":"secretariat@mairie-vaucresson.fr","telephone":"0171028000"},"horaires":"Du Lundi au Vendredi : de 08h30 à 12h30 de 13h30 à 17h30\nLe Samedi : de 09h00 à 12h00\n\nAccueil ouvert uniquement pour l'état civil et certain samedis, contacter la mairie ou consulter le site internet pour les dates.","latitude":48.8392,"longitude":2.15798,"website":"https://www.vaucresson.fr/","hasWebsite":true,"hasHoraires":true,"url":"https://lannuaire.service-public.gouv.fr/ile-de-france/hauts-de-seine/15df4db2-2080-4827-92ae-d9056823fa7a"}
{"nom":"Ville-d'Avray","nomNormalise":"villedavray","typeCollectivite":"Commune","region":"Île-de-France","departement":"Hauts-de-Seine","departementCode":"92","adresse":{"street":"13 rue de Saint-Cloud","postalCode":"92410","city":"Ville-d'Avray","country":"France"},"contacts":{"email":"affairesgenerales@mairie-villedavray.fr","telephone":"0141158888"},"horaires":"Le Lundi : de 09h00 à 12h30 de 13h30 à 17h30\nDu Mardi au Jeudi : de 08h30 à 12h30 de 13h30 à 17h30\nLe Vendredi : de 09h00 à 12h30 de 13h30 à 17h00\nLe Samedi : de 08h30 à 12h30\n\nAccueil ouvert uniquement pour le service affaires générales.","latitude":48.8282,"longitude":2.18981,"website":"https://www.mairie-villedavray.fr/","hasWebsite":true,"hasHoraires":true,"url":"https://lannuaire.service-public.gouv.fr/ile-de-france/hauts-de-seine/e8f22ac5-aed1-4ca7-abbc-67dbbc0c84a1"}
{"nom":"Villeneuve-la-Garenne","nomNormalise":"villeneuvelagarenne","typeCollectivite":"Commune","region":"Île-de-France","departement":"Hauts-de-Seine","departementCode":"92","adresse":{"street":"28 avenue de Verdun","postalCode":"92390","city":"Villeneuve-la-Garenne","country":"France"},"contacts":{"email":"contact@villeneuve92.com","telephone":"0140855700"},"horaires":"Du Lundi au Mercredi : de 08h30 à 12h00 de 13h15 à 17h00\nLe Jeudi : de 08h30 à 12h00\nLe Vendredi : de 08h30 à 12h00 de 13h15 à 17h00\nLe Samedi : de 09h00 à 11h45\n\nAccueil ouvert le samedi uniquement pour l'état civil, les cartes d'identité, les passeports et l'espace famille.","latitude":48.9356,"longitude":2.33301,"website":"https://www.villeneuve92.com/accueil/","hasWebsite":true,"hasHoraires":true,"url":"https://lannuaire.service-public.gouv.fr/ile-de-france/hauts-de-seine/f1f8eb55-2ab8-4941-bce3-84b27c50e962"}
