{"nom":"Ableiges","nomNormalise":"ableiges","typeCollectivite":"Commune","region":"Île-de-France","departement":"Val-d'Oise","departementCode":"95","adresse":{"street":"Rue Gilles-de-Maupeou","postalCode":"95450","city":"Ableiges","country":"France"},"contacts":{"email":"mairie.ableiges95@wanadoo.fr","telephone":"0134660112"},"horaires":"Le Lundi : de 09h00 à 12h30 de 15h00 à 18h00\nDu Mardi au Mercredi : de 09h00 à 12h00\nLe Vendredi : de 09h00 à 12h30 de 15h00 à 18h00","latitude":49.0855,"longitude":1.97909,"website":"http://www.ableiges.fr/","hasWebsite":true,"hasHoraires":true,"url":"https://lannuaire.service-public.gouv.fr/ile-de-france/val-d-oise/55e63c96-f8a4-424c-a9fd-52ddf515b6ef"}
{"nom":"Aincourt","nomNormalise":"aincourt","typeCollectivite":"Commune","region":"Île-de-France","departement":"Val-d'Oise","departementCode":"95","adresse":{"street":"4 rue d'Arthies","postalCode":"95510","city":"Aincourt","country":"France"},"contacts":{"email":"mairie.aincourt@orange.fr","telephone":"0134767112"},"horaires":"Du Lundi au Mercredi : de 09h00 à 12h00\nLe Jeudi : de 09h00 à 12h00 de 16h00 à 19h00\nLe Vendredi : de 09h00 à 12h00\n\nPermanence des élus le samedi de 10h à 12h.","latitude":49.0718,"longitude":1.77626,"website":"http://www.aincourt.fr/","hasWebsite":true,"hasHoraires":true,"url":"https://lannuaire.service-public.gouv.fr/ile-de-france/val-d-oise/b01da037-e547-48a7-a1f2-a346d5e63f14"}
{"nom":"Ambleville","nomNormalise":"ambleville","typeCollectivite":"Commune","region":"Île-de-France","departement":"Val-d'Oise","departementCode":"95","adresse":{"street":"Rue de la Mairie","postalCode":"95710","city":"Ambleville","country":"France"},"contacts":{"email":"mairie@ville-ambleville.fr","telephone":"0134677101"},"horaires":"Du Lundi au Mardi : de 08h30 à 16h30\nLe Mercredi : de 10h00 à 18h00","latitude":49.1485,"longitude":1.68567,"website":"https://www.ambleville95.com/","hasWebsite":true,"hasHoraires":true,"url":"https://lannuaire.service-public.gouv.fr/ile-de-france/val-d-oise/2eb6a393-8850-44f3-9fec-bae11796dcc0"}
{"nom":"Amenucourt","nomNormalise":"amenucourt","typeCollectivite":"Commune","region":"Île-de-France","departement":"Val-d'Oise","departementCode":"95","adresse":{"street":"1 route Saint-Léger","postalCode":"95510","city":"Amenucourt","country":"France"},"contacts":{"email":"mairie.amenucourt@wanadoo.fr","telephone":"0134797002"},"horaires":"Le Mercredi : de 09h00 à 12h00\nLe Jeudi : de 14h00 à 18h00","latitude":49.106316,"longitude":1.6418891,"website":"https://mairie-amenucourt.fr/","hasWebsite":true,"hasHoraires":true,"url":"https://lannuaire.service-public.gouv.fr/ile-de-france/val-d-oise/26c25932-af5b-4126-b70a-c4496ecea51c"}
{"nom":"Andilly","nomNormalise":"andilly","typeCollectivite":"Commune","region":"Île-de-France","departement":"Val-d'Oise","departementCode":"95","adresse":{"street":"Hôtel de Ville","postalCode":"95580","city":"Andilly","country":"France"},"contacts":{"email":"secretariat@mairie-andilly.fr","telephone":"0134164636"},"horaires":"Du Lundi au Vendredi : de 08h30 à 12h30 de 13h30 à 17h00\nLe Samedi : de 09h00 à 11h45\n\nAccueil ouvert uniquement pour l'état civil, fermé en juillet-août.","latitude":49.005478,"longitude":2.3001854,"website":"https://www.ville-andilly-95.fr/","hasWebsite":true,"hasHoraires":true,"url":"https://lannuaire.service-public.gouv.fr/ile-de-france/val-d-oise/51ef36cf-075c-41b2-afec-58b7199879cb"}
{"nom":"Argenteuil","nomNormalise":"argenteuil","typeCollectivite":"Commune","region":"Île-de-France","departement":"Val-d'Oise","departementCode":"95","adresse":{"street":"12-14 boulevard Léon-Feix","postalCode":"95100","city":"Argenteuil","country":"France"},"contacts":{"email":"","telephone":"0134234100"},"horaires":"Du Lundi au Mercredi : de 08h30 à 17h30\nLe Jeudi : de 11h00 à 17h30\nLe Vendredi : de 08h30 à 17h30\nLe Samedi : de 08h30 à 12h00","latitude":48.94691,"longitude":2.249245,"website":"https://www.argenteuil.fr/fr","hasWebsite":true,"hasHoraires":true,"url":"https://lannuaire.service-public.gouv.fr/ile-de-france/val-d-oise/5e27d725-abf2-4cc1-85fb-c7da1f2999c0"}
{"nom":"Arnouville","nomNormalise":"arnouville","typeCollectivite":"Commune","region":"Île-de-France","departement":"Val-d'Oise","departementCode":"95","adresse":{"street":"15-17 rue Robert-Schuman","postalCode":"95400","city":"Arnouville","country":"France"},"contacts":{"email":"sgeneral@arnouville95.org","telephone":"0130111616"},"horaires":"Du Lundi au Mercredi : de 08h30 à 12h30 de 13h30 à 17h30\nLe Jeudi : de 13h00 à 18h30\nLe Vendredi : de 08h30 à 12h30 de 13h30 à 17h00","latitude":48.989628,"longitude":2.4202669,"website":"https://arnouville95.fr/","hasWebsite":true,"hasHoraires":true,"url":"https://lannuaire.service-public.gouv.fr/ile-de-france/val-d-oise/36d78a20-3e71-483e-a07c-9a57593e3b2d"}
{"nom":"Arronville","nomNormalise":"arronville","typeCollectivite":"Commune","region":"Île-de-France","departement":"Val-d'Oise","departementCode":"95","adresse":{"street":"12 rue de la Mairie","postalCode":"95810","city":"Arronville","country":"France"},"contacts":{"email":"arronville@wanadoo.fr","telephone":"0134665163"},"horaires":"Le Lundi : de 09h00 à 12h00 de 14h00 à 16h00\nLe Jeudi : de 09h00 à 12h00 de 14h00 à 16h00\nLe Samedi : de 10h00 à 12h00\n\nOuvert le 1er et 3e samedi du mois.","latitude":49.1861,"longitude":2.10873,"website":"http://www.arronville.fr/","hasWebsite":true,"hasHoraires":true,"url":"https://lannuaire.service-public.gouv.fr/ile-de-france/val-d-oise/70cc346f-1a52-4e36-b9cf-567470ceccc4"}
{"nom":"Arthies","nomNormalise":"arthies","typeCollectivite":"Commune","region":"Île-de-France","departement":"Val-d'Oise","departementCode":"95","adresse":{"street":"Rue de la Mairie","postalCode":"95420","city":"Arthies","country":"France"},"contacts":{"email":"","telephone":"0134672226"},"horaires":"Le Lundi : de 16h00 à 18h30\nLe Vendredi : de 16h00 à 18h00","latitude":49.094566,"longitude":1.788083,"website":"","hasWebsite":false,"hasHoraires":true,"url":"https://lannuaire.service-public.gouv.fr/ile-de-france/val-d-oise/8a0feb99-660b-4606-b520-e82c0e169d5f"}
{"nom":"Asnières-sur-Oise","nomNormalise":"asnieressuroise","typeCollectivite":"Commune","region":"Île-de-France","departement":"Val-d'Oise","departementCode":"95","adresse":{"street":"20 rue d'Aval-Eau","postalCode":"95270","city":"Asnières-sur-Oise","country":"France"},"contacts":{"email":"mairie@aso95.fr","telephone":"0130354141"},"horaires":"Le Lundi : de 09h00 à 12h00\nDu Mardi au Vendredi : de 09h00 à 12h00 de 14h00 à 17h00\n\nAccueil ouvert sur rendez-vous uniquement.","latitude":49.13324,"longitude":2.355899,"website":"https://ville-asnieres-sur-oise.fr/","hasWebsite":true,"hasHoraires":true,"url":"https://lannuaire.service-public.gouv.fr/ile-de-france/val-d-oise/fcf0898f-d8bb-4350-968a-c58c1eb2a805"}
{"nom":"Attainville","nomNormalise":"attainville","typeCollectivite":"Commune","region":"Île-de-France","departement":"Val-d'Oise","departementCode":"95","adresse":{"street":"2 rue Daniel-Renault","postalCode":"95570","city":"Attainville","country":"France"},"contacts":{"email":"mairie@attainville.fr","telephone":"0139910536"},"horaires":"Du Lundi au Vendredi : de 08h45 à 11h45 de 14h00 à 17h00","latitude":49.0572,"longitude":2.34557,"website":"https://attainville.fr/","hasWebsite":true,"hasHoraires":true,"url":"https://lannuaire.service-public.gouv.fr/ile-de-france/val-d-oise/4a7fdcc6-e419-4063-8205-10cd16c698dd"}
{"nom":"Auvers-sur-Oise","nomNormalise":"auverssuroise","typeCollectivite":"Commune","region":"Île-de-France","departement":"Val-d'Oise","departementCode":"95","adresse":{"street":"17 rue du Général-de-Gaulle","postalCode":"95430","city":"Auvers-sur-Oise","country":"France"},"contacts":{"email":"sec.gen@ville-auverssuroise.fr","telephone":"0130367030"},"horaires":"Du Lundi au Mercredi : de 08h30 à 12h00 de 13h30 à 17h00\nLe Jeudi : de 08h30 à 12h00 de 13h30 à 18h00\nLe Vendredi : de 08h30 à 12h00 de 13h30 à 17h00","latitude":49.070587,"longitude":2.171149,"website":"http://www.ville-auverssuroise.fr/","hasWebsite":true,"hasHoraires":true,"url":"https://lannuaire.service-public.gouv.fr/ile-de-france/val-d-oise/d8f60a04-07d1-4c93-8e02-346fa5452b64"}
{"nom":"Avernes","nomNormalise":"avernes","typeCollectivite":"Commune","region":"Île-de-France","departement":"Val-d'Oise","departementCode":"95","adresse":{"street":"39 Grande rue","postalCode":"95450","city":"Avernes","country":"France"},"contacts":{"email":"mairie@avernes95.fr","telephone":"0130392013"},"horaires":"Du Lundi au Mardi : de 09h00 à 12h00 de 14h15 à 18h00\nDu Jeudi au Vendredi : de 09h00 à 12h00 de 14h15 à 18h00\nLe Samedi : de 10h00 à 12h00","latitude":49.0868,"longitude":1.87284,"website":"http://www.avernes95.fr/","hasWebsite":true,"hasHoraires":true,"url":"https://lannuaire.service-public.gouv.fr/ile-de-france/val-d-oise/c23327b7-7798-43a7-9316-569727c7e278"}
{"nom":"Baillet-en-France","nomNormalise":"bailletenfrance","typeCollectivite":"Commune","region":"Île-de-France","departement":"Val-d'Oise","departementCode":"95","adresse":{"street":"1 rue Jean-Nicolas","postalCode":"95560","city":"Baillet-en-France","country":"France"},"contacts":{"email":"info@baillet-en-france.fr","telephone":"0134698264"},"horaires":"Le Lundi : de 08h30 à 12h00 de 14h00 à 17h00\nDu Mardi au Mercredi : de 08h30 à 12h00\nDu Jeudi au Vendredi : de 08h30 à 12h00 de 14h00 à 17h00\nLe Samedi : de 08h30 à 12h00\n\nAccueil ouvert un samedi sur deux.","latitude":49.062885,"longitude":2.2991562,"website":"http://www.bailletenfrance.jimdo.com/","hasWebsite":true,"hasHoraires":true,"url":"https://lannuaire.service-public.gouv.fr/ile-de-france/val-d-oise/36206d4b-2326-4d78-bb4b-5fc528943d1e"}
{"nom":"Banthelu","nomNormalise":"banthelu","typeCollectivite":"Commune","region":"Île-de-France","departement":"Val-d'Oise","departementCode":"95","adresse":{"street":"3 rue de la Mairie","postalCode":"95420","city":"Banthelu","country":"France"},"contacts":{"email":"mairie.banthelu@wanadoo.fr","telephone":"0134674692"},"horaires":"Le Mardi : de 14h00 à 17h00\nLe Vendredi : de 09h00 à 12h00","latitude":49.12601,"longitude":1.814292,"website":"","hasWebsite":false,"hasHoraires":true,"url":"https://lannuaire.service-public.gouv.fr/ile-de-france/val-d-oise/76e9b9d6-708d-4026-b0d8-9c5c7fb03004"}
{"nom":"Beauchamp","nomNormalise":"beauchamp","typeCollectivite":"Commune","region":"Île-de-France","departement":"Val-d'Oise","departementCode":"95","adresse":{"street":"1 place Camille-Fouinat","postalCode":"95250","city":"Beauchamp","country":"France"},"contacts":{"email":"etat-civil@ville-beauchamp.fr","telephone":"0130404545"},"horaires":"Le Lundi : de 08h30 à 12h00 de 13h30 à 19h00\nDu Mardi au Jeudi : de 08h30 à 12h00 de 13h30 à 17h30\nLe Vendredi : de 08h30 à 12h00\n\nAccueil possible le samedi uniquement sur rendez-vous.","latitude":49.01128,"longitude":2.199008,"website":"https://www.ville-beauchamp.fr/","hasWebsite":true,"hasHoraires":true,"url":"https://lannuaire.service-public.gouv.fr/ile-de-france/val-d-oise/3e9d6704-8542-4ff2-8b5d-39d94f859d83"}
{"nom":"Beaumont-sur-Oise","nomNormalise":"beaumontsuroise","typeCollectivite":"Commune","region":"Île-de-France","departement":"Val-d'Oise","departementCode":"95","adresse":{"street":"29 rue de Paris","postalCode":"95260","city":"Beaumont-sur-Oise","country":"France"},"contacts":{"email":"accueil.mairie@beaumontsuroise.fr","telephone":"0130287979"},"horaires":"Du Lundi au Mercredi : de 08h30 à 12h00 de 13h30 à 17h30\nLe Jeudi : de 13h30 à 17h30\nLe Vendredi : de 08h30 à 12h00 de 13h30 à 17h30\nLe Samedi : de 08h30 à 12h00\n\nAccueil ouvert pour l'état civil et titres d'identité uniquement.","latitude":49.141678,"longitude":2.284329,"website":"https://www.beaumontsuroise.fr/","hasWebsite":true,"hasHoraires":true,"url":"https://lannuaire.service-public.gouv.fr/ile-de-france/val-d-oise/2a3cb556-8961-450b-9b94-395f95453bb0"}
{"nom":"Bellefontaine","nomNormalise":"bellefontaine","typeCollectivite":"Commune","region":"Île-de-France","departement":"Val-d'Oise","departementCode":"95","adresse":{"street":"1 rue des Sablons","postalCode":"95270","city":"Bellefontaine","country":"France"},"contacts":{"email":"mairiesecretariat@bellefontaine.fr","telephone":"0134710176"},"horaires":"Du Lundi au Mardi : de 10h00 à 12h00\nDu Jeudi au Vendredi : de 10h00 à 12h00","latitude":49.0978,"longitude":2.46607,"website":"http://www.bellefontaine.fr/","hasWebsite":true,"hasHoraires":true,"url":"https://lannuaire.service-public.gouv.fr/ile-de-france/val-d-oise/9492daac-0ea2-4b97-bab5-197e2f232767"}
{"nom":"Belloy-en-France","nomNormalise":"belloyenfrance","typeCollectivite":"Commune","region":"Île-de-France","departement":"Val-d'Oise","departementCode":"95","adresse":{"street":"5 place Alphonse-Sainte-Beuve","postalCode":"95270","city":"Belloy-en-France","country":"France"},"contacts":{"email":"mairie@belloy-en-france.fr","telephone":"0130357014"},"horaires":"Du Lundi au Mardi : de 08h30 à 12h00\nLe Mercredi : de 08h30 à 12h00 de 13h30 à 17h45\nDu Jeudi au Samedi : de 08h30 à 12h00","latitude":49.0894,"longitude":2.36787,"website":"http://belloy-en-france.fr/","hasWebsite":true,"hasHoraires":true,"url":"https://lannuaire.service-public.gouv.fr/ile-de-france/val-d-oise/ceba0df7-70fa-49e1-9e9f-f50870203b36"}
{"nom":"Bernes-sur-Oise","nomNormalise":"bernessuroise","typeCollectivite":"Commune","region":"Île-de-France","departement":"Val-d'Oise","departementCode":"95","adresse":{"street":"Place de la Mairie","postalCode":"95340","city":"Bernes-sur-Oise","country":"France"},"contacts":{"email":"mairie@bernes95.fr","telephone":"0134700311"},"horaires":"Le Lundi : de 15h00 à 17h30\nLe Mardi : de 09h00 à 12h00 de 15h00 à 17h30\nLe Mercredi : de 09h00 à 12h00\nDu Jeudi au Vendredi : de 09h00 à 12h00 de 15h00 à 17h30\nLe Samedi : de 09h00 à 12h00\n\nAccueil ouvert uniquement le 1er et 3e samedi du mois pour l'état civil.","latitude":49.1604,"longitude":2.30096,"website":"http://www.bernes-sur-oise.fr/","hasWebsite":true,"hasHoraires":true,"url":"https://lannuaire.service-public.gouv.fr/ile-de-france/val-d-oise/07ee0672-d96f-4774-9072-7503603ca1e6"}
{"nom":"Berville","nomNormalise":"berville","typeCollectivite":"Commune","region":"Île-de-France","departement":"Val-d'Oise","departementCode":"95","adresse":{"street":"20 rue de Heurcourt","postalCode":"95810","city":"Berville","country":"France"},"contacts":{"email":"mairie.de.berville@wanadoo.fr","telephone":"0134665263"},"horaires":"Le Lundi : de 16h15 à 18h30\nLe Jeudi : de 16h15 à 17h30","latitude":49.1926,"longitude":2.06348,"website":"http://www.berville95.fr/","hasWebsite":true,"hasHoraires":true,"url":"https://lannuaire.service-public.gouv.fr/ile-de-france/val-d-oise/b70e6155-d6dc-44d0-93c9-317b25f0ffb1"}
{"nom":"Bessancourt","nomNormalise":"bessancourt","typeCollectivite":"Commune","region":"Île-de-France","departement":"Val-d'Oise","departementCode":"95","adresse":{"street":"Place du 30-Août","postalCode":"95550","city":"Bessancourt","country":"France"},"contacts":{"email":"","telephone":"0130404444"},"horaires":"Du Lundi au Mercredi : de 08h30 à 12h00 de 13h30 à 17h30\nLe Jeudi : de 13h30 à 17h30\nLe Vendredi : de 08h30 à 12h00 de 13h30 à 17h30\nLe Samedi : de 09h30 à 12h00\n\nAccueil ouvert les 1er et 3e samedis du mois.","latitude":49.0385,"longitude":2.21688,"website":"https://www.ville-bessancourt.fr/","hasWebsite":true,"hasHoraires":true,"url":"https://lannuaire.service-public.gouv.fr/ile-de-france/val-d-oise/ed1482a5-90e3-41f2-8e14-50826a4ba4b3"}
{"nom":"Béthemont-la-Forêt","nomNormalise":"bethemontlaforet","typeCollectivite":"Commune","region":"Île-de-France","departement":"Val-d'Oise","departementCode":"95","adresse":{"street":"Rue de Montubois","postalCode":"95840","city":"Béthemont-la-Forêt","country":"France"},"contacts":{"email":"mairie.bethemont-laforet@wanadoo.fr","telephone":"0134692701"},"horaires":"Le Lundi : de 15h30 à 17h30\nLe Mercredi : de 09h30 à 12h00\nLe Jeudi : de 16h00 à 18h30\nLe Samedi : de 09h00 à 12h00","latitude":49.0528,"longitude":2.25102,"website":"https://fremecourt.fr/index.php","hasWebsite":true,"hasHoraires":true,"url":"https://lannuaire.service-public.gouv.fr/ile-de-france/val-d-oise/db98821b-0546-42e0-8e5b-0ee52d2dac5a"}
{"nom":"Bezons","nomNormalise":"bezons","typeCollectivite":"Commune","region":"Île-de-France","departement":"Val-d'Oise","departementCode":"95","adresse":{"street":"6 avenue Gabriel-Péri","postalCode":"95875","city":"Bezons","country":"France"},"contacts":{"email":"communication@mairie-bezons.fr","telephone":"0179876200"},"horaires":"Le Lundi : de 13h30 à 18h00\nDu Mardi au Mercredi : de 08h30 à 12h00 de 13h30 à 18h00\nLe Jeudi : de 13h30 à 18h00\nLe Vendredi : de 08h30 à 12h00 de 13h30 à 17h00\nLe Samedi : de 08h30 à 12h00","latitude":48.927933,"longitude":2.2155707,"website":"https://www.ville-bezons.fr/a-la-une/","hasWebsite":true,"hasHoraires":true,"url":"https://lannuaire.service-public.gouv.fr/ile-de-france/val-d-oise/9eb6008b-eac3-43bc-b7d4-317cbaadda96"}
{"nom":"Boisemont","nomNormalise":"boisemont","typeCollectivite":"Commune","region":"Île-de-France","departement":"Val-d'Oise","departementCode":"95","adresse":{"street":"Rue de l'Église","postalCode":"95000","city":"Boisemont","country":"France"},"contacts":{"email":"mairie@ville-boisemont.fr","telephone":"0134423498"},"horaires":"Le Mardi : de 09h00 à 12h00 de 14h00 à 17h00\nLe Mercredi : de 14h00 à 17h00\nLe Vendredi : de 09h00 à 12h00 de 14h00 à 17h00\nLe Samedi : de 09h00 à 12h00","latitude":49.0219,"longitude":2.00134,"website":"https://ville-boisemont.fr/la-mairie","hasWebsite":true,"hasHoraires":true,"url":"https://lannuaire.service-public.gouv.fr/ile-de-france/val-d-oise/ef11eefa-00c3-43a9-886f-5b5445dba313"}
{"nom":"Boissy-l'Aillerie","nomNormalise":"boissylaillerie","typeCollectivite":"Commune","region":"Île-de-France","departement":"Val-d'Oise","departementCode":"95","adresse":{"street":"9 rue de la République","postalCode":"95650","city":"Boissy-l'Aillerie","country":"France"},"contacts":{"email":"contact@boissy-laillerie.fr","telephone":"0134421005"},"horaires":"Le Lundi : de 14h00 à 17h00\nDu Mardi au Vendredi : de 09h00 à 12h00\nLe Samedi : de 09h30 à 12h00","latitude":49.0775,"longitude":2.03038,"website":"https://www.mairie-boissylaillerie.com/","hasWebsite":true,"hasHoraires":true,"url":"https://lannuaire.service-public.gouv.fr/ile-de-france/val-d-oise/e97f23dc-f900-4707-a866-3db801bdbcf0"}
{"nom":"Bonneuil-en-France","nomNormalise":"bonneuilenfrance","typeCollectivite":"Commune","region":"Île-de-France","departement":"Val-d'Oise","departementCode":"95","adresse":{"street":"15 rue de Gonesse","postalCode":"95500","city":"Bonneuil-en-France","country":"France"},"contacts":{"email":"mairie@bonneuil-en-france.fr","telephone":"0139863040"},"horaires":"Du Lundi au Mardi : de 08h30 à 12h30 de 14h00 à 16h00\nLe Mercredi : de 08h30 à 12h30 de 14h00 à 18h00\nLe Vendredi : de 08h30 à 12h30 de 14h00 à 16h00","latitude":48.9766,"longitude":2.43375,"website":"http://www.bonneuil-en-france.fr/","hasWebsite":true,"hasHoraires":true,"url":"https://lannuaire.service-public.gouv.fr/ile-de-france/val-d-oise/76c2115a-4ec2-4773-94e7-ed4909e59bbb"}
{"nom":"Bouffémont","nomNormalise":"bouffemont","typeCollectivite":"Commune","region":"Île-de-France","departement":"Val-d'Oise","departementCode":"95","adresse":{"street":"45 rue de la République","postalCode":"95570","city":"Bouffémont","country":"France"},"contacts":{"email":"communication@ville-bouffemont.fr","telephone":"0139354383"},"horaires":"Le Lundi : de 14h00 à 17h00\nDu Mardi au Mercredi : de 08h30 à 12h00 de 14h00 à 17h00\nLe Jeudi : de 08h30 à 12h00\nLe Vendredi : de 08h30 à 12h00 de 14h00 à 17h00","latitude":49.043034,"longitude":2.299298,"website":"https://ville-bouffemont.fr/","hasWebsite":true,"hasHoraires":true,"url":"https://lannuaire.service-public.gouv.fr/ile-de-france/val-d-oise/6d8f431a-6ef7-4780-99ab-267c61e18d76"}
{"nom":"Bouqueval","nomNormalise":"bouqueval","typeCollectivite":"Commune","region":"Île-de-France","departement":"Val-d'Oise","departementCode":"95","adresse":{"street":"Place Eugène-Süe","postalCode":"95720","city":"Bouqueval","country":"France"},"contacts":{"email":"mairiebouqueval@wanadoo.fr","telephone":"0139928498"},"horaires":"Du Lundi au Mardi : de 09h00 à 12h00 de 14h00 à 17h00\nLe Mercredi : de 09h00 à 12h00\nLe Jeudi : de 09h00 à 12h00 de 14h00 à 17h00\nLe Vendredi : de 09h00 à 12h00","latitude":49.0245,"longitude":2.42446,"website":"","hasWebsite":false,"hasHoraires":true,"url":"https://lannuaire.service-public.gouv.fr/ile-de-france/val-d-oise/52ab8a8a-a761-45f5-965e-420d9dc05964"}
{"nom":"Bray-et-Lû","nomNormalise":"brayetlu","typeCollectivite":"Commune","region":"Île-de-France","departement":"Val-d'Oise","departementCode":"95","adresse":{"street":"Rue de l'École","postalCode":"95710","city":"Bray-et-Lû","country":"France"},"contacts":{"email":"accueil@mairiebrayetlu.fr","telephone":"0134677219"},"horaires":"Le Lundi : de 08h30 à 11h30 de 13h30 à 17h00\nLe Mardi : de 13h30 à 18h00\nLe Mercredi : de 08h30 à 11h30\nLe Jeudi : de 13h30 à 18h00\nLe Vendredi : de 08h30 à 11h30 de 13h30 à 17h00\nLe Samedi : de 08h30 à 11h30","latitude":49.139,"longitude":1.6639,"website":"https://brayetlu.fr/","hasWebsite":true,"hasHoraires":true,"url":"https://lannuaire.service-public.gouv.fr/ile-de-france/val-d-oise/d9f6a75c-0ac3-4b01-b2af-95deb9bc78d9"}
{"nom":"Bréançon","nomNormalise":"breancon","typeCollectivite":"Commune","region":"Île-de-France","departement":"Val-d'Oise","departementCode":"95","adresse":{"street":"4 rue du Moulin","postalCode":"95640","city":"Bréançon","country":"France"},"contacts":{"email":"mairie@breancon.fr","telephone":"0134666004"},"horaires":"Le Mardi : de 16h00 à 19h00\nLe Vendredi : de 16h00 à 19h00","latitude":49.141987,"longitude":2.020963,"website":"https://breancon.fr/","hasWebsite":true,"hasHoraires":true,"url":"https://lannuaire.service-public.gouv.fr/ile-de-france/val-d-oise/c665ae08-35be-44fc-bc85-f63f84fc22df"}
{"nom":"Brignancourt","nomNormalise":"brignancourt","typeCollectivite":"Commune","region":"Île-de-France","departement":"Val-d'Oise","departementCode":"95","adresse":{"street":"16 rue de la Mairie","postalCode":"95640","city":"Brignancourt","country":"France"},"contacts":{"email":"brignancourt@orange.fr","telephone":"0130398497"},"horaires":"Le Mardi : de 16h00 à 18h00\nLe Jeudi : de 16h00 à 18h00\nLe Samedi : de 10h00 à 12h00\n\nAccueil ouvert le 1er et 3e samedi du mois uniquement.","latitude":49.1377,"longitude":1.94421,"website":"","hasWebsite":false,"hasHoraires":true,"url":"https://lannuaire.service-public.gouv.fr/ile-de-france/val-d-oise/1f099887-d46a-4dfe-8247-241dec0c4a95"}
{"nom":"Bruyères-sur-Oise","nomNormalise":"bruyeressuroise","typeCollectivite":"Commune","region":"Île-de-France","departement":"Val-d'Oise","departementCode":"95","adresse":{"street":"6 rue de la Mairie","postalCode":"95820","city":"Bruyères-sur-Oise","country":"France"},"contacts":{"email":"mairie@bruyeres-sur-oise.fr","telephone":"0130287650"},"horaires":"Du Lundi au Vendredi : de 09h00 à 12h00 de 13h30 à 17h30","latitude":49.15765,"longitude":2.331063,"website":"https://www.bruyeres-sur-oise.com/","hasWebsite":true,"hasHoraires":true,"url":"https://lannuaire.service-public.gouv.fr/ile-de-france/val-d-oise/27b396e0-2b6f-4a94-9d54-e4e1be7b8800"}
{"nom":"Buhy","nomNormalise":"buhy","typeCollectivite":"Commune","region":"Île-de-France","departement":"Val-d'Oise","departementCode":"95","adresse":{"street":"3 rue des Écoles","postalCode":"95770","city":"Buhy","country":"France"},"contacts":{"email":"mairie.buhy@wanadoo.fr","telephone":"0134676095"},"horaires":"Le Lundi : de 13h30 à 17h00\nLe Jeudi : de 17h00 à 19h00","latitude":49.1932,"longitude":1.69259,"website":"http://www.buhy.fr/","hasWebsite":true,"hasHoraires":true,"url":"https://lannuaire.service-public.gouv.fr/ile-de-france/val-d-oise/3e73ca85-8aed-4595-9112-e23a8af2faff"}
{"nom":"Butry-sur-Oise","nomNormalise":"butrysuroise","typeCollectivite":"Commune","region":"Île-de-France","departement":"Val-d'Oise","departementCode":"95","adresse":{"street":"Place Pierre-Blanchard","postalCode":"95430","city":"Butry-sur-Oise","country":"France"},"contacts":{"email":"mairie@villebutrysuroise.fr","telephone":"0134089500"},"horaires":"Du Lundi au Mardi : de 09h00 à 12h00 de 13h30 à 17h30\nLe Mercredi : de 09h00 à 12h00\nDu Jeudi au Vendredi : de 09h00 à 12h00 de 13h30 à 17h30\nLe Samedi : de 09h00 à 12h00","latitude":49.08503,"longitude":2.195376,"website":"http://www.butry.fr/","hasWebsite":true,"hasHoraires":true,"url":"https://lannuaire.service-public.gouv.fr/ile-de-france/val-d-oise/b05f684e-d6d1-41ae-8125-843bc27e248d"}
{"nom":"Cergy","nomNormalise":"cergy","typeCollectivite":"Commune","region":"Île-de-France","departement":"Val-d'Oise","departementCode":"95","adresse":{"street":"3 place de l'Olympe-de-Gouges","postalCode":"95800","city":"Cergy","country":"France"},"contacts":{"email":"contact@cergy.fr","telephone":"0134334400"},"horaires":"Du Lundi au Mercredi : de 08h45 à 12h30 de 13h30 à 17h30\nLe Jeudi : de 13h30 à 17h30\nLe Vendredi : de 08h45 à 12h30 de 13h30 à 17h30\nLe Samedi : de 09h00 à 12h30","latitude":49.052155,"longitude":2.036392,"website":"https://www.cergy.fr/accueil/","hasWebsite":true,"hasHoraires":true,"url":"https://lannuaire.service-public.gouv.fr/ile-de-france/val-d-oise/7004a2b2-d3fd-4e78-a00f-b0c80920cfd1"}
{"nom":"Champagne-sur-Oise","nomNormalise":"champagnesuroise","typeCollectivite":"Commune","region":"Île-de-France","departement":"Val-d'Oise","departementCode":"95","adresse":{"street":"8 bis place du Général-de-Gaulle","postalCode":"95660","city":"Champagne-sur-Oise","country":"France"},"contacts":{"email":"accueil@villedechampagne.fr","telephone":"0130287777"},"horaires":"Du Lundi au Jeudi : de 08h30 à 12h00 de 13h30 à 17h30\nLe Vendredi : de 08h30 à 12h00 de 13h30 à 16h30\nLe Samedi : de 08h30 à 12h00\n\nAccueil fermé le samedi pendant les vacances scolaires.","latitude":49.134,"longitude":2.23104,"website":"http://www.champagne95.fr/","hasWebsite":true,"hasHoraires":true,"url":"https://lannuaire.service-public.gouv.fr/ile-de-france/val-d-oise/78b49139-3bae-4d99-85f6-a5671e731242"}
{"nom":"Charmont","nomNormalise":"charmont","typeCollectivite":"Commune","region":"Île-de-France","departement":"Val-d'Oise","departementCode":"95","adresse":{"street":"4 Grande rue","postalCode":"95420","city":"Charmont","country":"France"},"contacts":{"email":"mairie.charmont@wanadoo.fr","telephone":"0161020951"},"horaires":"Le Mardi : de 09h00 à 12h00\nLe Vendredi : de 14h00 à 17h00","latitude":49.137253,"longitude":1.790654,"website":"","hasWebsite":false,"hasHoraires":true,"url":"https://lannuaire.service-public.gouv.fr/ile-de-france/val-d-oise/98cea978-2e2f-49f7-b21f-41c924315893"}
{"nom":"Chars","nomNormalise":"chars","typeCollectivite":"Commune","region":"Île-de-France","departement":"Val-d'Oise","departementCode":"95","adresse":{"street":"2 rue de Gisors","postalCode":"95750","city":"Chars","country":"France"},"contacts":{"email":"administration@mairie-chars.fr","telephone":"0130397236"},"horaires":"Du Lundi au Mercredi : de 09h00 à 12h00 de 13h30 à 17h00\nLe Jeudi : de 09h00 à 12h00\nLe Vendredi : de 09h00 à 12h00 de 13h30 à 17h00\nLe Samedi : de 09h00 à 12h00","latitude":49.1608,"longitude":1.93336,"website":"http://www.mairiechars95.fr/","hasWebsite":true,"hasHoraires":true,"url":"https://lannuaire.service-public.gouv.fr/ile-de-france/val-d-oise/0d95b18a-5c0c-4ca8-97e7-fe608d890dc3"}
{"nom":"Châtenay-en-France","nomNormalise":"chatenayenfrance","typeCollectivite":"Commune","region":"Île-de-France","departement":"Val-d'Oise","departementCode":"95","adresse":{"street":"10 rue de l'Église","postalCode":"95190","city":"Châtenay-en-France","country":"France"},"contacts":{"email":"","telephone":"0134711993"},"horaires":"","latitude":49.0667,"longitude":2.45744,"website":"","hasWebsite":false,"hasHoraires":false,"url":"https://lannuaire.service-public.gouv.fr/ile-de-france/val-d-oise/6258bc66-5d01-449b-b13f-1409f29e647e"}
{"nom":"Chaumontel","nomNormalise":"chaumontel","typeCollectivite":"Commune","region":"Île-de-France","departement":"Val-d'Oise","departementCode":"95","adresse":{"street":"20 rue André-Vassord","postalCode":"95270","city":"Chaumontel","country":"France"},"contacts":{"email":"mairie@ville-chaumontel.fr","telephone":"0134710396"},"horaires":"Le Lundi : de 08h30 à 12h00 de 13h30 à 18h00\nLe Mardi : de 13h30 à 18h00\nDu Mercredi au Jeudi : de 08h30 à 12h00\nLe Vendredi : de 08h30 à 12h30 de 13h30 à 18h00\nLe Samedi : de 08h30 à 12h00\n\nAccueil le samedi ouvert uniquement les semaines paires.","latitude":49.122753,"longitude":2.431666,"website":"https://ville-chaumontel.fr/","hasWebsite":true,"hasHoraires":true,"url":"https://lannuaire.service-public.gouv.fr/ile-de-france/val-d-oise/917e8480-04ff-4ccf-904c-b133713b1e24"}
{"nom":"Chaussy","nomNormalise":"chaussy","typeCollectivite":"Commune","region":"Île-de-France","departement":"Val-d'Oise","departementCode":"95","adresse":{"street":"Place Charles-de-Gaulle","postalCode":"95710","city":"Chaussy","country":"France"},"contacts":{"email":"mairie.chaussy@wanadoo.fr","telephone":"0134677011"},"horaires":"Le Mardi : de 09h00 à 12h00\n\nPermanence téléphonique tous les jours de 9h à 16h, sauf le mercredi.\nLe Mercredi : de 17h00 à 19h00\n\nAccueil ouvert uniquement les semaines paires.\nLe Jeudi : de 13h30 à 16h30\nLe Samedi : de 09h00 à 11h00\n\nAccueil ouvert uniquement les semaines impaires.","latitude":49.1214,"longitude":1.69381,"website":"http://www.chaussy95.fr/","hasWebsite":true,"hasHoraires":true,"url":"https://lannuaire.service-public.gouv.fr/ile-de-france/val-d-oise/1120e367-9512-41b2-9823-ea4b1bae478d"}
{"nom":"Chauvry","nomNormalise":"chauvry","typeCollectivite":"Commune","region":"Île-de-France","departement":"Val-d'Oise","departementCode":"95","adresse":{"street":"Grande rue","postalCode":"95560","city":"Chauvry","country":"France"},"contacts":{"email":"mairie.de.chauvry@orange.fr","telephone":"0134692609"},"horaires":"Du Lundi au Mardi : de 16h30 à 18h00\nLe Jeudi : de 16h30 à 18h00\nLe Vendredi : de 16h30 à 18h30","latitude":49.05447,"longitude":2.266477,"website":"https://chauvry.fr/","hasWebsite":true,"hasHoraires":true,"url":"https://lannuaire.service-public.gouv.fr/ile-de-france/val-d-oise/925fe371-90ec-454d-9edd-df4435e13b86"}
{"nom":"Chennevières-lès-Louvres","nomNormalise":"chennevieresleslouvres","typeCollectivite":"Commune","region":"Île-de-France","departement":"Val-d'Oise","departementCode":"95","adresse":{"street":"5 place de l'Église","postalCode":"95380","city":"Chennevières-lès-Louvres","country":"France"},"contacts":{"email":"mairie@chennevieresleslouvres.fr","telephone":"0134681430"},"horaires":"","latitude":49.044918,"longitude":2.551199,"website":"","hasWebsite":false,"hasHoraires":false,"url":"https://lannuaire.service-public.gouv.fr/ile-de-france/val-d-oise/2a92e121-1ac0-42bb-b43a-9fdac84287f1"}
{"nom":"Chérence","nomNormalise":"cherence","typeCollectivite":"Commune","region":"Île-de-France","departement":"Val-d'Oise","departementCode":"95","adresse":{"street":"8 rue de l'Église","postalCode":"95510","city":"Chérence","country":"France"},"contacts":{"email":"mairie.cherence@wanadoo.fr","telephone":"0134781508"},"horaires":"","latitude":49.08774,"longitude":1.677241,"website":"","hasWebsite":false,"hasHoraires":false,"url":"https://lannuaire.service-public.gouv.fr/ile-de-france/val-d-oise/c50862e1-95fb-4cd3-871a-2bcbddaefe58"}
{"nom":"Cléry-en-Vexin","nomNormalise":"cleryenvexin","typeCollectivite":"Commune","region":"Île-de-France","departement":"Val-d'Oise","departementCode":"95","adresse":{"street":"4 rue de la Fontaine-d'Ascot","postalCode":"95420","city":"Cléry-en-Vexin","country":"France"},"contacts":{"email":"commune-de-clery@wanadoo.fr","telephone":"0134674238"},"horaires":"Du Lundi au Mardi : de 09h00 à 12h00\nLe Jeudi : de 09h00 à 12h00 de 17h00 à 19h00\nLe Vendredi : de 09h00 à 12h00","latitude":49.127502,"longitude":1.842351,"website":"https://clery-en-vexin.fr/","hasWebsite":true,"hasHoraires":true,"url":"https://lannuaire.service-public.gouv.fr/ile-de-france/val-d-oise/7596780f-b167-4626-9e4a-18968c43518c"}
{"nom":"Commeny","nomNormalise":"commeny","typeCollectivite":"Commune","region":"Île-de-France","departement":"Val-d'Oise","departementCode":"95","adresse":{"street":"39 Grande rue","postalCode":"95450","city":"Commeny","country":"France"},"contacts":{"email":"mairie@commeny95.fr","telephone":"0134674005"},"horaires":"Du Lundi au Mardi : de 14h00 à 18h30\nLe Mercredi : de 08h30 à 12h00 de 13h30 à 15h30\nDu Jeudi au Vendredi : de 14h00 à 18h30","latitude":49.126972,"longitude":1.890404,"website":"https://commeny95.fr/","hasWebsite":true,"hasHoraires":true,"url":"https://lannuaire.service-public.gouv.fr/ile-de-france/val-d-oise/823e77e3-f5dd-4def-8260-b1f81e97b8fb"}
{"nom":"Condécourt","nomNormalise":"condecourt","typeCollectivite":"Commune","region":"Île-de-France","departement":"Val-d'Oise","departementCode":"95","adresse":{"street":"37 rue de la Libération","postalCode":"95450","city":"Condécourt","country":"France"},"contacts":{"email":"mairie.condecourt@wanadoo.fr","telephone":"0134663175"},"horaires":"Le Mardi : de 17h00 à 19h30\nLe Mercredi : de 09h30 à 11h45\nLe Jeudi : de 17h00 à 19h30","latitude":49.039883,"longitude":1.941237,"website":"https://condecourt.fr/","hasWebsite":true,"hasHoraires":true,"url":"https://lannuaire.service-public.gouv.fr/ile-de-france/val-d-oise/9ffda25c-2d66-43aa-ae6f-b2840d226823"}
{"nom":"Cormeilles-en-Parisis","nomNormalise":"cormeillesenparisis","typeCollectivite":"Commune","region":"Île-de-France","departement":"Val-d'Oise","departementCode":"95","adresse":{"street":"3 avenue Maurice-Berteaux","postalCode":"95240","city":"Cormeilles-en-Parisis","country":"France"},"contacts":{"email":"contact@ville-cormeilles95.fr","telephone":"0134504700"},"horaires":"Le Lundi : de 13h30 à 18h30\nDu Mardi au Vendredi : de 08h30 à 12h00 de 13h30 à 17h30\nLe Samedi : de 08h30 à 12h00","latitude":48.9764,"longitude":2.20033,"website":"http://www.ville-cormeilles95.fr/","hasWebsite":true,"hasHoraires":true,"url":"https://lannuaire.service-public.gouv.fr/ile-de-france/val-d-oise/24357758-b556-4837-8218-98dd2dc33fa8"}
{"nom":"Cormeilles-en-Vexin","nomNormalise":"cormeillesenvexin","typeCollectivite":"Commune","region":"Île-de-France","departement":"Val-d'Oise","departementCode":"95","adresse":{"street":"49 rue Curie","postalCode":"95830","city":"Cormeilles-en-Vexin","country":"France"},"contacts":{"email":"mairie@cormeilles-en-vexin.fr","telephone":"0134666119"},"horaires":"Du Lundi au Vendredi : de 08h30 à 12h00 de 15h30 à 18h00\nLe Samedi : de 09h15 à 12h00","latitude":49.115677,"longitude":2.021047,"website":"https://cormeilles-en-vexin.fr/","hasWebsite":true,"hasHoraires":true,"url":"https://lannuaire.service-public.gouv.fr/ile-de-france/val-d-oise/797b5f3d-b910-4d8c-88ea-99161b28168e"}
{"nom":"Courcelles-sur-Viosne","nomNormalise":"courcellessurviosne","typeCollectivite":"Commune","region":"Île-de-France","departement":"Val-d'Oise","departementCode":"95","adresse":{"street":"14 rue de la Libération","postalCode":"95650","city":"Courcelles-sur-Viosne","country":"France"},"contacts":{"email":"","telephone":"0134427101"},"horaires":"Le Mardi : de 08h30 à 12h30 de 13h30 à 17h30\nLe Mercredi : de 13h00 à 20h00\nLe Jeudi : de 08h30 à 12h30 de 13h00 à 16h00","latitude":49.07718,"longitude":2.003672,"website":"http://www.courcelles-sur-viosne.fr/","hasWebsite":true,"hasHoraires":true,"url":"https://lannuaire.service-public.gouv.fr/ile-de-france/val-d-oise/ff845de2-7283-47b8-8b49-3b06dad40a43"}
{"nom":"Courdimanche","nomNormalise":"courdimanche","typeCollectivite":"Commune","region":"Île-de-France","departement":"Val-d'Oise","departementCode":"95","adresse":{"street":"Rue Vieille-Saint-Martin","postalCode":"95800","city":"Courdimanche","country":"France"},"contacts":{"email":"mairie@ville-courdimanche.fr","telephone":"0134467200"},"horaires":"Le Lundi : de 13h45 à 17h45\nLe Mardi : de 08h45 à 12h00 de 13h45 à 17h45\nLe Mercredi : de 08h45 à 12h00 de 14h00 à 17h00\nDu Jeudi au Vendredi : de 08h45 à 12h00 de 13h45 à 17h45\nLe Samedi : de 09h00 à 12h00","latitude":49.038,"longitude":2.00476,"website":"https://ville-courdimanche.fr/","hasWebsite":true,"hasHoraires":true,"url":"https://lannuaire.service-public.gouv.fr/ile-de-france/val-d-oise/997b040d-9608-4002-a37e-8a8e19352817"}
{"nom":"Deuil-la-Barre","nomNormalise":"deuillabarre","typeCollectivite":"Commune","region":"Île-de-France","departement":"Val-d'Oise","departementCode":"95","adresse":{"street":"36 rue Charles-de-Gaulle","postalCode":"95170","city":"Deuil-la-Barre","country":"France"},"contacts":{"email":"accueil@deuillabarre.fr","telephone":"0134286500"},"horaires":"Le Lundi : de 08h30 à 12h00 de 13h30 à 17h00\nLe Mardi : de 08h30 à 12h00\nDu Mercredi au Vendredi : de 08h30 à 12h00 de 13h30 à 17h00\nLe Samedi : de 08h30 à 12h00\n\nAccueil ouvert uniquement pour les services accueil, état civil et multi-services.","latitude":48.97538,"longitude":2.328438,"website":"http://www.mairie-deuillabarre.fr/","hasWebsite":true,"hasHoraires":true,"url":"https://lannuaire.service-public.gouv.fr/ile-de-france/val-d-oise/42047bde-8b69-4ae9-9efd-64fb518de5b3"}
{"nom":"Domont","nomNormalise":"domont","typeCollectivite":"Commune","region":"Île-de-France","departement":"Val-d'Oise","departementCode":"95","adresse":{"street":"47 rue de la Mairie","postalCode":"95330","city":"Domont","country":"France"},"contacts":{"email":"","telephone":"0139355500"},"horaires":"Le Lundi : de 08h30 à 12h00 de 13h30 à 19h30\nDu Mardi au Jeudi : de 08h30 à 12h00 de 14h00 à 17h30\nLe Vendredi : de 08h30 à 12h00 de 14h00 à 17h00","latitude":49.027843,"longitude":2.327201,"website":"https://www.ville-domont.fr/","hasWebsite":true,"hasHoraires":true,"url":"https://lannuaire.service-public.gouv.fr/ile-de-france/val-d-oise/9082b76c-8f38-4280-b8f9-2bb0e644c2fc"}
{"nom":"Eaubonne","nomNormalise":"eaubonne","typeCollectivite":"Commune","region":"Île-de-France","departement":"Val-d'Oise","departementCode":"95","adresse":{"street":"1 rue d'Enghien","postalCode":"95600","city":"Eaubonne","country":"France"},"contacts":{"email":"accueil@eaubonne.fr","telephone":"0134272600"},"horaires":"Du Lundi au Mercredi : de 08h45 à 12h30 de 13h30 à 17h00\nLe Jeudi : de 13h30 à 17h00\nLe Vendredi : de 08h45 à 12h30 de 13h30 à 17h00\nLe Samedi : de 08h45 à 12h30","latitude":48.99111,"longitude":2.279103,"website":"https://www.eaubonne.fr/","hasWebsite":true,"hasHoraires":true,"url":"https://lannuaire.service-public.gouv.fr/ile-de-france/val-d-oise/191abfc4-de45-4f79-9707-ea6e867103fd"}
{"nom":"Écouen","nomNormalise":"ecouen","typeCollectivite":"Commune","region":"Île-de-France","departement":"Val-d'Oise","departementCode":"95","adresse":{"street":"Place de la Mairie","postalCode":"95440","city":"Écouen","country":"France"},"contacts":{"email":"","telephone":"0139330900"},"horaires":"Du Lundi au Mercredi : de 08h30 à 12h00 de 13h30 à 18h00\nLe Jeudi : de 08h30 à 12h00\nLe Vendredi : de 08h30 à 12h00 de 13h30 à 18h00\nLe Samedi : de 08h30 à 12h00","latitude":49.018314,"longitude":2.378879,"website":"https://www.ecouen.fr/","hasWebsite":true,"hasHoraires":true,"url":"https://lannuaire.service-public.gouv.fr/ile-de-france/val-d-oise/e1caf75c-01be-46e6-b7c2-d3c59c0109bf"}
{"nom":"Enghien-les-Bains","nomNormalise":"enghienlesbains","typeCollectivite":"Commune","region":"Île-de-France","departement":"Val-d'Oise","departementCode":"95","adresse":{"street":"57 rue du Général-de-Gaulle","postalCode":"95880","city":"Enghien-les-Bains","country":"France"},"contacts":{"email":"etatcivil@enghien95.fr","telephone":"0134284545"},"horaires":"Du Lundi au Mercredi : de 08h30 à 12h00 de 13h30 à 17h30\nLe Jeudi : de 08h30 à 12h00\nLe Vendredi : de 08h30 à 12h00 de 13h30 à 17h00\nLe Samedi : de 08h30 à 12h00\n\nAccueil ouvert uniquement pour l'état civil.","latitude":48.969173,"longitude":2.305081,"website":"https://www.enghienlesbains.fr/","hasWebsite":true,"hasHoraires":true,"url":"https://lannuaire.service-public.gouv.fr/ile-de-france/val-d-oise/c6d418c6-9238-4ef2-a21c-3c608c727f06"}
{"nom":"Ennery","nomNormalise":"ennery","typeCollectivite":"Commune","region":"Île-de-France","departement":"Val-d'Oise","departementCode":"95","adresse":{"street":"Rue du Moutier","postalCode":"95300","city":"Ennery","country":"France"},"contacts":{"email":"mairie@ennery.fr","telephone":"0134416130"},"horaires":"Le Lundi : de 08h30 à 12h00 de 13h30 à 17h00\nLe Mercredi : de 08h30 à 12h00 de 13h30 à 17h00\nLe Jeudi : de 08h30 à 12h15 de 13h30 à 18h00\nLe Vendredi : de 08h30 à 12h00 de 13h30 à 17h00\nLe Samedi : de 09h30 à 12h00","latitude":49.08,"longitude":2.10872,"website":"http://www.ennery.fr/","hasWebsite":true,"hasHoraires":true,"url":"https://lannuaire.service-public.gouv.fr/ile-de-france/val-d-oise/ee76b2ab-231a-44b4-817e-3011fe2c3e08"}
{"nom":"Épiais-lès-Louvres","nomNormalise":"epiaisleslouvres","typeCollectivite":"Commune","region":"Île-de-France","departement":"Val-d'Oise","departementCode":"95","adresse":{"street":"8 rue du Manoir","postalCode":"95380","city":"Épiais-lès-Louvres","country":"France"},"contacts":{"email":"mairieepiais-leslouvres@wanadoo.fr","telephone":"0134681460"},"horaires":"","latitude":49.0318,"longitude":2.557015,"website":"","hasWebsite":false,"hasHoraires":false,"url":"https://lannuaire.service-public.gouv.fr/ile-de-france/val-d-oise/8dbe8f9a-b07a-4c59-997f-ed0652961bbc"}
{"nom":"Épiais-Rhus","nomNormalise":"epiaisrhus","typeCollectivite":"Commune","region":"Île-de-France","departement":"Val-d'Oise","departementCode":"95","adresse":{"street":"22 rue Saint-Didier","postalCode":"95810","city":"Épiais-Rhus","country":"France"},"contacts":{"email":"mairie.epiais-rhus@wanadoo.fr","telephone":"0134666233"},"horaires":"Du Mardi au Mercredi : de 09h00 à 12h00\nLe Jeudi : de 17h00 à 19h00\nLe Vendredi : de 09h00 à 12h00\nLe Samedi : de 10h00 à 12h00","latitude":49.123386,"longitude":2.06427,"website":"https://epiais-rhus.fr/","hasWebsite":true,"hasHoraires":true,"url":"https://lannuaire.service-public.gouv.fr/ile-de-france/val-d-oise/1e594e76-5694-4cc5-87ae-73d2b92e6525"}
{"nom":"Épinay-Champlâtreux","nomNormalise":"epinaychamplatreux","typeCollectivite":"Commune","region":"Île-de-France","departement":"Val-d'Oise","departementCode":"95","adresse":{"street":"13 Ancienne route nationale 16","postalCode":"95270","city":"Épinay-Champlâtreux","country":"France"},"contacts":{"email":"mairie@epinaychamplatreux.fr","telephone":"0953948630"},"horaires":"","latitude":49.08507,"longitude":2.414001,"website":"","hasWebsite":false,"hasHoraires":false,"url":"https://lannuaire.service-public.gouv.fr/ile-de-france/val-d-oise/56c39f78-72b8-4dc4-a4d3-6f4201aee67b"}
{"nom":"Éragny‑sur‑Oise","nomNormalise":"eragnysuroise","typeCollectivite":"Commune","region":"Île-de-France","departement":"Val-d'Oise","departementCode":"95","adresse":{"street":"Place Louis-Don-Marino","postalCode":"95610","city":"Éragny-sur-Oise","country":"France"},"contacts":{"email":"com@eragny.fr","telephone":"0134483500"},"horaires":"Du Lundi au Mardi : de 08h30 à 12h00 de 13h30 à 17h15\nLe Mercredi : de 08h30 à 12h00\nDu Jeudi au Vendredi : de 08h30 à 12h00 de 13h30 à 17h15\nLe Samedi : de 08h30 à 12h00","latitude":49.02458,"longitude":2.094985,"website":"https://eragny.fr/","hasWebsite":true,"hasHoraires":true,"url":"https://lannuaire.service-public.gouv.fr/ile-de-france/val-d-oise/7b1155d8-a2d8-4491-8b9a-a9d7d659f09d"}
{"nom":"Ermont","nomNormalise":"ermont","typeCollectivite":"Commune","region":"Île-de-France","departement":"Val-d'Oise","departementCode":"95","adresse":{"street":"100 rue Louis-Savoie","postalCode":"95120","city":"Ermont","country":"France"},"contacts":{"email":"mairie@ville-ermont.fr","telephone":"0970809347"},"horaires":"Du Lundi au Mercredi : de 08h45 à 12h00 de 13h30 à 17h45\nLe Jeudi : de 08h45 à 12h00\nLe Vendredi : de 08h45 à 12h00 de 13h30 à 16h45\nLe Samedi : de 08h45 à 12h00\n\n(uniquement pour état-civil, élections)","latitude":48.99195,"longitude":2.258235,"website":"https://www.ermont.fr/","hasWebsite":true,"hasHoraires":true,"url":"https://lannuaire.service-public.gouv.fr/ile-de-france/val-d-oise/05c6dc9e-ff22-4531-bf9a-0ae01336d65d"}
{"nom":"Ézanville","nomNormalise":"ezanville","typeCollectivite":"Commune","region":"Île-de-France","departement":"Val-d'Oise","departementCode":"95","adresse":{"street":"Place Jules-Rodet","postalCode":"95460","city":"Ézanville","country":"France"},"contacts":{"email":"secretariat.mairie@ezanville.fr","telephone":"0139354480"},"horaires":"Du Lundi au Vendredi : de 08h30 à 11h45 de 13h30 à 17h15\n\nFermeture à 11h50 le matin et 17h20 l'après-midi.","latitude":49.0312,"longitude":2.36179,"website":"https://www.ezanville.fr/","hasWebsite":true,"hasHoraires":true,"url":"https://lannuaire.service-public.gouv.fr/ile-de-france/val-d-oise/20ab445a-b563-4c6a-bb0b-817eb88a2b18"}
{"nom":"Fontenay-en-Parisis","nomNormalise":"fontenayenparisis","typeCollectivite":"Commune","region":"Île-de-France","departement":"Val-d'Oise","departementCode":"95","adresse":{"street":"10 place Stalingrad","postalCode":"95190","city":"Fontenay-en-Parisis","country":"France"},"contacts":{"email":"mairiefontenay@fontenayenparisis.fr","telephone":"0134711107"},"horaires":"Du Lundi au Mercredi : de 08h30 à 12h00 de 13h30 à 17h00\nLe Jeudi : de 08h30 à 12h00\nLe Vendredi : de 08h30 à 12h00 de 13h30 à 17h00\nLe Samedi : de 10h00 à 12h00","latitude":49.05385,"longitude":2.4512153,"website":"https://www.fontenay-en-parisis.fr/","hasWebsite":true,"hasHoraires":true,"url":"https://lannuaire.service-public.gouv.fr/ile-de-france/val-d-oise/14a20c0d-01bd-424f-805e-ce02d8489ac0"}
{"nom":"Fosses","nomNormalise":"fosses","typeCollectivite":"Commune","region":"Île-de-France","departement":"Val-d'Oise","departementCode":"95","adresse":{"street":"1 place du 19-Mars-1962","postalCode":"95470","city":"Fosses","country":"France"},"contacts":{"email":"","telephone":"0134474040"},"horaires":"Le Lundi : de 13h00 à 17h30\nDu Mardi au Mercredi : de 09h00 à 12h00 de 13h00 à 17h30\nLe Jeudi : de 14h30 à 20h00\nLe Vendredi : de 09h00 à 12h00 de 13h00 à 17h30\nLe Samedi : de 10h00 à 12h00\n\nSauf pendant les vacances scolaires d'été.","latitude":49.098698,"longitude":2.515927,"website":"https://ville-fosses95.fr/","hasWebsite":true,"hasHoraires":true,"url":"https://lannuaire.service-public.gouv.fr/ile-de-france/val-d-oise/5b7a88d1-c577-4729-a8ad-178a3239caf2"}
{"nom":"Franconville","nomNormalise":"franconville","typeCollectivite":"Commune","region":"Île-de-France","departement":"Val-d'Oise","departementCode":"95","adresse":{"street":"11 rue de la Station","postalCode":"95130","city":"Franconville","country":"France"},"contacts":{"email":"monsieurlemaire@ville-franconville.fr","telephone":"0139326600"},"horaires":"Du Lundi au Mardi : de 08h30 à 12h15 de 13h30 à 18h00\nLe Mercredi : de 08h30 à 12h00\nDu Jeudi au Vendredi : de 08h30 à 12h15 de 13h30 à 18h00\nLe Samedi : de 08h30 à 12h00","latitude":48.985996,"longitude":2.230769,"website":"https://www.ville-franconville.fr/","hasWebsite":true,"hasHoraires":true,"url":"https://lannuaire.service-public.gouv.fr/ile-de-france/val-d-oise/2baecf4b-4225-486f-8de5-66b397ab3c56"}
{"nom":"Frémainville","nomNormalise":"fremainville","typeCollectivite":"Commune","region":"Île-de-France","departement":"Val-d'Oise","departementCode":"95","adresse":{"street":"1 rue des Ormeteaux","postalCode":"95450","city":"Frémainville","country":"France"},"contacts":{"email":"mairie@fremainville.fr","telephone":"0134754874"},"horaires":"Le Lundi : de 14h00 à 17h30\nLe Mercredi : de 14h00 à 17h30\nLe Samedi : de 09h00 à 12h30","latitude":49.065113,"longitude":1.867365,"website":"http://www.fremainville.fr/","hasWebsite":true,"hasHoraires":true,"url":"https://lannuaire.service-public.gouv.fr/ile-de-france/val-d-oise/a4abaf83-9ad6-43ce-8434-490ee5c2ab44"}
{"nom":"Frémécourt","nomNormalise":"fremecourt","typeCollectivite":"Commune","region":"Île-de-France","departement":"Val-d'Oise","departementCode":"95","adresse":{"street":"Rue du Four","postalCode":"95830","city":"Frémécourt","country":"France"},"contacts":{"email":"mairiefremecourt@orange.fr","telephone":"0134666284"},"horaires":"Du Mardi au Mercredi : de 16h00 à 18h00\nLe Jeudi : de 09h00 à 12h00\nLe Vendredi : de 15h00 à 17h00\nLe Samedi : de 09h00 à 12h00","latitude":49.1192,"longitude":2.00253,"website":"https://fremecourt.fr/index.php","hasWebsite":true,"hasHoraires":true,"url":"https://lannuaire.service-public.gouv.fr/ile-de-france/val-d-oise/2a18f218-ef17-4c5e-a230-07e6231e7534"}
{"nom":"Frépillon","nomNormalise":"frepillon","typeCollectivite":"Commune","region":"Île-de-France","departement":"Val-d'Oise","departementCode":"95","adresse":{"street":"Place de la Mairie","postalCode":"95740","city":"Frépillon","country":"France"},"contacts":{"email":"mairie@frepillon.fr","telephone":"0139602506"},"horaires":"Le Lundi : de 14h00 à 17h00\nLe Mardi : de 08h30 à 12h00 de 14h00 à 17h00\nLe Mercredi : de 14h00 à 17h00\nDu Jeudi au Vendredi : de 08h30 à 12h00 de 14h00 à 16h30\nLe Samedi : de 08h30 à 11h45","latitude":49.05078,"longitude":2.205631,"website":"https://www.frepillon.fr/","hasWebsite":true,"hasHoraires":true,"url":"https://lannuaire.service-public.gouv.fr/ile-de-france/val-d-oise/b4a34778-f6e0-43d0-b222-f27c71f18a76"}
{"nom":"Frouville","nomNormalise":"frouville","typeCollectivite":"Commune","region":"Île-de-France","departement":"Val-d'Oise","departementCode":"95","adresse":{"street":"10 bis Grande rue","postalCode":"95690","city":"Frouville","country":"France"},"contacts":{"email":"mairie-frouville95@wanadoo.fr","telephone":"0130347055"},"horaires":"Le Mardi : de 09h00 à 11h00\nLe Mercredi : de 18h30 à 20h00\nLe Vendredi : de 14h00 à 17h00","latitude":49.1474,"longitude":2.15111,"website":"https://frouville95.fr/","hasWebsite":true,"hasHoraires":true,"url":"https://lannuaire.service-public.gouv.fr/ile-de-france/val-d-oise/b0487081-8801-4128-9abe-6d7b87d89008"}
{"nom":"Mairie déléguée - Gadancourt","nomNormalise":"mairiedelegueegadancourt","typeCollectivite":"Commune","region":"Île-de-France","departement":"Val-d'Oise","departementCode":"95","adresse":{"street":"39 Grande-Rue","postalCode":"95450","city":"Avernes","country":"France"},"contacts":{"email":"mairie@avernes95.fr","telephone":"0130392013"},"horaires":"Le Lundi : de 11h00 à 12h00 de 16h00 à 18h00\nLe Mardi : de 16h00 à 18h00\nDu Jeudi au Vendredi : de 16h00 à 18h00\nLe Samedi : de 10h00 à 12h00","latitude":49.086746,"longitude":1.872787,"website":"https://avernes95.fr/","hasWebsite":true,"hasHoraires":true,"url":"https://lannuaire.service-public.gouv.fr/ile-de-france/val-d-oise/4c693cdc-ebfe-45ea-8b94-6304931ece78"}
{"nom":"Garges-lès-Gonesse","nomNormalise":"gargeslesgonesse","typeCollectivite":"Commune","region":"Île-de-France","departement":"Val-d'Oise","departementCode":"95","adresse":{"street":"8 place de l'Hôtel-de-Ville","postalCode":"95141","city":"Garges-lès-Gonesse Cedex","country":"France"},"contacts":{"email":"","telephone":"0134533200"},"horaires":"Du Lundi au Mercredi : de 08h30 à 11h45 de 13h00 à 17h15\nLe Jeudi : de 13h00 à 19h45\nLe Vendredi : de 13h00 à 17h15","latitude":48.9717,"longitude":2.39991,"website":"https://www.villedegarges.fr/","hasWebsite":true,"hasHoraires":true,"url":"https://lannuaire.service-public.gouv.fr/ile-de-france/val-d-oise/bc2e3ef3-b2c4-42a5-b746-488e49671331"}
{"nom":"Genainville","nomNormalise":"genainville","typeCollectivite":"Commune","region":"Île-de-France","departement":"Val-d'Oise","departementCode":"95","adresse":{"street":"Place de l'Église","postalCode":"95420","city":"Genainville","country":"France"},"contacts":{"email":"mairie-genainville@wanadoo.fr","telephone":"0134670522"},"horaires":"Le Lundi : de 17h00 à 19h00\nLe Mardi : de 10h00 à 12h00\nLe Jeudi : de 10h00 à 12h00\nLe Samedi : de 09h00 à 11h00","latitude":49.1251,"longitude":1.75226,"website":"","hasWebsite":false,"hasHoraires":true,"url":"https://lannuaire.service-public.gouv.fr/ile-de-france/val-d-oise/ccbbd1a0-e795-48c0-b890-710deb3137c7"}
{"nom":"Génicourt","nomNormalise":"genicourt","typeCollectivite":"Commune","region":"Île-de-France","departement":"Val-d'Oise","departementCode":"95","adresse":{"street":"8 rue des Sablons","postalCode":"95650","city":"Génicourt","country":"France"},"contacts":{"email":"mairie@genicourt.fr","telephone":"0134427232"},"horaires":"Le Mardi : de 10h00 à 12h00\nLe Jeudi : de 14h00 à 16h00\nLe Samedi : de 10h30 à 12h00\n\nAccueil ouvert uniquement les 1er et 3e samedi du mois.","latitude":49.087383,"longitude":2.066006,"website":"https://genicourt.fr/","hasWebsite":true,"hasHoraires":true,"url":"https://lannuaire.service-public.gouv.fr/ile-de-france/val-d-oise/94597121-a0e6-4cea-b432-28123454b81a"}
{"nom":"Gonesse","nomNormalise":"gonesse","typeCollectivite":"Commune","region":"Île-de-France","departement":"Val-d'Oise","departementCode":"95","adresse":{"street":"66 rue de Paris","postalCode":"95503","city":"Gonesse Cedex","country":"France"},"contacts":{"email":"","telephone":"0134451111"},"horaires":"","latitude":48.986332,"longitude":2.449009,"website":"https://www.ville-gonesse.fr/","hasWebsite":true,"hasHoraires":false,"url":"https://lannuaire.service-public.gouv.fr/ile-de-france/val-d-oise/6a1a57e0-11f4-4548-84cc-70760f8dcc47"}
{"nom":"Goussainville","nomNormalise":"goussainville","typeCollectivite":"Commune","region":"Île-de-France","departement":"Val-d'Oise","departementCode":"95","adresse":{"street":"1 place de la Charmeuse","postalCode":"95190","city":"Goussainville","country":"France"},"contacts":{"email":"communication@ville-goussainville.fr","telephone":"0139946000"},"horaires":"Du Lundi au Vendredi : de 08h30 à 12h00 de 13h00 à 17h30\nLe Samedi : de 08h30 à 12h00","latitude":49.032547,"longitude":2.473507,"website":"https://www.ville-goussainville.fr/index.php","hasWebsite":true,"hasHoraires":true,"url":"https://lannuaire.service-public.gouv.fr/ile-de-france/val-d-oise/559a79a7-da48-485d-8569-a0e3c2a61830"}
{"nom":"Grisy-les-Plâtres","nomNormalise":"grisylesplatres","typeCollectivite":"Commune","region":"Île-de-France","departement":"Val-d'Oise","departementCode":"95","adresse":{"street":"10 rue Robert-Machy","postalCode":"95810","city":"Grisy-les-Plâtres","country":"France"},"contacts":{"email":"mairie@grisylesplatres.fr","telephone":"0134666269"},"horaires":"Le Mardi : de 08h00 à 12h00\nLe Mercredi : de 13h00 à 17h00\nDu Jeudi au Vendredi : de 08h00 à 12h00\nLe Samedi : de 09h00 à 12h00\n\nPermanence des élus uniquement.","latitude":49.13072,"longitude":2.050361,"website":"https://www.grisylesplatres.fr/","hasWebsite":true,"hasHoraires":true,"url":"https://lannuaire.service-public.gouv.fr/ile-de-france/val-d-oise/c6942a2a-3cee-4008-acde-d3ef04fac826"}
{"nom":"Groslay","nomNormalise":"groslay","typeCollectivite":"Commune","region":"Île-de-France","departement":"Val-d'Oise","departementCode":"95","adresse":{"street":"21 rue du Général-Leclerc","postalCode":"95410","city":"Groslay","country":"France"},"contacts":{"email":"communication@mairie-groslay.fr","telephone":"0134286868"},"horaires":"Le Lundi : de 13h30 à 19h00\nDu Mardi au Jeudi : de 08h30 à 12h00 de 13h30 à 17h00\nLe Vendredi : de 08h30 à 12h00 de 13h30 à 16h30","latitude":48.986645,"longitude":2.345742,"website":"http://www.mairie-groslay.fr/","hasWebsite":true,"hasHoraires":true,"url":"https://lannuaire.service-public.gouv.fr/ile-de-france/val-d-oise/eb26987e-5081-4b69-bf8d-46ee555e869f"}
{"nom":"Guiry-en-Vexin","nomNormalise":"guiryenvexin","typeCollectivite":"Commune","region":"Île-de-France","departement":"Val-d'Oise","departementCode":"95","adresse":{"street":"20 rue Saint-Nicolas","postalCode":"95450","city":"Guiry-en-Vexin","country":"France"},"contacts":{"email":"mairie.guiry-en-vexin@wanadoo.fr","telephone":"0134674041"},"horaires":"Du Lundi au Mardi : de 14h00 à 17h00","latitude":49.108807,"longitude":1.850043,"website":"https://guiry-en-vexin.fr/","hasWebsite":true,"hasHoraires":true,"url":"https://lannuaire.service-public.gouv.fr/ile-de-france/val-d-oise/8d1f119f-a851-498f-82ce-32fc4deb702e"}
{"nom":"Haravilliers","nomNormalise":"haravilliers","typeCollectivite":"Commune","region":"Île-de-France","departement":"Val-d'Oise","departementCode":"95","adresse":{"street":"28 rue de la Mairie","postalCode":"95640","city":"Haravilliers","country":"France"},"contacts":{"email":"commune@haravilliers.com","telephone":"0130397402"},"horaires":"Du Lundi au Mardi : de 14h00 à 18h30\nLe Jeudi : de 09h00 à 12h00 de 14h00 à 17h30\nLe Vendredi : de 14h00 à 17h00","latitude":49.1735,"longitude":2.04624,"website":"https://haravilliers.com/","hasWebsite":true,"hasHoraires":true,"url":"https://lannuaire.service-public.gouv.fr/ile-de-france/val-d-oise/d41fe889-27d1-440c-b7f3-bb66ec66e4b1"}
{"nom":"Haute-Isle","nomNormalise":"hauteisle","typeCollectivite":"Commune","region":"Île-de-France","departement":"Val-d'Oise","departementCode":"95","adresse":{"street":"146 route de la Vallée","postalCode":"95780","city":"Haute-Isle","country":"France"},"contacts":{"email":"mairie-hauteisle@wanadoo.fr","telephone":"0134797324"},"horaires":"","latitude":49.083332,"longitude":1.658063,"website":"http://www.hauteisle.fr/","hasWebsite":true,"hasHoraires":false,"url":"https://lannuaire.service-public.gouv.fr/ile-de-france/val-d-oise/afead7e3-6bf3-4a87-ab9d-382592e3a996"}
{"nom":"Hédouville","nomNormalise":"hedouville","typeCollectivite":"Commune","region":"Île-de-France","departement":"Val-d'Oise","departementCode":"95","adresse":{"street":"39 Grande rue","postalCode":"95690","city":"Hédouville","country":"France"},"contacts":{"email":"mairie-hedouville@wanadoo.fr","telephone":"0134706239"},"horaires":"Le Mardi : de 14h00 à 17h00\nLe Jeudi : de 14h00 à 17h00\n\nAccueil possible sur rendez-vous en dehors de ces horaires.","latitude":49.154102,"longitude":2.171115,"website":"","hasWebsite":false,"hasHoraires":true,"url":"https://lannuaire.service-public.gouv.fr/ile-de-france/val-d-oise/b67f63d8-3450-4906-a6f7-98570a81517b"}
{"nom":"Herblay","nomNormalise":"herblay","typeCollectivite":"Commune","region":"Île-de-France","departement":"Val-d'Oise","departementCode":"95","adresse":{"street":"43 rue du Général-de-Gaulle","postalCode":"95220","city":"Herblay","country":"France"},"contacts":{"email":"mairie@herblay.fr","telephone":"0130404700"},"horaires":"Le Lundi : de 09h30 à 12h30 de 13h30 à 17h30\nDu Mardi au Mercredi : de 08h30 à 12h30 de 13h30 à 17h30\nLe Jeudi : de 12h30 à 19h30\nLe Vendredi : de 08h30 à 12h30 de 13h30 à 16h00","latitude":48.99011,"longitude":2.164962,"website":"https://herblaysurseine.fr/","hasWebsite":true,"hasHoraires":true,"url":"https://lannuaire.service-public.gouv.fr/ile-de-france/val-d-oise/321ff305-f192-48a3-9879-f74325286679"}
{"nom":"Hérouville-en-Vexin","nomNormalise":"herouvilleenvexin","typeCollectivite":"Commune","region":"Île-de-France","departement":"Val-d'Oise","departementCode":"95","adresse":{"street":"3 rue du Poteau","postalCode":"95300","city":"Hérouville-en-Vexin","country":"France"},"contacts":{"email":"contact@herouville-en-vexin.net","telephone":"0134665431"},"horaires":"Du Lundi au Jeudi : de 09h00 à 12h00 de 14h00 à 17h00\nLe Vendredi : de 09h00 à 12h00 de 14h00 à 16h00\nLe Samedi : de 09h00 à 12h00","latitude":49.100704,"longitude":2.128767,"website":"http://www.herouville-en-vexin.net/","hasWebsite":true,"hasHoraires":true,"url":"https://lannuaire.service-public.gouv.fr/ile-de-france/val-d-oise/3e4170c2-17ca-4e85-97bb-5486cb486fef"}
{"nom":"Hodent","nomNormalise":"hodent","typeCollectivite":"Commune","region":"Île-de-France","departement":"Val-d'Oise","departementCode":"95","adresse":{"street":"3 Grande rue","postalCode":"95420","city":"Hodent","country":"France"},"contacts":{"email":"mairie.hodent@orange.fr","telephone":"0134670323"},"horaires":"Le Lundi : de 14h00 à 19h00\n\nPermanence téléphonique uniquement le lundi, mardi, jeudi, vendredi de 9h15 à 13h15 et de 14h à 19h.\nLe Vendredi : de 09h15 à 13h15\nLe Samedi : de 10h00 à 12h00\n\nAccueil ouvert uniquement sur rendez-vous.","latitude":49.14407,"longitude":1.766854,"website":"http://www.hodent.fr/","hasWebsite":true,"hasHoraires":true,"url":"https://lannuaire.service-public.gouv.fr/ile-de-france/val-d-oise/0a6c4ad6-0b1c-401c-88e5-cfdd922e81b1"}
{"nom":"Jagny-sous-Bois","nomNormalise":"jagnysousbois","typeCollectivite":"Commune","region":"Île-de-France","departement":"Val-d'Oise","departementCode":"95","adresse":{"street":"7 rue Chef-de-Ville","postalCode":"95850","city":"Jagny-sous-Bois","country":"France"},"contacts":{"email":"mairie.jagny-sous-bois@orange.fr","telephone":"0134711436"},"horaires":"Du Lundi au Mardi : de 16h00 à 18h30\nLe Vendredi : de 16h00 à 18h30","latitude":49.0782,"longitude":2.4432,"website":"http://www.jagny-sous-bois.fr/","hasWebsite":true,"hasHoraires":true,"url":"https://lannuaire.service-public.gouv.fr/ile-de-france/val-d-oise/f5f5449e-36b2-4d6a-8b4f-b436dd224d98"}
{"nom":"Jouy-le-Moutier","nomNormalise":"jouylemoutier","typeCollectivite":"Commune","region":"Île-de-France","departement":"Val-d'Oise","departementCode":"95","adresse":{"street":"Hôtel de Ville","postalCode":"95000","city":"Cergy-Pontoise","country":"France"},"contacts":{"email":"mairie@jouylemoutier.fr","telephone":"0134416500"},"horaires":"Du Lundi au Mercredi : de 08h30 à 12h00 de 13h30 à 17h30\nLe Jeudi : de 08h30 à 12h00\nLe Vendredi : de 08h30 à 12h00 de 13h30 à 17h30\nLe Samedi : de 08h30 à 12h00\n\nAccueil ouvert uniquement pour l'état civil.","latitude":49.01575,"longitude":2.047585,"website":"https://www.jouylemoutier.fr/","hasWebsite":true,"hasHoraires":true,"url":"https://lannuaire.service-public.gouv.fr/ile-de-france/val-d-oise/86d3c512-5469-4fcd-bf72-a98d705d9bd9"}
{"nom":"L'Isle-Adam","nomNormalise":"lisleadam","typeCollectivite":"Commune","region":"Île-de-France","departement":"Val-d'Oise","departementCode":"95","adresse":{"street":"45 Grande rue","postalCode":"95290","city":"L'Isle-Adam","country":"France"},"contacts":{"email":"s.etatcivil@ville-isle-adam.fr","telephone":"0134081919"},"horaires":"Du Lundi au Jeudi : de 08h30 à 12h00 de 13h30 à 17h30\nLe Vendredi : de 08h30 à 12h00 de 13h30 à 17h00\nLe Samedi : de 08h30 à 11h30\n\nLes démarches administratives se font à l'annexe au Castel Rose, 1 avenue de Paris en face de l'Hôtel de Ville.","latitude":49.11213,"longitude":2.217899,"website":"https://ville-isle-adam.fr/","hasWebsite":true,"hasHoraires":true,"url":"https://lannuaire.service-public.gouv.fr/ile-de-france/val-d-oise/1cceacb6-3ba1-453b-a9fe-516b2e57c6ed"}
{"nom":"Labbeville","nomNormalise":"labbeville","typeCollectivite":"Commune","region":"Île-de-France","departement":"Val-d'Oise","departementCode":"95","adresse":{"street":"1 Grande-Rue","postalCode":"95690","city":"Labbeville","country":"France"},"contacts":{"email":"mairie@labbeville.fr","telephone":"0134706015"},"horaires":"Le Lundi : de 09h30 à 12h00\nLe Mardi : de 14h00 à 17h00\nLe Jeudi : de 14h00 à 17h00","latitude":49.136486,"longitude":2.144729,"website":"https://labbeville.fr/","hasWebsite":true,"hasHoraires":true,"url":"https://lannuaire.service-public.gouv.fr/ile-de-france/val-d-oise/5161f997-22a9-4071-8379-559879f8deba"}
{"nom":"La Chapelle-en-Vexin","nomNormalise":"lachapelleenvexin","typeCollectivite":"Commune","region":"Île-de-France","departement":"Val-d'Oise","departementCode":"95","adresse":{"street":"Rue de Ducourt","postalCode":"95420","city":"La Chapelle-en-Vexin","country":"France"},"contacts":{"email":"mairie@lachapelleenvexin.fr","telephone":"0134670717"},"horaires":"Du Lundi au Vendredi : de 14h00 à 18h00","latitude":49.182,"longitude":1.73154,"website":"http://www.mairie-la-chapelle-en-vexin.fr/","hasWebsite":true,"hasHoraires":true,"url":"https://lannuaire.service-public.gouv.fr/ile-de-france/val-d-oise/725b465d-44d5-4319-80ce-e48dc856a3f9"}
{"nom":"La Frette-sur-Seine","nomNormalise":"lafrettesurseine","typeCollectivite":"Commune","region":"Île-de-France","departement":"Val-d'Oise","departementCode":"95","adresse":{"street":"55 quai de Seine","postalCode":"95530","city":"La Frette-sur-Seine","country":"France"},"contacts":{"email":"mairie@lafrettesurseine.fr","telephone":"0139315000"},"horaires":"Le Lundi : de 08h30 à 12h00 de 13h30 à 17h00\nLe Mardi : de 08h30 à 12h00 de 13h30 à 18h00\nLe Mercredi : de 08h30 à 12h00\nLe Jeudi : de 08h30 à 12h00 de 13h30 à 17h00\nLe Vendredi : de 13h30 à 17h00","latitude":48.9739,"longitude":2.17815,"website":"http://www.lafrettesurseine.fr/","hasWebsite":true,"hasHoraires":true,"url":"https://lannuaire.service-public.gouv.fr/ile-de-france/val-d-oise/1afd5622-3be5-4cc0-86a2-53857b376dfb"}
{"nom":"La Roche-Guyon","nomNormalise":"larocheguyon","typeCollectivite":"Commune","region":"Île-de-France","departement":"Val-d'Oise","departementCode":"95","adresse":{"street":"8 rue du Général-Leclerc","postalCode":"95780","city":"La Roche-Guyon","country":"France"},"contacts":{"email":"mairie.larocheguyon@wanadoo.fr","telephone":"0134797055"},"horaires":"Du Lundi au Mardi : de 16h30 à 17h30\nDu Jeudi au Vendredi : de 16h30 à 17h30\nLe Samedi : de 10h00 à 12h00\n\nAccueil ouvert uniquement les 1er et 3e samedi du mois.","latitude":49.0823,"longitude":1.63128,"website":"http://www.larocheguyon.fr/","hasWebsite":true,"hasHoraires":true,"url":"https://lannuaire.service-public.gouv.fr/ile-de-france/val-d-oise/19e1101c-484f-46cf-8d4d-ac16ac16c0a0"}
{"nom":"Lassy","nomNormalise":"lassy","typeCollectivite":"Commune","region":"Île-de-France","departement":"Val-d'Oise","departementCode":"95","adresse":{"street":"Grande rue","postalCode":"95270","city":"Lassy","country":"France"},"contacts":{"email":"mairie-de-lassy@orange.fr","telephone":"0134710582"},"horaires":"Le Lundi : de 18h30 à 19h15\nLe Mercredi : de 18h30 à 19h15\nLe Samedi : de 11h30 à 12h30","latitude":49.0963,"longitude":2.44432,"website":"https://lassy95.fr/","hasWebsite":true,"hasHoraires":true,"url":"https://lannuaire.service-public.gouv.fr/ile-de-france/val-d-oise/d84d212f-c26f-4de3-be09-97bdf104b090"}
{"nom":"Le Bellay-en-Vexin","nomNormalise":"lebellayenvexin","typeCollectivite":"Commune","region":"Île-de-France","departement":"Val-d'Oise","departementCode":"95","adresse":{"street":"1 Grande rue prolongée","postalCode":"95750","city":"Le Bellay-en-Vexin","country":"France"},"contacts":{"email":"mairie@lebellayenvexin.com","telephone":"0134674275"},"horaires":"Du Lundi au Mardi : de 09h00 à 13h00\nLe Jeudi : de 09h00 à 13h00\nLe Vendredi : de 13h30 à 19h00\nLe Samedi : de 10h00 à 11h30\n\nPermanence des élus uniquement.\nFermé le mercredi","latitude":49.154472,"longitude":1.883265,"website":"https://lebellayenvexin.com/","hasWebsite":true,"hasHoraires":true,"url":"https://lannuaire.service-public.gouv.fr/ile-de-france/val-d-oise/f65c0f27-c5bd-4c3f-a079-9a84462a91d7"}
{"nom":"Le Heaulme","nomNormalise":"leheaulme","typeCollectivite":"Commune","region":"Île-de-France","departement":"Val-d'Oise","departementCode":"95","adresse":{"street":"15 Grande rue","postalCode":"95640","city":"Le Heaulme","country":"France"},"contacts":{"email":"mairie-de-le-heaulme@orange.fr","telephone":"0130399963"},"horaires":"Le Mardi : de 08h00 à 12h00\nLe Jeudi : de 15h00 à 18h00","latitude":49.1692,"longitude":1.97545,"website":"","hasWebsite":false,"hasHoraires":true,"url":"https://lannuaire.service-public.gouv.fr/ile-de-france/val-d-oise/308bac6a-4866-4ed7-86d5-c16a67231aa7"}
{"nom":"Le Mesnil-Aubry","nomNormalise":"lemesnilaubry","typeCollectivite":"Commune","region":"Île-de-France","departement":"Val-d'Oise","departementCode":"95","adresse":{"street":"Place de la Mairie","postalCode":"95720","city":"Le Mesnil-Aubry","country":"France"},"contacts":{"email":"n-bergerat.mairie@orange.fr","telephone":"0134711016"},"horaires":"","latitude":49.0507,"longitude":2.399873,"website":"http://www.le-mesnil-aubry.fr/","hasWebsite":true,"hasHoraires":false,"url":"https://lannuaire.service-public.gouv.fr/ile-de-france/val-d-oise/8ab7032a-b7b3-449a-b5ff-8d0a20f1facb"}
{"nom":"Le Perchay","nomNormalise":"leperchay","typeCollectivite":"Commune","region":"Île-de-France","departement":"Val-d'Oise","departementCode":"95","adresse":{"street":"4 rue de la Mairie","postalCode":"95450","city":"Le Perchay","country":"France"},"contacts":{"email":"mairie@leperchay.fr","telephone":"0134660383"},"horaires":"Le Mardi : de 17h00 à 19h00\nLe Jeudi : de 16h00 à 18h00\nLe Vendredi : de 16h00 à 17h30","latitude":49.110214,"longitude":1.9336734,"website":"http://www.leperchay.fr/","hasWebsite":true,"hasHoraires":true,"url":"https://lannuaire.service-public.gouv.fr/ile-de-france/val-d-oise/d60f2d52-02b1-411f-bdfe-f891921a0faa"}
{"nom":"Le Plessis-Bouchard","nomNormalise":"leplessisbouchard","typeCollectivite":"Commune","region":"Île-de-France","departement":"Val-d'Oise","departementCode":"95","adresse":{"street":"Le Plessis-Bouchard","postalCode":"95131","city":"Franconville Cedex","country":"France"},"contacts":{"email":"mairie@leplessisbouchard.fr","telephone":"0134137139"},"horaires":"Le Lundi : de 08h30 à 12h00 de 13h30 à 18h00\nLe Mardi : de 08h30 à 12h00 de 13h30 à 18h45\nLe Mercredi : de 08h30 à 12h45\nDu Jeudi au Vendredi : de 08h30 à 12h00 de 13h30 à 18h00","latitude":49.00162,"longitude":2.2348878,"website":"https://ville-le-plessis-bouchard.fr/","hasWebsite":true,"hasHoraires":true,"url":"https://lannuaire.service-public.gouv.fr/ile-de-france/val-d-oise/d827bf64-1064-417d-8f1c-3ec65438ecc1"}
{"nom":"Le Plessis-Gassot","nomNormalise":"leplessisgassot","typeCollectivite":"Commune","region":"Île-de-France","departement":"Val-d'Oise","departementCode":"95","adresse":{"street":"9 place de la Ferme-du-Château","postalCode":"95720","city":"Le Plessis-Gassot","country":"France"},"contacts":{"email":"le.plessis.gassot@wanadoo.fr","telephone":"0139881611"},"horaires":"Le Mardi : de 10h00 à 12h00\nLe Mercredi : de 15h00 à 18h00\nLe Jeudi : de 10h00 à 12h00","latitude":49.03391,"longitude":2.412979,"website":"http://www.mairie-leplessisgassot.fr/","hasWebsite":true,"hasHoraires":true,"url":"https://lannuaire.service-public.gouv.fr/ile-de-france/val-d-oise/ff843565-3d0d-46dc-8f6d-01d8e22d7197"}
{"nom":"Le Plessis-Luzarches","nomNormalise":"leplessisluzarches","typeCollectivite":"Commune","region":"Île-de-France","departement":"Val-d'Oise","departementCode":"95","adresse":{"street":"7 rue de la Mairie","postalCode":"95270","city":"Le Plessis-Luzarches","country":"France"},"contacts":{"email":"mairieplessisluzarches@orange.fr","telephone":"0134710296"},"horaires":"Le Mardi : de 09h00 à 12h15 de 13h00 à 16h30\nLe Jeudi : de 14h00 à 18h30\nLe Vendredi : de 09h00 à 12h15 de 13h00 à 16h30","latitude":49.095863,"longitude":2.4537437,"website":"","hasWebsite":false,"hasHoraires":true,"url":"https://lannuaire.service-public.gouv.fr/ile-de-france/val-d-oise/7d6e6a71-da94-4c23-89ed-1dcfa24fd1f1"}
{"nom":"Le Thillay","nomNormalise":"lethillay","typeCollectivite":"Commune","region":"Île-de-France","departement":"Val-d'Oise","departementCode":"95","adresse":{"street":"21 rue de Paris","postalCode":"95500","city":"Le Thillay","country":"France"},"contacts":{"email":"secretariatdumaire@mairie-le-thillay.fr","telephone":"0139339111"},"horaires":"Le Lundi : de 09h30 à 11h30\nDu Mardi au Mercredi : de 09h30 à 11h30 de 13h30 à 17h00\nLe Jeudi : de 14h00 à 18h30\nLe Vendredi : de 09h30 à 11h30 de 14h00 à 17h00\nLe Samedi : de 09h30 à 11h30\n\nPermanence uniquement le samedi.","latitude":49.00185,"longitude":2.469916,"website":"https://www.mairie-le-thillay.fr/","hasWebsite":true,"hasHoraires":true,"url":"https://lannuaire.service-public.gouv.fr/ile-de-france/val-d-oise/17c52e52-51a8-4931-a59b-3ad915eda82d"}
{"nom":"Livilliers","nomNormalise":"livilliers","typeCollectivite":"Commune","region":"Île-de-France","departement":"Val-d'Oise","departementCode":"95","adresse":{"street":"10 rue de la Chaise","postalCode":"95300","city":"Livilliers","country":"France"},"contacts":{"email":"mairie@livilliers.fr","telephone":"0134427204"},"horaires":"Le Mardi : de 09h00 à 12h00\nLe Vendredi : de 09h00 à 12h00\nAccueil ouvert uniquement le 1er samedi du mois.","latitude":49.09539,"longitude":2.0949538,"website":"https://livilliers.fr/","hasWebsite":true,"hasHoraires":true,"url":"https://lannuaire.service-public.gouv.fr/ile-de-france/val-d-oise/3cb7a4a9-236e-4530-a606-4027297d2b7b"}
{"nom":"Longuesse","nomNormalise":"longuesse","typeCollectivite":"Commune","region":"Île-de-France","departement":"Val-d'Oise","departementCode":"95","adresse":{"street":"14 Grande-Rue","postalCode":"95450","city":"Longuesse","country":"France"},"contacts":{"email":"contact@mairie-longuesse.fr","telephone":"0130392345"},"horaires":"Le Mardi : de 17h00 à 19h00\nLe Vendredi : de 17h00 à 19h00","latitude":49.06211,"longitude":1.926149,"website":"https://mairie-longuesse.fr/","hasWebsite":true,"hasHoraires":true,"url":"https://lannuaire.service-public.gouv.fr/ile-de-france/val-d-oise/686ee24a-c0a5-4e3d-99a0-851899f76519"}
{"nom":"Louvres","nomNormalise":"louvres","typeCollectivite":"Commune","region":"Île-de-France","departement":"Val-d'Oise","departementCode":"95","adresse":{"street":"84 rue de Paris","postalCode":"95380","city":"Louvres","country":"France"},"contacts":{"email":"communication@ville-louvres.fr","telephone":"0134473434"},"horaires":"Le Lundi : de 09h00 à 12h30 de 13h30 à 17h00\nLe Mardi : de 09h00 à 12h30 de 13h30 à 19h00\nLe Mercredi : de 09h00 à 12h30 de 13h30 à 17h00\nLe Jeudi : de 13h30 à 17h00\nLe Vendredi : de 09h00 à 12h30 de 13h30 à 17h00","latitude":49.045177,"longitude":2.509429,"website":"https://www.ville-louvres.fr/","hasWebsite":true,"hasHoraires":true,"url":"https://lannuaire.service-public.gouv.fr/ile-de-france/val-d-oise/5bb1c235-da1c-416f-a01c-f222e285bd58"}
{"nom":"Luzarches","nomNormalise":"luzarches","typeCollectivite":"Commune","region":"Île-de-France","departement":"Val-d'Oise","departementCode":"95","adresse":{"street":"Place de la Mairie","postalCode":"95270","city":"Luzarches","country":"France"},"contacts":{"email":"mairiedeluzarches@luzarches.net","telephone":"0130295454"},"horaires":"Le Lundi : de 14h00 à 17h00\nDu Mardi au Mercredi : de 09h00 à 12h00 de 14h00 à 17h00\nLe Jeudi : de 14h00 à 17h00\nLe Vendredi : de 09h00 à 12h00 de 14h00 à 17h00","latitude":49.1125,"longitude":2.42249,"website":"https://luzarches.net/","hasWebsite":true,"hasHoraires":true,"url":"https://lannuaire.service-public.gouv.fr/ile-de-france/val-d-oise/b2147d94-9509-4bc6-9510-ee66621b6159"}
{"nom":"Maffliers","nomNormalise":"maffliers","typeCollectivite":"Commune","region":"Île-de-France","departement":"Val-d'Oise","departementCode":"95","adresse":{"street":"3 rue de Richebourg","postalCode":"95560","city":"Maffliers","country":"France"},"contacts":{"email":"mairie@maffliers.fr","telephone":"0134698068"},"horaires":"Le Lundi : de 09h00 à 12h00\nLe Mardi : de 14h00 à 19h00\nLe Mercredi : de 09h00 à 12h00\nLe Jeudi : de 14h00 à 19h00","latitude":49.07569,"longitude":2.308576,"website":"https://sites.google.com/site/communedemaffliers/","hasWebsite":true,"hasHoraires":true,"url":"https://lannuaire.service-public.gouv.fr/ile-de-france/val-d-oise/fbda0a20-8251-421c-be1c-ffa3242d7b28"}
{"nom":"Magny-en-Vexin","nomNormalise":"magnyenvexin","typeCollectivite":"Commune","region":"Île-de-France","departement":"Val-d'Oise","departementCode":"95","adresse":{"street":"20 rue de Crosne","postalCode":"95420","city":"Magny-en-Vexin","country":"France"},"contacts":{"email":"mairie@magny-en-vexin.fr","telephone":"0134670328"},"horaires":"Du Mardi au Mercredi : de 08h30 à 12h15 de 13h45 à 17h30\nLe Jeudi : de 08h30 à 12h15 de 13h45 à 18h00\nLe Vendredi : de 08h30 à 12h15 de 13h45 à 16h00\nLe Samedi : de 08h30 à 12h15","latitude":49.1514,"longitude":1.78754,"website":"http://www.magny-en-vexin.fr/","hasWebsite":true,"hasHoraires":true,"url":"https://lannuaire.service-public.gouv.fr/ile-de-france/val-d-oise/c6f6e63b-28e3-454a-b5e5-a9a1a692f012"}
{"nom":"Mareil-en-France","nomNormalise":"mareilenfrance","typeCollectivite":"Commune","region":"Île-de-France","departement":"Val-d'Oise","departementCode":"95","adresse":{"street":"2 rue Montguichet","postalCode":"95850","city":"Mareil-en-France","country":"France"},"contacts":{"email":"mairie.mareil.france@wanadoo.fr","telephone":"0134711061"},"horaires":"Le Lundi : de 14h30 à 17h00\nLe Mardi : de 18h00 à 20h00\nLe Mercredi : de 09h00 à 12h00\nLe Jeudi : de 14h30 à 17h00\nLe Vendredi : de 09h00 à 12h00\nPermanences du maire le mardi soir et le vendredi matin","latitude":49.069717,"longitude":2.427485,"website":"http://www.mareil-en-france.fr/","hasWebsite":true,"hasHoraires":true,"url":"https://lannuaire.service-public.gouv.fr/ile-de-france/val-d-oise/24c96962-c0f3-49a3-bab4-55b87fab1a11"}
{"nom":"Margency","nomNormalise":"margency","typeCollectivite":"Commune","region":"Île-de-France","departement":"Val-d'Oise","departementCode":"95","adresse":{"street":"5 avenue Georges-Pompidou","postalCode":"95580","city":"Margency","country":"France"},"contacts":{"email":"info@mairie-margency.fr","telephone":"0134274040"},"horaires":"Du Lundi au Mardi : de 08h30 à 12h00 de 13h30 à 17h00\nDu Mercredi au Jeudi : de 08h30 à 11h45\nLe Vendredi : de 08h30 à 12h00 de 13h30 à 17h00\nLe Samedi : de 08h30 à 11h45","latitude":49.004097,"longitude":2.2896194,"website":"http://www.mairie-margency.fr/","hasWebsite":true,"hasHoraires":true,"url":"https://lannuaire.service-public.gouv.fr/ile-de-france/val-d-oise/f97e4f1e-6553-41dd-9cb9-e1f12746a6a5"}
{"nom":"Marines","nomNormalise":"marines","typeCollectivite":"Commune","region":"Île-de-France","departement":"Val-d'Oise","departementCode":"95","adresse":{"street":"Place du Maréchal-Leclerc","postalCode":"95640","city":"Marines","country":"France"},"contacts":{"email":"accueil@mairie-marines.org","telephone":"0130397021"},"horaires":"Le Lundi : de 08h30 à 12h00 de 13h30 à 17h00\nLe Mardi : de 12h00 à 18h00\nLe Mercredi : de 08h30 à 12h00 de 13h30 à 17h00\nLe Jeudi : de 13h30 à 17h00\nLe Vendredi : de 08h30 à 12h00 de 13h30 à 17h00\nLe Samedi : de 08h30 à 12h00","latitude":49.14514,"longitude":1.982606,"website":"https://www.marines.fr/","hasWebsite":true,"hasHoraires":true,"url":"https://lannuaire.service-public.gouv.fr/ile-de-france/val-d-oise/959c1917-6286-4909-9110-f7181fa0be8f"}
{"nom":"Marly-la-Ville","nomNormalise":"marlylaville","typeCollectivite":"Commune","region":"Île-de-France","departement":"Val-d'Oise","departementCode":"95","adresse":{"street":"10 rue du Colonel-Fabien","postalCode":"95670","city":"Marly-la-Ville","country":"France"},"contacts":{"email":"mairie@marlylaville.fr","telephone":"0134474646"},"horaires":"Du Lundi au Mardi : de 08h30 à 12h00 de 13h30 à 18h00\nLe Mercredi : de 08h30 à 12h00\nDu Jeudi au Vendredi : de 08h30 à 12h00 de 13h30 à 18h00\nLe Samedi : de 09h00 à 12h00\n\nAccueil ouvert uniquement pour l'état civil.","latitude":49.08,"longitude":2.49915,"website":"http://www.marly-la-ville.fr/","hasWebsite":true,"hasHoraires":true,"url":"https://lannuaire.service-public.gouv.fr/ile-de-france/val-d-oise/59d4ab95-683c-4af1-bb39-f7078607f894"}
{"nom":"Maudétour-en-Vexin","nomNormalise":"maudetourenvexin","typeCollectivite":"Commune","region":"Île-de-France","departement":"Val-d'Oise","departementCode":"95","adresse":{"street":"Allée des Tilleuls","postalCode":"95420","city":"Maudétour-en-Vexin","country":"France"},"contacts":{"email":"mairie.maudetour@wanadoo.fr","telephone":"0134671167"},"horaires":"Le Lundi : de 14h00 à 17h30\nLe Vendredi : de 09h00 à 12h30","latitude":49.0997,"longitude":1.77748,"website":"http://www.maudetour-en-vexin.fr/","hasWebsite":true,"hasHoraires":true,"url":"https://lannuaire.service-public.gouv.fr/ile-de-france/val-d-oise/9840ab90-c53a-44d9-84a3-71f8f8997119"}
{"nom":"Menouville","nomNormalise":"menouville","typeCollectivite":"Commune","region":"Île-de-France","departement":"Val-d'Oise","departementCode":"95","adresse":{"street":"10 rue du Pressoir","postalCode":"95810","city":"Menouville","country":"France"},"contacts":{"email":"commune-de-menouville@orange.fr","telephone":"0134665382"},"horaires":"Le Mercredi : de 16h00 à 18h00","latitude":49.149384,"longitude":2.1100535,"website":"","hasWebsite":false,"hasHoraires":true,"url":"https://lannuaire.service-public.gouv.fr/ile-de-france/val-d-oise/04f99b09-2c20-4891-862e-1f73f7c6d588"}
{"nom":"Menucourt","nomNormalise":"menucourt","typeCollectivite":"Commune","region":"Île-de-France","departement":"Val-d'Oise","departementCode":"95","adresse":{"street":"Rue Pasteur","postalCode":"95180","city":"Menucourt","country":"France"},"contacts":{"email":"accueil.mairie@menucourt.fr","telephone":"0134467100"},"horaires":"Du Lundi au Mardi : de 09h00 à 11h45 de 14h00 à 17h45\nLe Mercredi : de 09h00 à 11h45\nDu Jeudi au Vendredi : de 09h00 à 11h45 de 14h00 à 17h45\nLe Samedi : de 09h00 à 11h45","latitude":49.0245,"longitude":1.98377,"website":"http://www.menucourt.fr/","hasWebsite":true,"hasHoraires":true,"url":"https://lannuaire.service-public.gouv.fr/ile-de-france/val-d-oise/9756182e-d070-4d84-8db2-71b11dc33cce"}
{"nom":"Mériel","nomNormalise":"meriel","typeCollectivite":"Commune","region":"Île-de-France","departement":"Val-d'Oise","departementCode":"95","adresse":{"street":"62 Grande-Rue","postalCode":"95630","city":"Mériel","country":"France"},"contacts":{"email":"secretariat.general@meriel.fr","telephone":"0134482150"},"horaires":"Du Lundi au Jeudi : de 08h30 à 12h00 de 13h30 à 17h30\nLe Vendredi : de 08h30 à 12h00 de 13h30 à 16h30","latitude":49.078938,"longitude":2.205145,"website":"https://www.meriel.fr/","hasWebsite":true,"hasHoraires":true,"url":"https://lannuaire.service-public.gouv.fr/ile-de-france/val-d-oise/102dca36-dbdd-4d70-ba7d-75530fe484cb"}
{"nom":"Méry-sur-Oise","nomNormalise":"merysuroise","typeCollectivite":"Commune","region":"Île-de-France","departement":"Val-d'Oise","departementCode":"95","adresse":{"street":"14 avenue Marcel-Perrin","postalCode":"95540","city":"Méry-sur-Oise","country":"France"},"contacts":{"email":"population@merysuroise.fr","telephone":"0130362300"},"horaires":"Du Lundi au Jeudi : de 08h30 à 12h00 de 13h00 à 17h00\nLe Vendredi : de 08h30 à 12h00 de 13h00 à 16h30\nLe Samedi : de 08h30 à 12h00","latitude":49.06444,"longitude":2.18455,"website":"https://www.merysuroise.fr/","hasWebsite":true,"hasHoraires":true,"url":"https://lannuaire.service-public.gouv.fr/ile-de-france/val-d-oise/9d9db3aa-8786-416f-936b-50ca682f5257"}
{"nom":"Moisselles","nomNormalise":"moisselles","typeCollectivite":"Commune","region":"Île-de-France","departement":"Val-d'Oise","departementCode":"95","adresse":{"street":"5 rue du Moutier","postalCode":"95570","city":"Moisselles","country":"France"},"contacts":{"email":"secretariat@mairie-moisselles.fr","telephone":"0139910572"},"horaires":"Du Lundi au Vendredi : de 08h30 à 12h00 de 14h00 à 17h30","latitude":49.0479,"longitude":2.33718,"website":"http://www.mairie-moisselles.fr/","hasWebsite":true,"hasHoraires":true,"url":"https://lannuaire.service-public.gouv.fr/ile-de-france/val-d-oise/42381e22-7dc8-49e6-a6f0-705047c2d7db"}
{"nom":"Montgeroult","nomNormalise":"montgeroult","typeCollectivite":"Commune","region":"Île-de-France","departement":"Val-d'Oise","departementCode":"95","adresse":{"street":"Rue de la Vallée","postalCode":"95650","city":"Montgeroult","country":"France"},"contacts":{"email":"mairie-de-montgeroult@wanadoo.fr","telephone":"0134427119"},"horaires":"Le Lundi : de 13h30 à 19h30\nLe Mardi : de 13h30 à 18h00\nDu Jeudi au Vendredi : de 13h30 à 18h00\nLe Samedi : de 10h00 à 12h00","latitude":49.0811,"longitude":2.00572,"website":"http://www.mairie-montgeroult.fr/","hasWebsite":true,"hasHoraires":true,"url":"https://lannuaire.service-public.gouv.fr/ile-de-france/val-d-oise/5c204a44-a910-4844-bda0-118d7ad370b2"}
{"nom":"Montigny-lès-Cormeilles","nomNormalise":"montignylescormeilles","typeCollectivite":"Commune","region":"Île-de-France","departement":"Val-d'Oise","departementCode":"95","adresse":{"street":"3 avenue Aristide-Maillol","postalCode":"95370","city":"Montigny-lès-Cormeilles","country":"France"},"contacts":{"email":"secretariatgeneral@ville-montigny95.fr","telephone":"0130263026"},"horaires":"Le Lundi : de 08h30 à 12h00 de 13h30 à 17h15\nLe Mardi : de 13h30 à 19h00\nLe Mercredi : de 08h30 à 12h00 de 13h30 à 17h15\nLe Jeudi : de 13h30 à 19h00\nLe Vendredi : de 08h30 à 12h00 de 13h30 à 17h15\n\nService de l'état civil fermé de 8h30 à 12h.","latitude":48.98741,"longitude":2.187929,"website":"http://www.montigny95.fr/","hasWebsite":true,"hasHoraires":true,"url":"https://lannuaire.service-public.gouv.fr/ile-de-france/val-d-oise/580e4635-d9fe-4fc2-a5f3-f0a710a0da56"}
{"nom":"Montlignon","nomNormalise":"montlignon","typeCollectivite":"Commune","region":"Île-de-France","departement":"Val-d'Oise","departementCode":"95","adresse":{"street":"10 rue de Paris","postalCode":"95680","city":"Montlignon","country":"France"},"contacts":{"email":"mairie@montlignon.fr","telephone":"0134161256"},"horaires":"Du Lundi au Vendredi : de 09h00 à 12h00 de 14h00 à 16h00\nLe Samedi : de 09h00 à 12h00","latitude":49.0153,"longitude":2.28848,"website":"http://www.village-de-montlignon.fr/","hasWebsite":true,"hasHoraires":true,"url":"https://lannuaire.service-public.gouv.fr/ile-de-france/val-d-oise/5c193202-df75-4fba-888f-20b14ff07919"}
{"nom":"Montmagny","nomNormalise":"montmagny","typeCollectivite":"Commune","region":"Île-de-France","departement":"Val-d'Oise","departementCode":"95","adresse":{"street":"10 rue du 11-Novembre-1918","postalCode":"95360","city":"Montmagny","country":"France"},"contacts":{"email":"cabinetdumaire@ville-montmagny.fr","telephone":"0134286900"},"horaires":"Du Lundi au Vendredi : de 08h30 à 12h00 de 13h45 à 17h30\nLe Samedi : de 09h00 à 12h00\n\nAccueil ouvert uniquement pour l'état civil.","latitude":48.9749,"longitude":2.34589,"website":"http://www.villedemontmagny.fr/","hasWebsite":true,"hasHoraires":true,"url":"https://lannuaire.service-public.gouv.fr/ile-de-france/val-d-oise/085298fb-9d0c-44c1-829a-515f57cafaae"}
{"nom":"Montmorency","nomNormalise":"montmorency","typeCollectivite":"Commune","region":"Île-de-France","departement":"Val-d'Oise","departementCode":"95","adresse":{"street":"2 avenue Foch","postalCode":"95162","city":"Montmorency Cedex","country":"France"},"contacts":{"email":"communication@ville-montmorency.fr","telephone":"0139349800"},"horaires":"Le Lundi : de 14h00 à 17h00\nDu Mardi au Jeudi : de 08h30 à 12h30 de 14h00 à 17h00\nLe Vendredi : de 08h30 à 12h30 de 14h00 à 16h00\nLe Samedi : de 08h30 à 12h00\n\nAccueil ouvert uniquement pour les services état civil, scolaire, fichier d'identification, passeport et carte d'identité.","latitude":48.990135,"longitude":2.320264,"website":"https://www.ville-montmorency.fr/","hasWebsite":true,"hasHoraires":true,"url":"https://lannuaire.service-public.gouv.fr/ile-de-france/val-d-oise/ed5ff127-0f44-4b1d-aa9d-27655a859af2"}
{"nom":"Montreuil-sur-Epte","nomNormalise":"montreuilsurepte","typeCollectivite":"Commune","region":"Île-de-France","departement":"Val-d'Oise","departementCode":"95","adresse":{"street":"27 rue Saint-Denis","postalCode":"95770","city":"Montreuil-sur-Epte","country":"France"},"contacts":{"email":"mairie@montreuilsurepte.eu","telephone":"0134676168"},"horaires":"Le Mardi : de 16h30 à 18h30\nLe Jeudi : de 16h30 à 18h30","latitude":49.1755,"longitude":1.67734,"website":"https://montreuil-sur-epte.fr/","hasWebsite":true,"hasHoraires":true,"url":"https://lannuaire.service-public.gouv.fr/ile-de-france/val-d-oise/d52ca18d-46dc-4c16-bd76-38734a69fae1"}
{"nom":"Montsoult","nomNormalise":"montsoult","typeCollectivite":"Commune","region":"Île-de-France","departement":"Val-d'Oise","departementCode":"95","adresse":{"street":"21 rue de la Mairie","postalCode":"95560","city":"Montsoult","country":"France"},"contacts":{"email":"info@mairie-montsoult.fr","telephone":"0134083130"},"horaires":"Le Lundi : de 13h00 à 19h00\nLe Mardi : de 09h00 à 12h00 de 14h00 à 18h00\nLe Mercredi : de 09h00 à 12h00\nDu Jeudi au Vendredi : de 09h00 à 12h00 de 14h00 à 18h00","latitude":49.0772,"longitude":2.30662,"website":"http://www.montsoult.fr/","hasWebsite":true,"hasHoraires":true,"url":"https://lannuaire.service-public.gouv.fr/ile-de-france/val-d-oise/b48ab577-4823-4880-8292-e141cdc6e351"}
{"nom":"Mours","nomNormalise":"mours","typeCollectivite":"Commune","region":"Île-de-France","departement":"Val-d'Oise","departementCode":"95","adresse":{"street":"1 bis rue de Nointel","postalCode":"95260","city":"Mours","country":"France"},"contacts":{"email":"secretaire@ville-mours.fr","telephone":"0130287510"},"horaires":"Le Lundi : de 09h00 à 12h00 de 13h30 à 18h00\nDu Mardi au Mercredi : de 13h30 à 18h00\nLe Vendredi : de 13h30 à 17h00\nLe Samedi : de 09h00 à 12h00\n\n1er et 3ème du mois","latitude":49.133778,"longitude":2.2707045,"website":"https://www.mours.fr/","hasWebsite":true,"hasHoraires":true,"url":"https://lannuaire.service-public.gouv.fr/ile-de-france/val-d-oise/856e6fb3-4f33-4d01-b5b1-b448f34e15fc"}
{"nom":"Moussy","nomNormalise":"moussy","typeCollectivite":"Commune","region":"Île-de-France","departement":"Val-d'Oise","departementCode":"95","adresse":{"street":"1 place du Prieuré","postalCode":"95640","city":"Moussy","country":"France"},"contacts":{"email":"","telephone":"0130272014"},"horaires":"Le Samedi : de 10h00 à 12h00","latitude":49.13784,"longitude":1.909042,"website":"","hasWebsite":false,"hasHoraires":true,"url":"https://lannuaire.service-public.gouv.fr/ile-de-france/val-d-oise/b2eb2a66-8f38-4a0d-b1be-5b67bc35101e"}
{"nom":"Nerville-la-Forêt","nomNormalise":"nervillelaforet","typeCollectivite":"Commune","region":"Île-de-France","departement":"Val-d'Oise","departementCode":"95","adresse":{"street":"20 rue Saint-Claude","postalCode":"95590","city":"Nerville-la-Forêt","country":"France"},"contacts":{"email":"mairie@nervillelaforet.fr","telephone":"0134692117"},"horaires":"Le Lundi : de 13h30 à 17h30\nLe Mardi : de 10h00 à 12h00\nLe Vendredi : de 13h30 à 17h30\nLe Samedi : de 09h00 à 12h00","latitude":49.0898,"longitude":2.2783,"website":"http://www.nervillelaforet.fr/","hasWebsite":true,"hasHoraires":true,"url":"https://lannuaire.service-public.gouv.fr/ile-de-france/val-d-oise/ea71a883-d5df-4318-bc74-127d06d76bf0"}
{"nom":"Nesles-la-Vallée","nomNormalise":"nesleslavallee","typeCollectivite":"Commune","region":"Île-de-France","departement":"Val-d'Oise","departementCode":"95","adresse":{"street":"Place Aristide-Partois","postalCode":"95690","city":"Nesles-la-Vallée","country":"France"},"contacts":{"email":"accueil.mairie@nesleslavallee.fr","telephone":"0134706142"},"horaires":"Du Lundi au Mardi : de 16h00 à 17h30\nLe Mercredi : de 10h00 à 12h00\nDu Jeudi au Vendredi : de 10h00 à 12h00 de 16h00 à 17h30\nLe Samedi : de 10h00 à 12h00","latitude":49.1284,"longitude":2.17018,"website":"https://nesleslavallee.fr/","hasWebsite":true,"hasHoraires":true,"url":"https://lannuaire.service-public.gouv.fr/ile-de-france/val-d-oise/dcb3d04d-9b10-42ca-8faa-cd33ec6b093b"}
{"nom":"Neuilly-en-Vexin","nomNormalise":"neuillyenvexin","typeCollectivite":"Commune","region":"Île-de-France","departement":"Val-d'Oise","departementCode":"95","adresse":{"street":"2 place de l'Église","postalCode":"95640","city":"Neuilly-en-Vexin","country":"France"},"contacts":{"email":"mairie.neuilly-en-vexin@wanadoo.fr","telephone":"0130397308"},"horaires":"Le Lundi : de 10h00 à 12h00\nLe Mardi : de 17h00 à 19h00\nLe Jeudi : de 13h30 à 15h00\nOuvert uniquement le 1er samedi de chaque mois, accueil possible en dehors de ces horaires sur rendez-vous uniquement.","latitude":49.168865,"longitude":1.977729,"website":"https://neuillyenvexin.fr/","hasWebsite":true,"hasHoraires":true,"url":"https://lannuaire.service-public.gouv.fr/ile-de-france/val-d-oise/894b7252-2cb7-4403-983d-a734be32beb6"}
{"nom":"Neuville-sur-Oise","nomNormalise":"neuvillesuroise","typeCollectivite":"Commune","region":"Île-de-France","departement":"Val-d'Oise","departementCode":"95","adresse":{"street":"65 rue Joseph-Cornudet","postalCode":"95000","city":"Neuville-sur-Oise","country":"France"},"contacts":{"email":"affgenerales@neuvillesuroise.fr","telephone":"0134240917"},"horaires":"Le Lundi : de 13h30 à 17h30\nDu Mardi au Vendredi : de 08h30 à 12h00 de 15h00 à 17h30\nLe Samedi : de 08h30 à 12h00","latitude":49.0135,"longitude":2.0626,"website":"http://www.neuvillesuroise.fr/","hasWebsite":true,"hasHoraires":true,"url":"https://lannuaire.service-public.gouv.fr/ile-de-france/val-d-oise/dcdfb882-6b38-45bc-840a-27b260304c54"}
{"nom":"Nointel","nomNormalise":"nointel","typeCollectivite":"Commune","region":"Île-de-France","departement":"Val-d'Oise","departementCode":"95","adresse":{"street":"Rue de l'Orangerie","postalCode":"95590","city":"Nointel","country":"France"},"contacts":{"email":"nointel-mairie@wanadoo.fr","telephone":"0134700141"},"horaires":"Le Lundi : de 09h00 à 12h00 de 13h30 à 17h00\nLe Mardi : de 09h00 à 12h00\nLe Mercredi : de 09h00 à 12h00 de 13h30 à 17h00\nDu Vendredi au Samedi : de 09h00 à 12h00","latitude":49.1286,"longitude":2.28884,"website":"http://www.nointel95.fr/","hasWebsite":true,"hasHoraires":true,"url":"https://lannuaire.service-public.gouv.fr/ile-de-france/val-d-oise/70931cc8-399f-454e-835a-783f1c4843fa"}
{"nom":"Noisy-sur-Oise","nomNormalise":"noisysuroise","typeCollectivite":"Commune","region":"Île-de-France","departement":"Val-d'Oise","departementCode":"95","adresse":{"street":"9 rue Jules-Ferry","postalCode":"95270","city":"Noisy-sur-Oise","country":"France"},"contacts":{"email":"mairie.de.noisy.sur.oise@wanadoo.fr","telephone":"0134700390"},"horaires":"Le Lundi : de 14h00 à 17h00\nLe Vendredi : de 14h00 à 17h00","latitude":49.1373,"longitude":2.33019,"website":"","hasWebsite":false,"hasHoraires":true,"url":"https://lannuaire.service-public.gouv.fr/ile-de-france/val-d-oise/66cbd8cb-d1dc-4065-96aa-bf220a639f30"}
{"nom":"Nucourt","nomNormalise":"nucourt","typeCollectivite":"Commune","region":"Île-de-France","departement":"Val-d'Oise","departementCode":"95","adresse":{"street":"Rue de la Boutrolle","postalCode":"95420","city":"Nucourt","country":"France"},"contacts":{"email":"mairie@nucourt.fr","telephone":"0134674111"},"horaires":"Le Mardi : de 13h30 à 19h00\nLe Jeudi : de 13h30 à 19h00","latitude":49.160183,"longitude":1.853252,"website":"https://nucourt.fr/","hasWebsite":true,"hasHoraires":true,"url":"https://lannuaire.service-public.gouv.fr/ile-de-france/val-d-oise/c4bbcdb0-ed41-4588-9a0b-8c0fe47a9ea5"}
{"nom":"Omerville","nomNormalise":"omerville","typeCollectivite":"Commune","region":"Île-de-France","departement":"Val-d'Oise","departementCode":"95","adresse":{"street":"1 rue de l'École","postalCode":"95420","city":"Omerville","country":"France"},"contacts":{"email":"mairie@omerville.fr","telephone":"0134677306"},"horaires":"","latitude":49.140373,"longitude":1.7216392,"website":"","hasWebsite":false,"hasHoraires":false,"url":"https://lannuaire.service-public.gouv.fr/ile-de-france/val-d-oise/130fe181-af8e-402c-87c7-65d06995419c"}
{"nom":"Osny","nomNormalise":"osny","typeCollectivite":"Commune","region":"Île-de-France","departement":"Val-d'Oise","departementCode":"95","adresse":{"street":"Château de Grouchy","postalCode":"95520","city":"Osny","country":"France"},"contacts":{"email":"mairie@ville-osny.fr","telephone":"0134254200"},"horaires":"Du Lundi au Mercredi : de 09h00 à 12h00 de 13h30 à 17h00\nLe Jeudi : de 13h30 à 17h00\nLe Vendredi : de 09h00 à 12h00 de 13h30 à 17h00","latitude":49.064053,"longitude":2.064952,"website":"https://osny.fr/","hasWebsite":true,"hasHoraires":true,"url":"https://lannuaire.service-public.gouv.fr/ile-de-france/val-d-oise/efb2f344-c84b-42d8-bb9b-9094c01de3e6"}
{"nom":"Parmain","nomNormalise":"parmain","typeCollectivite":"Commune","region":"Île-de-France","departement":"Val-d'Oise","departementCode":"95","adresse":{"street":"Place Georges-Clemenceau","postalCode":"95620","city":"Parmain","country":"France"},"contacts":{"email":"communication@ville-parmain.fr","telephone":"0134089595"},"horaires":"Le Lundi : de 13h30 à 17h00\nLe Mardi : de 09h00 à 12h00\nLe Mercredi : de 09h00 à 12h00 de 13h30 à 17h00\nLe Jeudi : de 09h00 à 12h00\nLe Vendredi : de 09h00 à 12h00 de 13h30 à 17h00\nLe Samedi : de 09h00 à 12h00\n\nAccueil ouvert les 1er, 3e et 5e samedi du mois.","latitude":49.1137,"longitude":2.20906,"website":"https://www.ville-parmain.fr/","hasWebsite":true,"hasHoraires":true,"url":"https://lannuaire.service-public.gouv.fr/ile-de-france/val-d-oise/fb0f1a4a-1820-4220-98a5-2f9aa1e8b0f7"}
{"nom":"Persan","nomNormalise":"persan","typeCollectivite":"Commune","region":"Île-de-France","departement":"Val-d'Oise","departementCode":"95","adresse":{"street":"65 avenue Gaston-Vermeire","postalCode":"95340","city":"Persan","country":"France"},"contacts":{"email":"mairie@ville-persan.fr","telephone":"0139374880"},"horaires":"Du Lundi au Vendredi : de 08h30 à 12h00 de 13h30 à 17h30","latitude":49.151,"longitude":2.27654,"website":"http://www.ville-persan.fr/","hasWebsite":true,"hasHoraires":true,"url":"https://lannuaire.service-public.gouv.fr/ile-de-france/val-d-oise/bbe4004f-b789-409d-9238-eac8b42ef42b"}
{"nom":"Pierrelaye","nomNormalise":"pierrelaye","typeCollectivite":"Commune","region":"Île-de-France","departement":"Val-d'Oise","departementCode":"95","adresse":{"street":"42 bis rue Victor-Hugo","postalCode":"95480","city":"Pierrelaye","country":"France"},"contacts":{"email":"accueil-mairie@ville-pierrelaye.fr","telephone":"0134323130"},"horaires":"Le Lundi : de 08h30 à 12h00 de 13h30 à 17h00\nLe Mardi : de 08h30 à 12h00 de 13h30 à 18h45\nDu Mercredi au Vendredi : de 08h30 à 12h00 de 13h30 à 17h00\nLe Samedi : de 08h30 à 12h00\n\nAccueil ouvert uniquement un samedi sur deux, consultez le site de la mairie pour connaître les dates.","latitude":49.0236,"longitude":2.15387,"website":"http://www.villepierrelaye.fr/","hasWebsite":true,"hasHoraires":true,"url":"https://lannuaire.service-public.gouv.fr/ile-de-france/val-d-oise/3a8211ff-5967-4550-b0fe-5dccdcfabd08"}
{"nom":"Piscop","nomNormalise":"piscop","typeCollectivite":"Commune","region":"Île-de-France","departement":"Val-d'Oise","departementCode":"95","adresse":{"street":"Place de la Mairie","postalCode":"95350","city":"Piscop","country":"France"},"contacts":{"email":"contact@mairie-piscop.fr","telephone":"0139901904"},"horaires":"Le Lundi : de 14h00 à 17h30\nLe Mercredi : de 09h00 à 12h00\nLe Jeudi : de 15h00 à 19h00\nLe Vendredi : de 10h00 à 12h00","latitude":49.012447,"longitude":2.34253,"website":"https://www.piscop.fr/","hasWebsite":true,"hasHoraires":true,"url":"https://lannuaire.service-public.gouv.fr/ile-de-france/val-d-oise/e7a97c51-f17d-4dd4-99a1-1049932c752e"}
{"nom":"Pontoise","nomNormalise":"pontoise","typeCollectivite":"Commune","region":"Île-de-France","departement":"Val-d'Oise","departementCode":"95","adresse":{"street":"2 rue Victor-Hugo","postalCode":"95300","city":"Pontoise","country":"France"},"contacts":{"email":"","telephone":"0134433443"},"horaires":"Du Lundi au Mercredi : de 08h45 à 17h00\nLe Jeudi : de 14h00 à 17h00\nLe Vendredi : de 08h45 à 16h30\nLe Samedi : de 08h45 à 12h15","latitude":49.050804,"longitude":2.100258,"website":"https://www.ville-pontoise.fr/","hasWebsite":true,"hasHoraires":true,"url":"https://lannuaire.service-public.gouv.fr/ile-de-france/val-d-oise/a3b4284c-066e-4541-af69-dcd6424b413c"}
{"nom":"Presles","nomNormalise":"presles","typeCollectivite":"Commune","region":"Île-de-France","departement":"Val-d'Oise","departementCode":"95","adresse":{"street":"78 rue Pierre-Brossolette","postalCode":"95590","city":"Presles","country":"France"},"contacts":{"email":"mairie@ville-presles.fr","telephone":"0130287373"},"horaires":"Du Lundi au Mardi : de 09h00 à 12h00 de 14h00 à 16h45\nLe Jeudi : de 09h00 à 12h00 de 14h00 à 16h45\nDu Vendredi au Samedi : de 09h00 à 12h00\n\nAccueil ouvert les 1er et 3e samedis du mois uniquement sauf veille de fête.","latitude":49.1148,"longitude":2.28098,"website":"http://www.ville-presles.fr/","hasWebsite":true,"hasHoraires":true,"url":"https://lannuaire.service-public.gouv.fr/ile-de-france/val-d-oise/84be6a68-768b-4d52-aff4-b9af87c41d01"}
{"nom":"Puiseux-en-France","nomNormalise":"puiseuxenfrance","typeCollectivite":"Commune","region":"Île-de-France","departement":"Val-d'Oise","departementCode":"95","adresse":{"street":"Place Jean-Moulin","postalCode":"95380","city":"Puiseux-en-France","country":"France"},"contacts":{"email":"mairie@puiseux-en-france.fr","telephone":"0134726894"},"horaires":"Le Lundi : de 14h45 à 17h45\nDu Mardi au Vendredi : de 08h30 à 12h00 de 14h45 à 17h45\nLe Samedi : de 09h00 à 11h45","latitude":49.0342,"longitude":2.45273,"website":"https://www.puiseux-en-france.fr/","hasWebsite":true,"hasHoraires":true,"url":"https://lannuaire.service-public.gouv.fr/ile-de-france/val-d-oise/976b341b-b37e-41df-a487-616d84a0679a"}
{"nom":"Puiseux-Pontoise","nomNormalise":"puiseuxpontoise","typeCollectivite":"Commune","region":"Île-de-France","departement":"Val-d'Oise","departementCode":"95","adresse":{"street":"12 Grande rue","postalCode":"95650","city":"Puiseux-Pontoise","country":"France"},"contacts":{"email":"mairie.puiseux-pontoise.95@wanadoo.fr","telephone":"0134461082"},"horaires":"","latitude":49.057,"longitude":2.02215,"website":"","hasWebsite":false,"hasHoraires":false,"url":"https://lannuaire.service-public.gouv.fr/ile-de-france/val-d-oise/e9383d6f-3a77-4ba6-a776-c482ed00caab"}
{"nom":"Roissy-en-France","nomNormalise":"roissyenfrance","typeCollectivite":"Commune","region":"Île-de-France","departement":"Val-d'Oise","departementCode":"95","adresse":{"street":"40 avenue Charles-de-Gaulle","postalCode":"95700","city":"Roissy-en-France","country":"France"},"contacts":{"email":"accueil@ville-roissy95.fr","telephone":"0134294300"},"horaires":"Du Lundi au Jeudi : de 08h30 à 12h00 de 13h30 à 18h00\nLe Vendredi : de 08h30 à 12h00 de 13h30 à 17h00","latitude":49.0033,"longitude":2.5175247,"website":"http://www.roissyenfrance.fr/","hasWebsite":true,"hasHoraires":true,"url":"https://lannuaire.service-public.gouv.fr/ile-de-france/val-d-oise/a55012fd-69c2-442d-a9e1-68213ee9c7cd"}
{"nom":"Ronquerolles","nomNormalise":"ronquerolles","typeCollectivite":"Commune","region":"Île-de-France","departement":"Val-d'Oise","departementCode":"95","adresse":{"street":"76 Grand'rue","postalCode":"95340","city":"Ronquerolles","country":"France"},"contacts":{"email":"mairie.ronquerolles95@wanadoo.fr","telephone":"0134705088"},"horaires":"Le Lundi : de 09h00 à 12h00\nLe Mercredi : de 09h00 à 12h00\nLe Vendredi : de 16h00 à 18h30","latitude":49.1678,"longitude":2.21923,"website":"http://www.mairieronquerolles95.fr/","hasWebsite":true,"hasHoraires":true,"url":"https://lannuaire.service-public.gouv.fr/ile-de-france/val-d-oise/65b87126-6129-406c-8cee-007c31b0074c"}
{"nom":"Sagy","nomNormalise":"sagy","typeCollectivite":"Commune","region":"Île-de-France","departement":"Val-d'Oise","departementCode":"95","adresse":{"street":"1 rue de la Mairie","postalCode":"95450","city":"Sagy","country":"France"},"contacts":{"email":"mairie.sagy@orange.fr","telephone":"0134663940"},"horaires":"Le Lundi : de 09h00 à 11h00\nLe Mardi : de 16h00 à 18h00\nLe Jeudi : de 16h00 à 18h00\nLe Samedi : de 10h00 à 12h00","latitude":49.0498,"longitude":1.951634,"website":"http://www.sagy.fr/","hasWebsite":true,"hasHoraires":true,"url":"https://lannuaire.service-public.gouv.fr/ile-de-france/val-d-oise/5de238bd-251d-409e-ba4c-663eb85a7c2d"}
{"nom":"Saint-Brice-sous-Forêt","nomNormalise":"saintbricesousforet","typeCollectivite":"Commune","region":"Île-de-France","departement":"Val-d'Oise","departementCode":"95","adresse":{"street":"14 rue de Paris","postalCode":"95350","city":"Saint-Brice-sous-Forêt","country":"France"},"contacts":{"email":"espaceaccueil@saintbrice95.fr","telephone":"0134294200"},"horaires":"Du Lundi au Mercredi : de 08h30 à 12h00 de 13h30 à 17h30\nLe Jeudi : de 13h30 à 19h00\nLe Vendredi : de 08h30 à 12h00 de 13h30 à 17h30\nLe Samedi : de 09h00 à 12h00\n\nAccueil ouvert uniquement hors vacances scolaires.","latitude":48.9976,"longitude":2.357214,"website":"http://www.saintbrice95.fr/","hasWebsite":true,"hasHoraires":true,"url":"https://lannuaire.service-public.gouv.fr/ile-de-france/val-d-oise/fd42b15a-703b-4f0a-8345-38ea0dcb214e"}
{"nom":"Saint-Clair-sur-Epte","nomNormalise":"saintclairsurepte","typeCollectivite":"Commune","region":"Île-de-France","departement":"Val-d'Oise","departementCode":"95","adresse":{"street":"5 place Rollon","postalCode":"95770","city":"Saint-Clair-sur-Epte","country":"France"},"contacts":{"email":"mairie-stclairsurepte@orange.fr","telephone":"0134676042"},"horaires":"Du Lundi au Mardi : de 09h00 à 12h00\nLe Mercredi : de 14h00 à 18h00\nLe Jeudi : de 09h00 à 12h00\nLe Vendredi : de 14h00 à 18h00\nLe Samedi : de 09h00 à 12h00","latitude":49.2066,"longitude":1.67889,"website":"http://www.saint-clair-sur-epte.fr/","hasWebsite":true,"hasHoraires":true,"url":"https://lannuaire.service-public.gouv.fr/ile-de-france/val-d-oise/0a265ca6-8ec2-4941-9274-cbe0a333b7c4"}
{"nom":"Saint-Cyr-en-Arthies","nomNormalise":"saintcyrenarthies","typeCollectivite":"Commune","region":"Île-de-France","departement":"Val-d'Oise","departementCode":"95","adresse":{"street":"1 rue du Parc","postalCode":"95510","city":"Saint-Cyr-en-Arthies","country":"France"},"contacts":{"email":"mairie.stcyrenarthies@wanadoo.fr","telephone":"0134781452"},"horaires":"","latitude":49.0611,"longitude":1.74209,"website":"http://saint-cyr-en-arthies.fr/","hasWebsite":true,"hasHoraires":false,"url":"https://lannuaire.service-public.gouv.fr/ile-de-france/val-d-oise/cdbb8c59-0e2e-4e40-b44d-1be2dc7223b2"}
{"nom":"Saint-Gervais","nomNormalise":"saintgervais","typeCollectivite":"Commune","region":"Île-de-France","departement":"Val-d'Oise","departementCode":"95","adresse":{"street":"21 rue Robert-Guesnier","postalCode":"95420","city":"Saint-Gervais","country":"France"},"contacts":{"email":"mairie@saintgervais95.fr","telephone":"0134670271"},"horaires":"Le Lundi : de 09h00 à 12h00\nLe Mercredi : de 15h00 à 18h00\nLe Vendredi : de 10h00 à 12h00 de 15h00 à 18h00","latitude":49.1686,"longitude":1.76927,"website":"https://mairie-saintgervais.fr/","hasWebsite":true,"hasHoraires":true,"url":"https://lannuaire.service-public.gouv.fr/ile-de-france/val-d-oise/5924ef0d-3d8a-4b76-9c51-53582b70720f"}
{"nom":"Saint-Gratien","nomNormalise":"saintgratien","typeCollectivite":"Commune","region":"Île-de-France","departement":"Val-d'Oise","departementCode":"95","adresse":{"street":"Place Gambetta","postalCode":"95210","city":"Saint-Gratien","country":"France"},"contacts":{"email":"accueil.dstua@mairie-saintgratien.fr","telephone":"0134178484"},"horaires":"Le Lundi : de 08h30 à 17h00\nLe Mardi : de 13h30 à 17h00\nLe Mercredi : de 08h30 à 17h00\nLe Jeudi : de 08h30 à 19h00\n\nAccueil ouvert jusqu'à 19h pour l'état civil uniquement.\nLe Vendredi : de 08h30 à 17h00\nLe Samedi : de 09h00 à 12h00\n\nSauf Samedi de Pâques.","latitude":48.9705,"longitude":2.28377,"website":"https://www.ville-saintgratien.fr/","hasWebsite":true,"hasHoraires":true,"url":"https://lannuaire.service-public.gouv.fr/ile-de-france/val-d-oise/a569d202-440f-4030-913a-4be95eb052c4"}
{"nom":"Saint-Leu-la-Forêt","nomNormalise":"saintleulaforet","typeCollectivite":"Commune","region":"Île-de-France","departement":"Val-d'Oise","departementCode":"95","adresse":{"street":"52 rue du Général-Leclerc","postalCode":"95320","city":"Saint-Leu-la-Forêt","country":"France"},"contacts":{"email":"cab@saint-leu-la-foret.fr","telephone":"0130402200"},"horaires":"Le Lundi : de 13h30 à 17h30\nLe Mardi : de 08h30 à 12h00 de 13h30 à 17h30\nLe Mercredi : de 08h30 à 12h00\nDu Jeudi au Vendredi : de 08h30 à 12h00 de 13h30 à 17h30\nLe Samedi : de 09h00 à 12h00","latitude":49.018772,"longitude":2.243613,"website":"http://www.saint-leu-la-foret.fr/","hasWebsite":true,"hasHoraires":true,"url":"https://lannuaire.service-public.gouv.fr/ile-de-france/val-d-oise/97f9af13-3a9b-4ba0-92ce-e3198e6a4f84"}
{"nom":"Saint-Martin-du-Tertre","nomNormalise":"saintmartindutertre","typeCollectivite":"Commune","region":"Île-de-France","departement":"Val-d'Oise","departementCode":"95","adresse":{"street":"Place Louis-Desenclos","postalCode":"95270","city":"Saint-Martin-du-Tertre","country":"France"},"contacts":{"email":"accueil@mairie-saintmartin95.fr","telephone":"0134091500"},"horaires":"Le Lundi : de 09h00 à 12h00 de 14h00 à 17h00\nLe Mardi : de 09h00 à 12h00\nLe Mercredi : de 08h00 à 12h00 de 14h00 à 16h45\nLe Jeudi : de 14h00 à 16h45\nLe Vendredi : de 09h00 à 12h00 de 14h00 à 17h00\nLe Samedi : de 09h00 à 11h45","latitude":49.108612,"longitude":2.348136,"website":"https://www.mairie-saintmartin95.fr/","hasWebsite":true,"hasHoraires":true,"url":"https://lannuaire.service-public.gouv.fr/ile-de-france/val-d-oise/7c92baf8-cdd7-47eb-b186-72adc74e3881"}
{"nom":"Saint-Ouen-l'Aumône","nomNormalise":"saintouenlaumone","typeCollectivite":"Commune","region":"Île-de-France","departement":"Val-d'Oise","departementCode":"95","adresse":{"street":"2 place Pierre-Mendès-France","postalCode":"95310","city":"Saint-Ouen-l'Aumône","country":"France"},"contacts":{"email":"courrier@ville-soa.fr","telephone":"0134212500"},"horaires":"Le Lundi : de 13h30 à 17h30\nDu Mardi au Mercredi : de 08h30 à 12h00 de 13h30 à 17h30\nLe Jeudi : de 08h30 à 12h00 de 13h30 à 19h00\nLe Vendredi : de 08h30 à 12h00 de 13h30 à 17h30\nLe Samedi : de 08h30 à 12h00","latitude":49.044098,"longitude":2.1065807,"website":"https://www.ville-soa.fr/fr","hasWebsite":true,"hasHoraires":true,"url":"https://lannuaire.service-public.gouv.fr/ile-de-france/val-d-oise/f4d19a85-f76c-4dc1-9616-68132e38b64f"}
{"nom":"Saint-Prix","nomNormalise":"saintprix","typeCollectivite":"Commune","region":"Île-de-France","departement":"Val-d'Oise","departementCode":"95","adresse":{"street":"45 rue d'Ermont","postalCode":"95390","city":"Saint-Prix","country":"France"},"contacts":{"email":"mairie@saintprix.fr","telephone":"0134274444"},"horaires":"Du Lundi au Mardi : de 08h30 à 12h00 de 13h30 à 17h30\nLe Mercredi : de 08h30 à 12h30\nLe Jeudi : de 08h30 à 12h00 de 13h30 à 18h00\nLe Vendredi : de 08h30 à 12h00 de 13h30 à 17h00\nLe Samedi : de 08h30 à 12h00","latitude":49.0069,"longitude":2.26187,"website":"http://www.saintprix.fr/","hasWebsite":true,"hasHoraires":true,"url":"https://lannuaire.service-public.gouv.fr/ile-de-france/val-d-oise/7ff72d0e-0ac8-4fd7-95c4-43d81ba5d56c"}
{"nom":"Saint-Witz","nomNormalise":"saintwitz","typeCollectivite":"Commune","region":"Île-de-France","departement":"Val-d'Oise","departementCode":"95","adresse":{"street":"1 place Isabelle-de-Vy","postalCode":"95470","city":"Saint-Witz","country":"France"},"contacts":{"email":"mairie@saint-witz.fr","telephone":"0134682620"},"horaires":"","latitude":49.0925,"longitude":2.5689,"website":"http://www.saint-witz.fr/","hasWebsite":true,"hasHoraires":false,"url":"https://lannuaire.service-public.gouv.fr/ile-de-france/val-d-oise/d390b43e-7c7e-4625-9ff1-fa4ca42a8285"}
{"nom":"Sannois","nomNormalise":"sannois","typeCollectivite":"Commune","region":"Île-de-France","departement":"Val-d'Oise","departementCode":"95","adresse":{"street":"Place du Général-Leclerc","postalCode":"95111","city":"Sannois Cedex","country":"France"},"contacts":{"email":"","telephone":"0139982000"},"horaires":"Le Lundi : de 08h30 à 12h30 de 13h30 à 17h30\nLe Mardi : de 08h30 à 12h30\nDu Mercredi au Jeudi : de 08h30 à 12h30 de 13h30 à 17h30\nLe Samedi : de 08h30 à 12h30","latitude":48.971554,"longitude":2.256865,"website":"https://www.ville-sannois.fr/","hasWebsite":true,"hasHoraires":true,"url":"https://lannuaire.service-public.gouv.fr/ile-de-france/val-d-oise/c98ff477-26a2-4a63-8702-e18d9e5cbd07"}
{"nom":"Santeuil","nomNormalise":"santeuil","typeCollectivite":"Commune","region":"Île-de-France","departement":"Val-d'Oise","departementCode":"95","adresse":{"street":"Place du Général-Leclerc","postalCode":"95640","city":"Santeuil","country":"France"},"contacts":{"email":"mairie@santeuil.fr","telephone":"0130397325"},"horaires":"","latitude":49.125866,"longitude":1.950234,"website":"http://www.santeuil.fr/","hasWebsite":true,"hasHoraires":false,"url":"https://lannuaire.service-public.gouv.fr/ile-de-france/val-d-oise/2b806efd-2768-42c6-b6ed-54ff2690fa38"}
{"nom":"Sarcelles","nomNormalise":"sarcelles","typeCollectivite":"Commune","region":"Île-de-France","departement":"Val-d'Oise","departementCode":"95","adresse":{"street":"Hôtel de Ville","postalCode":"95200","city":"Sarcelles","country":"France"},"contacts":{"email":"","telephone":"0134382140"},"horaires":"Du Lundi au Mercredi : de 09h00 à 12h15 de 13h45 à 17h15\nLe Jeudi : de 13h45 à 19h15\nLe Vendredi : de 09h00 à 12h15 de 13h45 à 17h15","latitude":48.99771,"longitude":2.3784811,"website":"https://www.sarcelles.fr/","hasWebsite":true,"hasHoraires":true,"url":"https://lannuaire.service-public.gouv.fr/ile-de-france/val-d-oise/e8a4aacc-93be-452d-a674-3223965f06fa"}
{"nom":"Seraincourt","nomNormalise":"seraincourt","typeCollectivite":"Commune","region":"Île-de-France","departement":"Val-d'Oise","departementCode":"95","adresse":{"street":"12 rue des Vallées","postalCode":"95450","city":"Seraincourt","country":"France"},"contacts":{"email":"mairie.seraincourt95@wanadoo.fr","telephone":"0134754039"},"horaires":"Le Mardi : de 13h00 à 19h30\nLe Vendredi : de 13h00 à 17h45\nLe Samedi : de 09h00 à 12h00","latitude":49.03551,"longitude":1.865272,"website":"https://www.seraincourt95.fr/","hasWebsite":true,"hasHoraires":true,"url":"https://lannuaire.service-public.gouv.fr/ile-de-france/val-d-oise/0657d679-fb0b-4cb6-b032-67b5725f1857"}
{"nom":"Seugy","nomNormalise":"seugy","typeCollectivite":"Commune","region":"Île-de-France","departement":"Val-d'Oise","departementCode":"95","adresse":{"street":"5 rue de la Fontaine","postalCode":"95270","city":"Seugy","country":"France"},"contacts":{"email":"accueil@mairie-seugy.fr","telephone":"0130354129"},"horaires":"Du Lundi au Mardi : de 14h00 à 17h30\nLe Jeudi : de 14h00 à 20h00\nLe Vendredi : de 14h00 à 17h30","latitude":49.12158,"longitude":2.39439,"website":"https://mairie-seugy.fr/","hasWebsite":true,"hasHoraires":true,"url":"https://lannuaire.service-public.gouv.fr/ile-de-france/val-d-oise/d7bc82d5-70fc-46fe-8fed-5ff26a5fccc7"}
{"nom":"Soisy-sous-Montmorency","nomNormalise":"soisysousmontmorency","typeCollectivite":"Commune","region":"Île-de-France","departement":"Val-d'Oise","departementCode":"95","adresse":{"street":"Hôtel de Ville","postalCode":"95232","city":"Soisy-sous-Montmorency Cedex","country":"France"},"contacts":{"email":"mairie@soisy-sous-montmorency.fr","telephone":"0134052000"},"horaires":"Le Lundi : de 13h30 à 19h00\nDu Mardi au Vendredi : de 08h30 à 11h45 de 13h30 à 17h00\nLe Samedi : de 08h30 à 11h45","latitude":48.9859,"longitude":2.30006,"website":"http://www.soisy-sous-montmorency.fr/","hasWebsite":true,"hasHoraires":true,"url":"https://lannuaire.service-public.gouv.fr/ile-de-france/val-d-oise/0e4a954e-774f-4b96-8142-ed35f34eeac5"}
{"nom":"Survilliers","nomNormalise":"survilliers","typeCollectivite":"Commune","region":"Île-de-France","departement":"Val-d'Oise","departementCode":"95","adresse":{"street":"3 rue de la Liberté","postalCode":"95470","city":"Survilliers","country":"France"},"contacts":{"email":"contact@mairiesurvilliers.fr","telephone":"0134682600"},"horaires":"Du Lundi au Mardi : de 09h00 à 12h00 de 14h00 à 18h00\nLe Mercredi : de 09h00 à 12h00\nDu Jeudi au Vendredi : de 09h00 à 12h00 de 14h00 à 18h00\nLe Samedi : de 09h00 à 12h00\n\nAccueil du samedi fermé pendant les congés d'été entre mi juillet et mi août.","latitude":49.0989,"longitude":2.54343,"website":"https://survilliers.fr/","hasWebsite":true,"hasHoraires":true,"url":"https://lannuaire.service-public.gouv.fr/ile-de-france/val-d-oise/f571d982-0eef-4edd-891a-cd4ad895a572"}
{"nom":"Taverny","nomNormalise":"taverny","typeCollectivite":"Commune","region":"Île-de-France","departement":"Val-d'Oise","departementCode":"95","adresse":{"street":"2 place Charles-de-Gaulle","postalCode":"95150","city":"Taverny","country":"France"},"contacts":{"email":"","telephone":"0130405060"},"horaires":"Le Lundi : de 13h30 à 17h30\nDu Mardi au Vendredi : de 08h30 à 12h00 de 13h30 à 17h30\nLe Samedi : de 09h00 à 12h00\n\nAccueil ouvert uniquement pour l'état civil.","latitude":49.02662,"longitude":2.2261066,"website":"http://www.ville-taverny.fr/","hasWebsite":true,"hasHoraires":true,"url":"https://lannuaire.service-public.gouv.fr/ile-de-france/val-d-oise/d47ff028-f237-4dc9-914d-02fc117b2671"}
{"nom":"Théméricourt","nomNormalise":"themericourt","typeCollectivite":"Commune","region":"Île-de-France","departement":"Val-d'Oise","departementCode":"95","adresse":{"street":"3 rue Achim-d'Abos","postalCode":"95450","city":"Théméricourt","country":"France"},"contacts":{"email":"mairie@themericourt.fr","telephone":"0130392062"},"horaires":"","latitude":49.0867,"longitude":1.896269,"website":"https://www.themericourt.com/","hasWebsite":true,"hasHoraires":false,"url":"https://lannuaire.service-public.gouv.fr/ile-de-france/val-d-oise/26d487cf-cf4b-418d-81c9-0631ddd39a1c"}
{"nom":"Theuville","nomNormalise":"theuville","typeCollectivite":"Commune","region":"Île-de-France","departement":"Val-d'Oise","departementCode":"95","adresse":{"street":"1 ruelle des Jardins","postalCode":"95810","city":"Theuville","country":"France"},"contacts":{"email":"mairiedetheuville@orange.fr","telephone":"0134665007"},"horaires":"Le Jeudi : de 16h00 à 18h00","latitude":49.15397,"longitude":2.072308,"website":"","hasWebsite":false,"hasHoraires":true,"url":"https://lannuaire.service-public.gouv.fr/ile-de-france/val-d-oise/fdac9777-e2c6-4045-bb8a-9f641c3917ea"}
{"nom":"Us","nomNormalise":"us","typeCollectivite":"Commune","region":"Île-de-France","departement":"Val-d'Oise","departementCode":"95","adresse":{"street":"5 rue de la Libération","postalCode":"95450","city":"Us","country":"France"},"contacts":{"email":"mairie.us.95@wanadoo.fr","telephone":"0134660116"},"horaires":"Le Lundi : de 14h00 à 18h00\nLe Mercredi : de 10h00 à 12h00 de 15h00 à 17h30\nDu Vendredi au Samedi : de 09h00 à 12h00","latitude":49.10119,"longitude":1.967228,"website":"http://www.us-en-vexin.fr/","hasWebsite":true,"hasHoraires":true,"url":"https://lannuaire.service-public.gouv.fr/ile-de-france/val-d-oise/063c8d7d-c90c-48ae-986e-735d25e153ac"}
{"nom":"Vallangoujard","nomNormalise":"vallangoujard","typeCollectivite":"Commune","region":"Île-de-France","departement":"Val-d'Oise","departementCode":"95","adresse":{"street":"17 rue de Marines","postalCode":"95810","city":"Vallangoujard","country":"France"},"contacts":{"email":"secretariat@vallangoujard.fr","telephone":"0134665111"},"horaires":"Du Lundi au Mardi : de 09h00 à 12h00 de 14h00 à 16h00\nLe Mercredi : de 09h00 à 12h00\nDu Jeudi au Vendredi : de 09h00 à 12h00 de 14h00 à 16h00\n\nAccueil possible le samedi matin sur rendez-vous uniquement.","latitude":49.142,"longitude":2.10053,"website":"http://www.vallangoujard.fr/","hasWebsite":true,"hasHoraires":true,"url":"https://lannuaire.service-public.gouv.fr/ile-de-france/val-d-oise/3eeb4df5-c683-45db-a3b9-a5584b41c6ca"}
{"nom":"Valmondois","nomNormalise":"valmondois","typeCollectivite":"Commune","region":"Île-de-France","departement":"Val-d'Oise","departementCode":"95","adresse":{"street":"28 Grande rue","postalCode":"95760","city":"Valmondois","country":"France"},"contacts":{"email":"mairie@valmondois.fr","telephone":"0134730626"},"horaires":"Le Lundi : de 09h00 à 12h00\nLe Mardi : de 09h00 à 12h00 de 15h00 à 19h00\n\nFermeture à 17h pendant les congés scolaires.\nLe Jeudi : de 09h00 à 12h00\nLe Vendredi : de 09h00 à 12h00 de 15h00 à 17h00\nLe Samedi : de 09h00 à 12h00","latitude":49.0962,"longitude":2.19032,"website":"https://valmondois.fr/","hasWebsite":true,"hasHoraires":true,"url":"https://lannuaire.service-public.gouv.fr/ile-de-france/val-d-oise/d718c0ae-7a83-43af-8bcb-9863d8c0715b"}
{"nom":"Vaudherland","nomNormalise":"vaudherland","typeCollectivite":"Commune","region":"Île-de-France","departement":"Val-d'Oise","departementCode":"95","adresse":{"street":"11 rue de Paris","postalCode":"95500","city":"Vaudherland","country":"France"},"contacts":{"email":"mairievaudherland@orange.fr","telephone":"0139885784"},"horaires":"Le Lundi : de 08h30 à 12h00 de 13h30 à 17h00","latitude":49.0014,"longitude":2.4875414,"website":"","hasWebsite":false,"hasHoraires":true,"url":"https://lannuaire.service-public.gouv.fr/ile-de-france/val-d-oise/c7d0b561-073b-446c-9451-6a70a5dadc5f"}
{"nom":"Vauréal","nomNormalise":"vaureal","typeCollectivite":"Commune","region":"Île-de-France","departement":"Val-d'Oise","departementCode":"95","adresse":{"street":"1 place du Coeur-Battant","postalCode":"95490","city":"Vauréal","country":"France"},"contacts":{"email":"contact@mairie-vaureal.fr","telephone":"0134245353"},"horaires":"Du Lundi au Vendredi : de 08h30 à 12h30 de 13h30 à 18h00\nLe Samedi : de 09h00 à 12h15","latitude":49.03012,"longitude":2.021182,"website":"https://vaureal.fr/","hasWebsite":true,"hasHoraires":true,"url":"https://lannuaire.service-public.gouv.fr/ile-de-france/val-d-oise/dd6a7b83-ed3e-46a9-bb6b-dd2f210fb8c3"}
{"nom":"Vémars","nomNormalise":"vemars","typeCollectivite":"Commune","region":"Île-de-France","departement":"Val-d'Oise","departementCode":"95","adresse":{"street":"5 rue Léon-Bouchard","postalCode":"95470","city":"Vémars","country":"France"},"contacts":{"email":"mairievemars@mairievemars.fr","telephone":"0134683340"},"horaires":"Du Lundi au Mercredi : de 09h00 à 12h00 de 14h00 à 18h00\nLe Jeudi : de 14h00 à 18h00\nLe Vendredi : de 09h00 à 12h00 de 14h00 à 17h00\nLe Samedi : de 09h00 à 12h00","latitude":49.067867,"longitude":2.566065,"website":"https://mairiedevemars.fr/","hasWebsite":true,"hasHoraires":true,"url":"https://lannuaire.service-public.gouv.fr/ile-de-france/val-d-oise/0c1acfee-33f4-468c-8c6c-1ca0b00b5d61"}
{"nom":"Vétheuil","nomNormalise":"vetheuil","typeCollectivite":"Commune","region":"Île-de-France","departement":"Val-d'Oise","departementCode":"95","adresse":{"street":"5 place de la Mairie","postalCode":"95510","city":"Vétheuil","country":"France"},"contacts":{"email":"mairiedevetheuil@orange.fr","telephone":"0134781318"},"horaires":"","latitude":49.06287,"longitude":1.701833,"website":"https://mairie-vetheuil.fr/","hasWebsite":true,"hasHoraires":false,"url":"https://lannuaire.service-public.gouv.fr/ile-de-france/val-d-oise/8ce108b0-22dc-4dd7-a040-0d9daac07cfa"}
{"nom":"Viarmes","nomNormalise":"viarmes","typeCollectivite":"Commune","region":"Île-de-France","departement":"Val-d'Oise","departementCode":"95","adresse":{"street":"Place Pierre-Salvi","postalCode":"95270","city":"Viarmes","country":"France"},"contacts":{"email":"hoteldeville@viarmes.fr","telephone":"0134092626"},"horaires":"Du Mardi au Samedi : de 08h45 à 11h45\n\nAccueil possible sur rendez-vous en dehors de ces horaires.","latitude":49.125988,"longitude":2.3696034,"website":"http://www.viarmes.fr/","hasWebsite":true,"hasHoraires":true,"url":"https://lannuaire.service-public.gouv.fr/ile-de-france/val-d-oise/d43d0351-6c3f-4027-b170-5b8bd9158c25"}
{"nom":"Vienne-en-Arthies","nomNormalise":"vienneenarthies","typeCollectivite":"Commune","region":"Île-de-France","departement":"Val-d'Oise","departementCode":"95","adresse":{"street":"18 route de la Mairie","postalCode":"95510","city":"Vienne-en-Arthies","country":"France"},"contacts":{"email":"mairie.viennearthies@wanadoo.fr","telephone":"0134781359"},"horaires":"Le Lundi : de 15h00 à 18h00\nLe Mardi : de 09h00 à 11h00 de 15h00 à 18h00\nLe Jeudi : de 09h00 à 11h00 de 15h00 à 19h00","latitude":49.0652,"longitude":1.71639,"website":"http://www.vienne-en-arthies.fr/","hasWebsite":true,"hasHoraires":true,"url":"https://lannuaire.service-public.gouv.fr/ile-de-france/val-d-oise/08dc65c6-ece9-4c27-b7e7-93f4428efe08"}
{"nom":"Vigny","nomNormalise":"vigny","typeCollectivite":"Commune","region":"Île-de-France","departement":"Val-d'Oise","departementCode":"95","adresse":{"street":"4 rue Beaudouin","postalCode":"95450","city":"Vigny","country":"France"},"contacts":{"email":"mairie.vigny@wanadoo.fr","telephone":"0130392120"},"horaires":"Du Lundi au Mercredi : de 09h00 à 12h00 de 13h30 à 17h30\nLe Vendredi : de 09h00 à 12h00 de 13h30 à 17h30\nLe Samedi : de 09h00 à 12h00","latitude":49.0776,"longitude":1.92654,"website":"http://www.vigny.fr/","hasWebsite":true,"hasHoraires":true,"url":"https://lannuaire.service-public.gouv.fr/ile-de-france/val-d-oise/84267bed-5f6b-48c5-a988-8d1771554abe"}
{"nom":"Villaines-sous-Bois","nomNormalise":"villainessousbois","typeCollectivite":"Commune","region":"Île-de-France","departement":"Val-d'Oise","departementCode":"95","adresse":{"street":"8 rue de la Gare","postalCode":"95570","city":"Villaines-sous-Bois","country":"France"},"contacts":{"email":"mairie@villaines-sous-bois.fr","telephone":"0130357800"},"horaires":"Le Lundi : de 09h30 à 13h30 de 14h30 à 17h00\nLe Mardi : de 14h30 à 18h00\nLe Mercredi : de 09h00 à 14h00\nLe Jeudi : de 14h30 à 18h00\nLe Vendredi : de 09h00 à 13h30 de 14h30 à 16h00\n\nAccueil possible sur rendez-vous en dehors de ces horaires.","latitude":49.076725,"longitude":2.356252,"website":"https://villaines-sous-bois.fr/","hasWebsite":true,"hasHoraires":true,"url":"https://lannuaire.service-public.gouv.fr/ile-de-france/val-d-oise/c094e71d-8355-471b-8c45-2fe20ba96cf7"}
{"nom":"Villeron","nomNormalise":"villeron","typeCollectivite":"Commune","region":"Île-de-France","departement":"Val-d'Oise","departementCode":"95","adresse":{"street":"25 rue Saint-Germain","postalCode":"95380","city":"Villeron","country":"France"},"contacts":{"email":"","telephone":"0134681500"},"horaires":"Le Lundi : de 09h00 à 12h00 de 13h30 à 18h00\nLe Mercredi : de 09h00 à 12h00 de 13h30 à 16h00\nLe Jeudi : de 13h30 à 18h00\nLe Vendredi : de 09h00 à 12h00 de 13h30 à 17h00","latitude":49.05664,"longitude":2.5405972,"website":"https://www.villeron.fr/","hasWebsite":true,"hasHoraires":true,"url":"https://lannuaire.service-public.gouv.fr/ile-de-france/val-d-oise/7a1ccdf6-80cf-4271-9325-ab5bd11101e0"}
{"nom":"Villers-en-Arthies","nomNormalise":"villersenarthies","typeCollectivite":"Commune","region":"Île-de-France","departement":"Val-d'Oise","departementCode":"95","adresse":{"street":"3 route de Vétheuil","postalCode":"95510","city":"Villers-en-Arthies","country":"France"},"contacts":{"email":"","telephone":"0134781715"},"horaires":"Le Lundi : de 16h00 à 19h00\nLe Jeudi : de 09h00 à 12h00\n\nAccueil du maire sur rendez-vous uniquement le samedi matin.","latitude":49.0867,"longitude":1.72381,"website":"https://villersenarthies.fr/","hasWebsite":true,"hasHoraires":true,"url":"https://lannuaire.service-public.gouv.fr/ile-de-france/val-d-oise/b9b0a4dd-f967-4bf4-8169-935d816de797"}
{"nom":"Villiers-Adam","nomNormalise":"villiersadam","typeCollectivite":"Commune","region":"Île-de-France","departement":"Val-d'Oise","departementCode":"95","adresse":{"street":"Place Victor-Hugo","postalCode":"95840","city":"Villiers-Adam","country":"France"},"contacts":{"email":"mairie@villiers-adam.fr","telephone":"0134692817"},"horaires":"Le Lundi : de 09h00 à 12h00 de 14h00 à 17h00\nLe Mercredi : de 10h00 à 12h00\nDu Jeudi au Vendredi : de 09h00 à 12h00 de 14h00 à 17h00\nLe Samedi : de 10h00 à 12h00\n\nAccueil fermé le samedi en juillet et en août.","latitude":49.064213,"longitude":2.235307,"website":"https://lapagelocale.fr/95840-villiers-adam","hasWebsite":true,"hasHoraires":true,"url":"https://lannuaire.service-public.gouv.fr/ile-de-france/val-d-oise/20c972bb-d92d-400e-8a36-8d022ecff24d"}
{"nom":"Villiers-le-Bel","nomNormalise":"villierslebel","typeCollectivite":"Commune","region":"Île-de-France","departement":"Val-d'Oise","departementCode":"95","adresse":{"street":"32 rue de la République","postalCode":"95400","city":"Villiers-le-Bel","country":"France"},"contacts":{"email":"etatcivil@ville-villiers-le-bel.fr","telephone":"0134292827"},"horaires":"Le Lundi : de 08h00 à 12h00 de 13h30 à 17h30\nLe Mardi : de 13h30 à 17h30\nDu Mercredi au Vendredi : de 08h00 à 12h00 de 13h30 à 17h30\nLe Samedi : de 09h00 à 12h00\n\nAccueil ouvert uniquement pour l'état civil et fermé en juillet-août.","latitude":49.00148,"longitude":2.3846183,"website":"https://www.ville-villiers-le-bel.fr/2/accueil.htm","hasWebsite":true,"hasHoraires":true,"url":"https://lannuaire.service-public.gouv.fr/ile-de-france/val-d-oise/ec2f68b5-445a-4ae2-9d7b-48e1b4e4e739"}
{"nom":"Villiers-le-Sec","nomNormalise":"villierslesec","typeCollectivite":"Commune","region":"Île-de-France","departement":"Val-d'Oise","departementCode":"95","adresse":{"street":"5 rue de Paris","postalCode":"95720","city":"Villiers-le-Sec","country":"France"},"contacts":{"email":"mairievillierslesec95720@orange.fr","telephone":"0134711938"},"horaires":"Le Lundi : de 14h30 à 18h30\nLe Mercredi : de 14h30 à 18h30","latitude":49.07252,"longitude":2.3898354,"website":"","hasWebsite":false,"hasHoraires":true,"url":"https://lannuaire.service-public.gouv.fr/ile-de-france/val-d-oise/21fc5e3a-c364-4821-ac6f-ca8cd9b93e56"}
{"nom":"Wy-dit-Joli-Village","nomNormalise":"wyditjolivillage","typeCollectivite":"Commune","region":"Île-de-France","departement":"Val-d'Oise","departementCode":"95","adresse":{"street":"4 rue de la Mairie","postalCode":"95420","city":"Wy-dit-Joli-Village","country":"France"},"contacts":{"email":"mairie.wy-dit-joli-village@wanadoo.fr","telephone":"0134674172"},"horaires":"Le Mercredi : de 13h30 à 18h30\nLe Vendredi : de 13h30 à 18h30","latitude":49.1024,"longitude":1.83549,"website":"http://www.wy-dit-joli-village.fr/","hasWebsite":true,"hasHoraires":true,"url":"https://lannuaire.service-public.gouv.fr/ile-de-france/val-d-oise/ce70201f-379f-460f-ac9b-5ab951e122cf"}
