{"nom":"Ablancourt","adresse":"7 rue Perrot-d'Ablancourt , 51240 , Ablancourt , France","codePostal":"51240","region":"Grand Est","departement":"Marne","departementCode":"51","horaires":"Le Lundi : de 09h00 à 12h00","email":"commune.ablancourt@gmail.com","telephone":"03 26 74 52 12","latitude":48.812492,"longitude":4.521659,"website":"https://www.ablancourt.fr/","url":"https://lannuaire.service-public.gouv.fr/grand-est/marne/dfe0fdf9-0549-45b9-9400-3dbacd27ab70"}
{"nom":"Aigny","adresse":"6 place de la République , 51150 , Aigny , France","codePostal":"51150","region":"Grand Est","departement":"Marne","departementCode":"51","horaires":"Le Mardi : de 13h30 à 14h30\nLe Vendredi : de 10h00 à 12h00","email":"mairie.aigny@wanadoo.fr","telephone":"03 26 67 43 92","latitude":49.03519,"longitude":4.207089,"website":"https://www.aigny.fr/","url":"https://lannuaire.service-public.gouv.fr/grand-est/marne/3450c513-1d8c-47b8-a65d-d982671a8d26"}
{"nom":"Allemanche-Launay-et-Soyer","adresse":"7 rue de la Fosse-Argentier , 51260 , Allemanche-Launay-et-Soyer , France","codePostal":"51260","region":"Grand Est","departement":"Marne","departementCode":"51","horaires":"Le Mercredi : de 16h00 à 18h00","email":"communeallemanche@orange.fr","telephone":"03 26 42 72 16","latitude":48.604233,"longitude":3.787665,"website":"","url":"https://lannuaire.service-public.gouv.fr/grand-est/marne/693e0029-af99-42d4-b056-39210ea8a22c"}
{"nom":"Allemant","adresse":"1 rue de Signy , 51120 , Allemant , France","codePostal":"51120","region":"Grand Est","departement":"Marne","departementCode":"51","horaires":"Le Jeudi : de 16h00 à 19h00","email":"mairie.allemant@wanadoo.fr","telephone":"03 26 81 61 24","latitude":48.760773,"longitude":3.799693,"website":"","url":"https://lannuaire.service-public.gouv.fr/grand-est/marne/076c9a92-570e-4c12-90ea-e15c96de3e85"}
{"nom":"Alliancelles","adresse":"19 Grande-Rue , 51250 , Alliancelles , France","codePostal":"51250","region":"Grand Est","departement":"Marne","departementCode":"51","horaires":"Le Mercredi : de 16h45 à 18h30","email":"mairie.alliancelles@orange.fr","telephone":"03 26 73 12 61","latitude":48.80896,"longitude":4.88385,"website":"","url":"https://lannuaire.service-public.gouv.fr/grand-est/marne/3c105701-b120-466e-b94f-b46e60eddc5f"}
{"nom":"Ambonnay","adresse":"Boulevard des Fossés-de-Ronde , 51150 , Ambonnay , France","codePostal":"51150","region":"Grand Est","departement":"Marne","departementCode":"51","horaires":"Le Lundi : de 08h30 à 12h30 de 17h00 à 19h00\nLe Mardi : de 08h30 à 12h30\nLe Mercredi : de 08h30 à 11h30\nLe Jeudi : de 08h30 à 12h30\nLe Vendredi : de 08h30 à 12h30","email":"mairie@ambonnay.fr","telephone":"03 26 57 01 07","latitude":49.07782,"longitude":4.174469,"website":"http://www.ambonnay.fr/","url":"https://lannuaire.service-public.gouv.fr/grand-est/marne/48daed63-f10e-4c03-89df-9f0269c4f81e"}
{"nom":"Ambrières","adresse":"Place de la Mairie , 51290 , Ambrières , France","codePostal":"51290","region":"Grand Est","departement":"Marne","departementCode":"51","horaires":"Le Mardi : de 16h00 à 19h00\nLe Vendredi : de 09h00 à 12h00","email":"ambrieres@orange.fr","telephone":"03 26 73 71 89","latitude":48.63329,"longitude":4.841395,"website":"","url":"https://lannuaire.service-public.gouv.fr/grand-est/marne/f660062b-3bde-4258-bec1-eaf0c6a0f29f"}
{"nom":"Anglure","adresse":"Place du 13-Juin-1940 , 51260 , Anglure , France","codePostal":"51260","region":"Grand Est","departement":"Marne","departementCode":"51","horaires":"Le Lundi : de 14h30 à 18h00\nLe Mardi : de 14h30 à 17h00\nLe Mercredi : de 10h00 à 12h00 de 14h30 à 18h00\nLe Jeudi : de 14h30 à 18h00\nLe Vendredi : de 14h30 à 17h00","email":"mairieanglure@wanadoo.fr","telephone":"03 26 42 71 35","latitude":48.584812,"longitude":3.813421,"website":"https://anglure.fr/","url":"https://lannuaire.service-public.gouv.fr/grand-est/marne/96c4f402-c463-4312-9d1d-9c1318c9c84d"}
{"nom":"Angluzelles-et-Courcelles","adresse":"1 rue de la Superbe , 51230 , Angluzelles-et-Courcelles , France","codePostal":"51230","region":"Grand Est","departement":"Marne","departementCode":"51","horaires":"Le Lundi : de 17h00 à 18h30","email":"mairie.angluzelles@orange.fr","telephone":"03 26 42 05 31","latitude":48.65821,"longitude":3.879735,"website":"","url":"https://lannuaire.service-public.gouv.fr/grand-est/marne/45c293d2-5a41-46f6-9811-fecec7f4aa8d"}
{"nom":"Anthenay","adresse":"2 place de la Mairie , 51700 , Anthenay , France","codePostal":"51700","region":"Grand Est","departement":"Marne","departementCode":"51","horaires":"Le Lundi : de 07h30 à 11h30","email":"mairieanthenay@orange.fr","telephone":"03 26 53 16 08","latitude":49.142265,"longitude":3.734971,"website":"","url":"https://lannuaire.service-public.gouv.fr/grand-est/marne/45b8c04f-58d4-4a8d-9cdc-ba969591a2e6"}
{"nom":"Aougny","adresse":"12 rue des Lavoirs , 51170 , Aougny , France","codePostal":"51170","region":"Grand Est","departement":"Marne","departementCode":"51","horaires":"Le Mardi : de 17h00 à 19h00","email":"mairie.aougny@orange.fr","telephone":"03 26 83 16 22","latitude":49.181725,"longitude":3.724926,"website":"","url":"https://lannuaire.service-public.gouv.fr/grand-est/marne/18897b3c-633c-44df-a979-54b9fb3ef84a"}
{"nom":"Arcis-le-Ponsart","adresse":"19 rue Howard-Houston , 51170 , Arcis-le-Ponsart , France","codePostal":"51170","region":"Grand Est","departement":"Marne","departementCode":"51","horaires":"Le Mercredi : de 10h00 à 12h00\nLe Vendredi : de 17h00 à 19h00","email":"mairie@arcisleponsart.fr","telephone":"03 26 48 06 24","latitude":49.234264,"longitude":3.693623,"website":"https://arcisleponsart.fr/","url":"https://lannuaire.service-public.gouv.fr/grand-est/marne/1f85a6fb-4665-4389-a89a-a67f4acd6437"}
{"nom":"Argers","adresse":"Rue de la Mairie , 51800 , Argers , France","codePostal":"51800","region":"Grand Est","departement":"Marne","departementCode":"51","horaires":"Le Jeudi : de 18h00 à 19h00","email":"mairie.argers@orange.fr","telephone":"03 26 60 75 57","latitude":49.069157,"longitude":4.8554816,"website":"","url":"https://lannuaire.service-public.gouv.fr/grand-est/marne/13f332c9-e132-4bc5-9a1a-b43143e0a1fc"}
{"nom":"Arrigny","adresse":"Place Marie-France-Bouquet , 51290 , Arrigny , France","codePostal":"51290","region":"Grand Est","departement":"Marne","departementCode":"51","horaires":"Le Mercredi : de 10h30 à 12h30","email":"mairie.arrigny@wanadoo.fr","telephone":"03 26 72 60 57","latitude":48.623463,"longitude":4.7067504,"website":"https://www.arrigny.fr/","url":"https://lannuaire.service-public.gouv.fr/grand-est/marne/8e2fc9c9-e8f9-4a89-8d63-4a5d0c19ba7d"}
{"nom":"Arzillières-Neuville","adresse":"18 rue de la Mairie , 51290 , Arzillières-Neuville , France","codePostal":"51290","region":"Grand Est","departement":"Marne","departementCode":"51","horaires":"Le Lundi : de 13h30 à 17h00\nLe Vendredi : de 13h30 à 17h00","email":"mairie.arzillieres@wanadoo.fr","telephone":"03 26 72 84 71","latitude":48.64499,"longitude":4.588558,"website":"https://www.arzillieres-neuville.fr/","url":"https://lannuaire.service-public.gouv.fr/grand-est/marne/7d24876c-12c0-4aef-a512-edf19d7aa6d1"}
{"nom":"Athis","adresse":"1 rue Camille-Soudant , 51150 , Athis , France","codePostal":"51150","region":"Grand Est","departement":"Marne","departementCode":"51","horaires":"Du Lundi au Mardi : de 08h30 à 11h45\nDu Jeudi au Vendredi : de 14h00 à 17h00\nLe Samedi : de 08h00 à 12h00","email":"mairie@athis.fr","telephone":"03 26 57 62 94","latitude":49.017,"longitude":4.12815,"website":"https://www.athis.fr/","url":"https://lannuaire.service-public.gouv.fr/grand-est/marne/7ed38734-a8ad-4004-b9e9-8bef6745d700"}
{"nom":"Aubérive","adresse":"Place de la Mairie , 51600 , Aubérive , France","codePostal":"51600","region":"Grand Est","departement":"Marne","departementCode":"51","horaires":"Le Jeudi : de 14h00 à 17h30","email":"mairie.51auberive@wanadoo.fr","telephone":"03 26 03 74 67","latitude":49.20337,"longitude":4.417005,"website":"","url":"https://lannuaire.service-public.gouv.fr/grand-est/marne/ff066597-b3ac-4c63-870a-f0f7b1e4f34b"}
{"nom":"Aubilly","adresse":"Rue de la Belle-Image , 51170 , Aubilly , France","codePostal":"51170","region":"Grand Est","departement":"Marne","departementCode":"51","horaires":"Le Mercredi : de 14h30 à 19h00","email":"aubilly.mairie@orange.fr","telephone":"03 26 61 03 21","latitude":49.21319,"longitude":3.859045,"website":"","url":"https://lannuaire.service-public.gouv.fr/grand-est/marne/3553966e-9e23-49c5-8055-ffaa2afeb4c8"}
{"nom":"Aulnay-l'Aître","adresse":"25 Grande-Rue , 51240 , Aulnay-l'Aître , France","codePostal":"51240","region":"Grand Est","departement":"Marne","departementCode":"51","horaires":"Le Mardi : de 13h30 à 16h30 de 17h30 à 18h30","email":"mairieaulnaylaitre@orange.fr","telephone":"03 26 72 98 09","latitude":48.82255,"longitude":4.561843,"website":"","url":"https://lannuaire.service-public.gouv.fr/grand-est/marne/7dd07305-e77d-40ee-a7cd-f9bef8d34ce8"}
{"nom":"Aulnay-sur-Marne","adresse":"7 rue de l'Église , 51150 , Aulnay-sur-Marne , France","codePostal":"51150","region":"Grand Est","departement":"Marne","departementCode":"51","horaires":"Le Lundi : de 17h00 à 19h00","email":"cmne-d-aulnay-sur-marne@orange.fr","telephone":"03 26 66 50 43","latitude":49.007465,"longitude":4.204711,"website":"","url":"https://lannuaire.service-public.gouv.fr/grand-est/marne/c825343a-84ea-42ec-9bfe-9b0afebec402"}
{"nom":"Auménancourt","adresse":"38 rue du 151e-Régiment-d'Infanterie , 51110 , Auménancourt , France","codePostal":"51110","region":"Grand Est","departement":"Marne","departementCode":"51","horaires":"Le Mardi : de 17h00 à 19h00\nLe Jeudi : de 10h00 à 13h00\nLe Samedi : de 08h00 à 12h00","email":"mairie.aumenancourt@wanadoo.fr","telephone":"03 26 97 50 47","latitude":49.38471,"longitude":4.0688047,"website":"https://www.aumenancourt.fr/","url":"https://lannuaire.service-public.gouv.fr/grand-est/marne/4a310a5e-71b6-4eed-91d6-b1e6da01bea4"}
{"nom":"Auve","adresse":"12 rue de la Mairie , 51800 , Auve , France","codePostal":"51800","region":"Grand Est","departement":"Marne","departementCode":"51","horaires":"Le Lundi : de 08h30 à 16h00\nLe Mercredi : de 08h30 à 12h00\nLe Vendredi : de 12h00 à 13h00","email":"mairiedeauve@wanadoo.fr","telephone":"03 26 60 25 65","latitude":49.03366,"longitude":4.69414,"website":"https://www.argonnechampenoise.fr/la-ccac/les-comptes-rendus-du-conseil/auve/","url":"https://lannuaire.service-public.gouv.fr/grand-est/marne/93fa0bda-7afb-48bf-a6e0-25aa9f5cda2d"}
{"nom":"Avenay-Val-d'Or","adresse":"Rue Gaston-Paris , 51160 , Avenay-Val-d'Or , France","codePostal":"51160","region":"Grand Est","departement":"Marne","departementCode":"51","horaires":"Du Lundi au Vendredi : de 10h00 à 13h00 de 15h00 à 17h00","email":"mairie@avenay-val-d-or.fr","telephone":"03 26 52 31 33","latitude":49.068703,"longitude":4.046393,"website":"https://avenay-val-d-or.fr/","url":"https://lannuaire.service-public.gouv.fr/grand-est/marne/10f6af25-3dd9-46bf-b6e2-d54e8114dce2"}
{"nom":"Avize","adresse":"2 place Charles-de-Gaulle , 51190 , Avize , France","codePostal":"51190","region":"Grand Est","departement":"Marne","departementCode":"51","horaires":"Le Lundi : de 08h00 à 12h00 de 14h00 à 17h30\nLe Mardi : de 08h00 à 12h00\nDu Mercredi au Jeudi : de 08h00 à 12h00 de 14h00 à 17h30\nLe Vendredi : de 08h00 à 12h00 de 14h00 à 17h00","email":"secretariat@ville-avize.fr","telephone":"03 26 57 54 43","latitude":48.97267,"longitude":4.009569,"website":"https://www.ville-avize.fr/","url":"https://lannuaire.service-public.gouv.fr/grand-est/marne/437592d4-f4ab-4105-8db9-0e103d4074f5"}
{"nom":"Aÿ-Champagne","adresse":"1 place Henri-Martin , 51160 , Aÿ-Champagne , France","codePostal":"51160","region":"Grand Est","departement":"Marne","departementCode":"51","horaires":"Du Lundi au Vendredi : de 08h30 à 12h00 de 13h30 à 17h30\nLe Samedi : de 09h30 à 12h00","email":"administration@ay-champagne.fr","telephone":"03 26 56 92 10","latitude":49.055508,"longitude":4.004638,"website":"https://www.ay-champagne.com/","url":"https://lannuaire.service-public.gouv.fr/grand-est/marne/9dcaacda-045e-4268-b53c-f8ba0f1474ef"}
{"nom":"Baconnes","adresse":"Place de la Gloye , 51400 , Baconnes , France","codePostal":"51400","region":"Grand Est","departement":"Marne","departementCode":"51","horaires":"Le Mardi : de 16h30 à 19h00","email":"mairie.baconnes@wanadoo.fr","telephone":"03 26 66 13 77","latitude":49.16003,"longitude":4.338976,"website":"https://baconnes.fr/","url":"https://lannuaire.service-public.gouv.fr/grand-est/marne/b4da4562-87d2-4538-9161-ba7119ce276f"}
{"nom":"Bagneux","adresse":"1 Grande rue , 51260 , Bagneux , France","codePostal":"51260","region":"Grand Est","departement":"Marne","departementCode":"51","horaires":"Le Mardi : de 13h30 à 18h30\nLe Jeudi : de 13h30 à 18h30","email":"commune.bagneux@orange.fr","telephone":"03 26 80 04 14","latitude":48.558353,"longitude":3.8290484,"website":"","url":"https://lannuaire.service-public.gouv.fr/grand-est/marne/43a58e08-802e-4893-8519-4eee13850bd6"}
{"nom":"Bannay","adresse":"2 rue du Nid , 51270 , Bannay , France","codePostal":"51270","region":"Grand Est","departement":"Marne","departementCode":"51","horaires":"Le Mardi : de 16h00 à 16h30\nAccueil ouvert uniquement les mardis paires.","email":"communedebannay@orange.fr","telephone":"03 26 52 22 27","latitude":48.859413,"longitude":3.724157,"website":"","url":"https://lannuaire.service-public.gouv.fr/grand-est/marne/8b31f3d4-d152-408b-9da4-11038edb044c"}
{"nom":"Bannes","adresse":"30 rue des Courtieux , 51230 , Bannes , France","codePostal":"51230","region":"Grand Est","departement":"Marne","departementCode":"51","horaires":"Le Jeudi : de 13h30 à 14h30 de 18h00 à 19h00","email":"mairie.bannes51@orange.fr","telephone":"03 26 42 07 61","latitude":48.801872,"longitude":3.9176292,"website":"","url":"https://lannuaire.service-public.gouv.fr/grand-est/marne/ad4d209d-e1d8-4da0-bb7a-98b04d4b23d7"}
{"nom":"Barbonne-Fayel","adresse":"13 Grande-Rue , 51120 , Barbonne-Fayel , France","codePostal":"51120","region":"Grand Est","departement":"Marne","departementCode":"51","horaires":"Le Mercredi : de 10h00 à 13h00\nLe Vendredi : de 16h00 à 18h00","email":"mairie.barbonne.fayel@wanadoo.fr","telephone":"03 26 80 20 08","latitude":48.658356,"longitude":3.6958282,"website":"","url":"https://lannuaire.service-public.gouv.fr/grand-est/marne/156a8d19-f66c-4d60-bb6f-731f7f579c64"}
{"nom":"Baslieux-lès-Fismes","adresse":"Place de la Mairie , 51170 , Baslieux-lès-Fismes , France","codePostal":"51170","region":"Grand Est","departement":"Marne","departementCode":"51","horaires":"Le Lundi : de 18h00 à 19h00\nLe Mercredi : de 14h00 à 16h00","email":"mairiebaslieuxlesfismes@wanadoo.fr","telephone":"09 64 12 58 36","latitude":49.324467,"longitude":3.7134564,"website":"https://baslieux-les-fismes.fr/","url":"https://lannuaire.service-public.gouv.fr/grand-est/marne/9da63ef3-2157-4689-8300-cc919ced4664"}
{"nom":"Baslieux-sous-Châtillon","adresse":"1 rue de l'Église , 51700 , Baslieux-sous-Châtillon , France","codePostal":"51700","region":"Grand Est","departement":"Marne","departementCode":"51","horaires":"Le Jeudi : de 11h30 à 12h30 de 13h30 à 14h30","email":"mairie.baslieux@wanadoo.fr","telephone":"03 26 58 14 34","latitude":49.12357,"longitude":3.796235,"website":"","url":"https://lannuaire.service-public.gouv.fr/grand-est/marne/1de05c68-39d1-487e-8c6d-3f3ef1f72b1a"}
{"nom":"Bassu","adresse":"12 Grande-Rue , 51300 , Bassu , France","codePostal":"51300","region":"Grand Est","departement":"Marne","departementCode":"51","horaires":"Le Lundi : de 13h30 à 18h30","email":"mairiebassu@orange.fr","telephone":"03 26 73 87 44","latitude":48.832214,"longitude":4.6931434,"website":"","url":"https://lannuaire.service-public.gouv.fr/grand-est/marne/73e31633-0688-4d06-a28d-8371b5452921"}
{"nom":"Bassuet","adresse":"15 rue de Ernest-Haudos , 51300 , Bassuet , France","codePostal":"51300","region":"Grand Est","departement":"Marne","departementCode":"51","horaires":"Le Lundi : de 08h00 à 12h00","email":"mairie.bassuet@orange.fr","telephone":"03 26 73 95 04","latitude":48.797367,"longitude":4.667444,"website":"http://www.bassuet51.fr/","url":"https://lannuaire.service-public.gouv.fr/grand-est/marne/39b1d2ea-a045-41e9-9a38-f06992c41087"}
{"nom":"Baudement","adresse":"8 rue Principale , 51260 , Baudement , France","codePostal":"51260","region":"Grand Est","departement":"Marne","departementCode":"51","horaires":"Le Mardi : de 18h00 à 19h30","email":"mairie.baudement@wanadoo.fr","telephone":"03 26 81 98 38","latitude":48.575573,"longitude":3.7759385,"website":"","url":"https://lannuaire.service-public.gouv.fr/grand-est/marne/4fb6dc22-c771-4f91-99e0-42571fa74f3d"}
{"nom":"Baye","adresse":"44 Grande-Rue , 51270 , Baye , France","codePostal":"51270","region":"Grand Est","departement":"Marne","departementCode":"51","horaires":"Le Mardi : de 16h00 à 18h00\nLe Jeudi : de 16h00 à 18h00\nLe Samedi : de 09h00 à 11h00","email":"communedebaye@wanadoo.fr","telephone":"03 26 52 80 27","latitude":48.8508,"longitude":3.76277,"website":"","url":"https://lannuaire.service-public.gouv.fr/grand-est/marne/e01e5a19-9cce-43b6-a8da-898ee4b22702"}
{"nom":"Bazancourt","adresse":"Place de la Mairie , 51110 , Bazancourt , France","codePostal":"51110","region":"Grand Est","departement":"Marne","departementCode":"51","horaires":"Du Lundi au Vendredi : de 09h00 à 12h00 de 15h00 à 18h00\nLe Samedi : de 09h00 à 12h00","email":"accueil@bazancourt.fr","telephone":"03 26 91 10 00","latitude":49.36598,"longitude":4.168774,"website":"https://www.bazancourt.fr/","url":"https://lannuaire.service-public.gouv.fr/grand-est/marne/7896ba57-6c21-4dbf-8be0-37266d291752"}
{"nom":"Beaumont-sur-Vesle","adresse":"3 rue des Écoles , 51360 , Beaumont-sur-Vesle , France","codePostal":"51360","region":"Grand Est","departement":"Marne","departementCode":"51","horaires":"Du Lundi au Mardi : de 11h00 à 12h00\nLe Jeudi : de 11h00 à 12h00 de 17h00 à 18h00\nLe Vendredi : de 17h00 à 19h00","email":"contact@beaumontsurvesle.fr","telephone":"03 26 03 92 57","latitude":49.17481,"longitude":4.187679,"website":"https://www.beaumontsurvesle.fr/","url":"https://lannuaire.service-public.gouv.fr/grand-est/marne/70e424c9-5dd8-4841-a18e-d669a50010a9"}
{"nom":"Beaunay","adresse":"12 rue Principale , 51270 , Beaunay , France","codePostal":"51270","region":"Grand Est","departement":"Marne","departementCode":"51","horaires":"Le Jeudi : de 08h30 à 15h30","email":"mairie.beaunay@orange.fr","telephone":"03 26 59 00 95","latitude":48.88582,"longitude":3.875349,"website":"","url":"https://lannuaire.service-public.gouv.fr/grand-est/marne/200b77b9-7a2f-4508-b4a6-16d4b6b9c496"}
{"nom":"Beine-Nauroy","adresse":"4 place de la Mairie , 51490 , Beine-Nauroy , France","codePostal":"51490","region":"Grand Est","departement":"Marne","departementCode":"51","horaires":"Du Lundi au Mardi : de 09h00 à 17h00\n\nSur rendez-vous.\nLe Mercredi : de 15h00 à 19h00\n\nSans rendez-vous.\nDu Jeudi au Vendredi : de 09h00 à 17h00\n\nSur rendez-vous.","email":"mairie@beine-nauroy.fr","telephone":"03 26 03 27 63","latitude":49.24917,"longitude":4.2162447,"website":"https://beine-nauroy.fr/","url":"https://lannuaire.service-public.gouv.fr/grand-est/marne/92ddafa9-db7f-4290-b55a-eb9bc4182485"}
{"nom":"Belval-en-Argonne","adresse":"4 route de Laheycourt , 51330 , Belval-en-Argonne , France","codePostal":"51330","region":"Grand Est","departement":"Marne","departementCode":"51","horaires":"Le Jeudi : de 15h00 à 17h00","email":"mairie.belvalenargonne@orange.fr","telephone":"03 26 60 16 93","latitude":48.944103,"longitude":5.009897,"website":"","url":"https://lannuaire.service-public.gouv.fr/grand-est/marne/09aa420a-1d4f-489b-be8f-cc4117f4bd4a"}
{"nom":"Belval-sous-Châtillon","adresse":"Place de la Mairie , 51480 , Belval-sous-Châtillon , France","codePostal":"51480","region":"Grand Est","departement":"Marne","departementCode":"51","horaires":"Le Mardi : de 13h30 à 16h30\nLe Jeudi : de 14h00 à 18h00","email":"mairie.belvalsouschatillon@wanadoo.fr","telephone":"03 26 58 14 27","latitude":49.1305,"longitude":3.82377,"website":"","url":"https://lannuaire.service-public.gouv.fr/grand-est/marne/36151e20-13ae-488d-b45c-266d2b3780f2"}
{"nom":"Bergères-lès-Vertus","adresse":"Place de la Mairie , 51130 , Bergères-lès-Vertus , France","codePostal":"51130","region":"Grand Est","departement":"Marne","departementCode":"51","horaires":"Du Lundi au Mardi : de 09h00 à 12h00\nLe Jeudi : de 09h00 à 12h00 de 15h00 à 18h00\nLe Vendredi : de 09h00 à 12h00","email":"mairie-bergeres-les-vertus@wanadoo.fr","telephone":"03 26 52 23 39","latitude":48.8795,"longitude":4.004513,"website":"https://bergereslesvertus.fr/","url":"https://lannuaire.service-public.gouv.fr/grand-est/marne/6013d0c3-61b9-42bf-b3db-3b87c9df83f1"}
{"nom":"Bergères-sous-Montmirail","adresse":"27 rue du Château , 51210 , Bergères-sous-Montmirail , France","codePostal":"51210","region":"Grand Est","departement":"Marne","departementCode":"51","horaires":"Le Mardi : de 13h30 à 16h00","email":"mairie.bergeres@wanadoo.fr","telephone":"03 26 81 68 82","latitude":48.8444,"longitude":3.59009,"website":"","url":"https://lannuaire.service-public.gouv.fr/grand-est/marne/15fa9a5a-d4d3-4427-b283-9aa244f9724d"}
{"nom":"Berméricourt","adresse":"Rue de la République , 51220 , Berméricourt , France","codePostal":"51220","region":"Grand Est","departement":"Marne","departementCode":"51","horaires":"Du Jeudi au Vendredi : de 09h00 à 12h30 de 13h30 à 17h30","email":"mairie@bermericourt.fr","telephone":"03 26 61 00 79","latitude":49.358562,"longitude":3.993429,"website":"https://bermericourt.fr/","url":"https://lannuaire.service-public.gouv.fr/grand-est/marne/aeabd582-15fb-4d12-aa05-b25ce6840605"}
{"nom":"Berru","adresse":"17 rue de Reims , 51420 , Berru , France","codePostal":"51420","region":"Grand Est","departement":"Marne","departementCode":"51","horaires":"Le Mardi : de 17h30 à 19h00\nLe Vendredi : de 16h30 à 18h00","email":"mairie.berru@orange.fr","telephone":"03 26 03 20 78","latitude":49.27104,"longitude":4.15065,"website":"https://station.illiwap.com/fr/public/51052","url":"https://lannuaire.service-public.gouv.fr/grand-est/marne/41d3e9f0-bdd6-49f0-8d1e-c45ba62a3c65"}
{"nom":"Berzieux","adresse":"Le Bourg , 51800 , Berzieux , France","codePostal":"51800","region":"Grand Est","departement":"Marne","departementCode":"51","horaires":"Le Mardi : de 13h30 à 16h30","email":"communedeberzieux@wanadoo.fr","telephone":"03 26 60 09 58","latitude":49.164818,"longitude":4.797896,"website":"","url":"https://lannuaire.service-public.gouv.fr/grand-est/marne/d5427227-88ee-4c7d-b24f-156956f2adff"}
{"nom":"Bétheniville","adresse":"7 place de la Mairie , 51490 , Bétheniville , France","codePostal":"51490","region":"Grand Est","departement":"Marne","departementCode":"51","horaires":"Du Lundi au Vendredi : de 08h30 à 12h30\nL'après-midi sur rendez-vous uniquement.","email":"cne-beth@wanadoo.fr","telephone":"03 26 03 74 01","latitude":49.290672,"longitude":4.3695555,"website":"http://mairie-betheniville.fr/","url":"https://lannuaire.service-public.gouv.fr/grand-est/marne/0733a20b-3e64-4feb-9ca8-10e7840d804e"}
{"nom":"Bétheny","adresse":"Place de la Mairie , 51450 , Bétheny , France","codePostal":"51450","region":"Grand Est","departement":"Marne","departementCode":"51","horaires":"Du Lundi au Vendredi : de 09h00 à 12h00 de 13h30 à 17h30","email":"dgs@ville-betheny.fr","telephone":"03 26 07 12 71","latitude":49.285892,"longitude":4.058418,"website":"https://ville-betheny.fr/","url":"https://lannuaire.service-public.gouv.fr/grand-est/marne/54a1b4eb-0b6c-4694-83e6-13023ff17f9c"}
{"nom":"Bethon","adresse":"6 rue de la Poste , 51260 , Bethon , France","codePostal":"51260","region":"Grand Est","departement":"Marne","departementCode":"51","horaires":"Le Lundi : de 10h30 à 12h00\nLe Mardi : de 16h30 à 18h00\nLe Vendredi : de 16h30 à 17h30","email":"bethon.mairie@orange.fr","telephone":"03 26 80 48 18","latitude":48.6137,"longitude":3.6124,"website":"","url":"https://lannuaire.service-public.gouv.fr/grand-est/marne/88892ba6-9d12-4215-9f80-3da7e579b702"}
{"nom":"Bettancourt-la-Longue","adresse":"40 Grande-Rue , 51330 , Bettancourt-la-Longue , France","codePostal":"51330","region":"Grand Est","departement":"Marne","departementCode":"51","horaires":"Le Mercredi : de 15h30 à 18h00\nLe Jeudi : de 08h00 à 12h30","email":"bettancourt-la-longue@wanadoo.fr","telephone":"03 26 72 08 61","latitude":48.82595,"longitude":4.885621,"website":"","url":"https://lannuaire.service-public.gouv.fr/grand-est/marne/144038e7-1db6-45f2-b523-01a73a0440be"}
{"nom":"Bezannes","adresse":"1 rue Source-de-Muire , 51430 , Bezannes , France","codePostal":"51430","region":"Grand Est","departement":"Marne","departementCode":"51","horaires":"Du Lundi au Vendredi : de 09h00 à 12h15 de 13h30 à 17h15","email":"mairie@bezannes.fr","telephone":"03 26 36 56 57","latitude":49.219654,"longitude":3.986781,"website":"https://www.bezannes.fr/","url":"https://lannuaire.service-public.gouv.fr/grand-est/marne/da6362c7-5d85-4842-a0d0-0f00bde6137c"}
{"nom":"Bignicourt-sur-Marne","adresse":"4 rue Jean-Marie-Aubry , 51300 , Bignicourt-sur-Marne , France","codePostal":"51300","region":"Grand Est","departement":"Marne","departementCode":"51","horaires":"Le Lundi : de 15h00 à 18h30\nLe Mardi : de 09h15 à 12h15\nLe Jeudi : de 15h00 à 18h30\nLe Vendredi : de 09h15 à 12h15","email":"mairie-bignicourt@orange.fr","telephone":"03 26 74 07 98","latitude":48.681423,"longitude":4.611794,"website":"","url":"https://lannuaire.service-public.gouv.fr/grand-est/marne/3f3330a9-6dd2-46d3-866a-8cdf90ef4b69"}
{"nom":"Bignicourt-sur-Saulx","adresse":"1 place du 6e-Groupe-de-Reconnaissance-de-Division-d'Infanterie , 51340 , Bignicourt-sur-Saulx , France","codePostal":"51340","region":"Grand Est","departement":"Marne","departementCode":"51","horaires":"Le Lundi : de 14h00 à 18h00\nLe Jeudi : de 09h00 à 12h00","email":"communebignicourt@orange.fr","telephone":"03 26 41 02 55","latitude":48.76495,"longitude":4.776627,"website":"","url":"https://lannuaire.service-public.gouv.fr/grand-est/marne/b212748f-6223-4da7-a670-3bc249a8dcf8"}
{"nom":"Billy-le-Grand","adresse":"1 Grande rue , 51400 , Billy-le-Grand , France","codePostal":"51400","region":"Grand Est","departement":"Marne","departementCode":"51","horaires":"Le Mardi : de 14h30 à 18h30","email":"mairie.billylegrand@orange.fr","telephone":"03 26 67 99 95","latitude":49.10819,"longitude":4.2322063,"website":"","url":"https://lannuaire.service-public.gouv.fr/grand-est/marne/3b6da756-da76-46c4-9175-15b797e33409"}
{"nom":"Binarville","adresse":"15 rue du Centre , 51800 , Binarville , France","codePostal":"51800","region":"Grand Est","departement":"Marne","departementCode":"51","horaires":"Le Vendredi : de 09h30 à 12h30 de 13h30 à 17h00","email":"mairie.binarville@orange.fr","telephone":"03 26 60 29 37","latitude":49.24133,"longitude":4.894339,"website":"","url":"https://lannuaire.service-public.gouv.fr/grand-est/marne/78512cc1-e844-4aa6-b5f3-9c3072ac91bc"}
{"nom":"Mairie déléguée - Binson-et-Orquigny","adresse":"Binson-et-Orquigny , 51700 , Coeur-de-la-Vallée , France","codePostal":"51700","region":"Grand Est","departement":"Marne","departementCode":"51","horaires":"Le Mardi : de 17h00 à 19h00\nLe Vendredi : de 10h00 à 11h00","email":"mairiecoeurdelavallee@gmail.com","telephone":"03 26 58 03 03","latitude":49.093136,"longitude":3.788154,"website":"","url":"https://lannuaire.service-public.gouv.fr/grand-est/marne/1ec451d4-08e0-4c3f-9acc-1aa43e3e339e"}
{"nom":"Blacy","adresse":"4 rue des Tilleuls , 51300 , Blacy , France","codePostal":"51300","region":"Grand Est","departement":"Marne","departementCode":"51","horaires":"Le Lundi : de 09h00 à 11h00\nLe Mercredi : de 16h00 à 18h00\nLe Vendredi : de 16h00 à 18h00","email":"communedeblacy@wanadoo.fr","telephone":"03 26 72 09 22","latitude":48.727173,"longitude":4.556102,"website":"","url":"https://lannuaire.service-public.gouv.fr/grand-est/marne/2e4907ac-f276-45c4-bcf6-667c696ab8af"}
{"nom":"Blaise-sous-Arzillières","adresse":"13 rue Basse , 51300 , Blaise-sous-Arzillières , France","codePostal":"51300","region":"Grand Est","departement":"Marne","departementCode":"51","horaires":"Le Mardi : de 14h30 à 17h00\nLe Jeudi : de 14h30 à 17h00","email":"mairie.blaise@wanadoo.fr","telephone":"03 26 72 80 23","latitude":48.671528,"longitude":4.584098,"website":"","url":"https://lannuaire.service-public.gouv.fr/grand-est/marne/aae4806b-70b6-4adc-86ed-5c96b3248721"}
{"nom":"Blesme","adresse":"Place de la Mairie , 51340 , Blesme , France","codePostal":"51340","region":"Grand Est","departement":"Marne","departementCode":"51","horaires":"Le Lundi : de 14h00 à 18h00\nLe Jeudi : de 14h00 à 18h00","email":"mairie.de.blesme@wanadoo.fr","telephone":"03 26 73 74 50","latitude":48.725826,"longitude":4.775703,"website":"","url":"https://lannuaire.service-public.gouv.fr/grand-est/marne/ef0d4bcd-341f-4327-afb7-ab5add376bb8"}
{"nom":"Bligny","adresse":"Rue de la Barbe-aux-Cannes , 51170 , Bligny , France","codePostal":"51170","region":"Grand Est","departement":"Marne","departementCode":"51","horaires":"Le Mardi : de 17h00 à 19h00","email":"commune-de-bligny01@orange.fr","telephone":"03 26 84 98 27","latitude":49.1947,"longitude":3.860429,"website":"","url":"https://lannuaire.service-public.gouv.fr/grand-est/marne/3987c855-6de4-4f3b-b3e1-cf974bf23b79"}
{"nom":"Boissy-le-Repos","adresse":"17 rue de la Gare , 51210 , Boissy-le-Repos , France","codePostal":"51210","region":"Grand Est","departement":"Marne","departementCode":"51","horaires":"Le Lundi : de 17h00 à 19h00\nLe Jeudi : de 14h00 à 16h00","email":"mairieboissylerepos@wanadoo.fr","telephone":"03 26 81 67 98","latitude":48.84702,"longitude":3.647599,"website":"","url":"https://lannuaire.service-public.gouv.fr/grand-est/marne/2da142c9-5337-4ae5-9233-83e03387e95e"}
{"nom":"Bouchy-Saint-Genest","adresse":"21 rue du Château , 51310 , Bouchy-Saint-Genest , France","codePostal":"51310","region":"Grand Est","departement":"Marne","departementCode":"51","horaires":"Le Mardi : de 08h00 à 11h30\nLe Vendredi : de 18h00 à 19h30","email":"mairie.bouchystgenest@orange.fr","telephone":"03 26 80 42 78","latitude":48.650215,"longitude":3.5092444,"website":"","url":"https://lannuaire.service-public.gouv.fr/grand-est/marne/4cb1f8f8-d4d0-4ed9-83ae-16d4bb237d35"}
{"nom":"Bouilly","adresse":"2 rue Saint-Caprais , 51390 , Bouilly , France","codePostal":"51390","region":"Grand Est","departement":"Marne","departementCode":"51","horaires":"Le Mardi : de 16h00 à 18h30\nLe Mercredi : de 10h00 à 11h30\nLe Vendredi : de 10h00 à 12h00","email":"commune.bouilly@orange.fr","telephone":"03 26 49 27 92","latitude":49.19799,"longitude":3.889468,"website":"https://www.bouilly51.fr/","url":"https://lannuaire.service-public.gouv.fr/grand-est/marne/45e58611-49d7-4bca-93e3-a1e2d849500d"}
{"nom":"Bouleuse","adresse":"3 rue du Tardenois , 51170 , Bouleuse , France","codePostal":"51170","region":"Grand Est","departement":"Marne","departementCode":"51","horaires":"Le Lundi : de 16h30 à 18h30\nLe Jeudi : de 07h30 à 12h00","email":"mairie.bouleuse@orange.fr","telephone":"09 77 72 38 67","latitude":49.225018,"longitude":3.840854,"website":"","url":"https://lannuaire.service-public.gouv.fr/grand-est/marne/4da38e65-88be-4d24-ac84-9488f5032911"}
{"nom":"Boult-sur-Suippe","adresse":"2 place de la Mairie , 51110 , Boult-sur-Suippe , France","codePostal":"51110","region":"Grand Est","departement":"Marne","departementCode":"51","horaires":"Le Lundi : de 08h30 à 12h30 de 13h30 à 17h00\nLe Mardi : de 15h00 à 17h00\nLe Jeudi : de 15h00 à 17h00\nLe Vendredi : de 08h30 à 12h30 de 13h30 à 17h00","email":"commune.boultsursuippe@gmail.com","telephone":"03 26 03 30 55","latitude":49.37047,"longitude":4.146916,"website":"https://www.boultsursuippe.fr/","url":"https://lannuaire.service-public.gouv.fr/grand-est/marne/36634f1b-30ae-4221-a7d2-73c1bf70877f"}
{"nom":"Bourgogne-Fresne","adresse":"2 place de la Mairie , 51110 , Bourgogne-Fresne , France","codePostal":"51110","region":"Grand Est","departement":"Marne","departementCode":"51","horaires":"Le Lundi : de 14h00 à 17h00\nLe Mardi : de 16h00 à 18h00\nLe Samedi : de 09h00 à 12h00\n\nTous les 1er samedi du mois","email":"mairie@bourgogne-fresne.fr","telephone":"03 26 97 50 56","latitude":49.349277,"longitude":4.069799,"website":"https://www.bourgogne-fresne.fr/","url":"https://lannuaire.service-public.gouv.fr/grand-est/marne/753382a1-859e-4e77-b336-9fde546f5efd"}
{"nom":"Boursault","adresse":"Place d'Essenheim , 51480 , Boursault , France","codePostal":"51480","region":"Grand Est","departement":"Marne","departementCode":"51","horaires":"Le Lundi : de 10h00 à 12h00 de 16h00 à 17h30\nLe Mardi : de 18h00 à 19h00\n\nPermanence des élus uniquement.\nLe Jeudi : de 10h00 à 12h00","email":"mairieboursault@wanadoo.fr","telephone":"03 26 58 45 64","latitude":49.06064,"longitude":3.8413,"website":"http://www.boursault-village.fr/","url":"https://lannuaire.service-public.gouv.fr/grand-est/marne/5016d383-bd4b-488f-bfcf-b8ca414ce6ae"}
{"nom":"Bouvancourt","adresse":"2 place de la Mairie , 51140 , Bouvancourt , France","codePostal":"51140","region":"Grand Est","departement":"Marne","departementCode":"51","horaires":"Le Lundi : de 09h00 à 12h00\nLe Jeudi : de 19h00 à 20h00\nLe Vendredi : de 09h00 à 12h00","email":"mairie.bouvancourt@gmail.com","telephone":"03 26 48 28 03","latitude":49.3384,"longitude":3.834906,"website":"","url":"https://lannuaire.service-public.gouv.fr/grand-est/marne/63538680-8267-4144-bc83-694e6d9f8b86"}
{"nom":"Bouy","adresse":"Place Pierre-Georges-Latécoère , 51400 , Bouy , France","codePostal":"51400","region":"Grand Est","departement":"Marne","departementCode":"51","horaires":"Le Lundi : de 16h00 à 19h00\nLe Mercredi : de 13h30 à 15h00\nLe Jeudi : de 16h00 à 17h30","email":"mairie.bouy@wanadoo.fr","telephone":"03 26 66 13 89","latitude":49.085342,"longitude":4.348797,"website":"https://www.mairie-bouy.fr/accueil","url":"https://lannuaire.service-public.gouv.fr/grand-est/marne/1011e888-d1b2-434a-8354-2af1a743aab3"}
{"nom":"Bouzy","adresse":"Place de la Mairie , 51150 , Bouzy , France","codePostal":"51150","region":"Grand Est","departement":"Marne","departementCode":"51","horaires":"Le Lundi : de 09h00 à 13h00\nLe Mardi : de 09h30 à 13h00 de 16h30 à 18h30\nDu Jeudi au Vendredi : de 09h00 à 13h00","email":"mairie@bouzyenchampagne.com","telephone":"03 26 57 70 70","latitude":49.079445,"longitude":4.1471753,"website":"https://www.bouzyenchampagne.com/","url":"https://lannuaire.service-public.gouv.fr/grand-est/marne/69565ffe-d94c-4906-9b87-cd107e9c0cd8"}
{"nom":"Brandonvillers","adresse":"18 rue Haut-Montier , 51290 , Brandonvillers , France","codePostal":"51290","region":"Grand Est","departement":"Marne","departementCode":"51","horaires":"Le Lundi : de 14h00 à 15h00\nLe Jeudi : de 18h00 à 19h00","email":"mairiebrandonvillers@wanadoo.fr","telephone":"03 26 72 49 77","latitude":48.59282,"longitude":4.55944,"website":"","url":"https://lannuaire.service-public.gouv.fr/grand-est/marne/26f40247-6cc9-4540-a0a1-9abef56a0eac"}
{"nom":"Branscourt","adresse":"4 place de la Mairie , 51140 , Branscourt , France","codePostal":"51140","region":"Grand Est","departement":"Marne","departementCode":"51","horaires":"Le Lundi : de 18h30 à 19h30\nLe Jeudi : de 10h30 à 13h00","email":"mairie-branscourt@orange.fr","telephone":"03 26 48 53 97","latitude":49.2711,"longitude":3.8191338,"website":"https://branscourt.fr/","url":"https://lannuaire.service-public.gouv.fr/grand-est/marne/d20c9571-904e-400c-8fe3-50c06f8caa6b"}
{"nom":"Braux-Sainte-Cohière","adresse":"Grande-Rue , 51800 , Braux-Sainte-Cohière , France","codePostal":"51800","region":"Grand Est","departement":"Marne","departementCode":"51","horaires":"Le Mardi : de 18h00 à 19h00","email":"mairie.braux.ste.cohiere@orange.fr","telephone":"03 26 60 69 53","latitude":49.092567,"longitude":4.828434,"website":"","url":"https://lannuaire.service-public.gouv.fr/grand-est/marne/20b233a9-1676-4bf8-b038-7708f127640b"}
{"nom":"Braux-Saint-Rémy","adresse":"20 bis Grande-Rue , 51800 , Braux-Saint-Rémy , France","codePostal":"51800","region":"Grand Est","departement":"Marne","departementCode":"51","horaires":"Le Lundi : de 10h00 à 12h00","email":"brauxsaintremy@gmail.com","telephone":"06 19 52 95 77","latitude":49.02227,"longitude":4.861716,"website":"","url":"https://lannuaire.service-public.gouv.fr/grand-est/marne/692a802e-b3c7-4001-b71f-8f283dfe3660"}
{"nom":"Bréban","adresse":"14 Grande-Rue , 51320 , Bréban , France","codePostal":"51320","region":"Grand Est","departement":"Marne","departementCode":"51","horaires":"Le Lundi : de 10h00 à 12h00","email":"mairie.breban@wanadoo.fr","telephone":"03 26 73 88 54","latitude":48.57743,"longitude":4.403032,"website":"","url":"https://lannuaire.service-public.gouv.fr/grand-est/marne/90fb6e1f-76cd-406d-9586-2b85feafc2f2"}
{"nom":"Breuil-sur-Vesle","adresse":"1 rue de la Ferme , 51140 , Breuil-sur-Vesle , France","codePostal":"51140","region":"Grand Est","departement":"Marne","departementCode":"51","horaires":"Le Lundi : de 09h00 à 11h30\nLe Mardi : de 17h00 à 19h00","email":"mairie@breuilsurvesle.fr","telephone":"03 26 48 56 15","latitude":49.31128,"longitude":3.76766,"website":"http://www.breuilsurvesle.fr/","url":"https://lannuaire.service-public.gouv.fr/grand-est/marne/341473df-fe48-4f60-be45-d62d045405b1"}
{"nom":"Breuvery-sur-Coole","adresse":"1 chemin des Vieilles-Vignes , 51240 , Breuvery-sur-Coole , France","codePostal":"51240","region":"Grand Est","departement":"Marne","departementCode":"51","horaires":"Le Mercredi : de 09h00 à 15h00","email":"mairie.breuverysurcoole@wanadoo.fr","telephone":"03 26 67 63 62","latitude":48.863834,"longitude":4.310035,"website":"","url":"https://lannuaire.service-public.gouv.fr/grand-est/marne/ea6bfd0e-0127-442b-8e7a-60cf08f88837"}
{"nom":"Brimont","adresse":"1 rue de la Libération , 51220 , Brimont , France","codePostal":"51220","region":"Grand Est","departement":"Marne","departementCode":"51","horaires":"Le Mardi : de 10h00 à 11h00\nLe Mercredi : de 18h30 à 19h30\n\nPermanence des élus\nLe Jeudi : de 09h00 à 14h00","email":"mairie.brimont@wanadoo.fr","telephone":"03 26 49 65 43","latitude":49.34012,"longitude":4.023912,"website":"https://www.brimont.fr/","url":"https://lannuaire.service-public.gouv.fr/grand-est/marne/bc8e420f-2c23-4e26-a744-a7921de214e8"}
{"nom":"Brouillet","adresse":"Rue Haute , 51170 , Brouillet , France","codePostal":"51170","region":"Grand Est","departement":"Marne","departementCode":"51","horaires":"Le Vendredi : de 16h30 à 18h30","email":"mairie.brouillet@orange.fr","telephone":"03 26 97 40 29","latitude":49.225513,"longitude":3.738588,"website":"","url":"https://lannuaire.service-public.gouv.fr/grand-est/marne/ed0c3e3e-54ff-4985-bc37-2360df0a5233"}
{"nom":"Broussy-le-Grand","adresse":"1 rue des Hauts , 51230 , Broussy-le-Grand , France","codePostal":"51230","region":"Grand Est","departement":"Marne","departementCode":"51","horaires":"Le Mardi : de 17h00 à 19h00\nLe Jeudi : de 17h00 à 18h00","email":"mairie-broussylegrand@orange.fr","telephone":"03 26 42 46 77","latitude":48.78749,"longitude":3.8780565,"website":"https://www.intramuros.org/broussy-le-grand","url":"https://lannuaire.service-public.gouv.fr/grand-est/marne/d42154f6-8fa1-4315-b13d-c72a97a8d1da"}
{"nom":"Broussy le Petit","adresse":"6 rue de Champigny , 51230 , Broussy le Petit , France","codePostal":"51230","region":"Grand Est","departement":"Marne","departementCode":"51","horaires":"Le Lundi : de 17h00 à 18h00\nLe Mardi : de 10h00 à 11h30","email":"mairie.broussy@gmail.com","telephone":"03 26 81 69 26","latitude":48.792,"longitude":3.82696,"website":"","url":"https://lannuaire.service-public.gouv.fr/grand-est/marne/74f8b004-5225-4359-beef-37db9ebf461a"}
{"nom":"Broyes","adresse":"9 rue Georges-Lainé , 51120 , Broyes , France","codePostal":"51120","region":"Grand Est","departement":"Marne","departementCode":"51","horaires":"Le Mercredi : de 16h00 à 19h30","email":"mairie.broyes022@orange.fr","telephone":"03 26 80 54 21","latitude":48.757828,"longitude":3.768502,"website":"https://broyes.fr/","url":"https://lannuaire.service-public.gouv.fr/grand-est/marne/30ee65a6-a325-4aae-8b10-0e54b4ecd98f"}
{"nom":"Brugny-Vaudancourt","adresse":"8 rue de la Mairie , 51530 , Brugny-Vaudancourt , France","codePostal":"51530","region":"Grand Est","departement":"Marne","departementCode":"51","horaires":"Le Lundi : de 17h30 à 19h00\nLe Jeudi : de 17h30 à 19h00","email":"mairiedebrugnyvaudancourt@wanadoo.fr","telephone":"03 26 59 93 55","latitude":48.99982,"longitude":3.886623,"website":"","url":"https://lannuaire.service-public.gouv.fr/grand-est/marne/ff5c5aa1-7026-4b78-b492-1525e26d5f68"}
{"nom":"Brusson","adresse":"11 route de Sermaze , 51300 , Brusson , France","codePostal":"51300","region":"Grand Est","departement":"Marne","departementCode":"51","horaires":"Le Mardi : de 18h00 à 19h00\nLe Jeudi : de 18h00 à 19h00","email":"mairiedebrusson@wanadoo.fr","telephone":"03 26 73 88 90","latitude":48.749763,"longitude":4.7032013,"website":"","url":"https://lannuaire.service-public.gouv.fr/grand-est/marne/65cb5fc0-87a2-4ad5-a451-32d70379da26"}
{"nom":"Bussy-le-Château","adresse":"15 rue des Chapelles , 51600 , Bussy-le-Château , France","codePostal":"51600","region":"Grand Est","departement":"Marne","departementCode":"51","horaires":"Le Vendredi : de 09h00 à 14h00","email":"commune-de-bussy-le-chateau@wanadoo.fr","telephone":"03 26 66 65 38","latitude":49.063503,"longitude":4.541474,"website":"","url":"https://lannuaire.service-public.gouv.fr/grand-est/marne/6e43ddf7-f275-454f-b8c9-b954e68bffff"}
{"nom":"Bussy-le-Repos","adresse":"5 rue Royale , 51330 , Bussy-le-Repos , France","codePostal":"51330","region":"Grand Est","departement":"Marne","departementCode":"51","horaires":"Le Mardi : de 18h00 à 20h00","email":"commune.bussylerepos@orange.fr","telephone":"03 26 74 77 02","latitude":48.89887,"longitude":4.7559032,"website":"","url":"https://lannuaire.service-public.gouv.fr/grand-est/marne/667fdb3c-2cf4-44c6-99f7-d76757f59987"}
{"nom":"Bussy-Lettrée","adresse":"12 rue Haute , 51320 , Bussy-Lettrée , France","codePostal":"51320","region":"Grand Est","departement":"Marne","departementCode":"51","horaires":"Le Lundi : de 14h30 à 16h30\nLe Jeudi : de 14h30 à 16h30","email":"mairie-bussylettree@wanadoo.fr","telephone":"03 26 67 41 43","latitude":48.80351,"longitude":4.260078,"website":"","url":"https://lannuaire.service-public.gouv.fr/grand-est/marne/1941ead1-974a-4d93-be6b-4eef47ef39fc"}
{"nom":"Caurel","adresse":"14 rue Jamey-Ponsinet , 51110 , Caurel , France","codePostal":"51110","region":"Grand Est","departement":"Marne","departementCode":"51","horaires":"Le Mardi : de 15h30 à 19h00\nLe Jeudi : de 09h15 à 12h30\nLe Vendredi : de 11h00 à 12h00","email":"mairie.caurel@wanadoo.fr","telephone":"03 26 97 21 20","latitude":49.304337,"longitude":4.1526594,"website":"https://www.caurel51.fr/","url":"https://lannuaire.service-public.gouv.fr/grand-est/marne/703c1c1b-28c0-4252-8078-0e1c84334843"}
{"nom":"Cauroy-lès-Hermonville","adresse":"2 place du Général-Leclerc , 51220 , Cauroy-lès-Hermonville , France","codePostal":"51220","region":"Grand Est","departement":"Marne","departementCode":"51","horaires":"Le Mardi : de 17h00 à 19h00\nLe Vendredi : de 17h00 à 19h00","email":"mairie.cauroy-les-hermonville@wanadoo.fr","telephone":"03 26 61 52 51","latitude":49.349148,"longitude":3.922645,"website":"https://www.cauroy-les-hermonville.fr/","url":"https://lannuaire.service-public.gouv.fr/grand-est/marne/7d028a96-ce92-4541-a669-46cfc2088d2e"}
{"nom":"Cernay-en-Dormois","adresse":"Place de l'Église , 51800 , Cernay-en-Dormois , France","codePostal":"51800","region":"Grand Est","departement":"Marne","departementCode":"51","horaires":"Le Mercredi : de 11h00 à 12h00\nLe Samedi : de 14h15 à 15h45","email":"commune-cernay-en-dormois@orange.fr","telephone":"03 26 60 11 24","latitude":49.22585,"longitude":4.764084,"website":"","url":"https://lannuaire.service-public.gouv.fr/grand-est/marne/ff9b19f4-eea2-43fc-a930-49b0c34a0802"}
{"nom":"Cernay-lès-Reims","adresse":"1 place de la République , 51420 , Cernay-lès-Reims , France","codePostal":"51420","region":"Grand Est","departement":"Marne","departementCode":"51","horaires":"Le Mardi : de 10h00 à 12h00\nLe Mercredi : de 10h00 à 12h00 de 14h00 à 18h00\nLe Vendredi : de 10h00 à 12h00 de 16h00 à 18h00","email":"mairie@cernay-les-reims.fr","telephone":"03 26 07 06 89","latitude":49.264755,"longitude":4.103973,"website":"https://cernay-les-reims.fr/","url":"https://lannuaire.service-public.gouv.fr/grand-est/marne/0bb71ed3-84f4-4a87-94a8-92f27a2a13d6"}
{"nom":"Cernon","adresse":"1 Grande-Rue , 51240 , Cernon , France","codePostal":"51240","region":"Grand Est","departement":"Marne","departementCode":"51","horaires":"Le Mardi : de 11h00 à 12h30 de 16h30 à 17h30","email":"mairiecernon@orange.fr","telephone":"03 26 70 47 21","latitude":48.840214,"longitude":4.344297,"website":"","url":"https://lannuaire.service-public.gouv.fr/grand-est/marne/06c2bfdc-6cea-48e3-be7e-0aee4dd989ff"}
{"nom":"Chaintrix-Bierges","adresse":"10 rue de Velye , 51130 , Chaintrix-Bierges , France","codePostal":"51130","region":"Grand Est","departement":"Marne","departementCode":"51","horaires":"Le Mardi : de 14h00 à 19h00","email":"mairie.chaintrixbierges@orange.fr","telephone":"03 26 66 40 33","latitude":48.901997,"longitude":4.105886,"website":"","url":"https://lannuaire.service-public.gouv.fr/grand-est/marne/2537f452-599e-43b9-ac46-1941b4f428a5"}
{"nom":"Châlons-en-Champagne","adresse":"Place du Maréchal-Foch , 51022 , Châlons-en-Champagne Cedex , France","codePostal":"51022","region":"Grand Est","departement":"Marne","departementCode":"51","horaires":"Du Lundi au Vendredi : de 09h00 à 17h00","email":"mairie@chalonsenchampagne.fr","telephone":"03 26 69 38 38","latitude":48.956654,"longitude":4.36244,"website":"https://www.chalonsenchampagne.fr/ville","url":"https://lannuaire.service-public.gouv.fr/grand-est/marne/e456ea5c-30f9-423a-af0e-f52a09d30768"}
{"nom":"Châlons-sur-Vesle","adresse":"4 place des Tilleuls , 51140 , Châlons-sur-Vesle , France","codePostal":"51140","region":"Grand Est","departement":"Marne","departementCode":"51","horaires":"Le Lundi : de 09h00 à 17h00\nPermanence des élus le jeudi de 18h30 à 19h30.","email":"secretariat.chalons.vesle@wanadoo.fr","telephone":"03 26 03 19 00","latitude":49.28947,"longitude":3.9179502,"website":"","url":"https://lannuaire.service-public.gouv.fr/grand-est/marne/5cd7136d-ff74-4456-b1a7-4cb5eec7ca57"}
{"nom":"Chaltrait","adresse":"16 Grande-Rue , 51130 , Chaltrait , France","codePostal":"51130","region":"Grand Est","departement":"Marne","departementCode":"51","horaires":"Le Vendredi : de 08h00 à 12h00","email":"commune.chaltrait@wanadoo.fr","telephone":"03 26 52 77 50","latitude":48.93008,"longitude":3.894122,"website":"","url":"https://lannuaire.service-public.gouv.fr/grand-est/marne/743091be-e89f-4a57-94b4-c79d3b18382b"}
{"nom":"Chambrecy","adresse":"5 rue Saint-Julien , 51170 , Chambrecy , France","codePostal":"51170","region":"Grand Est","departement":"Marne","departementCode":"51","horaires":"Le Mercredi : de 16h30 à 18h00","email":"mairie.chambrecy@orange.fr","telephone":"03 26 97 67 19","latitude":49.18296,"longitude":3.822275,"website":"","url":"https://lannuaire.service-public.gouv.fr/grand-est/marne/be7f6730-0ce3-4323-b4d4-ca60703d7256"}
{"nom":"Chamery","adresse":"7 rue de l'École , 51500 , Chamery , France","codePostal":"51500","region":"Grand Est","departement":"Marne","departementCode":"51","horaires":"Le Lundi : de 17h00 à 18h30\nLe Jeudi : de 13h30 à 15h30","email":"mairiedechamery51@orange.fr","telephone":"03 26 97 64 69","latitude":49.171844,"longitude":3.955643,"website":"https://www.chamery.fr/","url":"https://lannuaire.service-public.gouv.fr/grand-est/marne/4a58c8a9-d8ca-4e92-afed-0a0900786262"}
{"nom":"Champaubert-la-Bataille","adresse":"35 rue des Ormeaux , 51270 , Champaubert-la-Bataille , France","codePostal":"51270","region":"Grand Est","departement":"Marne","departementCode":"51","horaires":"Le Mardi : de 13h30 à 16h30","email":"communedechampaubert@orange.fr","telephone":"03 26 52 81 33","latitude":48.87871,"longitude":3.775877,"website":"","url":"https://lannuaire.service-public.gouv.fr/grand-est/marne/333f1f7a-568b-4c90-92ef-db43d5fe853a"}
{"nom":"Champfleury","adresse":"34 Grande rue , 51500 , Champfleury , France","codePostal":"51500","region":"Grand Est","departement":"Marne","departementCode":"51","horaires":"Le Mardi : de 10h00 à 12h00\nLe Vendredi : de 11h00 à 12h00 de 14h00 à 16h00","email":"mairie.champfleury@orange.fr","telephone":"03 26 36 27 15","latitude":49.199783,"longitude":4.0180373,"website":"https://www.champfleury.fr/","url":"https://lannuaire.service-public.gouv.fr/grand-est/marne/23a5afb5-87ed-4baf-b3b7-575d65f7829b"}
{"nom":"Champguyon","adresse":"36 rue de l'Église , 51310 , Champguyon , France","codePostal":"51310","region":"Grand Est","departement":"Marne","departementCode":"51","horaires":"Le Jeudi : de 10h30 à 12h00\nLe Samedi : de 11h00 à 12h00\n\nAccueil ouvert uniquement les 1er et 3e samedis du mois.","email":"mairiedechampguyon@orange.fr","telephone":"03 26 81 53 01","latitude":48.775284,"longitude":3.5413177,"website":"","url":"https://lannuaire.service-public.gouv.fr/grand-est/marne/68f59471-0054-495c-985f-113d4fcebf4f"}
{"nom":"Champigneul-Champagne","adresse":"1 rue Neuve-Saint-Rémy , 51150 , Champigneul-Champagne , France","codePostal":"51150","region":"Grand Est","departement":"Marne","departementCode":"51","horaires":"Le Lundi : de 17h30 à 19h00\nLe Jeudi : de 17h30 à 19h00","email":"mairie.champigneulchampagne@wanadoo.fr","telephone":"03 26 66 55 10","latitude":48.971066,"longitude":4.167712,"website":"","url":"https://lannuaire.service-public.gouv.fr/grand-est/marne/858883a1-d7ea-42a9-ba1e-2a52d248065b"}
{"nom":"Champigny","adresse":"Place de la Mairie , 51370 , Champigny , France","codePostal":"51370","region":"Grand Est","departement":"Marne","departementCode":"51","horaires":"Le Mardi : de 08h30 à 12h00 de 13h30 à 18h30\nLe Mercredi : de 13h30 à 18h30\nLe Jeudi : de 08h30 à 12h00 de 13h30 à 18h30","email":"mairie@champigny51.fr","telephone":"03 26 09 07 75","latitude":49.2687,"longitude":3.9718,"website":"https://www.champigny51.fr/","url":"https://lannuaire.service-public.gouv.fr/grand-est/marne/d20a5891-0bd5-41e7-a4dc-06b49b665285"}
{"nom":"Champillon","adresse":"7 rue Pasteur , 51160 , Champillon , France","codePostal":"51160","region":"Grand Est","departement":"Marne","departementCode":"51","horaires":"Du Lundi au Vendredi : de 10h00 à 12h00 de 13h30 à 15h00","email":"info@champillon.com","telephone":"03 26 59 54 44","latitude":49.0852,"longitude":3.97753,"website":"https://www.champillon.com/fr/","url":"https://lannuaire.service-public.gouv.fr/grand-est/marne/65779508-bc9f-450d-9f08-9df6338441d7"}
{"nom":"Champlat-et-Boujacourt","adresse":"6 rue de la Mairie , 51480 , Champlat-et-Boujacourt , France","codePostal":"51480","region":"Grand Est","departement":"Marne","departementCode":"51","horaires":"Le Lundi : de 14h00 à 18h00\nLe Vendredi : de 14h00 à 17h00","email":"mairie.champlat@gmail.com","telephone":"03 26 51 67 25","latitude":49.15431,"longitude":3.8338218,"website":"","url":"https://lannuaire.service-public.gouv.fr/grand-est/marne/e35a5f42-fa98-4784-ae91-013e0d4c5397"}
{"nom":"Champvoisy","adresse":"6 rue de l'Église , 51700 , Champvoisy , France","codePostal":"51700","region":"Grand Est","departement":"Marne","departementCode":"51","horaires":"Le Lundi : de 18h00 à 19h00\nLe Vendredi : de 13h15 à 14h15","email":"commune-de-champvoisy@orange.fr","telephone":"03 26 52 91 72","latitude":49.129097,"longitude":3.637124,"website":"","url":"https://lannuaire.service-public.gouv.fr/grand-est/marne/9008b733-7e73-4263-b31e-b6a234ca5374"}
{"nom":"Changy","adresse":"6 route de Vitry , 51300 , Changy , France","codePostal":"51300","region":"Grand Est","departement":"Marne","departementCode":"51","horaires":"Le Lundi : de 10h00 à 12h00\nLe Jeudi : de 16h30 à 18h30","email":"mairie.changy@gmail.com","telephone":"03 26 41 25 33","latitude":48.772957,"longitude":4.678016,"website":"","url":"https://lannuaire.service-public.gouv.fr/grand-est/marne/be03276b-8eed-4b51-b30a-f49155e88196"}
{"nom":"Chantemerle","adresse":"14 rue de l'Abbaye , 51260 , Chantemerle , France","codePostal":"51260","region":"Grand Est","departement":"Marne","departementCode":"51","horaires":"Le Mercredi : de 09h00 à 12h00","email":"commune-de-chantemerle@orange.fr","telephone":"03 26 80 25 36","latitude":48.612797,"longitude":3.659492,"website":"","url":"https://lannuaire.service-public.gouv.fr/grand-est/marne/587535be-a6c3-4ead-a7c6-e6a9354f9ceb"}
{"nom":"Chapelaine","adresse":"Grande-Rue , 51290 , Chapelaine , France","codePostal":"51290","region":"Grand Est","departement":"Marne","departementCode":"51","horaires":"Le Mardi : de 09h30 à 12h30\nLe Vendredi : de 09h30 à 12h30","email":"commune-chapelaine@orange.fr","telephone":"03 26 74 07 37","latitude":48.57919,"longitude":4.4979,"website":"","url":"https://lannuaire.service-public.gouv.fr/grand-est/marne/f7d01020-6602-418f-be48-02ce95306700"}
{"nom":"Charleville","adresse":"2 place de l'Église , 51120 , Charleville , France","codePostal":"51120","region":"Grand Est","departement":"Marne","departementCode":"51","horaires":"Le Jeudi : de 14h00 à 18h00","email":"commune-de-charleville@orange.fr","telephone":"03 26 80 35 01","latitude":48.81294,"longitude":3.6676,"website":"","url":"https://lannuaire.service-public.gouv.fr/grand-est/marne/e86c04aa-9f19-47a4-8aa1-a1cd60518ac0"}
{"nom":"Charmont","adresse":"Place de la Mairie , 51330 , Charmont , France","codePostal":"51330","region":"Grand Est","departement":"Marne","departementCode":"51","horaires":"Le Mardi : de 17h00 à 19h00","email":"mairie.charmont.51@wanadoo.fr","telephone":"03 26 73 97 23","latitude":48.870186,"longitude":4.8660197,"website":"","url":"https://lannuaire.service-public.gouv.fr/grand-est/marne/700873ea-2126-4530-a782-f0735ecf53f4"}
{"nom":"Châtelraould-Saint-Louvent","adresse":"1 rue de l'Église , 51300 , Châtelraould-Saint-Louvent , France","codePostal":"51300","region":"Grand Est","departement":"Marne","departementCode":"51","horaires":"Le Mardi : de 09h00 à 12h00\nLe Jeudi : de 14h00 à 18h00","email":"mairie.chatelraould@wanadoo.fr","telephone":"03 26 72 81 94","latitude":48.679478,"longitude":4.548327,"website":"http://www.chatelraould-saint-louvent.fr/","url":"https://lannuaire.service-public.gouv.fr/grand-est/marne/26be5cd8-0e0b-469a-ab61-86812388933f"}
{"nom":"Châtillon-sur-Broué","adresse":"2 rue d'Outines , 51290 , Châtillon-sur-Broué , France","codePostal":"51290","region":"Grand Est","departement":"Marne","departementCode":"51","horaires":"Le Mardi : de 09h00 à 12h00","email":"mairie.chatillon.broue@orange.fr","telephone":"03 26 72 13 48","latitude":48.54557,"longitude":4.703475,"website":"","url":"https://lannuaire.service-public.gouv.fr/grand-est/marne/d2d040a9-5d88-46d3-8125-baab658b7592"}
{"nom":"Châtillon-sur-Marne","adresse":"4 place Urbain-II , 51700 , Châtillon-sur-Marne , France","codePostal":"51700","region":"Grand Est","departement":"Marne","departementCode":"51","horaires":"Du Lundi au Vendredi : de 09h00 à 12h00","email":"mairiechatillon51700@orange.fr","telephone":"03 26 58 34 25","latitude":49.10048,"longitude":3.758591,"website":"","url":"https://lannuaire.service-public.gouv.fr/grand-est/marne/1c95aa3e-2f87-4753-9e61-131e844f7aaf"}
{"nom":"Châtillon-sur-Morin","adresse":"5 rue du 73e-Régiment-d'Infanterie , 51310 , Châtillon-sur-Morin , France","codePostal":"51310","region":"Grand Est","departement":"Marne","departementCode":"51","horaires":"Le Mercredi : de 15h00 à 18h00\nLe Samedi : de 10h00 à 12h00\n\nLe 1er et le 3ème samedi du mois (10h à 12h) sur rendez-vous.","email":"mairiechatillonsurmorin@orange.fr","telephone":"03 26 81 53 41","latitude":48.713684,"longitude":3.5810406,"website":"https://www.bcs51.fr/","url":"https://lannuaire.service-public.gouv.fr/grand-est/marne/786db26b-8892-4509-8033-cad9991d8ccb"}
{"nom":"Châtrices","adresse":"Grande-Rue , 51800 , Châtrices , France","codePostal":"51800","region":"Grand Est","departement":"Marne","departementCode":"51","horaires":"Le Vendredi : de 09h00 à 11h00","email":"communedechatrices.mairie@orange.fr","telephone":"03 26 60 38 39","latitude":49.038746,"longitude":4.935049,"website":"","url":"https://lannuaire.service-public.gouv.fr/grand-est/marne/49c37184-5894-4c76-a631-8400c0152886"}
{"nom":"Chaudefontaine","adresse":"9 rue de la Mairie , 51800 , Chaudefontaine , France","codePostal":"51800","region":"Grand Est","departement":"Marne","departementCode":"51","horaires":"Le Mardi : de 16h00 à 18h00\nLe Jeudi : de 09h30 à 12h00\nLe Vendredi : de 09h30 à 12h00","email":"mairie.chaudefontaine@orange.fr","telephone":"03 26 60 83 18","latitude":49.099354,"longitude":4.869973,"website":"","url":"https://lannuaire.service-public.gouv.fr/grand-est/marne/b98e44de-d2de-497a-9324-290e2efb0ba9"}
{"nom":"Chaumuzy","adresse":"14 rue du Capitaine-Chesnais , 51170 , Chaumuzy , France","codePostal":"51170","region":"Grand Est","departement":"Marne","departementCode":"51","horaires":"Le Mardi : de 11h00 à 13h00 de 16h30 à 19h00\nLe Jeudi : de 11h00 à 13h00\nLe Samedi : de 09h00 à 12h00","email":"mairie.chaumuzy@orange.fr","telephone":"03 26 61 81 37","latitude":49.175026,"longitude":3.864612,"website":"https://www.chaumuzy.fr/","url":"https://lannuaire.service-public.gouv.fr/grand-est/marne/2f3590c7-f117-4400-bf28-e7a52752bcc8"}
{"nom":"Chavot-Courcourt","adresse":"Place René-Demarest , 51530 , Chavot-Courcourt , France","codePostal":"51530","region":"Grand Est","departement":"Marne","departementCode":"51","horaires":"Le Lundi : de 09h00 à 12h00\nLe Jeudi : de 18h00 à 19h00\nLe Vendredi : de 13h15 à 14h15","email":"mairie.chavot@wanadoo.fr","telephone":"03 26 54 31 90","latitude":49.00324,"longitude":3.93091,"website":"https://www.chavot-courcourt.com/","url":"https://lannuaire.service-public.gouv.fr/grand-est/marne/4dda6dbb-b8f2-42bd-a3e1-ce93f49adfa7"}
{"nom":"Cheminon","adresse":"Place de la Mairie , 51250 , Cheminon , France","codePostal":"51250","region":"Grand Est","departement":"Marne","departementCode":"51","horaires":"Du Lundi au Mardi : de 09h00 à 12h00\nDu Jeudi au Samedi : de 09h00 à 12h00","email":"mairie.cheminon@orange.fr","telephone":"03 26 73 12 03","latitude":48.736027,"longitude":4.902854,"website":"https://www.cheminon.fr/","url":"https://lannuaire.service-public.gouv.fr/grand-est/marne/8f55f990-282a-4f20-8af9-95a88b5de21c"}
{"nom":"Chenay","adresse":"42 rue du Général-Leclerc , 51140 , Chenay , France","codePostal":"51140","region":"Grand Est","departement":"Marne","departementCode":"51","horaires":"Le Lundi : de 15h00 à 18h00","email":"mairie51@chenay.fr","telephone":"03 26 03 11 77","latitude":49.2979,"longitude":3.929121,"website":"https://www.chenay.fr/","url":"https://lannuaire.service-public.gouv.fr/grand-est/marne/846ad956-f55a-44b2-ac74-3168ae8ab9ac"}
{"nom":"Cheniers","adresse":"23 rue Principale , 51510 , Cheniers , France","codePostal":"51510","region":"Grand Est","departement":"Marne","departementCode":"51","horaires":"Le Mardi : de 17h00 à 18h00","email":"commune-de-cheniers@orange.fr","telephone":"03 26 63 88 18","latitude":48.884945,"longitude":4.245376,"website":"","url":"https://lannuaire.service-public.gouv.fr/grand-est/marne/44c6a308-55a7-4a7c-8037-ffa027486846"}
{"nom":"Cheppes-la-Prairie","adresse":"3 rue Saint-Georges , 51240 , Cheppes-la-Prairie , France","codePostal":"51240","region":"Grand Est","departement":"Marne","departementCode":"51","horaires":"Le Jeudi : de 16h30 à 19h30","email":"communedecheppeslaprairie@orange.fr","telephone":"03 26 64 12 45","latitude":48.833256,"longitude":4.472841,"website":"https://mairiedecheppes.fr/","url":"https://lannuaire.service-public.gouv.fr/grand-est/marne/bb2785f1-19f0-4175-9cb3-aa1be1a53554"}
{"nom":"Chepy","adresse":"20 rue Saint-Jean , 51240 , Chepy , France","codePostal":"51240","region":"Grand Est","departement":"Marne","departementCode":"51","horaires":"Le Mardi : de 17h00 à 18h00\nLe Vendredi : de 17h00 à 18h00","email":"mairiechepymarne@wanadoo.fr","telephone":"03 26 67 54 99","latitude":48.899624,"longitude":4.436829,"website":"https://www.mairie-chepy.fr/","url":"https://lannuaire.service-public.gouv.fr/grand-est/marne/3edabdc4-bfc5-43f3-8c6f-51bba794748f"}
{"nom":"Cherville","adresse":"24 rue de l'Église , 51150 , Cherville , France","codePostal":"51150","region":"Grand Est","departement":"Marne","departementCode":"51","horaires":"Le Mardi : de 15h30 à 19h00\nLe Jeudi : de 08h30 à 12h00","email":"mairie.de-cherville@wanadoo.fr","telephone":"03 26 67 98 79","latitude":49.018562,"longitude":4.1638603,"website":"","url":"https://lannuaire.service-public.gouv.fr/grand-est/marne/3314d166-3556-4d7c-86fd-0910df6a3f09"}
{"nom":"Chichey","adresse":"10 Grande-Rue , 51120 , Chichey , France","codePostal":"51120","region":"Grand Est","departement":"Marne","departementCode":"51","horaires":"Le Lundi : de 17h00 à 19h00","email":"mairie.chichey@orange.fr","telephone":"03 26 81 05 31","latitude":48.68818,"longitude":3.759723,"website":"","url":"https://lannuaire.service-public.gouv.fr/grand-est/marne/57a93a64-247c-414e-a7c6-04b28b02fc1c"}
{"nom":"Chigny-les-Roses","adresse":"8 place Pommery , 51500 , Chigny-les-Roses , France","codePostal":"51500","region":"Grand Est","departement":"Marne","departementCode":"51","horaires":"Le Lundi : de 10h00 à 12h30\nLe Mercredi : de 10h00 à 12h30 de 15h00 à 17h00\nLe Vendredi : de 08h30 à 12h30","email":"mairie@chignylesroses.info","telephone":"03 26 03 42 35","latitude":49.1135,"longitude":4.03065,"website":"https://chignylesroses.fr/","url":"https://lannuaire.service-public.gouv.fr/grand-est/marne/9a9054b5-e895-4eb4-81c3-dc9d963cd0ce"}
{"nom":"Chouilly","adresse":"12 rue Mélignon , 51530 , Chouilly , France","codePostal":"51530","region":"Grand Est","departement":"Marne","departementCode":"51","horaires":"Du Lundi au Jeudi : de 10h00 à 12h00 de 17h00 à 18h00\nLe Vendredi : de 10h00 à 12h00 de 14h00 à 17h00","email":"mairie.chouilly@gmail.com","telephone":"03 26 55 40 61","latitude":49.026108,"longitude":4.015595,"website":"https://chouilly.fr/","url":"https://lannuaire.service-public.gouv.fr/grand-est/marne/9fc9b7be-be42-4306-8e3c-f0c284b81b20"}
{"nom":"Clamanges","adresse":"12 rue Jean Brion , 51130 , Clamanges , France","codePostal":"51130","region":"Grand Est","departement":"Marne","departementCode":"51","horaires":"Le Lundi : de 08h00 à 13h00\nLe Jeudi : de 17h00 à 19h00","email":"mairiede.clamanges@orange.fr","telephone":"03 26 66 44 48","latitude":48.8287,"longitude":4.083906,"website":"https://clamanges-51130.webnode.fr/","url":"https://lannuaire.service-public.gouv.fr/grand-est/marne/cf3ace1a-8846-4aff-bf17-e565b7bb1788"}
{"nom":"Clesles","adresse":"Place de la Mairie , 51260 , Clesles , France","codePostal":"51260","region":"Grand Est","departement":"Marne","departementCode":"51","horaires":"Le Lundi : de 13h30 à 16h30\nLe Jeudi : de 13h30 à 16h30\nLe Vendredi : de 13h30 à 18h00","email":"commune.clesles@wanadoo.fr","telephone":"03 26 80 00 19","latitude":48.534054,"longitude":3.831995,"website":"","url":"https://lannuaire.service-public.gouv.fr/grand-est/marne/27d1702e-8433-4633-b925-7ca21b0425e6"}
{"nom":"Cloyes-sur-Marne","adresse":"1 rue du Pont , 51300 , Cloyes-sur-Marne , France","codePostal":"51300","region":"Grand Est","departement":"Marne","departementCode":"51","horaires":"Le Mardi : de 18h00 à 19h00\nLe Samedi : de 13h00 à 14h00","email":"mairiecloyes@wanadoo.fr","telephone":"03 26 72 50 40","latitude":48.66286,"longitude":4.635425,"website":"","url":"https://lannuaire.service-public.gouv.fr/grand-est/marne/8b2b1cdd-5497-42f4-806d-961f3439c825"}
{"nom":"Coeur-de-la-Vallée","adresse":"22 Grande-Rue , 51480 , Coeur-de-la-Vallée , France","codePostal":"51480","region":"Grand Est","departement":"Marne","departementCode":"51","horaires":"Le Lundi : de 16h00 à 18h00\nLe Jeudi : de 16h00 à 18h00","email":"mairiecoeurdelavallee@gmail.com","telephone":"03 26 58 03 03","latitude":49.08302,"longitude":3.798854,"website":"","url":"https://lannuaire.service-public.gouv.fr/grand-est/marne/98939a7e-fb9b-40a0-9278-7d4009db91f4"}
{"nom":"Coizard-Joches","adresse":"2 rue des Vignes-Blanches , 51270 , Coizard-Joches , France","codePostal":"51270","region":"Grand Est","departement":"Marne","departementCode":"51","horaires":"Le Mardi : de 09h30 à 17h00","email":"commune-coizard-joches@orange.fr","telephone":"03 26 59 36 27","latitude":48.83009,"longitude":3.86432,"website":"","url":"https://lannuaire.service-public.gouv.fr/grand-est/marne/7e5cff35-5a86-498e-8b91-b547bf56134f"}
{"nom":"Compertrix","adresse":"22 bis rue Jules-Ferry , 51510 , Compertrix , France","codePostal":"51510","region":"Grand Est","departement":"Marne","departementCode":"51","horaires":"Du Lundi au Vendredi : de 13h30 à 17h00\nSur rendez-vous : 17h à 18h","email":"mairie@compertrix.fr","telephone":"03 26 68 31 42","latitude":48.9401,"longitude":4.34991,"website":"https://www.compertrix.fr/","url":"https://lannuaire.service-public.gouv.fr/grand-est/marne/acc34623-72cd-46c8-b0c5-cb3042c15d94"}
{"nom":"Condé-sur-Marne","adresse":"Place Alexandre-Batilliot , 51150 , Condé-sur-Marne , France","codePostal":"51150","region":"Grand Est","departement":"Marne","departementCode":"51","horaires":"Le Mardi : de 10h00 à 12h00\nLe Jeudi : de 10h00 à 12h00\nLe Samedi : de 10h00 à 12h00","email":"mairie.condesurmarne@orange.fr","telephone":"03 26 67 98 77","latitude":49.044853,"longitude":4.179919,"website":"https://www.conde-sur-marne.fr/page-d-accueil/","url":"https://lannuaire.service-public.gouv.fr/grand-est/marne/fa942370-5f0c-4e2c-8ac5-44696b0fe62c"}
{"nom":"Conflans-sur-Seine","adresse":"1 place de la Mairie , 51260 , Conflans-sur-Seine , France","codePostal":"51260","region":"Grand Est","departement":"Marne","departementCode":"51","horaires":"Du Lundi au Mercredi : de 17h00 à 18h45\nLe Vendredi : de 17h00 à 18h45","email":"mairieconflans51@orange.fr","telephone":"03 26 42 67 17","latitude":48.552265,"longitude":3.680029,"website":"","url":"https://lannuaire.service-public.gouv.fr/grand-est/marne/df08feba-9b91-4506-a475-9f73b86d2098"}
{"nom":"Congy","adresse":"2 rue du Colombier , 51270 , Congy , France","codePostal":"51270","region":"Grand Est","departement":"Marne","departementCode":"51","horaires":"Le Lundi : de 09h00 à 12h00 de 13h00 à 17h00\nLe Mardi : de 09h00 à 12h00\nLe Vendredi : de 09h00 à 12h00 de 13h00 à 15h00\nPermanence des élus de 13h à 14h.","email":"mairiecongy@wanadoo.fr","telephone":"03 26 59 31 05","latitude":48.85886,"longitude":3.8268166,"website":"","url":"https://lannuaire.service-public.gouv.fr/grand-est/marne/1035771a-4238-4ee2-b3c7-844a0f527a19"}
{"nom":"Connantray-Vaurefroy","adresse":"Route nationale 4 , 51230 , Connantray-Vaurefroy , France","codePostal":"51230","region":"Grand Est","departement":"Marne","departementCode":"51","horaires":"Le Mercredi : de 10h00 à 12h00","email":"mairie.connantray@orange.fr","telephone":"03 26 42 04 55","latitude":48.747593,"longitude":4.062047,"website":"","url":"https://lannuaire.service-public.gouv.fr/grand-est/marne/9ef60dea-761a-4ddd-a1f5-cfd1156f26c7"}
{"nom":"Connantre","adresse":"Rue Saint-Caprais , 51230 , Connantre , France","codePostal":"51230","region":"Grand Est","departement":"Marne","departementCode":"51","horaires":"Du Lundi au Mardi : de 09h00 à 12h00 de 14h00 à 18h00\nLe Mercredi : de 10h00 à 12h00\nLe Jeudi : de 09h00 à 12h00 de 14h00 à 18h00\nLe Vendredi : de 14h00 à 17h45","email":"mairie@connantre.fr","telephone":"03 26 42 52 70","latitude":48.7241,"longitude":3.91853,"website":"http://www.connantre51.fr/","url":"https://lannuaire.service-public.gouv.fr/grand-est/marne/91b27be4-fdfc-475c-a2cc-4d733526e93c"}
{"nom":"Contault-le-Maupas","adresse":"4 A Grande-Rue , 51330 , Contault-le-Maupas , France","codePostal":"51330","region":"Grand Est","departement":"Marne","departementCode":"51","horaires":"Le Mardi : de 16h00 à 19h00","email":"mairie.contault@bbox.fr","telephone":"09 87 02 52 93","latitude":48.913998,"longitude":4.792683,"website":"","url":"https://lannuaire.service-public.gouv.fr/grand-est/marne/22599223-d1e7-4619-8e82-f94a70abe0ff"}
{"nom":"Coole","adresse":"Rue de la Mairie , 51320 , Coole , France","codePostal":"51320","region":"Grand Est","departement":"Marne","departementCode":"51","horaires":"Le Mardi : de 16h30 à 18h00\nLe Vendredi : de 13h30 à 14h30","email":"mairie.coole@wanadoo.fr","telephone":"03 26 72 33 01","latitude":48.74384,"longitude":4.392164,"website":"","url":"https://lannuaire.service-public.gouv.fr/grand-est/marne/32a5f406-242a-41fd-8999-a389bd60e811"}
{"nom":"Coolus","adresse":"2 bis Grande rue , 51510 , Coolus , France","codePostal":"51510","region":"Grand Est","departement":"Marne","departementCode":"51","horaires":"Le Lundi : de 14h00 à 19h00\nLe Jeudi : de 09h00 à 12h00","email":"mairie.coolus@wanadoo.fr","telephone":"03 26 64 11 19","latitude":48.92558,"longitude":4.356507,"website":"http://www.coolus.fr/","url":"https://lannuaire.service-public.gouv.fr/grand-est/marne/01309946-7bc8-46a4-9ab3-4820d65d2bb2"}
{"nom":"Corbeil","adresse":"1 rue de la Cruchière , 51320 , Corbeil , France","codePostal":"51320","region":"Grand Est","departement":"Marne","departementCode":"51","horaires":"Le Mardi : de 14h00 à 17h00","email":"mairie.corbeil@orange.fr","telephone":"03 26 74 29 11","latitude":48.576027,"longitude":4.4166646,"website":"","url":"https://lannuaire.service-public.gouv.fr/grand-est/marne/e6cccbcf-d3ce-4486-877a-69595652676e"}
{"nom":"Corfélix","adresse":"1 place de la Mairie , 51210 , Corfélix , France","codePostal":"51210","region":"Grand Est","departement":"Marne","departementCode":"51","horaires":"Le Vendredi : de 14h00 à 18h00","email":"mairie.corfelix@orange.fr","telephone":"03 26 80 38 61","latitude":48.838184,"longitude":3.698516,"website":"","url":"https://lannuaire.service-public.gouv.fr/grand-est/marne/ce28cdb6-2019-421c-8dbf-ba332406188b"}
{"nom":"Cormicy","adresse":"1 place d'Armes , 51220 , Cormicy , France","codePostal":"51220","region":"Grand Est","departement":"Marne","departementCode":"51","horaires":"Le Lundi : de 10h00 à 12h00\nLe Mardi : de 16h30 à 18h30\nDu Mercredi au Vendredi : de 10h00 à 12h00","email":"mairie@cormicy.fr","telephone":"03 26 61 30 30","latitude":49.370132,"longitude":3.8953955,"website":"https://www.cormicy.fr/","url":"https://lannuaire.service-public.gouv.fr/grand-est/marne/ab8abb4f-b0a8-4d47-917a-17f630b46b7e"}
{"nom":"Cormontreuil","adresse":"2 place de la République , 51350 , Cormontreuil , France","codePostal":"51350","region":"Grand Est","departement":"Marne","departementCode":"51","horaires":"Le Lundi : de 08h30 à 12h00 de 13h30 à 17h30\nLe Mardi : de 08h30 à 12h00 de 13h30 à 19h00\nLe Mercredi : de 08h30 à 12h00 de 13h30 à 17h30\nLe Jeudi : de 08h30 à 12h00 de 13h30 à 17h30\nLe Vendredi : de 08h30 à 12h00 de 13h30 à 17h30","email":"mairie@cormontreuil.fr","telephone":"03 26 82 05 53","latitude":49.22367,"longitude":4.054514,"website":"https://www.cormontreuil.fr/","url":"https://lannuaire.service-public.gouv.fr/grand-est/marne/2ed476bb-984d-47d6-9cd8-6584465046f8"}
{"nom":"Cormoyeux","adresse":"2 place Saint-Clément , 51480 , Cormoyeux , France","codePostal":"51480","region":"Grand Est","departement":"Marne","departementCode":"51","horaires":"Le Mardi : de 18h00 à 19h30","email":"mairiedecormoyeux@orange.fr","telephone":"03 26 59 41 78","latitude":49.10931,"longitude":3.914213,"website":"https://www.cormoyeux.fr/","url":"https://lannuaire.service-public.gouv.fr/grand-est/marne/b55a33d9-3f78-47ef-bff6-d068fed092f6"}
{"nom":"Corribert","adresse":"2 rue de l'Église , 51270 , Corribert , France","codePostal":"51270","region":"Grand Est","departement":"Marne","departementCode":"51","horaires":"Le Mercredi : de 16h30 à 17h30","email":"mairie.corribert@orange.fr","telephone":"03 26 52 88 16","latitude":48.94223,"longitude":3.7640922,"website":"","url":"https://lannuaire.service-public.gouv.fr/grand-est/marne/0b92a083-1a23-495a-acf4-ee70ed04c084"}
{"nom":"Corrobert","adresse":"Place de la Mairie , 51210 , Corrobert , France","codePostal":"51210","region":"Grand Est","departement":"Marne","departementCode":"51","horaires":"Le Lundi : de 13h30 à 18h00","email":"mairie.corrobert@orange.fr","telephone":"03 26 81 14 33","latitude":48.915348,"longitude":3.60472,"website":"","url":"https://lannuaire.service-public.gouv.fr/grand-est/marne/484c5be2-6620-4005-8ebf-de35fcd537ba"}
{"nom":"Corroy","adresse":"Place de la Mairie , 51230 , Corroy , France","codePostal":"51230","region":"Grand Est","departement":"Marne","departementCode":"51","horaires":"Le Vendredi : de 13h30 à 15h30","email":"commune-de-corroy@orange.fr","telephone":"03 26 81 07 48","latitude":48.702686,"longitude":3.93905,"website":"","url":"https://lannuaire.service-public.gouv.fr/grand-est/marne/a29a55d5-021f-46f8-bf46-cad315e994ec"}
{"nom":"Coulommes-la-Montagne","adresse":"4 place de l'Église , 51390 , Coulommes-la-Montagne , France","codePostal":"51390","region":"Grand Est","departement":"Marne","departementCode":"51","horaires":"Le Lundi : de 16h15 à 17h15\nLe Vendredi : de 09h00 à 12h00","email":"mairie.coulommeslamontagne@orange.fr","telephone":"03 26 49 21 85","latitude":49.225525,"longitude":3.910633,"website":"","url":"https://lannuaire.service-public.gouv.fr/grand-est/marne/8cf87467-2af3-4d3e-a03e-f24734947f9e"}
{"nom":"Coupetz","adresse":"24 Grande-Rue , 51240 , Coupetz , France","codePostal":"51240","region":"Grand Est","departement":"Marne","departementCode":"51","horaires":"Le Mercredi : de 14h30 à 18h30","email":"mairiecoupetz@orange.fr","telephone":"03 26 70 60 58","latitude":48.82114,"longitude":4.362466,"website":"","url":"https://lannuaire.service-public.gouv.fr/grand-est/marne/f329e7fc-28bc-4f0e-8a5e-c263bdb549a4"}
{"nom":"Coupéville","adresse":"Place de la Mairie , 51240 , Coupéville , France","codePostal":"51240","region":"Grand Est","departement":"Marne","departementCode":"51","horaires":"Le Lundi : de 13h30 à 17h30","email":"mairie.coupeville@wanadoo.fr","telephone":"03 26 67 90 37","latitude":48.910633,"longitude":4.627297,"website":"","url":"https://lannuaire.service-public.gouv.fr/grand-est/marne/1f91afd1-a47a-401c-83a5-e3f1f844b508"}
{"nom":"Courcelles-Sapicourt","adresse":"3 rue Paul-Bouton , 51140 , Courcelles-Sapicourt , France","codePostal":"51140","region":"Grand Est","departement":"Marne","departementCode":"51","horaires":"Le Lundi : de 09h00 à 11h30\nLe Jeudi : de 09h00 à 11h30 de 14h15 à 18h00","email":"mairie-courcelles-sapicourt@wanadoo.fr","telephone":"03 26 48 59 67","latitude":49.262863,"longitude":3.845022,"website":"https://www.courcelles-sapicourt.fr/","url":"https://lannuaire.service-public.gouv.fr/grand-est/marne/4d053ce0-7085-492e-b19a-651cffe9b464"}
{"nom":"Courcemain","adresse":"6 rue de la Mairie , 51260 , Courcemain , France","codePostal":"51260","region":"Grand Est","departement":"Marne","departementCode":"51","horaires":"Le Mardi : de 14h30 à 18h00\nLe Mercredi : de 08h00 à 12h30","email":"mairie.courcemain@orange.fr","telephone":"03 26 80 28 01","latitude":48.618073,"longitude":3.9200113,"website":"","url":"https://lannuaire.service-public.gouv.fr/grand-est/marne/e6f7469b-02ec-4acb-a955-e5451e3f5c79"}
{"nom":"Courcy","adresse":"5 place de la Mairie , 51220 , Courcy , France","codePostal":"51220","region":"Grand Est","departement":"Marne","departementCode":"51","horaires":"Le Lundi : de 09h30 à 12h00\nLe Mardi : de 16h30 à 19h00\nLe Mercredi : de 14h00 à 16h30\nLe Jeudi : de 16h30 à 19h00\nLe Vendredi : de 09h30 à 12h00","email":"secretariat@mairie-courcy.fr","telephone":"03 26 49 60 10","latitude":49.3226,"longitude":4.002359,"website":"https://commune-de-courcy.fr/","url":"https://lannuaire.service-public.gouv.fr/grand-est/marne/0787217b-588c-4fec-bf57-cbb999450512"}
{"nom":"Courdemanges","adresse":"Grande-Rue , 51300 , Courdemanges , France","codePostal":"51300","region":"Grand Est","departement":"Marne","departementCode":"51","horaires":"Le Mardi : de 17h30 à 19h00\nLe Vendredi : de 17h30 à 19h00","email":"communecourdemanges@orange.fr","telephone":"03 26 72 29 56","latitude":48.694824,"longitude":4.542007,"website":"","url":"https://lannuaire.service-public.gouv.fr/grand-est/marne/83f4685e-de72-4265-adf1-543c2c7d0883"}
{"nom":"Courgivaux","adresse":"28 rue du Capitaine-Vaillant , 51310 , Courgivaux , France","codePostal":"51310","region":"Grand Est","departement":"Marne","departementCode":"51","horaires":"Le Mercredi : de 14h00 à 17h00\nLe Samedi : de 14h00 à 16h00\n\nAccueil ouvert le deuxième samedi de chaque mois.","email":"mairie-de-courgivaux@orange.fr","telephone":"03 26 81 58 27","latitude":48.71127,"longitude":3.48917,"website":"http://www.courgivaux.fr/","url":"https://lannuaire.service-public.gouv.fr/grand-est/marne/44db3352-ad64-4534-9ae1-cd0a19535fb8"}
{"nom":"Courjeonnet","adresse":"7 rue du Chêne-la-Jansonne , 51270 , Courjeonnet , France","codePostal":"51270","region":"Grand Est","departement":"Marne","departementCode":"51","horaires":"Le Jeudi : de 13h30 à 15h00","email":"commune-de-courjeonnet@orange.fr","telephone":"03 26 59 30 64","latitude":48.830322,"longitude":3.834444,"website":"","url":"https://lannuaire.service-public.gouv.fr/grand-est/marne/3887f6f0-5173-4502-8a63-c9d7c825954c"}
{"nom":"Courlandon","adresse":"3 rue Saint-Laurent , 51170 , Courlandon , France","codePostal":"51170","region":"Grand Est","departement":"Marne","departementCode":"51","horaires":"Le Mardi : de 18h00 à 19h00","email":"courlandon.commune@wanadoo.fr","telephone":"09 62 17 22 02","latitude":49.312893,"longitude":3.735915,"website":"https://www.courlandon.fr/","url":"https://lannuaire.service-public.gouv.fr/grand-est/marne/d3c11d0e-abc5-4f59-906e-fe2679e5adc8"}
{"nom":"Courmas","adresse":"14 rue Saint-Vincent , 51390 , Courmas , France","codePostal":"51390","region":"Grand Est","departement":"Marne","departementCode":"51","horaires":"Le Lundi : de 15h30 à 18h00\nLe Mardi : de 09h00 à 12h00\nLe Vendredi : de 14h30 à 18h30","email":"commune.courmas@orange.fr","telephone":"03 26 61 88 29","latitude":49.18817,"longitude":3.909675,"website":"https://www.courmas.fr/","url":"https://lannuaire.service-public.gouv.fr/grand-est/marne/0e52666c-72fc-40be-933f-aa0e0051619a"}
{"nom":"Courtagnon","adresse":"2 rue de la Ruelle , 51480 , Courtagnon , France","codePostal":"51480","region":"Grand Est","departement":"Marne","departementCode":"51","horaires":"Le Mardi : de 13h45 à 16h45","email":"mairie.courtagnon@orange.fr","telephone":"03 26 59 13 34","latitude":49.14251,"longitude":3.947973,"website":"","url":"https://lannuaire.service-public.gouv.fr/grand-est/marne/608d0124-b940-4a44-aab8-d10ec2df539c"}
{"nom":"Courtémont","adresse":"15 rue de l'Église , 51800 , Courtémont , France","codePostal":"51800","region":"Grand Est","departement":"Marne","departementCode":"51","horaires":"Le Vendredi : de 13h30 à 14h30","email":"mairiedecourtemont@laposte.net","telephone":"03 26 60 43 04","latitude":49.132378,"longitude":4.7831926,"website":"","url":"https://lannuaire.service-public.gouv.fr/grand-est/marne/16faa8ef-178d-4232-9a1f-3749fbfcbf5b"}
{"nom":"Courthiezy","adresse":"17 rue Condé , 51700 , Courthiezy , France","codePostal":"51700","region":"Grand Est","departement":"Marne","departementCode":"51","horaires":"Le Lundi : de 17h30 à 19h30","email":"mairie.courthiezy@wanadoo.fr","telephone":"03 26 58 29 20","latitude":49.05344,"longitude":3.5949545,"website":"","url":"https://lannuaire.service-public.gouv.fr/grand-est/marne/c9be6b7a-3901-48d2-9239-15185e4908fb"}
{"nom":"Courtisols","adresse":"4 rue Massez , 51460 , Courtisols , France","codePostal":"51460","region":"Grand Est","departement":"Marne","departementCode":"51","horaires":"Le Lundi : de 09h00 à 12h00 de 14h00 à 17h00\nLe Mardi : de 14h00 à 19h00\nLe Mercredi : de 09h00 à 12h00 de 14h00 à 17h00\nLe Vendredi : de 09h00 à 12h00 de 14h00 à 17h00\nLe Samedi : de 09h00 à 12h00","email":"contact@courtisols.fr","telephone":"03 26 66 60 13","latitude":48.987617,"longitude":4.5194407,"website":"https://www.courtisols.fr/","url":"https://lannuaire.service-public.gouv.fr/grand-est/marne/6514ac9d-7b12-4b96-85a0-e9e7494d9398"}
{"nom":"Courville","adresse":"16 rue William-Muir-Russel , 51170 , Courville , France","codePostal":"51170","region":"Grand Est","departement":"Marne","departementCode":"51","horaires":"Le Mardi : de 17h00 à 19h00\nLe Vendredi : de 09h00 à 12h00","email":"mairie.courville.marne@wanadoo.fr","telephone":"03 26 48 02 17","latitude":49.268684,"longitude":3.697616,"website":"","url":"https://lannuaire.service-public.gouv.fr/grand-est/marne/7453f882-7a78-400b-9384-56d5a8e5c9e7"}
{"nom":"Couvrot","adresse":"1 place de la Mairie , 51300 , Couvrot , France","codePostal":"51300","region":"Grand Est","departement":"Marne","departementCode":"51","horaires":"Le Lundi : de 17h00 à 18h30\nLe Jeudi : de 17h00 à 18h30\nLe Vendredi : de 13h30 à 17h00","email":"mairiecouvrot@orange.fr","telephone":"03 26 74 03 97","latitude":48.757298,"longitude":4.5721116,"website":"","url":"https://lannuaire.service-public.gouv.fr/grand-est/marne/7ce7e930-577f-4d6a-853c-673e8d2d7e68"}
{"nom":"Cramant","adresse":"73 Place Puisard , 51530 , Cramant , France","codePostal":"51530","region":"Grand Est","departement":"Marne","departementCode":"51","horaires":"Le Lundi : de 08h30 à 12h30\nLe Mardi : de 08h30 à 12h30 de 16h15 à 18h45\nDu Mercredi au Vendredi : de 08h30 à 12h30","email":"accueil.mairie@cramant.fr","telephone":"03 26 57 54 86","latitude":48.986687,"longitude":3.991558,"website":"https://www.cramant.fr/","url":"https://lannuaire.service-public.gouv.fr/grand-est/marne/845ce0f5-a4ca-4eed-a7bf-9cd705793b0a"}
{"nom":"Crugny","adresse":"1 rue des Quatre-Vents , 51170 , Crugny , France","codePostal":"51170","region":"Grand Est","departement":"Marne","departementCode":"51","horaires":"Le Mercredi : de 17h00 à 19h00\nLe Samedi : de 09h00 à 12h00","email":"mairie.crugny@wanadoo.fr","telephone":"03 26 97 41 50","latitude":49.25767,"longitude":3.7391438,"website":"","url":"https://lannuaire.service-public.gouv.fr/grand-est/marne/251de4a7-c6f0-4963-a1fd-3682e619287a"}
{"nom":"Cuchery","adresse":"6 place de la Mairie , 51480 , Cuchery , France","codePostal":"51480","region":"Grand Est","departement":"Marne","departementCode":"51","horaires":"Du Lundi au Vendredi : de 08h45 à 12h15","email":"mairie.cuchery@wanadoo.fr","telephone":"03 26 58 11 18","latitude":49.13089,"longitude":3.824165,"website":"","url":"https://lannuaire.service-public.gouv.fr/grand-est/marne/48bfb918-dbe9-4685-8425-9dfd43fce9f4"}
{"nom":"Cuis","adresse":"14 place Charles-de-Gaulle , 51530 , Cuis , France","codePostal":"51530","region":"Grand Est","departement":"Marne","departementCode":"51","horaires":"Le Lundi : de 08h30 à 12h30 de 13h30 à 17h30\nLe Mardi : de 08h30 à 12h30\nDu Jeudi au Vendredi : de 08h30 à 12h30","email":"mairie.cuis@wanadoo.fr","telephone":"03 26 59 78 60","latitude":48.9959,"longitude":3.96628,"website":"http://www.cuis.fr/","url":"https://lannuaire.service-public.gouv.fr/grand-est/marne/78d4eb09-eb82-47ae-9df5-372043acf219"}
{"nom":"Cuisles","adresse":"9 rue de l'Étang-du-Moulin , 51700 , Cuisles , France","codePostal":"51700","region":"Grand Est","departement":"Marne","departementCode":"51","horaires":"Le Lundi : de 13h00 à 17h00","email":"mairie.cuisles@orange.fr","telephone":"03 26 58 10 99","latitude":49.12825,"longitude":3.772875,"website":"","url":"https://lannuaire.service-public.gouv.fr/grand-est/marne/7475daab-f72e-474d-9674-8013ca1a2e6e"}
{"nom":"Cumières","adresse":"79 rue de l'Hôtel-de-Ville , 51480 , Cumières , France","codePostal":"51480","region":"Grand Est","departement":"Marne","departementCode":"51","horaires":"Du Lundi au Mercredi : de 09h00 à 12h00\nLe Jeudi : de 09h00 à 12h00 de 14h00 à 19h00\nLe Vendredi : de 09h00 à 12h00","email":"mairiecumieres@orange.fr","telephone":"03 26 55 32 07","latitude":49.0721,"longitude":3.92605,"website":"https://www.mairiecumieres.fr/fr/","url":"https://lannuaire.service-public.gouv.fr/grand-est/marne/9a105926-5916-4f95-8d73-3c15c0d9c4e3"}
{"nom":"Cuperly","adresse":"6 Grand'rue , 51400 , Cuperly , France","codePostal":"51400","region":"Grand Est","departement":"Marne","departementCode":"51","horaires":"Le Mardi : de 14h00 à 17h00\nLe Vendredi : de 08h30 à 12h30","email":"mairie.cuperly@orange.fr","telephone":"03 26 66 34 36","latitude":49.0607,"longitude":4.44365,"website":"https://cuperly.wixsite.com/commune-cuperly","url":"https://lannuaire.service-public.gouv.fr/grand-est/marne/05b9aff8-3446-4f32-9760-8b0aa5479840"}
{"nom":"Damery","adresse":"78 rue Paul-Douce , 51480 , Damery , France","codePostal":"51480","region":"Grand Est","departement":"Marne","departementCode":"51","horaires":"Du Lundi au Vendredi : de 14h00 à 18h00","email":"mairie@damery51.fr","telephone":"03 26 58 41 66","latitude":49.0735,"longitude":3.87787,"website":"https://damery51.fr/fr/","url":"https://lannuaire.service-public.gouv.fr/grand-est/marne/3b4e70b5-f117-4264-98fe-09a0dcd5f3d4"}
{"nom":"Mairie déléguée - Dampierre-au-Temple","adresse":"Dampierre-au-Temple , 51400 , Neuville-au-Temple , France","codePostal":"51400","region":"Grand Est","departement":"Marne","departementCode":"51","horaires":"Le Mardi : de 08h15 à 09h15 de 13h30 à 14h30\nLe Jeudi : de 11h00 à 12h00","email":"mairie@laneuvilleautemple.fr","telephone":"03 26 67 55 52","latitude":49.0424,"longitude":4.39546,"website":"","url":"https://lannuaire.service-public.gouv.fr/grand-est/marne/c5a25b60-8184-4c39-b87d-f749ee94de68"}
{"nom":"Dampierre-le-Château","adresse":"Place de la Mairie , 51330 , Dampierre-le-Château , France","codePostal":"51330","region":"Grand Est","departement":"Marne","departementCode":"51","horaires":"Le Jeudi : de 15h00 à 19h00","email":"commune.dampierre-le-chateau@laposte.net","telephone":"03 26 60 82 87","latitude":49.009453,"longitude":4.793399,"website":"","url":"https://lannuaire.service-public.gouv.fr/grand-est/marne/7ccc02f2-6ee2-4cc5-a3e2-8022c9cf499d"}
{"nom":"Dampierre-sur-Moivre","adresse":"1 Grande-Rue , 51240 , Dampierre-sur-Moivre , France","codePostal":"51240","region":"Grand Est","departement":"Marne","departementCode":"51","horaires":"Le Lundi : de 09h00 à 12h00\nLe Jeudi : de 14h00 à 18h00","email":"dsm512@wanadoo.fr","telephone":"03 26 66 55 50","latitude":48.893593,"longitude":4.558817,"website":"https://dampierre-sur-moivre.fr/","url":"https://lannuaire.service-public.gouv.fr/grand-est/marne/12de8cd8-c029-41c5-9f39-0240ab8623af"}
{"nom":"Dizy","adresse":"276 rue du Colonel-Fabien , 51530 , Dizy , France","codePostal":"51530","region":"Grand Est","departement":"Marne","departementCode":"51","horaires":"Du Lundi au Vendredi : de 08h30 à 12h00 de 13h30 à 17h00","email":"mairie@ville-dizy.fr","telephone":"03 26 55 27 63","latitude":49.064457,"longitude":3.9685118,"website":"https://www.dizy.fr/","url":"https://lannuaire.service-public.gouv.fr/grand-est/marne/bb455e30-79a2-421c-aaf1-98b570e9ed7a"}
{"nom":"Dommartin Dampierre","adresse":"18 Grande-Rue , 51800 , Dommartin-Dampierre , France","codePostal":"51800","region":"Grand Est","departement":"Marne","departementCode":"51","horaires":"Le Mardi : de 17h00 à 19h00","email":"mairie.dommartin.dampierre@orange.fr","telephone":"03 26 60 42 19","latitude":49.0726,"longitude":4.8261423,"website":"","url":"https://lannuaire.service-public.gouv.fr/grand-est/marne/37042ee9-2c60-4405-ac6f-8a2d2fd0fdbc"}
{"nom":"Dommartin-Lettrée","adresse":"4 route de Fontaine , 51320 , Dommartin-Lettrée , France","codePostal":"51320","region":"Grand Est","departement":"Marne","departementCode":"51","horaires":"Le Mardi : de 13h30 à 17h30\nLe Jeudi : de 08h00 à 12h00","email":"mairie-dommartinlettree@wanadoo.fr","telephone":"03 26 67 46 34","latitude":48.766644,"longitude":4.298715,"website":"","url":"https://lannuaire.service-public.gouv.fr/grand-est/marne/3a1a851a-16dc-44b9-89d3-328bb53bc6aa"}
{"nom":"Dommartin-sous-Hans","adresse":"14 Grande-Rue , 51800 , Dommartin-sous-Hans , France","codePostal":"51800","region":"Grand Est","departement":"Marne","departementCode":"51","horaires":"Du Lundi au Samedi : de 09h00 à 19h00\nAccueil ouvert uniquement sur rendez-vous.","email":"mairiedommartinsoushans@gmail.com","telephone":"06 40 05 80 04","latitude":49.127224,"longitude":4.786454,"website":"","url":"https://lannuaire.service-public.gouv.fr/grand-est/marne/870d5ce2-667f-41b8-b183-acd50afa78a6"}
{"nom":"Dommartin-Varimont","adresse":"10 rue Clovis-Jacquiert , 51330 , Dommartin-Varimont , France","codePostal":"51330","region":"Grand Est","departement":"Marne","departementCode":"51","horaires":"Le Jeudi : de 08h00 à 12h30","email":"dommartinvarimont@orange.fr","telephone":"03 26 60 95 28","latitude":48.978046,"longitude":4.782349,"website":"","url":"https://lannuaire.service-public.gouv.fr/grand-est/marne/5197191d-d8c0-4848-af86-e3f0fa92ad05"}
{"nom":"Dompremy","adresse":"1 place des Tilleuls , 51300 , Dompremy , France","codePostal":"51300","region":"Grand Est","departement":"Marne","departementCode":"51","horaires":"Le Mardi : de 17h00 à 19h00\nLe Jeudi : de 13h30 à 14h30","email":"c.dompremy@orange.fr","telephone":"03 26 73 85 35","latitude":48.7284,"longitude":4.741411,"website":"","url":"https://lannuaire.service-public.gouv.fr/grand-est/marne/4685fc08-099a-42d3-b834-d145b30b0765"}
{"nom":"Dontrien","adresse":"32 Grande-Rue , 51490 , Dontrien , France","codePostal":"51490","region":"Grand Est","departement":"Marne","departementCode":"51","horaires":"Le Vendredi : de 09h00 à 12h00 de 15h00 à 19h00","email":"cnedontrien@wanadoo.fr","telephone":"03 26 03 72 22","latitude":49.23951,"longitude":4.412238,"website":"","url":"https://lannuaire.service-public.gouv.fr/grand-est/marne/183d88b8-0457-4c74-a74a-4ba18f3ec73f"}
{"nom":"Dormans","adresse":"4 place du Général-de-Gaulle , 51700 , Dormans , France","codePostal":"51700","region":"Grand Est","departement":"Marne","departementCode":"51","horaires":"Le Lundi : de 08h30 à 12h00 de 13h30 à 17h30\nLe Mardi : de 08h30 à 12h00\nLe Mercredi : de 08h30 à 12h00 de 13h30 à 17h30\nLe Jeudi : de 08h30 à 12h00\nLe Vendredi : de 08h30 à 12h00 de 13h30 à 17h30\nLe Samedi : de 09h00 à 12h00","email":"mairie@dormans.fr","telephone":"03 26 58 21 45","latitude":49.07463,"longitude":3.638163,"website":"https://www.dormans.fr/","url":"https://lannuaire.service-public.gouv.fr/grand-est/marne/2d795c67-6ed0-4269-9d67-4ffebee1cc80"}
{"nom":"Drosnay","adresse":"24 rue du Château , 51290 , Drosnay , France","codePostal":"51290","region":"Grand Est","departement":"Marne","departementCode":"51","horaires":"Le Mercredi : de 10h30 à 12h30 de 17h30 à 18h30","email":"mairie.drosnay@wanadoo.fr","telephone":"03 26 72 58 80","latitude":48.578583,"longitude":4.6191053,"website":"","url":"https://lannuaire.service-public.gouv.fr/grand-est/marne/4f0a38ec-f52c-4afc-beb4-0877bdfd89d4"}
{"nom":"Drouilly","adresse":"Place de la Mairie , 51300 , Drouilly , France","codePostal":"51300","region":"Grand Est","departement":"Marne","departementCode":"51","horaires":"Le Lundi : de 16h30 à 19h30\nLe Jeudi : de 14h00 à 18h00","email":"mairie.drouilly@wanadoo.fr","telephone":"03 26 72 78 28","latitude":48.773132,"longitude":4.52614,"website":"","url":"https://lannuaire.service-public.gouv.fr/grand-est/marne/2c168159-d7ff-4ad1-b761-2a55cab3ad5f"}
{"nom":"Éclaires","adresse":"31 Grande-Rue , 51800 , Éclaires , France","codePostal":"51800","region":"Grand Est","departement":"Marne","departementCode":"51","horaires":"Le Mercredi : de 10h00 à 12h30","email":"maireclaires@wanadoo.fr","telephone":"03 26 60 28 91","latitude":49.001644,"longitude":5.005027,"website":"","url":"https://lannuaire.service-public.gouv.fr/grand-est/marne/471c1e3b-7420-4b3f-86ab-97c621bf9e31"}
{"nom":"Écollemont","adresse":"5 place de l'Église , 51290 , Écollemont , France","codePostal":"51290","region":"Grand Est","departement":"Marne","departementCode":"51","horaires":"Le Mardi : de 17h30 à 19h00","email":"mairie.ecollemont@orange.fr","telephone":"09 67 42 82 49","latitude":48.62176,"longitude":4.733307,"website":"","url":"https://lannuaire.service-public.gouv.fr/grand-est/marne/475d49a8-76eb-4fc3-ad4d-3ba549e6116a"}
{"nom":"Écriennes","adresse":"13 rue Saint-Hilaire , 51300 , Écriennes , France","codePostal":"51300","region":"Grand Est","departement":"Marne","departementCode":"51","horaires":"Le Mardi : de 09h00 à 12h00\nLe Vendredi : de 11h00 à 12h00","email":"mairie.ecriennes@wanadoo.fr","telephone":"03 26 72 54 35","latitude":48.69145,"longitude":4.684276,"website":"","url":"https://lannuaire.service-public.gouv.fr/grand-est/marne/39179268-b8a3-40ec-a782-4c678ed2c76b"}
{"nom":"Écueil","adresse":"13 Grande-Rue , 51500 , Écueil , France","codePostal":"51500","region":"Grand Est","departement":"Marne","departementCode":"51","horaires":"Le Mardi : de 13h00 à 16h00\nLe Vendredi : de 09h00 à 12h00","email":"mairie.ecueil@wanadoo.fr","telephone":"03 26 49 74 00","latitude":49.187115,"longitude":3.953385,"website":"https://www.ecueil.com/","url":"https://lannuaire.service-public.gouv.fr/grand-est/marne/fef90f2b-6e35-4dde-87f0-9c5263e6ec69"}
{"nom":"Écury-le-Repos","adresse":"9 rue Jean-Brion , 51230 , Écury-le-Repos , France","codePostal":"51230","region":"Grand Est","departement":"Marne","departementCode":"51","horaires":"Le Vendredi : de 09h00 à 12h00","email":"mairie.ecurylerepos@laposte.net","telephone":"03 26 57 64 53","latitude":48.808193,"longitude":4.032373,"website":"https://ecurylerepos51.webnode.fr/","url":"https://lannuaire.service-public.gouv.fr/grand-est/marne/bf3e368e-3fc8-4f6c-be43-98b8c0e18009"}
{"nom":"Écury-sur-Coole","adresse":"1 rue de Nuisement , 51240 , Écury-sur-Coole , France","codePostal":"51240","region":"Grand Est","departement":"Marne","departementCode":"51","horaires":"Le Lundi : de 16h30 à 19h00\nLe Vendredi : de 10h00 à 12h00","email":"mairie@ecury-sur-coole.fr","telephone":"09 72 99 40 80","latitude":48.8946,"longitude":4.334771,"website":"https://ecury-sur-coole.fr/","url":"https://lannuaire.service-public.gouv.fr/grand-est/marne/7357bf13-93ee-4e85-99eb-6fccef52a0e2"}
{"nom":"Élise-Daucourt","adresse":"Grande-Rue , 51800 , Élise-Daucourt , France","codePostal":"51800","region":"Grand Est","departement":"Marne","departementCode":"51","horaires":"Le Mardi : de 13h00 à 14h00","email":"mairieelisedaucourt@orange.fr","telephone":"03 26 60 44 89","latitude":49.0908,"longitude":4.89746,"website":"","url":"https://lannuaire.service-public.gouv.fr/grand-est/marne/f293ef05-24db-402c-933e-e08a956e9022"}
{"nom":"Épense","adresse":"3 rue de la Gravelle , 51330 , Épense , France","codePostal":"51330","region":"Grand Est","departement":"Marne","departementCode":"51","horaires":"Le Lundi : de 16h00 à 17h15","email":"mairie.epense@orange.fr","telephone":"03 26 60 88 87","latitude":48.971355,"longitude":4.832817,"website":"","url":"https://lannuaire.service-public.gouv.fr/grand-est/marne/0909dbec-c498-4beb-86dc-c8b72c00989a"}
{"nom":"Épernay","adresse":"7 bis avenue de Champagne , 51200 , Épernay , France","codePostal":"51200","region":"Grand Est","departement":"Marne","departementCode":"51","horaires":"Du Lundi au Vendredi : de 08h30 à 12h00 de 13h30 à 18h00","email":"contact@ville-epernay.fr","telephone":"03 26 53 36 00","latitude":49.04341,"longitude":3.956242,"website":"https://epernay.fr/","url":"https://lannuaire.service-public.gouv.fr/grand-est/marne/2909d154-2c6e-4956-87c6-a9c38ccf034f"}
{"nom":"Époye","adresse":"2 rue de France , 51490 , Époye , France","codePostal":"51490","region":"Grand Est","departement":"Marne","departementCode":"51","horaires":"Le Mardi : de 15h00 à 18h00\nLe Jeudi : de 17h00 à 19h00\n\nAccueil ouvert également le 1er et le 3e jeudi du mois de 9h à 11h.","email":"mairie-epoye@wanadoo.fr","telephone":"03 26 48 71 90","latitude":49.29054,"longitude":4.2377734,"website":"","url":"https://lannuaire.service-public.gouv.fr/grand-est/marne/d52b772c-0c04-4db6-9fa4-d21fd4946cbb"}
{"nom":"Escardes","adresse":"1 rue des Sables , 51310 , Escardes , France","codePostal":"51310","region":"Grand Est","departement":"Marne","departementCode":"51","horaires":"Le Mercredi : de 17h30 à 19h00","email":"mairie.escardes@gmail.com","telephone":"03 26 42 47 41","latitude":48.697006,"longitude":3.512321,"website":"https://escardes.fr/","url":"https://lannuaire.service-public.gouv.fr/grand-est/marne/51bb6dd7-4d4a-44a9-b050-6d63a0d5fdb7"}
{"nom":"Esclavolles-Lurey","adresse":"1 bis rue des Bûchettes , 51260 , Esclavolles-Lurey , France","codePostal":"51260","region":"Grand Est","departement":"Marne","departementCode":"51","horaires":"Le Lundi : de 11h00 à 12h00 de 16h30 à 18h00\nLe Mardi : de 11h00 à 12h00\nLe Jeudi : de 11h00 à 12h00 de 16h30 à 18h00\nLe Vendredi : de 11h00 à 12h00","email":"mairie.esclavolleslurey@wanadoo.fr","telephone":"03 26 42 66 68","latitude":48.552826,"longitude":3.6568165,"website":"","url":"https://lannuaire.service-public.gouv.fr/grand-est/marne/dc08c354-ad7b-4afb-bb5c-4f3acb9f9a0f"}
{"nom":"Esternay","adresse":"10 place du Général-de-Gaulle , 51310 , Esternay , France","codePostal":"51310","region":"Grand Est","departement":"Marne","departementCode":"51","horaires":"Du Lundi au Vendredi : de 09h00 à 12h00 de 15h00 à 18h00\nLe Samedi : de 09h00 à 12h00","email":"accueil.mairie@esternay.com","telephone":"03 26 81 50 23","latitude":48.732235,"longitude":3.558403,"website":"https://esternay.com/","url":"https://lannuaire.service-public.gouv.fr/grand-est/marne/aea7c3be-dd54-42c5-b973-62f73c727052"}
{"nom":"Étoges","adresse":"1 place de la Mairie , 51270 , Étoges , France","codePostal":"51270","region":"Grand Est","departement":"Marne","departementCode":"51","horaires":"Le Mardi : de 18h00 à 19h00\nLe Jeudi : de 18h00 à 19h00","email":"mairie.etoges@wanadoo.fr","telephone":"03 26 59 30 12","latitude":48.8807,"longitude":3.85478,"website":"https://www.commune-etoges.fr/","url":"https://lannuaire.service-public.gouv.fr/grand-est/marne/15b1a368-3648-4aee-8be9-0d36a69a659d"}
{"nom":"Étréchy","adresse":"Place de la Mairie , 51130 , Étréchy , France","codePostal":"51130","region":"Grand Est","departement":"Marne","departementCode":"51","horaires":"Le Lundi : de 14h00 à 17h00\nLe Jeudi : de 17h00 à 19h30","email":"mairie.etrechy.51@wanadoo.fr","telephone":"03 26 59 28 33","latitude":48.884853,"longitude":3.942403,"website":"","url":"https://lannuaire.service-public.gouv.fr/grand-est/marne/0bce5bd0-4411-4dde-8749-21cf79e77066"}
{"nom":"Étrepy","adresse":"7 Grande-Rue , 51340 , Étrepy , France","codePostal":"51340","region":"Grand Est","departement":"Marne","departementCode":"51","horaires":"Le Lundi : de 18h00 à 19h00\nLe Vendredi : de 10h00 à 11h30","email":"mairie.etrepy@orange.fr","telephone":"03 26 73 13 72","latitude":48.7659,"longitude":4.8061,"website":"","url":"https://lannuaire.service-public.gouv.fr/grand-est/marne/0ccbaee1-2d82-46ce-a2ab-90d4e2759040"}
{"nom":"Euvy","adresse":"34 rue Neuve , 51230 , Euvy , France","codePostal":"51230","region":"Grand Est","departement":"Marne","departementCode":"51","horaires":"Le Lundi : de 09h00 à 12h00","email":"commune-d-euvy@orange.fr","telephone":"03 26 42 49 23","latitude":48.720097,"longitude":4.0295415,"website":"","url":"https://lannuaire.service-public.gouv.fr/grand-est/marne/4319fa2f-0c49-438c-b1f6-8e8973136682"}
