{"nom":"Abainville","adresse":"3 rue Saint-Martin , 55130 , Abainville , France","codePostal":"55130","region":"Grand Est","departement":"Meuse","departementCode":"55","horaires":"Le Mardi : de 09h00 à 12h00\nLe Vendredi : de 14h30 à 17h30","email":"mairie.abainville@orange.fr","telephone":"03 29 89 65 52","latitude":48.53052,"longitude":5.494363,"website":"","url":"https://lannuaire.service-public.gouv.fr/grand-est/meuse/f3235452-7184-4d5f-87e7-4e8a9017fad5"}
{"nom":"Abaucourt-Hautecourt","adresse":"3 rue Saint-Martin , 55400 , Abaucourt-Hautecourt , France","codePostal":"55400","region":"Grand Est","departement":"Meuse","departementCode":"55","horaires":"Le Mercredi : de 08h00 à 12h00\nLe Vendredi : de 13h00 à 16h00","email":"mairie.abaucourthautecourt@orange.fr","telephone":"03 29 88 31 42","latitude":49.19133,"longitude":5.51922,"website":"","url":"https://lannuaire.service-public.gouv.fr/grand-est/meuse/65bb06ad-d7fd-4eb5-a975-27a91a3466a3"}
{"nom":"Aincreville","adresse":"10 rue du Temple , 55110 , Aincreville , France","codePostal":"55110","region":"Grand Est","departement":"Meuse","departementCode":"55","horaires":"Le Jeudi : de 09h30 à 12h30","email":"commune-d-aincreville@orange.fr","telephone":"03 29 80 88 31","latitude":49.36748,"longitude":5.121533,"website":"","url":"https://lannuaire.service-public.gouv.fr/grand-est/meuse/a5511c3d-d0ef-450d-bc6c-abedf471b86c"}
{"nom":"Amanty","adresse":"20 Grande-Rue , 55130 , Amanty , France","codePostal":"55130","region":"Grand Est","departement":"Meuse","departementCode":"55","horaires":"Le Jeudi : de 09h30 à 11h30","email":"commune-amanty@orange.fr","telephone":"03 29 89 62 37","latitude":48.518135,"longitude":5.61245,"website":"","url":"https://lannuaire.service-public.gouv.fr/grand-est/meuse/c4642d6b-8557-4691-952a-beb6e3193dfa"}
{"nom":"Ambly-sur-Meuse","adresse":"15 Grande-Rue , 55300 , Ambly-sur-Meuse , France","codePostal":"55300","region":"Grand Est","departement":"Meuse","departementCode":"55","horaires":"Le Lundi : de 08h00 à 12h00 de 13h00 à 15h30\nLe Mercredi : de 08h00 à 10h00\nLe Vendredi : de 08h00 à 12h00 de 13h00 à 15h30","email":"mairie-ambly@orange.fr","telephone":"03 29 85 24 19","latitude":49.01944,"longitude":5.443137,"website":"","url":"https://lannuaire.service-public.gouv.fr/grand-est/meuse/ff5c8222-81fb-4891-a718-91e93985fb6e"}
{"nom":"Amel-sur-l'Étang","adresse":"15 rue de l'Église , 55230 , Amel-sur-l'Étang , France","codePostal":"55230","region":"Grand Est","departement":"Meuse","departementCode":"55","horaires":"Le Jeudi : de 09h00 à 12h00\nLe Vendredi : de 09h00 à 12h00 de 14h00 à 16h00","email":"communeamelsuretang@orange.fr","telephone":"03 29 87 91 57","latitude":49.2659,"longitude":5.64887,"website":"","url":"https://lannuaire.service-public.gouv.fr/grand-est/meuse/09252691-ab54-4eae-87ab-883801d69cf4"}
{"nom":"Ancemont","adresse":"8 rue de l'Église , 55320 , Ancemont , France","codePostal":"55320","region":"Grand Est","departement":"Meuse","departementCode":"55","horaires":"Le Lundi : de 08h45 à 12h30 de 13h30 à 18h15\nLe Mardi : de 08h00 à 12h00\nLe Mercredi : de 08h00 à 12h00 de 12h45 à 16h45\nLe Jeudi : de 08h00 à 12h00\nLe Vendredi : de 08h00 à 12h30 de 13h30 à 17h30","email":"commune.ancemont@wanadoo.fr","telephone":"03 29 87 65 92","latitude":49.0698,"longitude":5.40683,"website":"https://www.ancemont.fr/","url":"https://lannuaire.service-public.gouv.fr/grand-est/meuse/3bf00139-445a-42e0-843e-42f249f43c0c"}
{"nom":"Ancerville","adresse":"Place Municipale , 55170 , Ancerville , France","codePostal":"55170","region":"Grand Est","departement":"Meuse","departementCode":"55","horaires":"Du Lundi au Vendredi : de 09h00 à 12h00 de 15h00 à 17h30","email":"contact@mairieancerville.fr","telephone":"03 29 75 30 08","latitude":48.635,"longitude":5.02008,"website":"https://www.mairieancerville.fr/","url":"https://lannuaire.service-public.gouv.fr/grand-est/meuse/9f5c53eb-3ea1-4ddc-b85c-d9d7c5252059"}
{"nom":"Andernay","adresse":"45 Grande-Rue , 55800 , Andernay , France","codePostal":"55800","region":"Grand Est","departement":"Meuse","departementCode":"55","horaires":"Du Mercredi au Jeudi : de 17h30 à 19h30\nLe Samedi : de 09h00 à 11h00","email":"mairie.andernay@orange.fr","telephone":"03 29 78 73 18","latitude":48.7901,"longitude":4.94871,"website":"","url":"https://lannuaire.service-public.gouv.fr/grand-est/meuse/95f4f273-2f17-4da5-a254-1052c15b723b"}
{"nom":"Apremont-la-Forêt","adresse":"1 place d'Holyoke , 55300 , Apremont-la-Forêt , France","codePostal":"55300","region":"Grand Est","departement":"Meuse","departementCode":"55","horaires":"Le Lundi : de 08h30 à 12h00 de 13h00 à 18h00\nLe Mardi : de 08h30 à 12h00 de 13h00 à 16h30\nLe Jeudi : de 08h30 à 12h00 de 13h00 à 16h30\nLe Vendredi : de 08h30 à 12h00","email":"mairie.apremontlaforet@gmail.com","telephone":"03 29 90 44 22","latitude":48.855083,"longitude":5.638813,"website":"","url":"https://lannuaire.service-public.gouv.fr/grand-est/meuse/51def1fb-eb1e-4903-8b7b-e7cdb49e1c0a"}
{"nom":"Arrancy-sur-Crusnes","adresse":"1 rue de la Mairie , 55230 , Arrancy-sur-Crusnes , France","codePostal":"55230","region":"Grand Est","departement":"Meuse","departementCode":"55","horaires":"Le Lundi : de 09h00 à 11h30\nLe Mardi : de 18h30 à 19h30\nLe Mercredi : de 09h00 à 11h30","email":"mairie@arrancy-sur-crusnes.fr","telephone":"03 29 85 90 15","latitude":49.412758,"longitude":5.65566,"website":"","url":"https://lannuaire.service-public.gouv.fr/grand-est/meuse/207681ec-00ce-4048-afc4-cf1159e0ccce"}
{"nom":"Aubréville","adresse":"8 place Jean-Blaise , 55120 , Aubréville , France","codePostal":"55120","region":"Grand Est","departement":"Meuse","departementCode":"55","horaires":"Le Mardi : de 16h00 à 18h00\nLe Vendredi : de 16h00 à 18h00","email":"commune-d-aubreville@orange.fr","telephone":"03 29 86 36 02","latitude":49.143616,"longitude":5.081555,"website":"https://www.aubreville.fr/","url":"https://lannuaire.service-public.gouv.fr/grand-est/meuse/33f650de-bcd8-4bb4-b897-247db31820b0"}
{"nom":"Aulnois-en-Perthois","adresse":"1 place de l'Église , 55170 , Aulnois-en-Perthois , France","codePostal":"55170","region":"Grand Est","departement":"Meuse","departementCode":"55","horaires":"Le Lundi : de 16h00 à 18h15\nLe Mardi : de 09h00 à 11h30\nLe Jeudi : de 15h00 à 17h15","email":"contact@mairie-aulnoisenperthois.fr","telephone":"03 29 70 82 55","latitude":48.635468,"longitude":5.13042,"website":"","url":"https://lannuaire.service-public.gouv.fr/grand-est/meuse/a13e2ba4-842d-41bf-8fd1-f1f9cd4da190"}
{"nom":"Autrécourt-sur-Aire","adresse":"4 rue de l'Église , 55120 , Autrécourt-sur-Aire , France","codePostal":"55120","region":"Grand Est","departement":"Meuse","departementCode":"55","horaires":"Le Lundi : de 17h30 à 18h30","email":"mairie.autrecourtsuraire55120@orange.fr","telephone":"","latitude":49.03598,"longitude":5.137188,"website":"","url":"https://lannuaire.service-public.gouv.fr/grand-est/meuse/b763b1ed-4f43-4cd1-aadf-1ac7a919c02f"}
{"nom":"Autréville-Saint-Lambert","adresse":"1 rue du Lavoir , 55700 , Autréville-Saint-Lambert , France","codePostal":"55700","region":"Grand Est","departement":"Meuse","departementCode":"55","horaires":"Le Mardi : de 09h30 à 11h30","email":"autreville55@orange.fr","telephone":"03 29 80 33 91","latitude":49.561,"longitude":5.127904,"website":"","url":"https://lannuaire.service-public.gouv.fr/grand-est/meuse/40797a7a-b5ef-458b-8da9-eaff8ee255d0"}
{"nom":"Avillers-Sainte-Croix","adresse":"Grande-Rue , 55210 , Avillers-Sainte-Croix , France","codePostal":"55210","region":"Grand Est","departement":"Meuse","departementCode":"55","horaires":"Le Mercredi : de 09h00 à 12h00","email":"mairie.avillers@gmail.com","telephone":"03 29 85 32 61","latitude":49.033054,"longitude":5.701092,"website":"","url":"https://lannuaire.service-public.gouv.fr/grand-est/meuse/92d233c6-b582-4345-991b-70af8e9e7562"}
{"nom":"Avioth","adresse":"12 rue de l'Abbé-Delhotel , 55600 , Avioth , France","codePostal":"55600","region":"Grand Est","departement":"Meuse","departementCode":"55","horaires":"Le Mardi : de 08h30 à 10h00\nLe Vendredi : de 16h00 à 17h00","email":"commune-d-avioth@orange.fr","telephone":"03 29 88 90 96","latitude":49.566597,"longitude":5.391386,"website":"http://www.avioth.fr/","url":"https://lannuaire.service-public.gouv.fr/grand-est/meuse/01597703-c70f-41a5-bc33-f4f0a536f48c"}
{"nom":"Avocourt","adresse":"2 place François-Nourrissier , 55270 , Avocourt , France","codePostal":"55270","region":"Grand Est","departement":"Meuse","departementCode":"55","horaires":"Le Lundi : de 08h30 à 12h30\nLe Mardi : de 13h30 à 17h30","email":"communeavocourt@orange.fr","telephone":"09 65 37 04 56","latitude":49.20784,"longitude":5.142007,"website":"","url":"https://lannuaire.service-public.gouv.fr/grand-est/meuse/6bf20a97-01ad-4e0c-8c9c-70b2303915e8"}
{"nom":"Azannes-et-Soumazannes","adresse":"1 rue Haute , 55150 , Azannes-et-Soumazannes , France","codePostal":"55150","region":"Grand Est","departement":"Meuse","departementCode":"55","horaires":"Le Lundi : de 17h00 à 18h30\nLe Jeudi : de 14h00 à 16h00","email":"mairie.azannesetsoumazannes55@gmail.com","telephone":"03 29 85 62 03","latitude":49.290813,"longitude":5.466363,"website":"","url":"https://lannuaire.service-public.gouv.fr/grand-est/meuse/8cd03f78-ab5c-4f43-939f-d9477a947b35"}
{"nom":"Baâlon","adresse":"1 rue de la Mairie , 55700 , Baâlon , France","codePostal":"55700","region":"Grand Est","departement":"Meuse","departementCode":"55","horaires":"Le Mardi : de 15h00 à 18h00\nDu Jeudi au Vendredi : de 14h00 à 16h00","email":"contact@commune-baalon.fr","telephone":"03 29 86 30 76","latitude":49.487858,"longitude":5.240829,"website":"","url":"https://lannuaire.service-public.gouv.fr/grand-est/meuse/10905be8-6dc2-48c1-bd63-1179cdad119f"}
{"nom":"Badonvilliers-Gérauvilliers","adresse":"19 Grande-Rue , 55130 , Badonvilliers-Gérauvilliers , France","codePostal":"55130","region":"Grand Est","departement":"Meuse","departementCode":"55","horaires":"Le Mardi : de 13h00 à 17h00","email":"mairiebadongerau@gmail.com","telephone":"03 29 89 69 94","latitude":48.54993,"longitude":5.585689,"website":"","url":"https://lannuaire.service-public.gouv.fr/grand-est/meuse/5ce5a70c-bf2d-4740-a923-bcf698a7f765"}
{"nom":"Bannoncourt","adresse":"3 rue du Gros-Caillou , 55300 , Bannoncourt , France","codePostal":"55300","region":"Grand Est","departement":"Meuse","departementCode":"55","horaires":"Du Lundi au Mardi : de 14h00 à 18h00","email":"mairiedebannoncourt@orange.fr","telephone":"03 29 90 19 70","latitude":48.9583,"longitude":5.5001,"website":"","url":"https://lannuaire.service-public.gouv.fr/grand-est/meuse/ac713000-afc7-491a-bc1e-6f70994b7f75"}
{"nom":"Bantheville","adresse":"27 rue Saint-Rémy , 55110 , Bantheville , France","codePostal":"55110","region":"Grand Est","departement":"Meuse","departementCode":"55","horaires":"Le Mardi : de 10h00 à 11h00","email":"communebantheville@orange.fr","telephone":"03 29 80 96 78","latitude":49.353672,"longitude":5.089291,"website":"","url":"https://lannuaire.service-public.gouv.fr/grand-est/meuse/469433d2-bfa1-43d9-974d-144eb1b5ac88"}
{"nom":"Bar-le-Duc","adresse":"12 rue Lapique , 55000 , Bar-le-Duc , France","codePostal":"55000","region":"Grand Est","departement":"Meuse","departementCode":"55","horaires":"Le Lundi : de 08h30 à 12h00 de 13h30 à 18h00\nDu Mardi au Mercredi : de 08h30 à 12h00 de 13h30 à 17h30\nLe Jeudi : de 10h00 à 17h30\n\nEn juillet et août, ouvert de 08h30 à 12h et de 13h30 à 17h30\nLe Vendredi : de 08h30 à 12h00 de 13h30 à 17h30","email":"communication@barleduc.fr","telephone":"03 29 79 56 00","latitude":48.7713,"longitude":5.16208,"website":"https://www.barleduc.fr/","url":"https://lannuaire.service-public.gouv.fr/grand-est/meuse/1e5e47ba-ab6d-4e44-8dfb-4a07e9aa3f3d"}
{"nom":"Mairie déléguée - Baudignécourt","adresse":"Baudignécourt , 55130 , Demange-Baudignécourt , France","codePostal":"55130","region":"Grand Est","departement":"Meuse","departementCode":"55","horaires":"Le Lundi : de 09h30 à 12h30 de 13h30 à 16h30","email":"mairie-baudignecourt@orange.fr","telephone":"03 29 89 66 67","latitude":48.572258,"longitude":5.46151,"website":"","url":"https://lannuaire.service-public.gouv.fr/grand-est/meuse/83dafef2-9249-4f2b-8a77-bcb2d6530992"}
{"nom":"Baudonvilliers","adresse":"26 rue des Nonnes , 55170 , Baudonvilliers , France","codePostal":"55170","region":"Grand Est","departement":"Meuse","departementCode":"55","horaires":"Le Mardi : de 17h00 à 18h00\nLe Jeudi : de 11h00 à 12h00 de 16h00 à 18h00","email":"mairie@baudonvilliers.com","telephone":"03 29 70 24 60","latitude":48.687363,"longitude":5.01698,"website":"","url":"https://lannuaire.service-public.gouv.fr/grand-est/meuse/6430d857-79e7-441b-a685-c86a63b1e057"}
{"nom":"Baudrémont","adresse":"8 rue Saint-Didier , 55260 , Baudrémont , France","codePostal":"55260","region":"Grand Est","departement":"Meuse","departementCode":"55","horaires":"Le Vendredi : de 13h30 à 16h30","email":"baudremont.mairie@wanadoo.fr","telephone":"03 29 75 02 22","latitude":48.83933,"longitude":5.386154,"website":"","url":"https://lannuaire.service-public.gouv.fr/grand-est/meuse/96d83407-f575-4a05-9ea4-381dc1f3c4d8"}
{"nom":"Baulny","adresse":"Rue de l'Église , 55270 , Baulny , France","codePostal":"55270","region":"Grand Est","departement":"Meuse","departementCode":"55","horaires":"Le Lundi : de 14h00 à 16h00","email":"","telephone":"03 29 80 70 59","latitude":49.262245,"longitude":5.012718,"website":"","url":"https://lannuaire.service-public.gouv.fr/grand-est/meuse/51d93857-52ee-47b3-ab58-5a37d97e22d5"}
{"nom":"Bazeilles-sur-Othain","adresse":"3 rue Sous-l'Église , 55600 , Bazeilles-sur-Othain , France","codePostal":"55600","region":"Grand Est","departement":"Meuse","departementCode":"55","horaires":"Le Jeudi : de 09h30 à 12h00 de 13h00 à 17h00","email":"mairie-bazeilles@orange.fr","telephone":"03 29 80 20 66","latitude":49.496944,"longitude":5.429736,"website":"","url":"https://lannuaire.service-public.gouv.fr/grand-est/meuse/4d5bc576-ecaf-4641-8ad5-ba80156f735f"}
{"nom":"Bazincourt-sur-Saulx","adresse":"11 rue Musard , 55170 , Bazincourt-sur-Saulx , France","codePostal":"55170","region":"Grand Est","departement":"Meuse","departementCode":"55","horaires":"Le Mercredi : de 10h00 à 11h00","email":"mairie@bazincourtsursaulx.fr","telephone":"03 29 78 60 40","latitude":48.67647,"longitude":5.138909,"website":"","url":"https://lannuaire.service-public.gouv.fr/grand-est/meuse/d2232c8a-efd6-44ba-90d2-0d375636099c"}
{"nom":"Beauclair","adresse":"20 rue Principale , 55700 , Beauclair , France","codePostal":"55700","region":"Grand Est","departement":"Meuse","departementCode":"55","horaires":"Le Mardi : de 15h00 à 17h30","email":"mairiebeauclair@orange.fr","telephone":"03 29 88 56 52","latitude":49.45812,"longitude":5.114128,"website":"","url":"https://lannuaire.service-public.gouv.fr/grand-est/meuse/0fac6103-5fb1-4d15-b353-a52dbabb9340"}
{"nom":"Beaufort-en-Argonne","adresse":"6 rue du Château , 55700 , Beaufort-en-Argonne , France","codePostal":"55700","region":"Grand Est","departement":"Meuse","departementCode":"55","horaires":"Le Mardi : de 09h30 à 12h30\nLe Jeudi : de 13h30 à 16h00","email":"mairiebeaufort55@gmail.com","telephone":"06 16 47 71 30","latitude":49.472622,"longitude":5.113595,"website":"","url":"https://lannuaire.service-public.gouv.fr/grand-est/meuse/1dd7e5b7-972f-450b-b279-5395e9beae4a"}
{"nom":"Beaulieu-en-Argonne","adresse":"19 Grande-Rue , 55250 , Beaulieu-en-Argonne , France","codePostal":"55250","region":"Grand Est","departement":"Meuse","departementCode":"55","horaires":"Le Lundi : de 09h15 à 12h00","email":"beaulieuenargonne@orange.fr","telephone":"","latitude":49.031868,"longitude":5.067233,"website":"https://www.beaulieu-en-argonne.fr/","url":"https://lannuaire.service-public.gouv.fr/grand-est/meuse/ed78a0e6-aa14-4fc6-8de7-494d30c99f72"}
{"nom":"Beausite","adresse":"Beauzée-sur-Aire , 55250 , Beausite , France","codePostal":"55250","region":"Grand Est","departement":"Meuse","departementCode":"55","horaires":"Le Lundi : de 16h00 à 18h00\nLe Mardi : de 14h00 à 16h00\nLe Vendredi : de 14h00 à 16h00","email":"mairie.beausite@wanadoo.fr","telephone":"03 29 70 75 29","latitude":48.9666,"longitude":5.19318,"website":"","url":"https://lannuaire.service-public.gouv.fr/grand-est/meuse/1f4e4ce3-0c48-48f6-8777-3dcf305f4d17"}
{"nom":"Behonne","adresse":"8 rue de la Mairie , 55000 , Behonne , France","codePostal":"55000","region":"Grand Est","departement":"Meuse","departementCode":"55","horaires":"Le Lundi : de 10h00 à 12h00 de 14h00 à 17h00\nLe Mardi : de 09h00 à 12h00 de 16h30 à 19h00\nLe Jeudi : de 09h00 à 12h00 de 14h00 à 17h00\nLe Vendredi : de 10h00 à 12h00","email":"mairiebehonne55@wanadoo.fr","telephone":"03 29 76 22 71","latitude":48.7932,"longitude":5.182159,"website":"","url":"https://lannuaire.service-public.gouv.fr/grand-est/meuse/db4a595e-cdb7-4d10-b20b-f11ace7cfba8"}
{"nom":"Belleray","adresse":"Rue Haute , 55100 , Belleray , France","codePostal":"55100","region":"Grand Est","departement":"Meuse","departementCode":"55","horaires":"Du Lundi au Mardi : de 11h00 à 12h30\nLe Jeudi : de 17h00 à 18h30","email":"mairiedebelleray@orange.fr","telephone":"03 29 84 53 93","latitude":49.131718,"longitude":5.4002595,"website":"http://www.belleray.fr/","url":"https://lannuaire.service-public.gouv.fr/grand-est/meuse/14d55dd8-f531-4c26-acd9-99c94289cb77"}
{"nom":"Belleville-sur-Meuse","adresse":"21 rue du Général-de-Gaulle , 55430 , Belleville-sur-Meuse , France","codePostal":"55430","region":"Grand Est","departement":"Meuse","departementCode":"55","horaires":"Le Lundi : de 08h30 à 12h00\nLe Mardi : de 08h30 à 12h00 de 15h00 à 17h00\nLe Mercredi : de 08h30 à 12h00 de 13h30 à 17h00\nDu Jeudi au Vendredi : de 08h30 à 12h00","email":"contact@belleville-sur-meuse.com","telephone":"03 29 84 31 81","latitude":49.17436,"longitude":5.38073,"website":"https://www.belleville-sur-meuse.com/","url":"https://lannuaire.service-public.gouv.fr/grand-est/meuse/4002ef49-9541-4686-b27b-f733d550cb4c"}
{"nom":"Belrain","adresse":"2 rue du Russelo , 55260 , Belrain , France","codePostal":"55260","region":"Grand Est","departement":"Meuse","departementCode":"55","horaires":"Le Mercredi : de 08h00 à 12h00","email":"mairie.belrain@orange.fr","telephone":"03 29 75 09 49","latitude":48.863136,"longitude":5.30754,"website":"http://www.belrain.fr/","url":"https://lannuaire.service-public.gouv.fr/grand-est/meuse/b2dc1be0-9f6a-43af-89bc-d9fc8211d504"}
{"nom":"Belrupt-en-Verdunois","adresse":"2 Grande-Rue , 55100 , Belrupt-en-Verdunois , France","codePostal":"55100","region":"Grand Est","departement":"Meuse","departementCode":"55","horaires":"Le Mardi : de 09h00 à 12h00\nDu Mercredi au Jeudi : de 15h00 à 17h00\nLe Vendredi : de 09h00 à 12h00\nLe Samedi : de 10h00 à 12h00 de 15h00 à 16h00\n\nAccueil ouvert uniquement pour la permanence du maire.","email":"mairie.belrupt55@wanadoo.fr","telephone":"03 29 86 50 27","latitude":49.14177,"longitude":5.441713,"website":"https://www.belrupt-en-verdunois.fr/","url":"https://lannuaire.service-public.gouv.fr/grand-est/meuse/4a0df519-f18b-4825-9f82-b49b0c3f0b91"}
{"nom":"Beney-en-Woëvre","adresse":"8 rue de la Mairie , 55210 , Beney-en-Woëvre , France","codePostal":"55210","region":"Grand Est","departement":"Meuse","departementCode":"55","horaires":"Le Mardi : de 14h00 à 18h00\nLe Mercredi : de 09h00 à 12h00","email":"commune.debeney@orange.fr","telephone":"03 29 89 57 32","latitude":48.961742,"longitude":5.826934,"website":"","url":"https://lannuaire.service-public.gouv.fr/grand-est/meuse/5f7d17c3-7177-43d8-80c9-8cc6b8bd6fef"}
{"nom":"Béthelainville","adresse":"12 rue Haute , 55100 , Béthelainville , France","codePostal":"55100","region":"Grand Est","departement":"Meuse","departementCode":"55","horaires":"Le Lundi : de 16h30 à 17h30\nLe Jeudi : de 17h30 à 18h30","email":"bethelainville.commune-de@orange.fr","telephone":"03 29 86 92 70","latitude":49.16598,"longitude":5.231953,"website":"","url":"https://lannuaire.service-public.gouv.fr/grand-est/meuse/01f6dde8-e354-4eca-84fd-afbb90834d16"}
{"nom":"Béthincourt","adresse":"Place du 21-Juillet-1944 , 55270 , Béthincourt , France","codePostal":"55270","region":"Grand Est","departement":"Meuse","departementCode":"55","horaires":"Le Lundi : de 13h30 à 17h00","email":"mairie.bethincourt@orange.fr","telephone":"03 29 85 84 92","latitude":49.25193,"longitude":5.231735,"website":"https://www.bethincourt.fr/","url":"https://lannuaire.service-public.gouv.fr/grand-est/meuse/114a7f78-c7ad-4d5e-bf27-f305e8c102aa"}
{"nom":"Beurey-sur-Saulx","adresse":"10 rue du 29-Août-1944 , 55000 , Beurey-sur-Saulx , France","codePostal":"55000","region":"Grand Est","departement":"Meuse","departementCode":"55","horaires":"Le Lundi : de 17h00 à 19h00\nLe Mercredi : de 11h00 à 12h00\nLe Jeudi : de 17h00 à 19h00","email":"beureysursaulx-mairie@wanadoo.fr","telephone":"03 29 75 41 77","latitude":48.75716,"longitude":5.025749,"website":"https://www.beureysursaulx.fr/","url":"https://lannuaire.service-public.gouv.fr/grand-est/meuse/65186039-e332-4432-9132-07cc5294f293"}
{"nom":"Biencourt-sur-Orge","adresse":"1 rue du Four , 55290 , Biencourt-sur-Orge , France","codePostal":"55290","region":"Grand Est","departement":"Meuse","departementCode":"55","horaires":"Le Mardi : de 08h00 à 12h00\nLe Jeudi : de 13h30 à 18h00","email":"mairie.biencourtsurorge@orange.fr","telephone":"03 29 75 91 90","latitude":48.562614,"longitude":5.34754,"website":"","url":"https://lannuaire.service-public.gouv.fr/grand-est/meuse/c34269b8-3eed-4205-ba96-3fb6f9c7b71e"}
{"nom":"Billy-sous-Mangiennes","adresse":"3 place de la Mairie , 55230 , Billy-sous-Mangiennes , France","codePostal":"55230","region":"Grand Est","departement":"Meuse","departementCode":"55","horaires":"Le Lundi : de 16h30 à 18h30\nLe Jeudi : de 16h30 à 18h30","email":"mairie.billy55@orange.fr","telephone":"03 29 88 00 48","latitude":49.332954,"longitude":5.575663,"website":"","url":"https://lannuaire.service-public.gouv.fr/grand-est/meuse/28952240-792c-4b24-aff9-884bb30fde04"}
{"nom":"Bislée","adresse":"1 rue du Vieux-Moulin , 55300 , Bislée , France","codePostal":"55300","region":"Grand Est","departement":"Meuse","departementCode":"55","horaires":"Le Lundi : de 08h00 à 13h00","email":"mairie.bislee@orange.fr","telephone":"03 29 90 99 18","latitude":48.868275,"longitude":5.493522,"website":"","url":"https://lannuaire.service-public.gouv.fr/grand-est/meuse/d627b9f3-d515-4db6-8ecb-4c8e15adcac8"}
{"nom":"Blanzée","adresse":"3 rue Principale , 55400 , Blanzée , France","codePostal":"55400","region":"Grand Est","departement":"Meuse","departementCode":"55","horaires":"","email":"mairiedeblanzee@orange.fr","telephone":"09 88 28 67 61","latitude":49.158432,"longitude":5.537364,"website":"","url":"https://lannuaire.service-public.gouv.fr/grand-est/meuse/6482dc20-2390-4abb-9cf0-b107f6e647fd"}
{"nom":"Boinville-en-Woëvre","adresse":"5 rue du Chauffour , 55400 , Boinville-en-Woëvre , France","codePostal":"55400","region":"Grand Est","departement":"Meuse","departementCode":"55","horaires":"Le Lundi : de 08h00 à 12h00","email":"mairie.boinville@sfr.fr","telephone":"03 29 87 07 61","latitude":49.184475,"longitude":5.673924,"website":"","url":"https://lannuaire.service-public.gouv.fr/grand-est/meuse/03d17f9b-1fa4-4f41-9324-f27d8e40ea4e"}
{"nom":"Boncourt-sur-Meuse","adresse":"5 rue du 1er-Septembre-1944 , 55200 , Boncourt-sur-Meuse , France","codePostal":"55200","region":"Grand Est","departement":"Meuse","departementCode":"55","horaires":"Le Mardi : de 10h00 à 12h00 de 14h00 à 18h00\nLe Vendredi : de 10h00 à 12h00","email":"mairiedeboncourt@gmail.com","telephone":"03 29 91 04 76","latitude":48.8027,"longitude":5.57159,"website":"","url":"https://lannuaire.service-public.gouv.fr/grand-est/meuse/8dd015a7-62b3-48c5-8a4e-2ab665de486b"}
{"nom":"Bonnet","adresse":"35 Grande-Rue , 55130 , Bonnet , France","codePostal":"55130","region":"Grand Est","departement":"Meuse","departementCode":"55","horaires":"Le Jeudi : de 10h00 à 13h00","email":"mairie.bonnet@orange.fr","telephone":"03 29 89 62 58","latitude":48.52167,"longitude":5.436804,"website":"","url":"https://lannuaire.service-public.gouv.fr/grand-est/meuse/4633b69d-98db-4d0a-8fcb-f61633588627"}
{"nom":"Bonzée","adresse":"3 place de l'Église , 55160 , Bonzée , France","codePostal":"55160","region":"Grand Est","departement":"Meuse","departementCode":"55","horaires":"Le Jeudi : de 08h00 à 12h00\nLe Samedi : de 08h00 à 12h00","email":"mairiedebonzee@orange.fr","telephone":"03 29 87 30 38","latitude":49.095966,"longitude":5.593736,"website":"","url":"https://lannuaire.service-public.gouv.fr/grand-est/meuse/d2d022d2-2947-4cc4-8488-7f93369e1662"}
{"nom":"Bouconville-sur-Madt","adresse":"1 impasse des Tilleuls , 55300 , Bouconville-sur-Madt , France","codePostal":"55300","region":"Grand Est","departement":"Meuse","departementCode":"55","horaires":"Le Mardi : de 08h00 à 12h00\nLe Vendredi : de 08h00 à 12h00","email":"mairiedebouconvillesurmadt@orange.fr","telephone":"03 29 90 40 63","latitude":48.841988,"longitude":5.717039,"website":"","url":"https://lannuaire.service-public.gouv.fr/grand-est/meuse/6517435b-5c04-4185-ad54-a13648d62af6"}
{"nom":"Bouligny","adresse":"Place Daniel-Mayer , 55240 , Bouligny , France","codePostal":"55240","region":"Grand Est","departement":"Meuse","departementCode":"55","horaires":"Du Lundi au Vendredi : de 08h30 à 12h00 de 13h30 à 17h00\nDu Lundi au Vendredi : de 08h00 à 15h00\n\nHoraire d'été du 1 juillet au 31 août.","email":"bouligny.mairie@wanadoo.fr","telephone":"03 29 87 93 08","latitude":49.2936,"longitude":5.74041,"website":"https://www.mairiebouligny.fr/","url":"https://lannuaire.service-public.gouv.fr/grand-est/meuse/4e5d284f-7521-4c82-8a45-b1ea95c6aae4"}
{"nom":"Bouquemont","adresse":"1 rue Haute , 55300 , Bouquemont , France","codePostal":"55300","region":"Grand Est","departement":"Meuse","departementCode":"55","horaires":"Le Lundi : de 14h00 à 17h00\nLe Mercredi : de 09h30 à 12h00","email":"commune.bouquemont@wanadoo.fr","telephone":"03 29 85 22 44","latitude":48.99015,"longitude":5.45101,"website":"","url":"https://lannuaire.service-public.gouv.fr/grand-est/meuse/3b388a3e-7848-484b-aad7-614296db63b4"}
{"nom":"Boureuilles","adresse":"12 route de Varennes , 55270 , Boureuilles , France","codePostal":"55270","region":"Grand Est","departement":"Meuse","departementCode":"55","horaires":"Le Mardi : de 09h00 à 11h30\nLe Vendredi : de 09h00 à 12h00 de 13h00 à 16h00","email":"communedeboureuilles123@orange.fr","telephone":"03 29 80 77 50","latitude":49.20555,"longitude":5.038363,"website":"","url":"https://lannuaire.service-public.gouv.fr/grand-est/meuse/14daf9fe-7599-4b9e-be6e-38a401c86be4"}
{"nom":"Bovée-sur-Barboure","adresse":"52 Grande-Rue , 55190 , Bovée-sur-Barboure , France","codePostal":"55190","region":"Grand Est","departement":"Meuse","departementCode":"55","horaires":"Le Mardi : de 13h30 à 15h30\nLe Jeudi : de 09h00 à 12h30","email":"mairie@boveesurbarboure.fr","telephone":"03 29 90 50 63","latitude":48.644756,"longitude":5.511221,"website":"","url":"https://lannuaire.service-public.gouv.fr/grand-est/meuse/cda20f03-be88-4067-8e82-5eb3c5f14bcf"}
{"nom":"Boviolles","adresse":"2 rue du Moulin-Haut , 55500 , Boviolles , France","codePostal":"55500","region":"Grand Est","departement":"Meuse","departementCode":"55","horaires":"Le Mardi : de 17h00 à 18h30\nLe Jeudi : de 17h00 à 18h30","email":"mairie.boviolles@ozone.net","telephone":"03 29 70 98 96","latitude":48.64786,"longitude":5.417653,"website":"","url":"https://lannuaire.service-public.gouv.fr/grand-est/meuse/3e921a39-bebb-4ce2-8f3d-04149e454900"}
{"nom":"Brabant-en-Argonne","adresse":"18 rue des Brouets , 55120 , Brabant-en-Argonne , France","codePostal":"55120","region":"Grand Est","departement":"Meuse","departementCode":"55","horaires":"Le Mardi : de 09h00 à 10h00\nLe Vendredi : de 09h00 à 10h00","email":"mairie.brabant0515@orange.fr","telephone":"03 29 84 37 83","latitude":49.1238,"longitude":5.13617,"website":"http://brabant-en-argonne.e-monsite.com/","url":"https://lannuaire.service-public.gouv.fr/grand-est/meuse/72543e42-45d4-4e1b-a74d-bd34a71e54f0"}
{"nom":"Brabant-le-Roi","adresse":"13 bis rue Favarde , 55800 , Brabant-le-Roi , France","codePostal":"55800","region":"Grand Est","departement":"Meuse","departementCode":"55","horaires":"Le Lundi : de 13h30 à 17h00\nLe Vendredi : de 09h00 à 12h30","email":"mairie.brabant@wanadoo.fr","telephone":"03 29 78 72 78","latitude":48.84435,"longitude":4.980041,"website":"","url":"https://lannuaire.service-public.gouv.fr/grand-est/meuse/3ef85147-2559-43fc-9d0e-d22ed1f42691"}
{"nom":"Brabant-sur-Meuse","adresse":"1 rue Basse , 55100 , Brabant-sur-Meuse , France","codePostal":"55100","region":"Grand Est","departement":"Meuse","departementCode":"55","horaires":"Le Mardi : de 12h45 à 19h15","email":"mairiedebrabantsurmeuse@orange.fr","telephone":"03 29 85 87 68","latitude":49.271866,"longitude":5.310893,"website":"","url":"https://lannuaire.service-public.gouv.fr/grand-est/meuse/b6a24023-d031-4523-a0e0-452bc29c250f"}
{"nom":"Brandeville","adresse":"24 bis Grand'rue , 55150 , Brandeville , France","codePostal":"55150","region":"Grand Est","departement":"Meuse","departementCode":"55","horaires":"Le Mercredi : de 16h00 à 18h00","email":"mairie.brandeville@wanadoo.fr","telephone":"03 29 85 55 09","latitude":49.392006,"longitude":5.303065,"website":"","url":"https://lannuaire.service-public.gouv.fr/grand-est/meuse/03a71b79-694d-46a4-9dce-4aaaaaaa1c7d"}
{"nom":"Braquis","adresse":"17 rue Saint-Georges , 55400 , Braquis , France","codePostal":"55400","region":"Grand Est","departement":"Meuse","departementCode":"55","horaires":"Le Mardi : de 10h00 à 12h00\nLe Jeudi : de 10h00 à 12h00","email":"commune-de-braquis@orange.fr","telephone":"03 29 87 34 51","latitude":49.154488,"longitude":5.626625,"website":"","url":"https://lannuaire.service-public.gouv.fr/grand-est/meuse/71c1be06-bd3d-4d25-9d0f-9feecd72fd33"}
{"nom":"Bras-sur-Meuse","adresse":"3 place de la Mairie , 55100 , Bras-sur-Meuse , France","codePostal":"55100","region":"Grand Est","departement":"Meuse","departementCode":"55","horaires":"Le Lundi : de 14h00 à 17h30\nLe Mardi : de 09h00 à 12h30\nLe Mercredi : de 18h00 à 20h00\nDu Jeudi au Vendredi : de 09h00 à 12h30","email":"mairie@bras-sur-meuse.fr","telephone":"03 29 84 51 59","latitude":49.210117,"longitude":5.377144,"website":"https://www.bras-sur-meuse.fr/","url":"https://lannuaire.service-public.gouv.fr/grand-est/meuse/f24b58a4-ff77-4f24-8212-6b4e130bf283"}
{"nom":"Brauvilliers","adresse":"1 rue du Château , 55170 , Brauvilliers , France","codePostal":"55170","region":"Grand Est","departement":"Meuse","departementCode":"55","horaires":"Le Lundi : de 16h30 à 17h30\nLe Mercredi : de 18h30 à 19h30","email":"mairiedebrauvilliers@mcom.fr","telephone":"03 29 70 89 64","latitude":48.579605,"longitude":5.150804,"website":"","url":"https://lannuaire.service-public.gouv.fr/grand-est/meuse/1a2ea751-4448-4ed9-a49d-bd3124152916"}
{"nom":"Bréhéville","adresse":"1 rue des Écoles , 55150 , Bréhéville , France","codePostal":"55150","region":"Grand Est","departement":"Meuse","departementCode":"55","horaires":"Le Jeudi : de 14h00 à 18h00","email":"mairiebreheville@wanadoo.fr","telephone":"03 29 85 50 17","latitude":49.382477,"longitude":5.329478,"website":"","url":"https://lannuaire.service-public.gouv.fr/grand-est/meuse/9164a12b-7c23-4ad4-b159-e7d0117797f5"}
{"nom":"Breux","adresse":"17 Grand'rue , 55600 , Breux , France","codePostal":"55600","region":"Grand Est","departement":"Meuse","departementCode":"55","horaires":"Le Lundi : de 10h30 à 12h00\nLe Jeudi : de 17h00 à 18h00","email":"mairie.breux@orange.fr","telephone":"03 29 88 92 95","latitude":49.583015,"longitude":5.389467,"website":"","url":"https://lannuaire.service-public.gouv.fr/grand-est/meuse/ff2168ac-87c1-4582-8466-a6bd197d0e12"}
{"nom":"Brieulles-sur-Meuse","adresse":"3 place du 9e-Arrondissement , 55110 , Brieulles-sur-Meuse , France","codePostal":"55110","region":"Grand Est","departement":"Meuse","departementCode":"55","horaires":"Le Lundi : de 13h30 à 15h00\nLe Jeudi : de 13h30 à 15h00","email":"mairie.brieulles.55@mcom.fr","telephone":"03 29 80 93 17","latitude":49.3348,"longitude":5.18071,"website":"","url":"https://lannuaire.service-public.gouv.fr/grand-est/meuse/2aee12a4-e64b-4ea7-ac35-5d500cc2989e"}
{"nom":"Brillon-en-Barrois","adresse":"1 rue Monsieur , 55000 , Brillon-en-Barrois , France","codePostal":"55000","region":"Grand Est","departement":"Meuse","departementCode":"55","horaires":"Du Lundi au Mardi : de 08h30 à 12h00 de 15h00 à 18h00\nLe Jeudi : de 08h30 à 12h00 de 15h00 à 17h00\nLe Vendredi : de 08h30 à 12h00","email":"mairie@brillonenbarrois.fr","telephone":"03 29 71 33 06","latitude":48.71156,"longitude":5.094811,"website":"","url":"https://lannuaire.service-public.gouv.fr/grand-est/meuse/c409a150-8195-42ee-85be-582773e61b5b"}
{"nom":"Brixey-aux-Chanoines","adresse":"1 rue Haute , 55140 , Brixey-aux-Chanoines , France","codePostal":"55140","region":"Grand Est","departement":"Meuse","departementCode":"55","horaires":"Le Jeudi : de 13h30 à 17h30","email":"mairie-brixey@mcom.fr","telephone":"03 29 90 49 45","latitude":48.473755,"longitude":5.715209,"website":"","url":"https://lannuaire.service-public.gouv.fr/grand-est/meuse/f989aee9-f749-4d50-be84-bd1b0f73bed3"}
{"nom":"Brizeaux","adresse":"2 Grande-Rue , 55250 , Brizeaux , France","codePostal":"55250","region":"Grand Est","departement":"Meuse","departementCode":"55","horaires":"Le Jeudi : de 09h00 à 10h00\nSur rendez-vous au 06-30-08-35-77","email":"commune-de-brizeaux@orange.fr","telephone":"03 29 90 40 60","latitude":49.00522,"longitude":5.054414,"website":"","url":"https://lannuaire.service-public.gouv.fr/grand-est/meuse/6f3a4ec2-631f-4bf5-bb3c-2262a0837b37"}
{"nom":"Brocourt-en-Argonne","adresse":"2 rue Basse , 55120 , Brocourt-en-Argonne , France","codePostal":"55120","region":"Grand Est","departement":"Meuse","departementCode":"55","horaires":"Le Mardi : de 14h00 à 16h30","email":"mairie.brocourt@mcom.fr","telephone":"03 29 88 48 55","latitude":49.115337,"longitude":5.165889,"website":"","url":"https://lannuaire.service-public.gouv.fr/grand-est/meuse/9e14dc1b-cea1-4471-bd0e-5fbbea5991c2"}
{"nom":"Brouennes","adresse":"9 Grande-Rue , 55700 , Brouennes , France","codePostal":"55700","region":"Grand Est","departement":"Meuse","departementCode":"55","horaires":"Le Lundi : de 16h00 à 17h30\nLe Mercredi : de 11h00 à 12h30","email":"brouennes.commune@orange.fr","telephone":"03 29 80 49 02","latitude":49.516907,"longitude":5.264187,"website":"","url":"https://lannuaire.service-public.gouv.fr/grand-est/meuse/a701d30d-f9ef-4508-8b07-c0b2de0cf5d7"}
{"nom":"Broussey-en-Blois","adresse":"1 rue de l'Église , 55190 , Broussey-en-Blois , France","codePostal":"55190","region":"Grand Est","departement":"Meuse","departementCode":"55","horaires":"Le Lundi : de 10h00 à 12h30 de 14h00 à 16h00","email":"en-blois.commune-de-broussey@orange.fr","telephone":"03 29 90 37 91","latitude":48.639297,"longitude":5.549224,"website":"","url":"https://lannuaire.service-public.gouv.fr/grand-est/meuse/07e74e3d-0dd3-431d-b341-b94de4577b71"}
{"nom":"Broussey-Raulecourt","adresse":"1 rue de l'Entrée , 55200 , Broussey-Raulecourt , France","codePostal":"55200","region":"Grand Est","departement":"Meuse","departementCode":"55","horaires":"Le Mercredi : de 10h00 à 12h00 de 17h00 à 18h00\nLe Vendredi : de 10h00 à 12h00","email":"mairie.broussey@orange.fr","telephone":"03 29 90 41 79","latitude":48.82488,"longitude":5.703502,"website":"","url":"https://lannuaire.service-public.gouv.fr/grand-est/meuse/720f2455-1845-4d70-8067-8c5ba0264104"}
{"nom":"Bure","adresse":"2 rue de l'Orme , 55290 , Bure , France","codePostal":"55290","region":"Grand Est","departement":"Meuse","departementCode":"55","horaires":"Le Mardi : de 09h00 à 16h00","email":"secretariat@bure.fr","telephone":"03 29 75 91 65","latitude":48.504772,"longitude":5.35672,"website":"","url":"https://lannuaire.service-public.gouv.fr/grand-est/meuse/9ef492f2-6eaf-4252-bab0-751f47889ae7"}
{"nom":"Burey-en-Vaux","adresse":"6 Grande-Rue , 55140 , Burey-en-Vaux , France","codePostal":"55140","region":"Grand Est","departement":"Meuse","departementCode":"55","horaires":"Le Lundi : de 09h00 à 17h00","email":"communebureyenvaux55@gmail.com","telephone":"03 29 89 29 21","latitude":48.563774,"longitude":5.668771,"website":"","url":"https://lannuaire.service-public.gouv.fr/grand-est/meuse/9d76f7a1-6d6b-4e06-b878-dafd61993947"}
{"nom":"Burey-la-Côte","adresse":"32 Grande rue , 55140 , Burey-la-Côte , France","codePostal":"55140","region":"Grand Est","departement":"Meuse","departementCode":"55","horaires":"Le Mardi : de 14h00 à 16h00","email":"mairie.bureylacote@orange.fr","telephone":"03 29 90 87 50","latitude":48.502853,"longitude":5.700596,"website":"","url":"https://lannuaire.service-public.gouv.fr/grand-est/meuse/5c1c8e84-24fc-465a-b2ac-3d50e2a1b3a0"}
{"nom":"Buxières-sous-les-Côtes","adresse":"5 Grande-Rue , 55300 , Buxières-sous-les-Côtes , France","codePostal":"55300","region":"Grand Est","departement":"Meuse","departementCode":"55","horaires":"Le Mardi : de 08h00 à 12h00\nLe Jeudi : de 18h00 à 19h00","email":"mairie.buxieres55@orange.fr","telephone":"03 29 89 39 14","latitude":48.9159,"longitude":5.67252,"website":"https://buxieres-sous-les-cotes.fr/","url":"https://lannuaire.service-public.gouv.fr/grand-est/meuse/e44e572a-21e4-4cd4-bc69-2cd0863cc047"}
{"nom":"Buzy-Darmont","adresse":"15 place du Chaudfour , 55400 , Buzy-Darmont , France","codePostal":"55400","region":"Grand Est","departement":"Meuse","departementCode":"55","horaires":"Le Mardi : de 11h00 à 12h00 de 16h00 à 18h00\nLe Vendredi : de 11h00 à 12h00 de 16h00 à 18h00","email":"mairie.buzy.darmont@wanadoo.fr","telephone":"03 29 87 21 63","latitude":49.16881,"longitude":5.708919,"website":"https://buzydarmont.com/","url":"https://lannuaire.service-public.gouv.fr/grand-est/meuse/8f1fb80b-e6d8-4690-9242-74f6cdbff2fd"}
{"nom":"Cesse","adresse":"7 rue du Trou-des-Hoquettes , 55700 , Cesse , France","codePostal":"55700","region":"Grand Est","departement":"Meuse","departementCode":"55","horaires":"Du Lundi au Mardi : de 09h00 à 12h00","email":"commune.de-cesse@wanadoo.fr","telephone":"03 29 80 25 78","latitude":49.512,"longitude":5.15761,"website":"","url":"https://lannuaire.service-public.gouv.fr/grand-est/meuse/b6c60005-2a2d-4a79-ad98-00ce39713698"}
{"nom":"Chaillon","adresse":"19 Grande-Rue , 55210 , Chaillon , France","codePostal":"55210","region":"Grand Est","departement":"Meuse","departementCode":"55","horaires":"Le Mardi : de 13h30 à 16h30\nLe Jeudi : de 08h30 à 12h00","email":"commune.chaillon@orange.fr","telephone":"03 29 89 31 19","latitude":48.944996,"longitude":5.63953,"website":"","url":"https://lannuaire.service-public.gouv.fr/grand-est/meuse/bb7d30ea-3652-48bb-b53e-4b865d1ed4d0"}
{"nom":"Chalaines","adresse":"4 rue Principale , 55140 , Chalaines , France","codePostal":"55140","region":"Grand Est","departement":"Meuse","departementCode":"55","horaires":"Le Mardi : de 09h30 à 11h00\nLe Vendredi : de 15h30 à 17h00","email":"mairie.chalaines.55@wanadoo.fr","telephone":"03 29 89 26 87","latitude":48.60235,"longitude":5.680528,"website":"","url":"https://lannuaire.service-public.gouv.fr/grand-est/meuse/ef9700e6-caaf-4e8d-b6d5-2ccd054c9af1"}
{"nom":"Champneuville","adresse":"9 rue de l'Église , 55100 , Champneuville , France","codePostal":"55100","region":"Grand Est","departement":"Meuse","departementCode":"55","horaires":"Le Mardi : de 13h30 à 17h30\nLe Vendredi : de 08h30 à 12h00","email":"mairie.champneuville@orange.fr","telephone":"03 29 85 87 38","latitude":49.234276,"longitude":5.323951,"website":"https://www.champneuville.fr/","url":"https://lannuaire.service-public.gouv.fr/grand-est/meuse/c0074e11-aa7d-48a1-88d9-4f2a9b4e52a5"}
{"nom":"Champougny","adresse":"1 rue de l'Église , 55140 , Champougny , France","codePostal":"55140","region":"Grand Est","departement":"Meuse","departementCode":"55","horaires":"Le Vendredi : de 08h00 à 12h00","email":"mairie-champougny@orange.fr","telephone":"03 29 90 49 46","latitude":48.544872,"longitude":5.694619,"website":"","url":"https://lannuaire.service-public.gouv.fr/grand-est/meuse/8cf9227b-db17-481d-a821-bfa8b2a59f15"}
{"nom":"Chanteraine","adresse":"Rue de Givrauval , 55500 , Chanteraine , France","codePostal":"55500","region":"Grand Est","departement":"Meuse","departementCode":"55","horaires":"Le Lundi : de 09h00 à 12h30\nLe Mercredi : de 09h00 à 12h30\nLe Jeudi : de 14h00 à 18h00\nAccueil ouvert uniquement sur rendez-vous.","email":"mairie-chanteraine@wanadoo.fr","telephone":"03 29 78 38 06","latitude":48.67701,"longitude":5.362662,"website":"https://www.intramuros.org/chanteraine","url":"https://lannuaire.service-public.gouv.fr/grand-est/meuse/9c6ea18f-a66f-4c86-baa3-aea7ffde8986"}
{"nom":"Chardogne","adresse":"2 rue Haute , 55000 , Chardogne , France","codePostal":"55000","region":"Grand Est","departement":"Meuse","departementCode":"55","horaires":"Le Mercredi : de 18h00 à 19h30","email":"commune-de-chardogne@orange.fr","telephone":"03 29 78 50 26","latitude":48.825207,"longitude":5.128405,"website":"https://chardogne.fr/","url":"https://lannuaire.service-public.gouv.fr/grand-est/meuse/622bfcb9-bfb4-4915-9ea9-36c1f77de9ca"}
{"nom":"Charny-sur-Meuse","adresse":"4 place de la Mairie , 55100 , Charny-sur-Meuse , France","codePostal":"55100","region":"Grand Est","departement":"Meuse","departementCode":"55","horaires":"Le Lundi : de 08h00 à 11h30\nLe Mardi : de 08h00 à 11h30 de 13h00 à 19h00\n\nPrésence d'un élu.\nLe Mercredi : de 08h00 à 11h30\nLe Jeudi : de 08h00 à 11h30 de 13h00 à 16h00\nLe Vendredi : de 08h00 à 11h30","email":"mairie.charny.sur.meuse@orange.fr","telephone":"03 29 86 67 06","latitude":49.20668,"longitude":5.363521,"website":"https://www.charny-sur-meuse.com/","url":"https://lannuaire.service-public.gouv.fr/grand-est/meuse/377b132e-c505-43b1-affe-71f36d8a2d71"}
{"nom":"Charpentry","adresse":"8 Grande rue , 55270 , Charpentry , France","codePostal":"55270","region":"Grand Est","departement":"Meuse","departementCode":"55","horaires":"Le Jeudi : de 14h30 à 17h30","email":"commune.charpentry55@laposte.net","telephone":"03 29 74 89 46","latitude":49.25893,"longitude":5.031073,"website":"","url":"https://lannuaire.service-public.gouv.fr/grand-est/meuse/974b7187-a064-4201-8f50-2a3ab853931d"}
{"nom":"Chassey-Beaupré","adresse":"27 Grande-Rue , 55130 , Chassey-Beaupré , France","codePostal":"55130","region":"Grand Est","departement":"Meuse","departementCode":"55","horaires":"Le Mercredi : de 09h00 à 12h00\nLe Vendredi : de 13h00 à 16h00","email":"mairie@chasseybeaupre.fr","telephone":"03 29 89 75 37","latitude":48.457825,"longitude":5.433087,"website":"","url":"https://lannuaire.service-public.gouv.fr/grand-est/meuse/c68e44bc-1fb9-48a7-a9fe-ff16e765a571"}
{"nom":"Châtillon-sous-les-Côtes","adresse":"1 rue Haute , 55400 , Châtillon-sous-les-Côtes , France","codePostal":"55400","region":"Grand Est","departement":"Meuse","departementCode":"55","horaires":"Le Mercredi : de 09h00 à 10h30\nLe Vendredi : de 08h30 à 10h00","email":"mairie@commune-chatillon-sous-les-cotes.fr","telephone":"03 29 88 31 13","latitude":49.1439,"longitude":5.52285,"website":"","url":"https://lannuaire.service-public.gouv.fr/grand-est/meuse/31238b98-acc7-45f5-9b0b-026e362a8317"}
{"nom":"Chattancourt","adresse":"2 Petite-Rue , 55100 , Chattancourt , France","codePostal":"55100","region":"Grand Est","departement":"Meuse","departementCode":"55","horaires":"Le Lundi : de 14h00 à 17h00\nLe Mardi : de 09h00 à 12h00","email":"mairie-chattancourt@grandverdun.fr","telephone":"03 29 85 02 48","latitude":49.21664,"longitude":5.267361,"website":"https://www.chattancourt.fr/","url":"https://lannuaire.service-public.gouv.fr/grand-est/meuse/d4dcb27d-1de0-4a34-b8be-e7e747daef4e"}
{"nom":"Chaumont-devant-Damvillers","adresse":"2 Grande-Rue , 55150 , Chaumont-devant-Damvillers , France","codePostal":"55150","region":"Grand Est","departement":"Meuse","departementCode":"55","horaires":"Le Lundi : de 09h30 à 11h00","email":"mairie.chaumontdtdamvillers55@gmail.com","telephone":"07 65 71 14 35","latitude":49.30791,"longitude":5.428049,"website":"","url":"https://lannuaire.service-public.gouv.fr/grand-est/meuse/2b8a1ed5-2bac-4cde-a94b-8ef4138447e7"}
{"nom":"Chaumont-sur-Aire","adresse":"2 rue de l'Église , 55260 , Chaumont-sur-Aire , France","codePostal":"55260","region":"Grand Est","departement":"Meuse","departementCode":"55","horaires":"Le Mercredi : de 16h00 à 19h00\nLe Vendredi : de 14h00 à 19h00\n\nAccueil ouvert uniquement le premier samedi de chaque mois.","email":"mairiechaumontsuraire@orange.fr","telephone":"03 29 70 46 76","latitude":48.927048,"longitude":5.258269,"website":"","url":"https://lannuaire.service-public.gouv.fr/grand-est/meuse/4c016538-9109-42b0-bc18-11bb6e9d56cf"}
{"nom":"Chauvency-le-Château","adresse":"10 rue Saint-Amand , 55600 , Chauvency-le-Château , France","codePostal":"55600","region":"Grand Est","departement":"Meuse","departementCode":"55","horaires":"Du Lundi au Mardi : de 09h00 à 11h00\nDu Jeudi au Vendredi : de 09h00 à 11h00","email":"chauvencylechateau@wanadoo.fr","telephone":"03 29 80 06 34","latitude":49.5188,"longitude":5.30946,"website":"","url":"https://lannuaire.service-public.gouv.fr/grand-est/meuse/08b12257-ee57-4250-9e45-71bc8ec02563"}
{"nom":"Chauvency-Saint-Hubert","adresse":"2 rue du Four , 55600 , Chauvency-Saint-Hubert , France","codePostal":"55600","region":"Grand Est","departement":"Meuse","departementCode":"55","horaires":"Le Lundi : de 17h30 à 19h30\nLe Mercredi : de 10h00 à 12h00\nLe Vendredi : de 10h00 à 12h00","email":"mairiedechauvencysainthubert@nordnet.fr","telephone":"03 29 80 03 60","latitude":49.534397,"longitude":5.295582,"website":"","url":"https://lannuaire.service-public.gouv.fr/grand-est/meuse/0b731c51-c6d8-4cab-ac9f-67d1e16e31c9"}
{"nom":"Chauvoncourt","adresse":"16 rue du 150e-Régiment-d'Infanterie , 55300 , Chauvoncourt , France","codePostal":"55300","region":"Grand Est","departement":"Meuse","departementCode":"55","horaires":"Le Mardi : de 10h00 à 12h00\nLe Jeudi : de 16h00 à 18h30","email":"mairie.chauvoncourt@wanadoo.fr","telephone":"03 29 89 00 45","latitude":48.901062,"longitude":5.525285,"website":"","url":"https://lannuaire.service-public.gouv.fr/grand-est/meuse/a29fffc4-5d3e-4e36-8084-fcecf85eb503"}
{"nom":"Cheppy","adresse":"2 rue de Varennes , 55270 , Cheppy , France","codePostal":"55270","region":"Grand Est","departement":"Meuse","departementCode":"55","horaires":"Le Lundi : de 09h30 à 17h00","email":"mairie.de.cheppy349@orange.fr","telephone":"03 29 80 75 44","latitude":49.231285,"longitude":5.056897,"website":"","url":"https://lannuaire.service-public.gouv.fr/grand-est/meuse/373c22ef-9921-44bc-9223-47635f9383b5"}
{"nom":"Chonville-Malaumont","adresse":"15 Grande-Rue , 55200 , Chonville-Malaumont , France","codePostal":"55200","region":"Grand Est","departement":"Meuse","departementCode":"55","horaires":"Le Lundi : de 17h00 à 20h00\nLe Jeudi : de 09h00 à 12h30","email":"mairie.chonville.malaumont@gmail.com","telephone":"03 29 91 36 88","latitude":48.75064,"longitude":5.498966,"website":"","url":"https://lannuaire.service-public.gouv.fr/grand-est/meuse/00c8d031-339b-4e0c-9bdb-734ebf5b1493"}
{"nom":"Cierges-sous-Montfaucon","adresse":"Rue de la Vierge , 55270 , Cierges-sous-Montfaucon , France","codePostal":"55270","region":"Grand Est","departement":"Meuse","departementCode":"55","horaires":"Le Mardi : de 08h45 à 13h10","email":"commune-de-cierges-sous-montfau@orange.fr","telephone":"03 29 80 33 03","latitude":49.298275,"longitude":5.092503,"website":"","url":"https://lannuaire.service-public.gouv.fr/grand-est/meuse/9b408269-6e55-4252-9647-89f35153bb04"}
{"nom":"Clermont-en-Argonne","adresse":"Place de la République , 55120 , Clermont-en-Argonne , France","codePostal":"55120","region":"Grand Est","departement":"Meuse","departementCode":"55","horaires":"Du Lundi au Jeudi : de 08h00 à 12h00 de 13h30 à 17h30\nLe Vendredi : de 08h00 à 12h00 de 13h30 à 16h30","email":"mairie@clermont-en-argonne.fr","telephone":"03 29 87 41 15","latitude":49.1054,"longitude":5.06975,"website":"https://www.clermont-en-argonne.fr/","url":"https://lannuaire.service-public.gouv.fr/grand-est/meuse/e0a135d8-0ad5-40f9-a787-200ea1c8fcf2"}
{"nom":"Cléry-le-Grand","adresse":"1 rue Haute , 55110 , Cléry-le-Grand , France","codePostal":"55110","region":"Grand Est","departement":"Meuse","departementCode":"55","horaires":"Le Mardi : de 09h30 à 12h00","email":"clerylegrand.mairie@sfr.fr","telephone":"03 29 80 85 46","latitude":49.36447,"longitude":5.155267,"website":"","url":"https://lannuaire.service-public.gouv.fr/grand-est/meuse/69c4b990-02d6-4bd4-9c2e-e6842678050a"}
{"nom":"Cléry-le-Petit","adresse":"1 rue Montante , 55110 , Cléry-le-Petit , France","codePostal":"55110","region":"Grand Est","departement":"Meuse","departementCode":"55","horaires":"Le Vendredi : de 14h00 à 17h00","email":"clerylepetit@wanadoo.fr","telephone":"03 29 80 95 39","latitude":49.368,"longitude":5.1804,"website":"","url":"https://lannuaire.service-public.gouv.fr/grand-est/meuse/3ade2d5c-2758-49fc-96d2-5deda0cbee38"}
{"nom":"Combles-en-Barrois","adresse":"26 rue de l'Église , 55000 , Combles-en-Barrois , France","codePostal":"55000","region":"Grand Est","departement":"Meuse","departementCode":"55","horaires":"Du Lundi au Mardi : de 16h00 à 18h30\nDu Jeudi au Vendredi : de 16h00 à 18h30\nLe Samedi : de 08h30 à 11h30","email":"mairie@combles-en-barrois.fr","telephone":"03 29 45 32 17","latitude":48.7514,"longitude":5.11604,"website":"https://www.combles-en-barrois.fr/","url":"https://lannuaire.service-public.gouv.fr/grand-est/meuse/5a46fa52-dd96-4315-b3cf-5b3a99e89599"}
{"nom":"Combres-sous-les-Côtes","adresse":"45 rue Maurice-Genevoix , 55160 , Combres-sous-les-Côtes , France","codePostal":"55160","region":"Grand Est","departement":"Meuse","departementCode":"55","horaires":"Le Mardi : de 10h00 à 12h00","email":"mairie-combres@orange.fr","telephone":"03 29 88 81 76","latitude":49.058193,"longitude":5.622157,"website":"","url":"https://lannuaire.service-public.gouv.fr/grand-est/meuse/a1b36aab-a190-46de-bea2-7a54392985bc"}
{"nom":"Commercy","adresse":"Château Stanislas , 55200 , Commercy , France","codePostal":"55200","region":"Grand Est","departement":"Meuse","departementCode":"55","horaires":"Du Lundi au Jeudi : de 09h00 à 12h00 de 13h30 à 17h30\nLe Vendredi : de 09h00 à 12h00 de 13h30 à 17h00\nLe Samedi : de 09h00 à 11h00\n\nAccueil ouvert uniquement pour l'état civil.","email":"mairie@commercy.fr","telephone":"03 29 91 02 18","latitude":48.763584,"longitude":5.5921454,"website":"http://www.commercy.fr/","url":"https://lannuaire.service-public.gouv.fr/grand-est/meuse/9ae58a09-591f-4315-bbe9-0077361a830d"}
{"nom":"Consenvoye","adresse":"22 bis Petite-Rue , 55110 , Consenvoye , France","codePostal":"55110","region":"Grand Est","departement":"Meuse","departementCode":"55","horaires":"Le Lundi : de 11h00 à 12h00 de 13h00 à 17h00\nLe Mardi : de 09h00 à 11h30\nLe Jeudi : de 11h00 à 12h00 de 13h00 à 17h00\nLe Vendredi : de 09h00 à 11h30","email":"mairie@consenvoye.fr","telephone":"03 29 85 86 75","latitude":49.28684,"longitude":5.28392,"website":"https://www.consenvoye.fr/","url":"https://lannuaire.service-public.gouv.fr/grand-est/meuse/8f1454db-ef16-4f6f-ad59-26f4547eac6c"}
{"nom":"Contrisson","adresse":"68 rue Simon , 55800 , Contrisson , France","codePostal":"55800","region":"Grand Est","departement":"Meuse","departementCode":"55","horaires":"Du Lundi au Mardi : de 08h00 à 12h00 de 14h00 à 17h00\nLe Mercredi : de 08h00 à 12h00\n\nles semaines impaires ouverture de 12h à 16h uniquement.\nLe Jeudi : de 08h00 à 12h00 de 14h00 à 17h00\nLe Vendredi : de 08h00 à 12h00 de 14h00 à 16h00\nLe Samedi : de 08h00 à 11h30\n\nUniquement ouvert les semaines paires.","email":"commune-de-contrisson@orange.fr","telephone":"03 29 75 60 75","latitude":48.8045,"longitude":4.96299,"website":"https://www.contrisson.fr/","url":"https://lannuaire.service-public.gouv.fr/grand-est/meuse/1525b24c-9a1e-4597-ab5c-d3fece7ae53c"}
{"nom":"Courcelles-en-Barrois","adresse":"2 Grande-Rue , 55260 , Courcelles-en-Barrois , France","codePostal":"55260","region":"Grand Est","departement":"Meuse","departementCode":"55","horaires":"Le Lundi : de 11h00 à 12h00","email":"mairie.courcellesenbarrois@gmail.com","telephone":"03 29 90 74 97","latitude":48.82463,"longitude":5.441668,"website":"","url":"https://lannuaire.service-public.gouv.fr/grand-est/meuse/21207aff-0a09-4da4-9f46-0eb16dbb647a"}
{"nom":"Courcelles-sur-Aire","adresse":"6 Grande-Rue , 55260 , Courcelles-sur-Aire , France","codePostal":"55260","region":"Grand Est","departement":"Meuse","departementCode":"55","horaires":"Le Lundi : de 14h00 à 15h30","email":"mairie.courcellessuraire@gmail.com","telephone":"03 29 70 66 23","latitude":48.93611,"longitude":5.242565,"website":"","url":"https://lannuaire.service-public.gouv.fr/grand-est/meuse/00033429-1b83-46b4-9101-3a2ad178af79"}
{"nom":"Courouvre","adresse":"5 rue de Verdun , 55260 , Courouvre , France","codePostal":"55260","region":"Grand Est","departement":"Meuse","departementCode":"55","horaires":"Le Jeudi : de 08h00 à 12h00","email":"mairiedecourouvre@hotmail.fr","telephone":"03 29 78 32 23","latitude":48.937805,"longitude":5.355613,"website":"","url":"https://lannuaire.service-public.gouv.fr/grand-est/meuse/b9fb88e4-957e-4727-872b-342fd2752486"}
{"nom":"Cousances-les-Forges","adresse":"41 rue André Lebland , 55170 , Cousances-les-Forges , France","codePostal":"55170","region":"Grand Est","departement":"Meuse","departementCode":"55","horaires":"Du Lundi au Vendredi : de 10h00 à 12h00 de 14h00 à 16h00\nLe Samedi : de 10h00 à 12h00","email":"mairie@c-l-f.fr","telephone":"03 29 70 84 06","latitude":48.612938,"longitude":5.08183,"website":"http://www.cousanceslesforges.fr/","url":"https://lannuaire.service-public.gouv.fr/grand-est/meuse/653d9888-354b-4533-9c60-08b64c9dc306"}
{"nom":"Cousances-lès-Triconville","adresse":"12 rue de l'Épichée , 55500 , Cousances-lès-Triconville , France","codePostal":"55500","region":"Grand Est","departement":"Meuse","departementCode":"55","horaires":"Le Lundi : de 08h30 à 12h30","email":"mairie.cousanceslestriconville@orange.fr","telephone":"03 29 78 44 65","latitude":48.7638,"longitude":5.38381,"website":"","url":"https://lannuaire.service-public.gouv.fr/grand-est/meuse/8c4d1b3c-338e-4aa8-8027-18f65960bd05"}
{"nom":"Couvertpuis","adresse":"1 place du Maréchal-Ferrand , 55290 , Couvertpuis , France","codePostal":"55290","region":"Grand Est","departement":"Meuse","departementCode":"55","horaires":"Le Vendredi : de 13h30 à 16h30","email":"mairie.couvertpuis@orange.fr","telephone":"03 29 75 92 51","latitude":48.581905,"longitude":5.301892,"website":"","url":"https://lannuaire.service-public.gouv.fr/grand-est/meuse/e3814fa9-3312-4342-a35a-c4631c39e3f6"}
{"nom":"Couvonges","adresse":"1 rue du Château , 55800 , Couvonges , France","codePostal":"55800","region":"Grand Est","departement":"Meuse","departementCode":"55","horaires":"Le Jeudi : de 08h00 à 12h00 de 13h00 à 16h00","email":"mairie@couvonges.fr","telephone":"03 29 75 41 40","latitude":48.7745,"longitude":5.02616,"website":"","url":"https://lannuaire.service-public.gouv.fr/grand-est/meuse/d0aad04f-8d21-4520-9579-a084ffe0b42d"}
{"nom":"Cuisy","adresse":"4 Grande-Rue , 55270 , Cuisy , France","codePostal":"55270","region":"Grand Est","departement":"Meuse","departementCode":"55","horaires":"Le Mardi : de 16h30 à 17h30","email":"commune.cuisy@gmail.com","telephone":"03 29 85 11 01","latitude":49.267426,"longitude":5.1787,"website":"","url":"https://lannuaire.service-public.gouv.fr/grand-est/meuse/160f5429-0727-472c-8eb2-1bffcea7e84c"}
{"nom":"Culey","adresse":"2 rue de la Mairie , 55000 , Culey , France","codePostal":"55000","region":"Grand Est","departement":"Meuse","departementCode":"55","horaires":"Le Mercredi : de 17h00 à 19h00","email":"mairiedeculey@orange.fr","telephone":"03 29 45 52 50","latitude":48.75472,"longitude":5.266902,"website":"","url":"https://lannuaire.service-public.gouv.fr/grand-est/meuse/769cbb34-03d5-4e84-a4b9-98acdee12191"}
{"nom":"Cunel","adresse":"12 rue de la Fontaine , 55110 , Cunel , France","codePostal":"55110","region":"Grand Est","departement":"Meuse","departementCode":"55","horaires":"Le Mardi : de 11h00 à 12h00\nLe Vendredi : de 13h00 à 17h00","email":"mairie.cunel@ozone.net","telephone":"09 86 16 68 47","latitude":49.335674,"longitude":5.114756,"website":"","url":"https://lannuaire.service-public.gouv.fr/grand-est/meuse/49614fc2-629f-4bcd-bfc1-f48de0fc498b"}
{"nom":"Dagonville","adresse":"35 rue de la Mairie , 55500 , Dagonville , France","codePostal":"55500","region":"Grand Est","departement":"Meuse","departementCode":"55","horaires":"Le Vendredi : de 14h00 à 19h00","email":"mairie@dagonville.fr","telephone":"03 29 75 08 45","latitude":48.792946,"longitude":5.395529,"website":"","url":"https://lannuaire.service-public.gouv.fr/grand-est/meuse/68e1f1cd-a731-4ceb-834a-b1dc709c5a2b"}
{"nom":"Dainville-Bertheléville","adresse":"5 rue de l'Église , 55130 , Dainville-Bertheléville , France","codePostal":"55130","region":"Grand Est","departement":"Meuse","departementCode":"55","horaires":"Le Lundi : de 14h30 à 17h00\nLe Jeudi : de 09h30 à 12h00","email":"dainville.bertheleville@orange.fr","telephone":"03 29 90 30 18","latitude":48.44028,"longitude":5.509282,"website":"","url":"https://lannuaire.service-public.gouv.fr/grand-est/meuse/9bcdfd52-40eb-409a-963a-9a6cec532e76"}
{"nom":"Damloup","adresse":"2 rue de la Lauffée , 55400 , Damloup , France","codePostal":"55400","region":"Grand Est","departement":"Meuse","departementCode":"55","horaires":"Le Lundi : de 08h00 à 12h00\nLe Jeudi : de 16h30 à 18h30","email":"mairie-de-damloup@wanadoo.fr","telephone":"03 29 88 37 92","latitude":49.20094,"longitude":5.491205,"website":"","url":"https://lannuaire.service-public.gouv.fr/grand-est/meuse/ecf7fac0-241a-4836-ad5d-e7f124a89ef0"}
{"nom":"Dammarie-sur-Saulx","adresse":"2 place de la Mairie , 55500 , Dammarie-sur-Saulx , France","codePostal":"55500","region":"Grand Est","departement":"Meuse","departementCode":"55","horaires":"Du Lundi au Mardi : de 08h00 à 12h00\nLe Mardi : de 07h45 à 12h15\nLe Mercredi : de 08h00 à 12h00 de 13h30 à 16h30\nLe Jeudi : de 08h00 à 12h00","email":"mairie.dammariesursaulx@wanadoo.fr","telephone":"03 29 75 99 04","latitude":48.593243,"longitude":5.237414,"website":"","url":"https://lannuaire.service-public.gouv.fr/grand-est/meuse/9f66e61a-fbf7-4d69-b473-aadaa329f858"}
{"nom":"Damvillers","adresse":"3 place Liégeois , 55150 , Damvillers , France","codePostal":"55150","region":"Grand Est","departement":"Meuse","departementCode":"55","horaires":"Du Lundi au Vendredi : de 11h00 à 12h00","email":"mairie-damvillers@wanadoo.fr","telephone":"03 29 85 60 28","latitude":49.3431,"longitude":5.3999,"website":"","url":"https://lannuaire.service-public.gouv.fr/grand-est/meuse/1ee97efd-1a72-4dcd-93b5-194c939ebdbd"}
{"nom":"Dannevoux","adresse":"3 rue de Bonvaux , 55110 , Dannevoux , France","codePostal":"55110","region":"Grand Est","departement":"Meuse","departementCode":"55","horaires":"Le Mardi : de 14h00 à 18h00\nLe Vendredi : de 14h00 à 18h00","email":"mairiedannevoux@orange.fr","telephone":"03 29 74 83 73","latitude":49.307537,"longitude":5.236702,"website":"","url":"https://lannuaire.service-public.gouv.fr/grand-est/meuse/6d294264-4a10-4231-9d6e-cb4e327a8762"}
{"nom":"Delouze-Rosières","adresse":"Delouze , 55130 , Delouze-Rosières , France","codePostal":"55130","region":"Grand Est","departement":"Meuse","departementCode":"55","horaires":"Le Lundi : de 14h00 à 17h00\nLe Jeudi : de 09h00 à 12h00\nPermanence du maire de 17h à 19h sur rendez-vous.","email":"commune-de-delouzerosieres@orange.fr","telephone":"03 29 90 37 40","latitude":48.5688,"longitude":5.5455,"website":"","url":"https://lannuaire.service-public.gouv.fr/grand-est/meuse/51e27240-781a-4b9e-9617-6681140c285c"}
{"nom":"Delut","adresse":"5 Petite rue , 55150 , Delut , France","codePostal":"55150","region":"Grand Est","departement":"Meuse","departementCode":"55","horaires":"Le Lundi : de 09h00 à 12h00\nLe Vendredi : de 14h00 à 17h00","email":"mairie.de.delut@ozone.net","telephone":"03 29 85 50 67","latitude":49.407578,"longitude":5.4303327,"website":"","url":"https://lannuaire.service-public.gouv.fr/grand-est/meuse/6a9a41a9-d539-4caa-8f10-cca479e324d2"}
{"nom":"Demange-Baudignécourt","adresse":"Demange-aux-Eaux , 55130 , Demange-Baudignécourt , France","codePostal":"55130","region":"Grand Est","departement":"Meuse","departementCode":"55","horaires":"Du Lundi au Mardi : de 09h00 à 12h00 de 14h00 à 17h00\nDu Mercredi au Jeudi : de 09h00 à 12h00\n\nLe Jeudi après-midi de 14h à 17h à la mairie de Baudignécourt.\nLe Vendredi : de 09h00 à 12h00 de 14h00 à 17h00","email":"mairie-demangeauxeaux@wanadoo.fr","telephone":"03 29 89 66 67","latitude":48.58145,"longitude":5.45994,"website":"","url":"https://lannuaire.service-public.gouv.fr/grand-est/meuse/69fd1cf9-de21-4b33-bbc2-d6d1a136f1e0"}
{"nom":"Dieppe-sous-Douaumont","adresse":"55 rue Mazel , 55400 , Dieppe-sous-Douaumont , France","codePostal":"55400","region":"Grand Est","departement":"Meuse","departementCode":"55","horaires":"Le Mercredi : de 15h30 à 18h00\nLe Samedi : de 10h00 à 12h00","email":"mairie@dieppe-sous-douaumont.fr","telephone":"03 29 88 31 93","latitude":49.22053,"longitude":5.509749,"website":"http://www.dieppe-sous-douaumont.fr/","url":"https://lannuaire.service-public.gouv.fr/grand-est/meuse/a60e95d5-98b5-4003-ab69-3300bc0989c7"}
{"nom":"Dieue-sur-Meuse","adresse":"Rue du Capitaine-Marlin , 55320 , Dieue-sur-Meuse , France","codePostal":"55320","region":"Grand Est","departement":"Meuse","departementCode":"55","horaires":"Du Lundi au Jeudi : de 08h30 à 12h00 de 13h30 à 18h00\nLe Vendredi : de 08h30 à 12h00 de 13h30 à 17h00\nLe Samedi : de 10h00 à 12h00","email":"mairie@dieue-sur-meuse.fr","telephone":"03 29 87 61 68","latitude":49.07025,"longitude":5.4218965,"website":"https://www.dieue-sur-meuse.fr/","url":"https://lannuaire.service-public.gouv.fr/grand-est/meuse/4b526bc4-bd38-4793-aa57-d66519b37e06"}
{"nom":"Dombasle-en-Argonne","adresse":"122 rue de la République , 55120 , Dombasle-en-Argonne , France","codePostal":"55120","region":"Grand Est","departement":"Meuse","departementCode":"55","horaires":"Le Lundi : de 09h00 à 12h00 de 15h00 à 18h00\nLe Mardi : de 09h00 à 12h00\nLe Mercredi : de 14h00 à 16h30\nLe Jeudi : de 09h00 à 12h00 de 15h00 à 18h00\nDu Vendredi au Samedi : de 09h00 à 12h00","email":"dombasle-mairie@orange.fr","telephone":"03 29 86 80 55","latitude":49.1386,"longitude":5.19206,"website":"https://dombasle-en-argonne.fr/","url":"https://lannuaire.service-public.gouv.fr/grand-est/meuse/01ad87b8-354d-4d24-91fb-284ed175148a"}
{"nom":"Dombras","adresse":"32 rue de l'orme , 55150 , Dombras , France","codePostal":"55150","region":"Grand Est","departement":"Meuse","departementCode":"55","horaires":"Le Vendredi : de 09h00 à 10h00","email":"mairie.dombras@orange.fr","telephone":"09 65 03 20 44","latitude":49.39362,"longitude":5.457571,"website":"","url":"https://lannuaire.service-public.gouv.fr/grand-est/meuse/b131ee5c-2a28-4f50-b9a0-6163eef43a42"}
{"nom":"Dommartin-la-Montagne","adresse":"6 rue Basse , 55160 , Dommartin-la-Montagne , France","codePostal":"55160","region":"Grand Est","departement":"Meuse","departementCode":"55","horaires":"Le Lundi : de 16h00 à 18h00","email":"mairie.dommartin@ozone.net","telephone":"03 29 86 43 58","latitude":49.031307,"longitude":5.608718,"website":"","url":"https://lannuaire.service-public.gouv.fr/grand-est/meuse/5b23b17d-867e-4f68-b98d-5b2e2683b862"}
{"nom":"Dommary-Baroncourt","adresse":"2 place du Commandant-Hoche , 55240 , Dommary-Baroncourt , France","codePostal":"55240","region":"Grand Est","departement":"Meuse","departementCode":"55","horaires":"Du Lundi au Mardi : de 09h00 à 12h00 de 14h00 à 17h30\nLe Mercredi : de 09h00 à 12h00\nLe Jeudi : de 09h00 à 12h00 de 14h00 à 17h30\nLe Vendredi : de 09h00 à 12h00 de 14h00 à 17h00","email":"mairie.dommarybaroncourt@wanadoo.fr","telephone":"03 29 85 41 90","latitude":49.2854,"longitude":5.70046,"website":"","url":"https://lannuaire.service-public.gouv.fr/grand-est/meuse/8fb1b05e-3546-48b6-9345-671f6a3421c0"}
{"nom":"Dompcevrin","adresse":"3 rue des Écoles , 55300 , Dompcevrin , France","codePostal":"55300","region":"Grand Est","departement":"Meuse","departementCode":"55","horaires":"Le Lundi : de 10h00 à 11h30\nLe Jeudi : de 17h30 à 18h45","email":"mairie.dompcevrin@mcom.fr","telephone":"03 29 90 18 09","latitude":48.92988,"longitude":5.489306,"website":"https://mairie-dompcevrin.fr/","url":"https://lannuaire.service-public.gouv.fr/grand-est/meuse/eab4ff24-ef78-4082-af0f-b83af171d3f7"}
{"nom":"Dompierre-aux-Bois","adresse":"4 place de la Mairie , 55300 , Dompierre-aux-Bois , France","codePostal":"55300","region":"Grand Est","departement":"Meuse","departementCode":"55","horaires":"Le Vendredi : de 14h00 à 18h00","email":"mairiededompierreauxbois@orange.fr","telephone":"03 29 90 18 68","latitude":48.994343,"longitude":5.585408,"website":"","url":"https://lannuaire.service-public.gouv.fr/grand-est/meuse/b4481874-01d8-4651-bb46-b0d531a5a6ab"}
{"nom":"Domremy-la-Canne","adresse":"2 route de Baroncourt , 55240 , Domremy-la-Canne , France","codePostal":"55240","region":"Grand Est","departement":"Meuse","departementCode":"55","horaires":"Le Mercredi : de 08h00 à 09h30","email":"domremy-la-canne@orange.fr","telephone":"03 29 87 98 70","latitude":49.296055,"longitude":5.69211,"website":"","url":"https://lannuaire.service-public.gouv.fr/grand-est/meuse/83580224-23d4-4434-85fe-af722a9e8b90"}
{"nom":"Doncourt-aux-Templiers","adresse":"11 Grande-Rue , 55160 , Doncourt-aux-Templiers , France","codePostal":"55160","region":"Grand Est","departement":"Meuse","departementCode":"55","horaires":"Le Vendredi : de 08h00 à 12h00","email":"mairie@doncourt-aux-templiers.com","telephone":"03 29 80 82 43","latitude":49.05829,"longitude":5.717565,"website":"","url":"https://lannuaire.service-public.gouv.fr/grand-est/meuse/75468964-fd2b-4c21-a1ff-5e91f356e4e4"}
{"nom":"Mairie déléguée - Douaumont","adresse":"Place Monseigneur-Ginisty , 55400 , Douaumont-Vaux , France","codePostal":"55400","region":"Grand Est","departement":"Meuse","departementCode":"55","horaires":"Le Vendredi : de 16h00 à 19h00","email":"mairie.douaumont@wanadoo.fr","telephone":"03 29 84 88 20","latitude":49.21108,"longitude":5.42784,"website":"https://www.vauxdevantdamloup.fr/","url":"https://lannuaire.service-public.gouv.fr/grand-est/meuse/0f845acc-854a-4b8e-9256-07a83f2b87d5"}
{"nom":"Douaumont-Vaux","adresse":"Vaux-devant-Damloup , 55400 , Douaumont-Vaux , France","codePostal":"55400","region":"Grand Est","departement":"Meuse","departementCode":"55","horaires":"Le Jeudi : de 10h30 à 12h00 de 14h00 à 19h00","email":"","telephone":"06 18 40 92 93","latitude":49.21159,"longitude":5.474194,"website":"https://www.vauxdevantdamloup.fr/","url":"https://lannuaire.service-public.gouv.fr/grand-est/meuse/b3eaa5ab-71b2-4b59-b1ee-0db00aa0cb22"}
{"nom":"Doulcon","adresse":"28 bis avenue des Tilleuls , 55110 , Doulcon , France","codePostal":"55110","region":"Grand Est","departement":"Meuse","departementCode":"55","horaires":"Le Lundi : de 11h00 à 12h00\nLe Mardi : de 17h00 à 18h00\nLe Mercredi : de 10h00 à 12h00\nLe Vendredi : de 17h00 à 18h00","email":"mairie.doulcon@orange.fr","telephone":"03 29 80 91 93","latitude":49.381363,"longitude":5.169417,"website":"","url":"https://lannuaire.service-public.gouv.fr/grand-est/meuse/3e775cb0-4dd3-4871-9d21-225580bc5b2b"}
{"nom":"Dugny-sur-Meuse","adresse":"6 place de la République , 55100 , Dugny-sur-Meuse , France","codePostal":"55100","region":"Grand Est","departement":"Meuse","departementCode":"55","horaires":"Du Lundi au Mardi : de 09h00 à 11h45 de 14h00 à 16h00\nLe Mercredi : de 09h00 à 11h45\nDu Jeudi au Vendredi : de 09h00 à 11h45 de 14h00 à 16h00","email":"mairie-dugny-meuse@orange.fr","telephone":"03 29 85 70 54","latitude":49.10702,"longitude":5.387155,"website":"https://www.mairiedugny55.fr/","url":"https://lannuaire.service-public.gouv.fr/grand-est/meuse/b03fc7e3-795c-4cef-8b27-d4fa4e8e389a"}
{"nom":"Dun-sur-Meuse","adresse":"39 rue de l'Hôtel-de-Ville , 55110 , Dun-sur-Meuse , France","codePostal":"55110","region":"Grand Est","departement":"Meuse","departementCode":"55","horaires":"Du Lundi au Mardi : de 13h30 à 16h15\nLe Mercredi : de 13h30 à 16h00\nLe Jeudi : de 13h30 à 16h15\nLe Vendredi : de 08h00 à 12h00","email":"mairie@dunsurmeuse.com","telephone":"03 29 80 90 55","latitude":49.38407,"longitude":5.184713,"website":"","url":"https://lannuaire.service-public.gouv.fr/grand-est/meuse/764d3cf4-4605-48db-a290-f1d154fdf8d6"}
{"nom":"Duzey","adresse":"Rue de l'Église , 55230 , Duzey , France","codePostal":"55230","region":"Grand Est","departement":"Meuse","departementCode":"55","horaires":"Le Mercredi : de 08h30 à 12h30","email":"mairiededuzey@orange.fr","telephone":"03 29 85 06 11","latitude":49.36065,"longitude":5.6328826,"website":"","url":"https://lannuaire.service-public.gouv.fr/grand-est/meuse/805ffe69-6756-4d99-965b-3dcee3362643"}
{"nom":"Écouviez","adresse":"4 rue de l'Église , 55600 , Écouviez , France","codePostal":"55600","region":"Grand Est","departement":"Meuse","departementCode":"55","horaires":"Le Mardi : de 08h00 à 11h00 de 14h00 à 17h00\nLe Jeudi : de 08h00 à 11h00","email":"mairie-ecouviez@orange.fr","telephone":"03 29 80 14 05","latitude":49.5278,"longitude":5.45549,"website":"","url":"https://lannuaire.service-public.gouv.fr/grand-est/meuse/24cf8950-38de-413d-9bbb-463c9e841132"}
{"nom":"Écurey-en-Verdunois","adresse":"5 rue de la Chaussée , 55150 , Écurey-en-Verdunois , France","codePostal":"55150","region":"Grand Est","departement":"Meuse","departementCode":"55","horaires":"Le Lundi : de 14h00 à 18h00","email":"mairie-ecurey-en-verdunois@wanadoo.fr","telephone":"03 29 85 62 36","latitude":49.363815,"longitude":5.349894,"website":"","url":"https://lannuaire.service-public.gouv.fr/grand-est/meuse/73dc8571-a238-46eb-acd2-5758547d0799"}
{"nom":"Eix","adresse":"5 rue Basse , 55400 , Eix , France","codePostal":"55400","region":"Grand Est","departement":"Meuse","departementCode":"55","horaires":"Le Lundi : de 17h00 à 18h30\nLe Vendredi : de 10h00 à 11h00\nPermanence du maire le mercredi.","email":"mairiedeeix@wanadoo.fr","telephone":"03 29 88 34 40","latitude":49.17909,"longitude":5.498458,"website":"https://www.eix.fr/","url":"https://lannuaire.service-public.gouv.fr/grand-est/meuse/48dd61b6-96cb-4af5-abb1-19fe234e4ac6"}
{"nom":"Épiez-sur-Meuse","adresse":"5 rue des Fontaines , 55140 , Épiez-sur-Meuse , France","codePostal":"55140","region":"Grand Est","departement":"Meuse","departementCode":"55","horaires":"Le Mardi : de 09h00 à 12h30","email":"commune-epiez-sur-meuse@orange.fr","telephone":"03 29 90 84 78","latitude":48.545067,"longitude":5.640112,"website":"","url":"https://lannuaire.service-public.gouv.fr/grand-est/meuse/d25e3bc9-c6e2-4afd-aaa2-a7ae05f22bf1"}
{"nom":"Épinonville","adresse":"5 rue du Centre , 55270 , Épinonville , France","codePostal":"55270","region":"Grand Est","departement":"Meuse","departementCode":"55","horaires":"Le Lundi : de 14h00 à 17h00\nLe Jeudi : de 09h00 à 12h00","email":"commune-d-epinonville@orange.fr","telephone":"03 29 85 12 10","latitude":49.2769,"longitude":5.080361,"website":"","url":"https://lannuaire.service-public.gouv.fr/grand-est/meuse/4844267e-ca64-4094-a604-e7020b61adb6"}
{"nom":"Érize-la-Brûlée","adresse":"1 place du Général-de-Gaulle , 55260 , Érize-la-Brûlée , France","codePostal":"55260","region":"Grand Est","departement":"Meuse","departementCode":"55","horaires":"Le Jeudi : de 14h00 à 17h30","email":"erize.la.brulee.mairie@wanadoo.fr","telephone":"03 29 75 08 84","latitude":48.8506,"longitude":5.28073,"website":"","url":"https://lannuaire.service-public.gouv.fr/grand-est/meuse/1038e7c6-b0f6-4191-8f61-04ef960b2b2b"}
{"nom":"Érize-la-Petite","adresse":"4 voie Sacrée , 55260 , Érize-la-Petite , France","codePostal":"55260","region":"Grand Est","departement":"Meuse","departementCode":"55","horaires":"Le Mardi : de 14h30 à 16h30","email":"mairie.erize.la.petite@ozone.net","telephone":"03 29 70 90 67","latitude":48.91921,"longitude":5.241632,"website":"","url":"https://lannuaire.service-public.gouv.fr/grand-est/meuse/bcddda06-882c-40c0-9763-78e1346d553b"}
{"nom":"Érize-Saint-Dizier","adresse":"1 place de la Mairie , 55000 , Érize-Saint-Dizier , France","codePostal":"55000","region":"Grand Est","departement":"Meuse","departementCode":"55","horaires":"Le Lundi : de 09h00 à 12h00\nLe Jeudi : de 15h00 à 17h00","email":"mairie.erizesd@orange.fr","telephone":"03 29 75 05 57","latitude":48.8153,"longitude":5.28415,"website":"","url":"https://lannuaire.service-public.gouv.fr/grand-est/meuse/9200dd84-5722-4975-8e90-b98969b20ed4"}
{"nom":"Erneville-aux-Bois","adresse":"2 rue du Pont-Ernecourt , 55500 , Erneville-aux-Bois , France","codePostal":"55500","region":"Grand Est","departement":"Meuse","departementCode":"55","horaires":"Le Mardi : de 10h00 à 11h30\nLe Jeudi : de 10h00 à 11h30 de 15h00 à 16h30","email":"mairie.erneville@orange.fr","telephone":"03 29 78 32 94","latitude":48.74243,"longitude":5.414236,"website":"","url":"https://lannuaire.service-public.gouv.fr/grand-est/meuse/8342a6ca-454e-4864-a59e-c29cf056a887"}
{"nom":"Esnes-en-Argonne","adresse":"2 rue du Château , 55100 , Esnes-en-Argonne , France","codePostal":"55100","region":"Grand Est","departement":"Meuse","departementCode":"55","horaires":"Le Lundi : de 14h00 à 18h00\nLe Mercredi : de 14h00 à 18h00\nLe Jeudi : de 09h00 à 12h00\n\nPermanence du maire uniquement.","email":"mairie.d.esnes-en-argonne@wanadoo.fr","telephone":"09 71 48 71 10","latitude":49.207466,"longitude":49.207466,"website":"","url":"https://lannuaire.service-public.gouv.fr/grand-est/meuse/ecf6a613-83fd-4dfc-94fc-2865cd851ac4"}
{"nom":"Étain","adresse":"1 place Jean-Baptiste-Rouillon , 55400 , Étain , France","codePostal":"55400","region":"Grand Est","departement":"Meuse","departementCode":"55","horaires":"Du Lundi au Jeudi : de 10h00 à 12h00 de 14h00 à 17h00\nLe Vendredi : de 10h00 à 12h00 de 14h00 à 16h00","email":"mairie@ville-etain.fr","telephone":"03 29 87 10 35","latitude":49.2132,"longitude":5.63599,"website":"https://www.ville-etain.fr/","url":"https://lannuaire.service-public.gouv.fr/grand-est/meuse/379d279b-fe52-47ba-89ec-f8ea87856c7b"}
{"nom":"Éton","adresse":"4 rue du Bois , 55240 , Éton , France","codePostal":"55240","region":"Grand Est","departement":"Meuse","departementCode":"55","horaires":"Le Mardi : de 11h00 à 12h00\nLe Samedi : de 11h30 à 12h30","email":"mairie.eton.55@orange.fr","telephone":"03 29 85 30 12","latitude":49.27444,"longitude":5.679497,"website":"","url":"https://lannuaire.service-public.gouv.fr/grand-est/meuse/da7398a2-efa9-4fe9-a82b-663f118c3ce4"}
{"nom":"Étraye","adresse":"13 Grande-Rue , 55150 , Étraye , France","codePostal":"55150","region":"Grand Est","departement":"Meuse","departementCode":"55","horaires":"Le Vendredi : de 14h00 à 17h00","email":"mairie.etraye@wanadoo.fr","telephone":"03 29 85 56 59","latitude":49.3335,"longitude":5.372511,"website":"","url":"https://lannuaire.service-public.gouv.fr/grand-est/meuse/bb4ba67c-b2d0-4cac-905e-3455d23543e2"}
{"nom":"Euville","adresse":"41 rue Jeanne-d'Arc , 55200 , Euville , France","codePostal":"55200","region":"Grand Est","departement":"Meuse","departementCode":"55","horaires":"Du Lundi au Vendredi : de 08h30 à 11h30\nLe Samedi : de 09h00 à 11h00","email":"mairie@euville.fr","telephone":"03 29 91 09 77","latitude":48.749115,"longitude":5.624337,"website":"https://euville.fr/","url":"https://lannuaire.service-public.gouv.fr/grand-est/meuse/c718c4ea-aded-4fd7-a40c-50c2ea3ebd64"}
{"nom":"Èvres","adresse":"8 rue Saint-Evence , 55250 , Èvres , France","codePostal":"55250","region":"Grand Est","departement":"Meuse","departementCode":"55","horaires":"Le Jeudi : de 10h00 à 14h00","email":"evres@orange.fr","telephone":"03 29 70 65 24","latitude":48.983105,"longitude":5.126704,"website":"","url":"https://lannuaire.service-public.gouv.fr/grand-est/meuse/21bfb15b-48fd-45ba-99fb-198789a4f131"}
{"nom":"Fains-Véel","adresse":"14 place de la Mairie , 55000 , Fains-Véel , France","codePostal":"55000","region":"Grand Est","departement":"Meuse","departementCode":"55","horaires":"Le Lundi : de 08h00 à 12h00 de 13h30 à 18h00\nLe Mardi : de 08h00 à 12h00 de 13h30 à 16h30\nLe Mercredi : de 08h00 à 16h30\nDu Jeudi au Vendredi : de 08h00 à 12h00 de 13h30 à 16h30","email":"accueil@mairie-fains-veel.fr","telephone":"03 29 45 07 65","latitude":48.790188,"longitude":5.123752,"website":"https://www.fains-veel.fr/","url":"https://lannuaire.service-public.gouv.fr/grand-est/meuse/b55a0d6b-b83b-457b-8d9d-9a16b0d1836b"}
{"nom":"Flassigny","adresse":"1 Grande-Rue , 55600 , Flassigny , France","codePostal":"55600","region":"Grand Est","departement":"Meuse","departementCode":"55","horaires":"Le Jeudi : de 13h00 à 19h00","email":"","telephone":"07 66 55 10 25","latitude":49.47213,"longitude":5.440543,"website":"","url":"https://lannuaire.service-public.gouv.fr/grand-est/meuse/c2846f51-285f-40bd-b28a-e897742b81eb"}
{"nom":"Foameix-Ornel","adresse":"1 rue des Écoles , 55400 , Foameix-Ornel , France","codePostal":"55400","region":"Grand Est","departement":"Meuse","departementCode":"55","horaires":"Le Vendredi : de 17h00 à 19h00","email":"mairie.foameix-ornel@wanadoo.fr","telephone":"03 29 87 00 24","latitude":49.23324,"longitude":5.606735,"website":"","url":"https://lannuaire.service-public.gouv.fr/grand-est/meuse/5ff1343c-67dc-4032-8e35-bca12b63659c"}
{"nom":"Fontaines-Saint-Clair","adresse":"2 rue du Petit-Paris , 55110 , Fontaines-Saint-Clair , France","codePostal":"55110","region":"Grand Est","departement":"Meuse","departementCode":"55","horaires":"Le Mardi : de 14h00 à 17h30","email":"mairie.fontainesaintclair@orange.fr","telephone":"03 29 80 83 07","latitude":49.36915,"longitude":5.234496,"website":"","url":"https://lannuaire.service-public.gouv.fr/grand-est/meuse/c6d7198c-cede-4012-a620-0e1fe094d894"}
{"nom":"Forges-sur-Meuse","adresse":"Place Raymond-Poincaré , 55110 , Forges-sur-Meuse , France","codePostal":"55110","region":"Grand Est","departement":"Meuse","departementCode":"55","horaires":"Le Mercredi : de 14h30 à 16h30","email":"mairie.forges.55@wanadoo.fr","telephone":"03 29 85 81 53","latitude":49.26283,"longitude":5.290766,"website":"","url":"https://lannuaire.service-public.gouv.fr/grand-est/meuse/d3bf2cf8-f2c7-49df-9aef-f640203460f0"}
{"nom":"Foucaucourt-sur-Thabas","adresse":"2 rue de l'Église , 55250 , Foucaucourt-sur-Thabas , France","codePostal":"55250","region":"Grand Est","departement":"Meuse","departementCode":"55","horaires":"Le Lundi : de 14h00 à 16h00","email":"foucaucourt@hotmail.com","telephone":"03 29 70 77 97","latitude":48.99858,"longitude":5.101759,"website":"","url":"https://lannuaire.service-public.gouv.fr/grand-est/meuse/6659fb98-8d37-4e4d-9690-ecd85abd8a7d"}
{"nom":"Fouchères-aux-Bois","adresse":"3 rue d'Enfer , 55500 , Fouchères-aux-Bois , France","codePostal":"55500","region":"Grand Est","departement":"Meuse","departementCode":"55","horaires":"Le Lundi : de 08h00 à 10h00\nLe Jeudi : de 09h00 à 11h00","email":"mairie.foucheres.aux.bois@gmail.com","telephone":"09 63 21 09 15","latitude":48.622913,"longitude":5.247622,"website":"","url":"https://lannuaire.service-public.gouv.fr/grand-est/meuse/5e814bbe-9f79-4ec6-bf48-41c5e65544cc"}
{"nom":"Fréméréville-sous-les-Côtes","adresse":"2 ruelle de l'Église , 55200 , Fréméréville-sous-les-Côtes , France","codePostal":"55200","region":"Grand Est","departement":"Meuse","departementCode":"55","horaires":"Le Mardi : de 14h00 à 18h00","email":"mairiedefrem@gmail.com","telephone":"03 29 91 49 71","latitude":48.800232,"longitude":5.654265,"website":"https://www.fremereville.fr/","url":"https://lannuaire.service-public.gouv.fr/grand-est/meuse/df8a84d7-89a8-449a-aab4-d4a070df972c"}
{"nom":"Fresnes-au-Mont","adresse":"21 rue des Tassons , 55260 , Fresnes-au-Mont , France","codePostal":"55260","region":"Grand Est","departement":"Meuse","departementCode":"55","horaires":"Le Mardi : de 10h00 à 12h00\nLe Mercredi : de 14h00 à 18h00\nLe Jeudi : de 10h00 à 12h00","email":"mairie.fresnesaumont@mcom.fr","telephone":"03 29 75 05 44","latitude":48.896297,"longitude":5.440177,"website":"https://www.fresnesaumont.fr/","url":"https://lannuaire.service-public.gouv.fr/grand-est/meuse/8087094b-59bd-42c9-8cd2-1ac23835aa83"}
{"nom":"Fresnes-en-Woëvre","adresse":"6 place du Général-Margueritte , 55160 , Fresnes-en-Woëvre , France","codePostal":"55160","region":"Grand Est","departement":"Meuse","departementCode":"55","horaires":"Du Lundi au Vendredi : de 08h00 à 12h00","email":"contact-mairiefresnesenwoevre@orange.fr","telephone":"03 29 87 31 47","latitude":49.09574,"longitude":5.631209,"website":"","url":"https://lannuaire.service-public.gouv.fr/grand-est/meuse/ceb18bee-1cce-439d-8e2e-27fc5fea93d9"}
{"nom":"Froidos","adresse":"21 Grande-Rue , 55120 , Froidos , France","codePostal":"55120","region":"Grand Est","departement":"Meuse","departementCode":"55","horaires":"Le Mercredi : de 17h30 à 18h30","email":"mairie.froidos55120@orange.fr","telephone":"03 29 88 43 76","latitude":49.062447,"longitude":5.12582,"website":"","url":"https://lannuaire.service-public.gouv.fr/grand-est/meuse/014e56a5-d3d8-4310-baf1-745d6831e729"}
{"nom":"Fromeréville-les-Vallons","adresse":"2 place de la Mairie , 55100 , Fromeréville-les-Vallons , France","codePostal":"55100","region":"Grand Est","departement":"Meuse","departementCode":"55","horaires":"Le Lundi : de 14h00 à 18h00\nLe Mardi : de 08h30 à 13h30\nLe Jeudi : de 13h00 à 18h00\nLe Vendredi : de 14h00 à 18h00","email":"mairie-fromereville.les.vallons@wanadoo.fr","telephone":"03 29 86 90 92","latitude":49.15433,"longitude":5.2946663,"website":"","url":"https://lannuaire.service-public.gouv.fr/grand-est/meuse/266177ba-d636-4b6a-a6f4-ab9b4c9d32b8"}
{"nom":"Fromezey","adresse":"Rue du Pont , 55400 , Fromezey , France","codePostal":"55400","region":"Grand Est","departement":"Meuse","departementCode":"55","horaires":"Le Jeudi : de 14h00 à 16h00","email":"communedefromezey@orange.fr","telephone":"03 29 87 24 32","latitude":49.2132,"longitude":5.63271,"website":"","url":"https://lannuaire.service-public.gouv.fr/grand-est/meuse/c3dbac12-3f09-46fa-a1d8-0f8124703b50"}
{"nom":"Futeau","adresse":"59 Grande-Rue , 55120 , Futeau , France","codePostal":"55120","region":"Grand Est","departement":"Meuse","departementCode":"55","horaires":"Le Lundi : de 14h00 à 19h00\nPermanence du maire de 17h à 19h.","email":"mairiefuteau@orange.fr","telephone":"03 29 88 27 06","latitude":49.076443,"longitude":5.002118,"website":"","url":"https://lannuaire.service-public.gouv.fr/grand-est/meuse/a8fad375-e4fa-47e4-bf02-71cd1285a3bb"}
{"nom":"Génicourt-sur-Meuse","adresse":"8 rue du Château , 55320 , Génicourt-sur-Meuse , France","codePostal":"55320","region":"Grand Est","departement":"Meuse","departementCode":"55","horaires":"Le Mardi : de 08h30 à 12h00 de 13h00 à 17h00\nLe Jeudi : de 08h30 à 12h00 de 13h00 à 17h00\nLe Samedi : de 08h30 à 11h30","email":"genicourt.mairie@orange.fr","telephone":"03 29 87 75 01","latitude":49.0358,"longitude":5.43979,"website":"","url":"https://lannuaire.service-public.gouv.fr/grand-est/meuse/689580c0-fc8b-469b-8eec-6e3a48a97025"}
{"nom":"Gercourt-et-Drillancourt","adresse":"2 rue Alexis-Vautrin , 55110 , Gercourt-et-Drillancourt , France","codePostal":"55110","region":"Grand Est","departement":"Meuse","departementCode":"55","horaires":"Le Lundi : de 10h00 à 12h00\nLe Mercredi : de 10h00 à 12h00","email":"mairie.gercourt@wanadoo.fr","telephone":"03 29 85 88 60","latitude":49.284744,"longitude":5.2381916,"website":"","url":"https://lannuaire.service-public.gouv.fr/grand-est/meuse/a319d224-c628-4496-adcf-27a80cb766c7"}
{"nom":"Géry","adresse":"2 bis rue Saint-Pierre , 55000 , Géry , France","codePostal":"55000","region":"Grand Est","departement":"Meuse","departementCode":"55","horaires":"Le Mercredi : de 14h00 à 15h00","email":"mairiedegery@ozone.net","telephone":"06 28 98 33 38","latitude":48.78179,"longitude":5.294869,"website":"","url":"https://lannuaire.service-public.gouv.fr/grand-est/meuse/787d7748-a206-41d1-9960-974bd1955e7a"}
{"nom":"Gesnes en Argonne","adresse":"8 route de Varennes , 55110 , Gesnes-en-Argonne , France","codePostal":"55110","region":"Grand Est","departement":"Meuse","departementCode":"55","horaires":"Le Jeudi : de 14h00 à 18h00","email":"gesnes.en.argonne.mairie@wanadoo.fr","telephone":"03 29 85 12 16","latitude":49.30495,"longitude":5.062492,"website":"","url":"https://lannuaire.service-public.gouv.fr/grand-est/meuse/0e92dffb-e2f6-420a-adb6-a5750d6587a5"}
{"nom":"Geville","adresse":"1 place Saint-Étienne , 55200 , Geville , France","codePostal":"55200","region":"Grand Est","departement":"Meuse","departementCode":"55","horaires":"Le Lundi : de 08h15 à 11h45 de 14h00 à 17h00\nDu Mardi au Mercredi : de 08h15 à 11h45\nLe Jeudi : de 08h15 à 11h45 de 14h00 à 17h00\nLe Vendredi : de 08h15 à 11h45","email":"mairie-geville@wanadoo.fr","telephone":"03 29 91 07 31","latitude":48.7706,"longitude":5.69291,"website":"https://lapagelocale.fr/55200-geville","url":"https://lannuaire.service-public.gouv.fr/grand-est/meuse/eda7fced-711d-4b21-a210-3567f66be468"}
{"nom":"Gimécourt","adresse":"1 rue Gravière , 55260 , Gimécourt , France","codePostal":"55260","region":"Grand Est","departement":"Meuse","departementCode":"55","horaires":"Le Mercredi : de 14h00 à 16h00","email":"commune-gimecourt@orange.fr","telephone":"03 29 75 08 71","latitude":48.84954,"longitude":5.368601,"website":"","url":"https://lannuaire.service-public.gouv.fr/grand-est/meuse/cfa07397-9496-4b8e-addb-3c5b86663ee7"}
{"nom":"Gincrey","adresse":"1 place André-Maginot , 55400 , Gincrey , France","codePostal":"55400","region":"Grand Est","departement":"Meuse","departementCode":"55","horaires":"Le Vendredi : de 10h30 à 12h00","email":"mairie.gincrey@orange.fr","telephone":"03 29 87 17 90","latitude":49.24524,"longitude":5.573477,"website":"","url":"https://lannuaire.service-public.gouv.fr/grand-est/meuse/41539cba-0e18-4b5e-9d1b-d1fd1771c310"}
{"nom":"Girauvoisin","adresse":"16 Grande rue , 55200 , Girauvoisin , France","codePostal":"55200","region":"Grand Est","departement":"Meuse","departementCode":"55","horaires":"Le Lundi : de 13h00 à 17h00","email":"mairie.girauvoisin@wanadoo.fr","telephone":"03 29 91 15 40","latitude":48.8036,"longitude":5.62936,"website":"","url":"https://lannuaire.service-public.gouv.fr/grand-est/meuse/257f3c45-a0b0-4cfd-bced-8c1d74d335ee"}
{"nom":"Givrauval","adresse":"3 rue du moulin , 55500 , Givrauval , France","codePostal":"55500","region":"Grand Est","departement":"Meuse","departementCode":"55","horaires":"Le Lundi : de 14h00 à 17h30\nLe Vendredi : de 09h00 à 12h30","email":"givrauval@wanadoo.fr","telephone":"03 29 78 32 77","latitude":48.662178,"longitude":5.326752,"website":"","url":"https://lannuaire.service-public.gouv.fr/grand-est/meuse/18849e7f-ff02-4b53-9ffc-a52fa08b04b0"}
{"nom":"Gondrecourt-le-Château","adresse":"15 place de l'Hôtel-de-Ville , 55130 , Gondrecourt-le-Château , France","codePostal":"55130","region":"Grand Est","departement":"Meuse","departementCode":"55","horaires":"Du Lundi au Jeudi : de 11h00 à 12h00\nLe Vendredi : de 11h00 à 12h00 de 16h00 à 18h00","email":"secretariat@mairie-gondrecourt.fr","telephone":"03 29 89 63 38","latitude":48.512543,"longitude":5.506284,"website":"https://gondrecourt-le-chateau.fr/","url":"https://lannuaire.service-public.gouv.fr/grand-est/meuse/6466d185-d50f-4ed1-babc-588adea5d763"}
{"nom":"Gouraincourt","adresse":"4 rue Maxime , 55230 , Gouraincourt , France","codePostal":"55230","region":"Grand Est","departement":"Meuse","departementCode":"55","horaires":"Le Vendredi : de 09h30 à 12h00","email":"commune-de-gouraincourt@orange.fr","telephone":"03 29 85 97 74","latitude":49.293434,"longitude":5.664253,"website":"","url":"https://lannuaire.service-public.gouv.fr/grand-est/meuse/338c57a9-f195-4ac2-8e19-1eff13f1c002"}
{"nom":"Goussaincourt","adresse":"10 Grande-Rue , 55140 , Goussaincourt , France","codePostal":"55140","region":"Grand Est","departement":"Meuse","departementCode":"55","horaires":"Le Lundi : de 14h00 à 16h30\nLe Mardi : de 14h00 à 16h00","email":"mairie.goussaincourt@orange.fr","telephone":"03 29 90 83 92","latitude":48.484596,"longitude":5.689994,"website":"","url":"https://lannuaire.service-public.gouv.fr/grand-est/meuse/6a3f28ca-e294-48c2-a1b6-3511c94cbbdc"}
{"nom":"Gremilly","adresse":"4 Grande-Rue , 55150 , Gremilly , France","codePostal":"55150","region":"Grand Est","departement":"Meuse","departementCode":"55","horaires":"Le Jeudi : de 17h00 à 19h00","email":"mairie.gremilly55@orange.fr","telephone":"06 76 32 88 43","latitude":49.27695,"longitude":5.477207,"website":"","url":"https://lannuaire.service-public.gouv.fr/grand-est/meuse/2fce177a-ba14-45a9-a609-e269c0144cb7"}
{"nom":"Grimaucourt-en-Woëvre","adresse":"4 rue de la Mairie , 55400 , Grimaucourt-en-Woëvre , France","codePostal":"55400","region":"Grand Est","departement":"Meuse","departementCode":"55","horaires":"Le Mardi : de 13h00 à 16h00\nLe Jeudi : de 08h00 à 12h00","email":"grimaucourtenwoevre@orange.fr","telephone":"03 29 88 35 39","latitude":49.17362,"longitude":5.556628,"website":"","url":"https://lannuaire.service-public.gouv.fr/grand-est/meuse/c6586e7c-91cb-44df-a512-64a084c48cc3"}
{"nom":"Grimaucourt-près-Sampigny","adresse":"30 Grande-Rue , 55500 , Grimaucourt-près-Sampigny , France","codePostal":"55500","region":"Grand Est","departement":"Meuse","departementCode":"55","horaires":"Le Lundi : de 09h15 à 11h30","email":"commune-de-grimaucourt@orange.fr","telephone":"03 29 91 36 04","latitude":48.79223,"longitude":5.468348,"website":"","url":"https://lannuaire.service-public.gouv.fr/grand-est/meuse/4771f744-009f-4867-8b72-698ec25672d7"}
{"nom":"Guerpont","adresse":"13 rue Lauranceau-Bompard , 55000 , Guerpont , France","codePostal":"55000","region":"Grand Est","departement":"Meuse","departementCode":"55","horaires":"Le Mardi : de 17h00 à 19h00","email":"mairie.guerpont@wanadoo.fr","telephone":"03 29 78 88 17","latitude":48.72875,"longitude":5.25778,"website":"","url":"https://lannuaire.service-public.gouv.fr/grand-est/meuse/e9304f47-cea3-4dc9-8cc8-1a70c1451b01"}
{"nom":"Gussainville","adresse":"place de la Liberté , 55400 , Gussainville , France","codePostal":"55400","region":"Grand Est","departement":"Meuse","departementCode":"55","horaires":"Le Vendredi : de 11h00 à 12h00","email":"mairie.gussainville55@gmail.com","telephone":"06 73 70 39 16","latitude":49.21298,"longitude":5.636522,"website":"","url":"https://lannuaire.service-public.gouv.fr/grand-est/meuse/4dc40da4-5ace-4f19-a938-9292988290c0"}
{"nom":"Haironville","adresse":"10 rue de Longeville , 55000 , Haironville , France","codePostal":"55000","region":"Grand Est","departement":"Meuse","departementCode":"55","horaires":"Du Lundi au Mardi : de 16h30 à 18h30\nDu Jeudi au Vendredi : de 16h30 à 18h30","email":"mairie.haironville@wanadoo.fr","telephone":"03 29 70 25 14","latitude":48.686573,"longitude":5.085515,"website":"","url":"https://lannuaire.service-public.gouv.fr/grand-est/meuse/d3e31e6d-e522-4ed6-8593-502b99163147"}
{"nom":"Halles-sous-les-Côtes","adresse":"2 rue de l'École , 55700 , Halles-sous-les-Côtes , France","codePostal":"55700","region":"Grand Est","departement":"Meuse","departementCode":"55","horaires":"Le Mercredi : de 09h00 à 12h00","email":"mairie.hallessouslescotes@orange.fr","telephone":"03 29 80 31 54","latitude":49.4492,"longitude":5.12095,"website":"","url":"https://lannuaire.service-public.gouv.fr/grand-est/meuse/b4fe9af1-909b-4fe2-96a1-95d0c31d5b77"}
{"nom":"Han-lès-Juvigny","adresse":"2 rue du Haut-du-Retour , 55600 , Han-lès-Juvigny , France","codePostal":"55600","region":"Grand Est","departement":"Meuse","departementCode":"55","horaires":"Le Lundi : de 13h00 à 19h00","email":"mairie.hanlesjuvigny@wanadoo.fr","telephone":"03 29 88 12 84","latitude":49.483627,"longitude":5.334579,"website":"","url":"https://lannuaire.service-public.gouv.fr/grand-est/meuse/60db4cde-54dd-450e-ab40-cbd5ffd69b75"}
{"nom":"Hannonville-sous-les-Côtes","adresse":"24 rue Froide , 55210 , Hannonville-sous-les-Côtes , France","codePostal":"55210","region":"Grand Est","departement":"Meuse","departementCode":"55","horaires":"Du Lundi au Mardi : de 10h00 à 12h00 de 13h30 à 15h00\nLe Mercredi : de 10h00 à 12h00\nDu Jeudi au Vendredi : de 10h00 à 12h00 de 13h30 à 15h00\nLe Samedi : de 10h00 à 11h30","email":"mairie55hannonville@gmail.com","telephone":"03 29 87 33 08","latitude":49.040375,"longitude":5.659822,"website":"http://www.mairie-hannonville.com/","url":"https://lannuaire.service-public.gouv.fr/grand-est/meuse/e6149fb9-8591-45fc-b366-5de3bc1d12d9"}
{"nom":"Han-sur-Meuse","adresse":"4 rue Grande , 55300 , Han-sur-Meuse , France","codePostal":"55300","region":"Grand Est","departement":"Meuse","departementCode":"55","horaires":"Le Lundi : de 14h00 à 17h00\nLe Jeudi : de 14h30 à 17h30","email":"mairie.hansurmeuse@orange.fr","telephone":"03 29 90 23 87","latitude":48.864773,"longitude":5.538083,"website":"","url":"https://lannuaire.service-public.gouv.fr/grand-est/meuse/dae2d06e-f6a4-418f-b10a-2b779f73e36d"}
{"nom":"Harville","adresse":"28 route de Metz , 55160 , Harville , France","codePostal":"55160","region":"Grand Est","departement":"Meuse","departementCode":"55","horaires":"Le Lundi : de 17h30 à 19h00\nLe Mercredi : de 08h30 à 13h30\nLe Vendredi : de 08h30 à 10h00","email":"mairie.harville55@wanadoo.fr","telephone":"03 29 87 56 24","latitude":49.09808,"longitude":5.727826,"website":"","url":"https://lannuaire.service-public.gouv.fr/grand-est/meuse/90684620-f16f-49ae-8cf4-3f9b5f685271"}
{"nom":"Haudainville","adresse":"1 rue de Verdun , 55100 , Haudainville , France","codePostal":"55100","region":"Grand Est","departement":"Meuse","departementCode":"55","horaires":"Le Lundi : de 13h30 à 17h00\nLe Mardi : de 10h00 à 12h00 de 13h30 à 17h00\nLe Jeudi : de 10h00 à 12h00 de 13h30 à 17h00\nLe Vendredi : de 13h30 à 17h00","email":"mairie-haudainville@grandverdun.fr","telephone":"03 29 84 62 86","latitude":49.1291,"longitude":5.42112,"website":"https://www.haudainville.fr/","url":"https://lannuaire.service-public.gouv.fr/grand-est/meuse/66d2cc76-fa38-4ac6-a288-7b2c433f36f9"}
{"nom":"Haudiomont","adresse":"23 rue Principale , 55160 , Haudiomont , France","codePostal":"55160","region":"Grand Est","departement":"Meuse","departementCode":"55","horaires":"Le Lundi : de 14h00 à 17h00\nLe Mercredi : de 14h00 à 17h00\nLe Jeudi : de 09h00 à 12h00\nLe Vendredi : de 14h00 à 17h00","email":"mairie.haudiomont@orange.fr","telephone":"03 29 87 30 70","latitude":49.11554,"longitude":5.559229,"website":"","url":"https://lannuaire.service-public.gouv.fr/grand-est/meuse/4bab3c05-cfb4-4e17-a6da-076f460e153e"}
{"nom":"Heippes","adresse":"7 rue de l'Église , 55220 , Heippes , France","codePostal":"55220","region":"Grand Est","departement":"Meuse","departementCode":"55","horaires":"Le Jeudi : de 09h00 à 12h00","email":"commune.de.heippes@wanadoo.fr","telephone":"03 29 80 54 60","latitude":48.99374,"longitude":5.293072,"website":"https://www.heippes.fr/","url":"https://lannuaire.service-public.gouv.fr/grand-est/meuse/7f4f3bc9-e986-4759-ac63-365f84e4553e"}
{"nom":"Hennemont","adresse":"27 bis Grande-Rue , 55160 , Hennemont , France","codePostal":"55160","region":"Grand Est","departement":"Meuse","departementCode":"55","horaires":"Le Mardi : de 14h00 à 17h00\nLe Vendredi : de 09h00 à 12h00","email":"mairie.hennemont55@orange.fr","telephone":"03 29 87 37 60","latitude":49.133434,"longitude":5.667642,"website":"","url":"https://lannuaire.service-public.gouv.fr/grand-est/meuse/a25b1217-9528-4cca-8e45-7482cbbb7f36"}
{"nom":"Herbeuville","adresse":"1 place de la Mairie , 55210 , Herbeuville , France","codePostal":"55210","region":"Grand Est","departement":"Meuse","departementCode":"55","horaires":"Le Mardi : de 17h00 à 18h30","email":"herbeuville.mairie@orange.fr","telephone":"03 29 87 38 13","latitude":49.045765,"longitude":5.636904,"website":"https://www.herbeuville.com/","url":"https://lannuaire.service-public.gouv.fr/grand-est/meuse/d36689ae-2edf-4bdb-abf3-a4764cce8544"}
{"nom":"Herméville-en-Woëvre","adresse":"17 rue Haute , 55400 , Herméville-en-Woëvre , France","codePostal":"55400","region":"Grand Est","departement":"Meuse","departementCode":"55","horaires":"Le Vendredi : de 10h00 à 12h00 de 14h00 à 16h00","email":"commune-hermeville-en-woevre@orange.fr","telephone":"03 29 88 33 90","latitude":49.178974,"longitude":5.592477,"website":"","url":"https://lannuaire.service-public.gouv.fr/grand-est/meuse/07898522-d067-47c7-9b0e-ab2d296b7035"}
{"nom":"Heudicourt-sous-les-Côtes","adresse":"18 rue Charles-de-Gaulle , 55210 , Heudicourt-sous-les-Côtes , France","codePostal":"55210","region":"Grand Est","departement":"Meuse","departementCode":"55","horaires":"Le Lundi : de 13h00 à 19h00\nLe Jeudi : de 08h00 à 12h00","email":"mairie@heudicourt55.fr","telephone":"03 29 90 02 84","latitude":48.9314,"longitude":5.69422,"website":"","url":"https://lannuaire.service-public.gouv.fr/grand-est/meuse/1e0e0659-9380-4def-bc69-cb5c7331d190"}
{"nom":"Hévilliers","adresse":"14 place de la Mairie , 55290 , Hévilliers , France","codePostal":"55290","region":"Grand Est","departement":"Meuse","departementCode":"55","horaires":"Le Lundi : de 14h00 à 17h00\nLe Vendredi : de 09h00 à 11h00","email":"communehevilliers@orange.fr","telephone":"03 29 70 96 18","latitude":48.601585,"longitude":5.33163,"website":"","url":"https://lannuaire.service-public.gouv.fr/grand-est/meuse/13538672-6924-4354-96ed-24d6aa8076d6"}
{"nom":"Horville-en-Ornois","adresse":"3 bis Grande-Rue , 55130 , Horville-en-Ornois , France","codePostal":"55130","region":"Grand Est","departement":"Meuse","departementCode":"55","horaires":"Le Lundi : de 09h00 à 12h00","email":"mairie@horville-en-ornois.fr","telephone":"03 29 89 75 11","latitude":48.490414,"longitude":5.466889,"website":"","url":"https://lannuaire.service-public.gouv.fr/grand-est/meuse/8ca53607-cdf6-4fff-bd66-f401844bdb6f"}
{"nom":"Houdelaincourt","adresse":"15 rue d'Orléans , 55130 , Houdelaincourt , France","codePostal":"55130","region":"Grand Est","departement":"Meuse","departementCode":"55","horaires":"Le Mardi : de 12h30 à 17h00\nLe Vendredi : de 08h15 à 12h15","email":"mairie.houdelaincourt@wanadoo.fr","telephone":"03 29 89 65 88","latitude":48.5488,"longitude":5.47178,"website":"","url":"https://lannuaire.service-public.gouv.fr/grand-est/meuse/8cbb1216-b3b4-468d-bc09-3dffc882433d"}
{"nom":"Inor","adresse":"17 route Principale , 55700 , Inor , France","codePostal":"55700","region":"Grand Est","departement":"Meuse","departementCode":"55","horaires":"Le Mercredi : de 17h00 à 18h00\nLe Vendredi : de 09h00 à 12h00\n\nAccueil possible sur rendez-vous.","email":"commune.inor@wanadoo.fr","telephone":"03 29 80 41 49","latitude":49.546078,"longitude":5.163406,"website":"","url":"https://lannuaire.service-public.gouv.fr/grand-est/meuse/d1b3ff12-1f88-49dd-9f61-bae1597ffe7e"}
{"nom":"Ippécourt","adresse":"2 bis rue Basse , 55220 , Ippécourt , France","codePostal":"55220","region":"Grand Est","departement":"Meuse","departementCode":"55","horaires":"Le Mardi : de 18h00 à 19h00","email":"mairie.ippecourt55220@orange.fr","telephone":"","latitude":49.03605,"longitude":5.208885,"website":"","url":"https://lannuaire.service-public.gouv.fr/grand-est/meuse/d3d337f1-0ba8-4d7c-a32c-0e509f1c33c1"}
